#------------------------------------------------------------------------------
#
#   Created by  : [OpenWorks] Log Export Utility (LEXP)
#   Created on  : 2016-05-11 12:13:42
#   Project     : CANT971
#   User        : R5K
#   Interpreter : PEP
#
#------------------------------------------------------------------------------
~VERSION INFORMATION
VERS. 2.0 : CWLS Log ASCII Standard - version 2.0
WRAP.  NO : One line per depth step
~WELL INFORMATION
#MNEMONIC   .UNIT                                           VALUE :DESCRIPTION
#------------------------------------------------------------------------------
STRT        .M                                           659.9800 :START DEPTH
STOP        .M                                          2975.8503 :STOP DEPTH
STEP        .M                                             0.1524 :STEP
NULL        .                                           -999.2500 :NULL VALUE
COMP        .                                   PEMEX EXPL & PROD :COMPANY
WELL        .                                                3085 :WELL
FLD         .                                           CANTARELL :FIELD
LOC         .                                             UNKNOWN :LOCATION
CNTY        .                                      CD. DEL CARMEN :COUNTY
STAT        .                                            CAMPECHE :STATE
CTRY        .                                              MEXICO :COUNTRY
SRVC        .                                             UNKNOWN :SERVICE COMPANY
DATE        .                                             UNKNOWN :LOG DATE
UWI         .                                                3085 :UNIQUE WELL ID
XCOORD      .                                       601394.300000 :SURFACE X
YCOORD      .                                      2149880.180000 :SURFACE Y
LAT         .                                           19.441902 :LATITUDE
LON         .                                          -92.034105 :LONGITUDE
ELEV        .M                                            28.0000 :SURFACE ELEV
ELEV_TYPE   .                                                  KB :ELEV TYPE
~CURVE INFORMATION
#MNEMONIC.UNIT        API CODE       : CURVE DESCRIPTION
#------------------------------------------------------------------------------
DEPTH    .M                          : Measured Depth
CALI     .inches      UNKNOWN        : CALI:Import:rC:NONE:v0 (auto-composite)
CGR      .API         UNKNOWN        : CGR:Import:rC:NONE:v0 (auto-composite)
DRHO     .g/cm3       UNKNOWN        : DRHO:Import:rC:NONE:v0 (auto-composite)
DT       .us/ft       UNKNOWN        : DT:Import:rC:NONE:v0 (auto-composite)
GR       .API         UNKNOWN        : GR:Import:rC:NONE:v0 (auto-composite)
ILD      .ohm.m       UNKNOWN        : ILD:Import:rC:NONE:v0 (auto-composite)
ILM      .ohm.m       UNKNOWN        : ILM:Import:rC:NONE:v0 (auto-composite)
LLD      .ohm.m       UNKNOWN        : LLD:Import:rC:NONE:v0 (auto-composite)
LLS      .ohm.m       UNKNOWN        : LLS:Import:rC:NONE:v0 (auto-composite)
MSFL     .ohm.m       UNKNOWN        : MSFL:Import:rC:NONE:v0 (auto-composite)
NPHI     .v/v_decimal UNKNOWN        : NPHI:Import:rC:NONE:v0 (auto-composite)
PEF      .b/elec      UNKNOWN        : PEF:Import:rC:NONE:v0 (auto-composite)
POTA     .wtpercent   UNKNOWN        : POTA:Import:rC:NONE:v0 (auto-composite)
RHOB     .g/cm3       UNKNOWN        : RHOB:Import:rC:NONE:v0 (auto-composite)
SP       .mV          UNKNOWN        : SP:Import:rC:NONE:v0 (auto-composite)
THOR     .ppm         UNKNOWN        : THOR:Import:rC:NONE:v0 (auto-composite)
URAN     .ppm         UNKNOWN        : URAN:Import:rC:NONE:v0 (auto-composite)
~A     DEPTH         CALI          CGR         DRHO           DT           GR          ILD          ILM          LLD          LLS         MSFL         NPHI          PEF         POTA         RHOB           SP         THOR         URAN
# ...
   2404.1980      11.1040      13.3495       0.0034      54.0507      20.5391    -999.2500    -999.2500     126.6493      70.9812      30.5573       0.1624       2.9827       0.0042       2.4652     -41.6177       1.4947       1.4800
   2404.3503      10.9731      11.9980       0.0023      53.9016      19.9381    -999.2500    -999.2500     125.5864      80.1556      30.9145       0.1612       3.0053       0.0040       2.4657     -38.5965       1.2659       1.4670
   2404.5027      10.9196       9.6416      -0.0002      53.7283      20.4434    -999.2500    -999.2500     130.1524      91.9450      31.9965       0.1641       3.0157       0.0040       2.4682     -33.0359       0.7996       1.3685
   2404.6553      10.9431       8.3201       0.0042      54.1828      19.5120    -999.2500    -999.2500     148.0566      99.1477      34.5426       0.1670       3.0159       0.0037       2.4780     -29.3013       0.6861       1.3781
   2404.8076      11.0013       7.4637       0.0117      54.8748      17.9351    -999.2500    -999.2500     171.9538     104.2895      37.7465       0.1686       3.0114       0.0032       2.4910     -26.3873       0.7313       1.4363
   2404.9600      11.0082       7.8478       0.0095      54.8414      19.0088    -999.2500    -999.2500     176.3511      94.7902      36.9450       0.1607       2.9975       0.0037       2.5207     -26.4775       0.5479       1.4001
   2405.1123      10.9927       8.7749       0.0030      54.3776      21.2429    -999.2500    -999.2500     172.2119      78.8816      34.3901       0.1485       2.9795       0.0047       2.5577     -27.8829       0.2645       1.3227
   2405.2649      10.9599       8.5196       0.0034      54.1255      21.8130    -999.2500    -999.2500     182.7947      66.0213      30.7050       0.1394       2.9709       0.0047       2.5811     -30.7622       0.3102       1.3982
   2405.4172      10.9195       7.7446       0.0069      53.9060      21.6516    -999.2500    -999.2500     199.8487      54.5010      26.5232       0.1332       2.9664       0.0042       2.5986     -34.2893       0.5004       1.5410
   2405.5696      10.9457       7.9671       0.0118      53.3519      23.6459    -999.2500    -999.2500     189.3982      49.1838      23.1475       0.1298       2.9816       0.0037       2.6075     -36.0237       0.6240       1.6020
   2405.7219      11.0017       8.6334       0.0173      52.5704      26.5986    -999.2500    -999.2500     166.7170      46.6249      20.1303       0.1283       3.0056       0.0032       2.6125     -36.9607       0.7180       1.6264
   2405.8743      10.9947      10.0629       0.0152      52.7987      30.5617    -999.2500    -999.2500     142.5535      49.6098      21.4365       0.1296       3.0085       0.0040       2.6074     -35.5169       0.6801       1.7324
   2406.0269      10.9596      11.8333       0.0097      53.3330      34.9759    -999.2500    -999.2500     117.7282      55.0699      24.6729       0.1305       3.0020       0.0055       2.5979     -33.0099       0.5833       1.8748
   2406.1792      10.9379      13.7631       0.0122      53.3539      33.6670    -999.2500    -999.2500      95.9114      82.4386      34.2668       0.1255       2.9662       0.0063       2.6124     -33.5561       0.8636       2.1301
   2406.3315      10.9219      15.7623       0.0182      53.0179      29.8687    -999.2500    -999.2500      75.4033     119.3372      46.6259       0.1162       2.9177       0.0068       2.6374     -35.4303       1.3079       2.4345
   2406.4839      10.9246      14.5734       0.0249      53.0138      25.2257    -999.2500    -999.2500     108.6380     140.5048      75.2034       0.1009       2.8828       0.0067       2.6568     -34.0449       1.0422       2.4199
   2406.6365      10.9356      11.9921       0.0319      53.1118      20.2139    -999.2500    -999.2500     165.3456     154.8016     110.8645       0.0850       2.8539       0.0062       2.6738     -31.2358       0.4665       2.2661
   2406.7888      10.9588       8.5053       0.0295      52.9504      17.4465    -999.2500    -999.2500     265.6173     147.0432     103.8747       0.0748       2.8720       0.0050       2.6828     -31.6530       0.0817       2.1109
   2406.9412      10.9872       4.6185       0.0230      52.6292      15.6707    -999.2500    -999.2500     385.1387     129.5393      78.0389       0.0690       2.9110       0.0035       2.6883     -33.4957      -0.2187       1.9549
   2407.0935      10.9797       2.2650       0.0196      52.2510      16.7715    -999.2500    -999.2500     344.2271     113.6760      64.9975       0.0694       2.9594       0.0023       2.6734     -35.2955      -0.1853       1.9454
   2407.2461      10.9562       0.5917       0.0176      51.8665      19.1485    -999.2500    -999.2500     232.1365      98.5405      57.6327       0.0724       3.0118       0.0013       2.6494     -37.0762      -0.0039       2.0009
   2407.3984      10.9732       2.8808       0.0187      51.9423      19.1660    -999.2500    -999.2500     178.5939      91.1196      53.8800       0.0749       3.0076       0.0017       2.6379     -35.0100       0.3224       1.8168
   2407.5508      11.0082       6.9350       0.0212      52.2155      18.1324    -999.2500    -999.2500     151.1328      87.1353      51.7365       0.0772       2.9781       0.0027       2.6319     -31.2302       0.7132       1.5259
   2407.7031      11.0270       7.8169       0.0189      52.4266      18.6102    -999.2500    -999.2500     147.5133      90.1874      48.5685       0.0807       2.9444       0.0033       2.6283     -27.7905       0.7488       1.4080
   2407.8555      11.0385       7.2799       0.0144      52.5909      19.7640    -999.2500    -999.2500     154.5577      96.3866      44.9424       0.0863       2.9089       0.0038       2.6258     -24.5030       0.6256       1.3674
   2408.0081      11.0260       7.6988       0.0168      52.5903      19.5937    -999.2500    -999.2500     162.4315      98.8816      48.7565       0.0988       2.9324       0.0040       2.6128     -24.7155       0.5224       1.3828
   2408.1604      11.0030       8.5374       0.0223      52.5253      18.8420    -999.2500    -999.2500     170.6694      99.7502      55.8375       0.1125       2.9819       0.0040       2.5954     -26.4648       0.4279       1.4228
   2408.3127      11.0525       8.3680       0.0191      52.4451      21.3779    -999.2500    -999.2500     162.9436     102.9758      49.3539       0.1164       3.0237       0.0040       2.5872     -27.8457       0.3605       1.4229
   2408.4651      11.1340       7.7543       0.0121      52.3571      25.3632    -999.2500    -999.2500     148.1800     107.2405      36.8902       0.1138       3.0622       0.0040       2.5832     -29.0641       0.3050       1.4054
   2408.6177      11.1147       9.4821       0.0083      52.2584      27.0963    -999.2500    -999.2500     182.8864     138.0732      35.8295       0.1114       3.0532       0.0047       2.5986     -28.1170       0.4370       1.5070
   2408.7700      11.0507      12.2464       0.0058      52.1664      27.8325    -999.2500    -999.2500     239.4910     180.6663      39.8163       0.1073       3.0232       0.0057       2.6226     -26.2114       0.6519       1.6615
   2408.9224      11.0597      11.2235       0.0119      52.1423      28.2813    -999.2500    -999.2500     405.7370     264.9808      67.4640       0.0958       3.0171       0.0046       2.6452     -28.7365       0.8411       2.0039
   2409.0747      11.1011       8.5173       0.0219      52.1637      28.6024    -999.2500    -999.2500     620.7134     367.8384     105.6280       0.0791       3.0216       0.0026       2.6672     -33.2310       1.0189       2.4299
   2409.2273      11.1509       7.9076       0.0371      52.2843      23.4363    -999.2500    -999.2500     697.9706     411.0288     141.0438       0.0716       3.0275       0.0020       2.6778     -33.9786       0.9068       2.5682
   2409.3796      11.2044       8.2405       0.0546      52.4483      15.8031    -999.2500    -999.2500     713.3070     427.3917     175.2241       0.0708       3.0340       0.0020       2.6833     -33.0415       0.6644       2.5772
