#------------------------------------------------------------------------------
#
#   Created by  : [OpenWorks] Log Export Utility (LEXP)
#   Created on  : 2016-05-11 12:13:42
#   Project     : CANT971
#   User        : R5K
#   Interpreter : PEP
#
#------------------------------------------------------------------------------
~VERSION INFORMATION
VERS. 2.0 : CWLS Log ASCII Standard - version 2.0
WRAP.  NO : One line per depth step
~WELL INFORMATION
#MNEMONIC   .UNIT                                           VALUE :DESCRIPTION
#------------------------------------------------------------------------------
STRT        .M                                           659.9800 :START DEPTH
STOP        .M                                          2975.8503 :STOP DEPTH
STEP        .M                                             0.1524 :STEP
NULL        .                                           -999.2500 :NULL VALUE
COMP        .                                   PEMEX EXPL & PROD :COMPANY
WELL        .                                                3085 :WELL
FLD         .                                           CANTARELL :FIELD
LOC         .                                             UNKNOWN :LOCATION
CNTY        .                                      CD. DEL CARMEN :COUNTY
STAT        .                                            CAMPECHE :STATE
CTRY        .                                              MEXICO :COUNTRY
SRVC        .                                             UNKNOWN :SERVICE COMPANY
DATE        .                                             UNKNOWN :LOG DATE
UWI         .                                                3085 :UNIQUE WELL ID
XCOORD      .                                       601394.300000 :SURFACE X
YCOORD      .                                      2149880.180000 :SURFACE Y
LAT         .                                           19.441902 :LATITUDE
LON         .                                          -92.034105 :LONGITUDE
ELEV        .M                                            28.0000 :SURFACE ELEV
ELEV_TYPE   .                                                  KB :ELEV TYPE
~CURVE INFORMATION
#MNEMONIC.UNIT        API CODE       : CURVE DESCRIPTION
#------------------------------------------------------------------------------
DEPTH    .M                          : Measured Depth
CALI     .inches      UNKNOWN        : CALI:Import:rC:NONE:v0 (auto-composite)
CGR      .API         UNKNOWN        : CGR:Import:rC:NONE:v0 (auto-composite)
DRHO     .g/cm3       UNKNOWN        : DRHO:Import:rC:NONE:v0 (auto-composite)
DT       .us/ft       UNKNOWN        : DT:Import:rC:NONE:v0 (auto-composite)
GR       .API         UNKNOWN        : GR:Import:rC:NONE:v0 (auto-composite)
ILD      .ohm.m       UNKNOWN        : ILD:Import:rC:NONE:v0 (auto-composite)
ILM      .ohm.m       UNKNOWN        : ILM:Import:rC:NONE:v0 (auto-composite)
LLD      .ohm.m       UNKNOWN        : LLD:Import:rC:NONE:v0 (auto-composite)
LLS      .ohm.m       UNKNOWN        : LLS:Import:rC:NONE:v0 (auto-composite)
MSFL     .ohm.m       UNKNOWN        : MSFL:Import:rC:NONE:v0 (auto-composite)
NPHI     .v/v_decimal UNKNOWN        : NPHI:Import:rC:NONE:v0 (auto-composite)
PEF      .b/elec      UNKNOWN        : PEF:Import:rC:NONE:v0 (auto-composite)
POTA     .wtpercent   UNKNOWN        : POTA:Import:rC:NONE:v0 (auto-composite)
RHOB     .g/cm3       UNKNOWN        : RHOB:Import:rC:NONE:v0 (auto-composite)
SP       .mV          UNKNOWN        : SP:Import:rC:NONE:v0 (auto-composite)
THOR     .ppm         UNKNOWN        : THOR:Import:rC:NONE:v0 (auto-composite)
URAN     .ppm         UNKNOWN        : URAN:Import:rC:NONE:v0 (auto-composite)
~A     DEPTH         CALI          CGR         DRHO           DT           GR          ILD          ILM          LLD          LLS         MSFL         NPHI          PEF         POTA         RHOB           SP         THOR         URAN
# ...
   2969.6021       8.6024      37.3160    -999.2500    -999.2500      80.9110    -999.2500    -999.2500     178.5701     161.4227      83.5066    -999.2500    -999.2500      -0.0070    -999.2500    -999.2500      11.9840       5.5240
   2969.7544       8.6574      37.3160    -999.2500    -999.2500      80.9110    -999.2500    -999.2500     136.3098     126.4837      43.3422    -999.2500    -999.2500      -0.0070    -999.2500    -999.2500      11.9840       5.5240
   2969.9067       8.6820      37.3160    -999.2500    -999.2500      80.9110    -999.2500    -999.2500     102.5342      97.9772      36.7248    -999.2500    -999.2500      -0.0070    -999.2500    -999.2500      11.9840       5.5240
   2970.0591       8.5248      37.3160    -999.2500    -999.2500      80.9110    -999.2500    -999.2500      95.6240      92.1450      88.8081    -999.2500    -999.2500      -0.0070    -999.2500    -999.2500      11.9840       5.5240
   2970.2117       8.3209      37.3160    -999.2500    -999.2500      80.9110    -999.2500    -999.2500      95.6240      92.1450     155.9901    -999.2500    -999.2500      -0.0070    -999.2500    -999.2500      11.9840       5.5240
   2970.3640       8.4742      37.3160    -999.2500    -999.2500      80.9110    -999.2500    -999.2500      95.6240      92.1450     112.7189    -999.2500    -999.2500      -0.0070    -999.2500    -999.2500      11.9840       5.5240
   2970.5164       8.7199      37.3160    -999.2500    -999.2500      80.9110    -999.2500    -999.2500      95.6240      92.1450      40.8865    -999.2500    -999.2500      -0.0070    -999.2500    -999.2500      11.9840       5.5240
   2970.6687       8.8090      37.3160    -999.2500    -999.2500      80.9110    -999.2500    -999.2500      95.6240      92.1450      66.3225    -999.2500    -999.2500      -0.0070    -999.2500    -999.2500      11.9840       5.5240
   2970.8213       8.8570      37.3160    -999.2500    -999.2500      80.9110    -999.2500    -999.2500      95.6240      92.1450     117.2915    -999.2500    -999.2500      -0.0070    -999.2500    -999.2500      11.9840       5.5240
   2970.9736       8.7531      37.3160    -999.2500    -999.2500      80.9110    -999.2500    -999.2500      95.6240      92.1450      82.4578    -999.2500    -999.2500      -0.0070    -999.2500    -999.2500      11.9840       5.5240
   2971.1260       8.6092      37.3160    -999.2500    -999.2500      80.9110    -999.2500    -999.2500      95.6240      92.1450      24.9826    -999.2500    -999.2500      -0.0070    -999.2500    -999.2500      11.9840       5.5240
   2971.2783       8.5600      37.3160    -999.2500    -999.2500      80.9110    -999.2500    -999.2500      95.6240      92.1450      46.1436    -999.2500    -999.2500      -0.0070    -999.2500    -999.2500      11.9840       5.5240
   2971.4307       8.5359      37.3160    -999.2500    -999.2500      80.9110    -999.2500    -999.2500      95.6240      92.1450      88.1635    -999.2500    -999.2500      -0.0070    -999.2500    -999.2500      11.9840       5.5240
   2971.5833       8.5588      37.3160    -999.2500    -999.2500      80.9110    -999.2500    -999.2500      95.6240      92.1450      77.7761    -999.2500    -999.2500      -0.0070    -999.2500    -999.2500      11.9840       5.5240
   2971.7356       8.5938      37.3160    -999.2500    -999.2500      80.9110    -999.2500    -999.2500      95.6240      92.1450      53.9490    -999.2500    -999.2500      -0.0070    -999.2500    -999.2500      11.9840       5.5240
   2971.8879       8.5280      37.3160    -999.2500    -999.2500      80.9110    -999.2500    -999.2500      95.6240      92.1450      39.3961    -999.2500    -999.2500      -0.0070    -999.2500    -999.2500      11.9840       5.5240
   2972.0403       8.4361      37.3160    -999.2500    -999.2500      80.9110    -999.2500    -999.2500      95.6240      92.1450      27.2579    -999.2500    -999.2500      -0.0070    -999.2500    -999.2500      11.9840       5.5240
   2972.1929       8.5236      37.3160    -999.2500    -999.2500      80.9110    -999.2500    -999.2500      95.6240      92.1450      19.9989    -999.2500    -999.2500      -0.0070    -999.2500    -999.2500      11.9840       5.5240
   2972.3452       8.6580      37.3160    -999.2500    -999.2500      80.9110    -999.2500    -999.2500      95.6240      92.1450      14.0170    -999.2500    -999.2500      -0.0070    -999.2500    -999.2500      11.9840       5.5240
   2972.4976       8.5653      37.3160    -999.2500    -999.2500      80.9110    -999.2500    -999.2500      95.6240      92.1450      23.5074    -999.2500    -999.2500      -0.0070    -999.2500    -999.2500      11.9840       5.5240
   2972.6499       8.4129      37.3160    -999.2500    -999.2500      80.9110    -999.2500    -999.2500      95.6240      92.1450      37.0685    -999.2500    -999.2500      -0.0070    -999.2500    -999.2500      11.9840       5.5240
   2972.8025       8.4293      37.3160    -999.2500    -999.2500      80.9110    -999.2500    -999.2500      95.6240      92.1450     124.2283    -999.2500    -999.2500      -0.0070    -999.2500    -999.2500      11.9840       5.5240
   2972.9548       8.4905      37.3160    -999.2500    -999.2500      80.9110    -999.2500    -999.2500      95.6240      92.1450     230.8535    -999.2500    -999.2500      -0.0070    -999.2500    -999.2500      11.9840       5.5240
   2973.1072       8.5233      37.3160    -999.2500    -999.2500      80.9110    -999.2500    -999.2500      95.6240      92.1450     275.3844    -999.2500    -999.2500      -0.0070    -999.2500    -999.2500      11.9840       5.5240
   2973.2595       8.5487      37.3160    -999.2500    -999.2500      80.9110    -999.2500    -999.2500      95.6240      92.1450     303.8821    -999.2500    -999.2500      -0.0070    -999.2500    -999.2500      11.9840       5.5240
   2973.4119       8.4838      37.3160    -999.2500    -999.2500      80.9110    -999.2500    -999.2500      95.6240      92.1450     195.4200    -999.2500    -999.2500      -0.0070    -999.2500    -999.2500      11.9840       5.5240
   2973.5645       8.3953      37.3160    -999.2500    -999.2500      80.9110    -999.2500    -999.2500      95.6240      92.1450      51.4062    -999.2500    -999.2500      -0.0070    -999.2500    -999.2500      11.9840       5.5240
   2973.7168       8.4115      37.3160    -999.2500    -999.2500      80.9110    -999.2500    -999.2500      95.6240      92.1450      50.4014    -999.2500    -999.2500      -0.0070    -999.2500    -999.2500      11.9840       5.5240
   2973.8691       8.4550      37.3160    -999.2500    -999.2500      80.9110    -999.2500    -999.2500      95.6240      92.1450      86.7147    -999.2500    -999.2500      -0.0070    -999.2500    -999.2500      11.9840       5.5240
   2974.0215       8.4901      37.3160    -999.2500    -999.2500      80.9110    -999.2500    -999.2500      95.6240      92.1450      67.8894    -999.2500    -999.2500      -0.0070    -999.2500    -999.2500      11.9840       5.5240
   2974.1741       8.5231      37.3160    -999.2500    -999.2500      80.9110    -999.2500    -999.2500      95.6240      92.1450      34.6000    -999.2500    -999.2500      -0.0070    -999.2500    -999.2500      11.9840       5.5240
   2974.3264       8.4631      37.3160    -999.2500    -999.2500      80.9110    -999.2500    -999.2500      95.6240      92.1450      23.6416    -999.2500    -999.2500      -0.0070    -999.2500    -999.2500      11.9840       5.5240
   2974.4788       8.3783      37.3160    -999.2500    -999.2500      80.9110    -999.2500    -999.2500      95.6240      92.1450      18.6292    -999.2500    -999.2500      -0.0070    -999.2500    -999.2500      11.9840       5.5240
   2974.6311       8.3085      37.3160    -999.2500    -999.2500      80.9110    -999.2500    -999.2500      95.6240      92.1450      33.5651    -999.2500    -999.2500      -0.0070    -999.2500    -999.2500      11.9840       5.5240
   2974.7837       8.2426      37.3160    -999.2500    -999.2500      80.9110    -999.2500    -999.2500      95.6240      92.1450      53.6364    -999.2500    -999.2500      -0.0070    -999.2500    -999.2500      11.9840       5.5240
