#------------------------------------------------------------------------------
#
#   Created by  : [OpenWorks] Log Export Utility (LEXP)
#   Created on  : 2016-05-11 12:13:42
#   Project     : CANT971
#   User        : R5K
#   Interpreter : PEP
#
#------------------------------------------------------------------------------
~VERSION INFORMATION
VERS. 2.0 : CWLS Log ASCII Standard - version 2.0
WRAP.  NO : One line per depth step
~WELL INFORMATION
#MNEMONIC   .UNIT                                           VALUE :DESCRIPTION
#------------------------------------------------------------------------------
STRT        .M                                           659.9800 :START DEPTH
STOP        .M                                          2975.8503 :STOP DEPTH
STEP        .M                                             0.1524 :STEP
NULL        .                                           -999.2500 :NULL VALUE
COMP        .                                   PEMEX EXPL & PROD :COMPANY
WELL        .                                                3085 :WELL
FLD         .                                           CANTARELL :FIELD
LOC         .                                             UNKNOWN :LOCATION
CNTY        .                                      CD. DEL CARMEN :COUNTY
STAT        .                                            CAMPECHE :STATE
CTRY        .                                              MEXICO :COUNTRY
SRVC        .                                             UNKNOWN :SERVICE COMPANY
DATE        .                                             UNKNOWN :LOG DATE
UWI         .                                                3085 :UNIQUE WELL ID
XCOORD      .                                       601394.300000 :SURFACE X
YCOORD      .                                      2149880.180000 :SURFACE Y
LAT         .                                           19.441902 :LATITUDE
LON         .                                          -92.034105 :LONGITUDE
ELEV        .M                                            28.0000 :SURFACE ELEV
ELEV_TYPE   .                                                  KB :ELEV TYPE
~CURVE INFORMATION
#MNEMONIC.UNIT        API CODE       : CURVE DESCRIPTION
#------------------------------------------------------------------------------
DEPTH    .M                          : Measured Depth
CALI     .inches      UNKNOWN        : CALI:Import:rC:NONE:v0 (auto-composite)
CGR      .API         UNKNOWN        : CGR:Import:rC:NONE:v0 (auto-composite)
DRHO     .g/cm3       UNKNOWN        : DRHO:Import:rC:NONE:v0 (auto-composite)
DT       .us/ft       UNKNOWN        : DT:Import:rC:NONE:v0 (auto-composite)
GR       .API         UNKNOWN        : GR:Import:rC:NONE:v0 (auto-composite)
ILD      .ohm.m       UNKNOWN        : ILD:Import:rC:NONE:v0 (auto-composite)
ILM      .ohm.m       UNKNOWN        : ILM:Import:rC:NONE:v0 (auto-composite)
LLD      .ohm.m       UNKNOWN        : LLD:Import:rC:NONE:v0 (auto-composite)
LLS      .ohm.m       UNKNOWN        : LLS:Import:rC:NONE:v0 (auto-composite)
MSFL     .ohm.m       UNKNOWN        : MSFL:Import:rC:NONE:v0 (auto-composite)
NPHI     .v/v_decimal UNKNOWN        : NPHI:Import:rC:NONE:v0 (auto-composite)
PEF      .b/elec      UNKNOWN        : PEF:Import:rC:NONE:v0 (auto-composite)
POTA     .wtpercent   UNKNOWN        : POTA:Import:rC:NONE:v0 (auto-composite)
RHOB     .g/cm3       UNKNOWN        : RHOB:Import:rC:NONE:v0 (auto-composite)
SP       .mV          UNKNOWN        : SP:Import:rC:NONE:v0 (auto-composite)
THOR     .ppm         UNKNOWN        : THOR:Import:rC:NONE:v0 (auto-composite)
URAN     .ppm         UNKNOWN        : URAN:Import:rC:NONE:v0 (auto-composite)
~A     DEPTH         CALI          CGR         DRHO           DT           GR          ILD          ILM          LLD          LLS         MSFL         NPHI          PEF         POTA         RHOB           SP         THOR         URAN
# ...
   2292.1841      11.6453    -999.2500       0.0494    -999.2500      55.2446    -999.2500    -999.2500     604.9410     365.7438      76.6080       0.0972       3.0365    -999.2500       2.5951     -21.7962    -999.2500    -999.2500
   2292.3364      11.5754    -999.2500       0.0529    -999.2500      52.7682    -999.2500    -999.2500     794.1367     437.2437     142.6665       0.1076       3.0315    -999.2500       2.6456     -23.3878    -999.2500    -999.2500
   2292.4888      11.5290    -999.2500       0.0498    -999.2500      53.5695    -999.2500    -999.2500     815.1331     443.3171     213.8043       0.1146       3.0227    -999.2500       2.6867     -23.0514    -999.2500    -999.2500
   2292.6411      11.4930    -999.2500       0.0438    -999.2500      55.8170    -999.2500    -999.2500     761.9161     420.5230     287.1831       0.1134       3.0122    -999.2500       2.7236     -21.8644    -999.2500    -999.2500
   2292.7937      11.5059    -999.2500       0.0340    -999.2500      58.5369    -999.2500    -999.2500     781.9426     427.7865     265.9436       0.0905       2.9868    -999.2500       2.7156     -21.1322    -999.2500    -999.2500
   2292.9460      11.5404    -999.2500       0.0225    -999.2500      61.4662    -999.2500    -999.2500     834.4174     448.3661     202.7864       0.0543       2.9548    -999.2500       2.6876     -20.6014    -999.2500    -999.2500
   2293.0984      11.5659    -999.2500       0.0225    -999.2500      59.5680    -999.2500    -999.2500     908.7117     477.1768     175.8977       0.0414       2.9588    -999.2500       2.6863     -21.0211    -999.2500    -999.2500
   2293.2507      11.5873    -999.2500       0.0275    -999.2500      55.5225    -999.2500    -999.2500     992.7117     509.6487     165.1419       0.0403       2.9788    -999.2500       2.6967     -21.8636    -999.2500    -999.2500
   2293.4031      11.5698    -999.2500       0.0273    -999.2500      57.5555    -999.2500    -999.2500    1142.3154     553.6763     192.2916       0.0366       2.9981    -999.2500       2.7111     -22.7519    -999.2500    -999.2500
   2293.5557      11.5347    -999.2500       0.0248    -999.2500      62.3237    -999.2500    -999.2500    1321.4399     602.9038     236.4981       0.0311       3.0172    -999.2500       2.7271     -23.6609    -999.2500    -999.2500
   2293.7080      11.5424    -999.2500       0.0257    -999.2500      68.8137    -999.2500    -999.2500    1285.4745     579.1152     231.5573       0.0268       3.0310    -999.2500       2.7376     -24.6760    -999.2500    -999.2500
   2293.8604      11.5689    -999.2500       0.0282    -999.2500      76.0586    -999.2500    -999.2500    1155.2087     523.3148     205.0693       0.0240       3.0425    -999.2500       2.7456     -25.7375    -999.2500    -999.2500
   2294.0127      11.6051    -999.2500       0.0259    -999.2500      73.6788    -999.2500    -999.2500    1135.4637     476.1917     267.4888       0.0237       3.0797    -999.2500       2.7379     -26.1272    -999.2500    -999.2500
   2294.1653      11.6456    -999.2500       0.0214    -999.2500      67.0621    -999.2500    -999.2500    1164.3712     432.8884     369.0464       0.0247       3.1281    -999.2500       2.7234     -26.2212    -999.2500    -999.2500
   2294.3176      11.6057    -999.2500       0.0300    -999.2500      62.3515    -999.2500    -999.2500    1084.9418     367.0694     327.1664       0.0247       3.1676    -999.2500       2.7218     -27.3322    -999.2500    -999.2500
   2294.4700      11.5303    -999.2500       0.0445    -999.2500      58.4832    -999.2500    -999.2500     957.6268     291.2983     221.8862       0.0244       3.2030    -999.2500       2.7258     -28.8928    -999.2500    -999.2500
   2294.6223      11.5440    -999.2500       0.0480    -999.2500      56.2264    -999.2500    -999.2500     924.6457     258.0088     162.1294       0.0269       3.1663    -999.2500       2.7046     -30.1303    -999.2500    -999.2500
   2294.7749      11.5974    -999.2500       0.0465    -999.2500      54.6900    -999.2500    -999.2500     933.8463     243.7150     122.7284       0.0314       3.0974    -999.2500       2.6721     -31.2233    -999.2500    -999.2500
   2294.9272      11.5998    -999.2500       0.0443    -999.2500      52.9299    -999.2500    -999.2500     807.7365     191.7299     120.3301       0.0367       2.9580    -999.2500       2.6655     -31.9298    -999.2500    -999.2500
   2295.0796      11.5793    -999.2500       0.0418    -999.2500      51.0692    -999.2500    -999.2500     620.8775     122.8229     134.5444       0.0425       2.7870    -999.2500       2.6705     -32.4628    -999.2500    -999.2500
   2295.2319      11.5584    -999.2500       0.0469    -999.2500      51.2801    -999.2500    -999.2500     505.8110      94.8997      99.7917       0.0449       2.7016    -999.2500       2.6605     -33.1465    -999.2500    -999.2500
   2295.3843      11.5374    -999.2500       0.0554    -999.2500      52.3971    -999.2500    -999.2500     422.1476      84.9035      43.6200       0.0478       2.6536    -999.2500       2.6440     -33.8962    -999.2500    -999.2500
   2295.5369      11.6583    -999.2500       0.1166    -999.2500      54.0795    -999.2500    -999.2500     310.3130      70.8979      20.5140       0.0580       2.5391    -999.2500       2.6772     -34.2551    -999.2500    -999.2500
   2295.6892      11.8416    -999.2500       0.2010    -999.2500      56.0101    -999.2500    -999.2500     186.1057      55.1314      11.9306       0.0748       2.3952    -999.2500       2.7321     -34.4424    -999.2500    -999.2500
   2295.8416      12.9766    -999.2500       0.2173    -999.2500      52.4821    -999.2500    -999.2500     130.1598      55.6082       6.5048       0.1113       1.9994    -999.2500       2.4455     -34.2837    -999.2500    -999.2500
   2295.9939      14.5344    -999.2500       0.2033    -999.2500      46.5286    -999.2500    -999.2500     104.5444      63.3023       2.4820       0.1698       1.4917    -999.2500       2.0072     -33.9714    -999.2500    -999.2500
   2296.1465      18.2315    -999.2500       0.1596    -999.2500      38.8904    -999.2500    -999.2500     106.8735      69.1147       1.1449       0.2774       1.1847    -999.2500       1.6031     -33.7022    -999.2500    -999.2500
   2296.2988      22.8830    -999.2500       0.1026    -999.2500      30.5005    -999.2500    -999.2500     121.6696      74.0876       1.0060       0.4080       0.9673    -999.2500       1.2143     -33.4523    -999.2500    -999.2500
   2296.4512      24.3390    -999.2500       0.0673    -999.2500      25.7782    -999.2500    -999.2500     160.2692      77.8875       1.0111       0.4997       0.9627    -999.2500       1.1768     -33.1371    -999.2500    -999.2500
   2296.6035      24.3635    -999.2500       0.0418    -999.2500      22.6986    -999.2500    -999.2500     209.5312      81.1621       1.0808       0.5598       1.0534    -999.2500       1.2966     -32.7927    -999.2500    -999.2500
   2296.7559      24.3630    -999.2500       0.0194    -999.2500      25.1927    -999.2500    -999.2500     303.6859      81.4818       1.4236       0.5870       1.4878    -999.2500       1.4742     -32.1011    -999.2500    -999.2500
   2296.9084      24.3515    -999.2500      -0.0016    -999.2500      30.1191    -999.2500    -999.2500     417.4322      80.5120       1.8855       0.5851       2.0720    -999.2500       1.6769     -31.2582    -999.2500    -999.2500
   2297.0608      21.4728    -999.2500       0.0125    -999.2500      37.1871    -999.2500    -999.2500     521.4849     105.3041       7.0504       0.5353       2.4982    -999.2500       1.9599     -31.1948    -999.2500    -999.2500
   2297.2131      17.3280    -999.2500       0.0419    -999.2500      45.2006    -999.2500    -999.2500     621.2579     141.4705      14.2918       0.4523       2.8545    -999.2500       2.2782     -31.4757    -999.2500    -999.2500
   2297.3655      14.6931    -999.2500       0.0569    -999.2500      50.1431    -999.2500    -999.2500     588.8455     165.5370      55.5825       0.3165       3.0014    -999.2500       2.4837     -31.2808    -999.2500    -999.2500
