#------------------------------------------------------------------------------
#
#   Created by  : [OpenWorks] Log Export Utility (LEXP)
#   Created on  : 2016-05-11 12:13:42
#   Project     : CANT971
#   User        : R5K
#   Interpreter : PEP
#
#------------------------------------------------------------------------------
~VERSION INFORMATION
VERS. 2.0 : CWLS Log ASCII Standard - version 2.0
WRAP.  NO : One line per depth step
~WELL INFORMATION
#MNEMONIC   .UNIT                                           VALUE :DESCRIPTION
#------------------------------------------------------------------------------
STRT        .M                                           659.9800 :START DEPTH
STOP        .M                                          2975.8503 :STOP DEPTH
STEP        .M                                             0.1524 :STEP
NULL        .                                           -999.2500 :NULL VALUE
COMP        .                                   PEMEX EXPL & PROD :COMPANY
WELL        .                                                3085 :WELL
FLD         .                                           CANTARELL :FIELD
LOC         .                                             UNKNOWN :LOCATION
CNTY        .                                      CD. DEL CARMEN :COUNTY
STAT        .                                            CAMPECHE :STATE
CTRY        .                                              MEXICO :COUNTRY
SRVC        .                                             UNKNOWN :SERVICE COMPANY
DATE        .                                             UNKNOWN :LOG DATE
UWI         .                                                3085 :UNIQUE WELL ID
XCOORD      .                                       601394.300000 :SURFACE X
YCOORD      .                                      2149880.180000 :SURFACE Y
LAT         .                                           19.441902 :LATITUDE
LON         .                                          -92.034105 :LONGITUDE
ELEV        .M                                            28.0000 :SURFACE ELEV
ELEV_TYPE   .                                                  KB :ELEV TYPE
~CURVE INFORMATION
#MNEMONIC.UNIT        API CODE       : CURVE DESCRIPTION
#------------------------------------------------------------------------------
DEPTH    .M                          : Measured Depth
CALI     .inches      UNKNOWN        : CALI:Import:rC:NONE:v0 (auto-composite)
CGR      .API         UNKNOWN        : CGR:Import:rC:NONE:v0 (auto-composite)
DRHO     .g/cm3       UNKNOWN        : DRHO:Import:rC:NONE:v0 (auto-composite)
DT       .us/ft       UNKNOWN        : DT:Import:rC:NONE:v0 (auto-composite)
GR       .API         UNKNOWN        : GR:Import:rC:NONE:v0 (auto-composite)
ILD      .ohm.m       UNKNOWN        : ILD:Import:rC:NONE:v0 (auto-composite)
ILM      .ohm.m       UNKNOWN        : ILM:Import:rC:NONE:v0 (auto-composite)
LLD      .ohm.m       UNKNOWN        : LLD:Import:rC:NONE:v0 (auto-composite)
LLS      .ohm.m       UNKNOWN        : LLS:Import:rC:NONE:v0 (auto-composite)
MSFL     .ohm.m       UNKNOWN        : MSFL:Import:rC:NONE:v0 (auto-composite)
NPHI     .v/v_decimal UNKNOWN        : NPHI:Import:rC:NONE:v0 (auto-composite)
PEF      .b/elec      UNKNOWN        : PEF:Import:rC:NONE:v0 (auto-composite)
POTA     .wtpercent   UNKNOWN        : POTA:Import:rC:NONE:v0 (auto-composite)
RHOB     .g/cm3       UNKNOWN        : RHOB:Import:rC:NONE:v0 (auto-composite)
SP       .mV          UNKNOWN        : SP:Import:rC:NONE:v0 (auto-composite)
THOR     .ppm         UNKNOWN        : THOR:Import:rC:NONE:v0 (auto-composite)
URAN     .ppm         UNKNOWN        : URAN:Import:rC:NONE:v0 (auto-composite)
~A     DEPTH         CALI          CGR         DRHO           DT           GR          ILD          ILM          LLD          LLS         MSFL         NPHI          PEF         POTA         RHOB           SP         THOR         URAN
# ...
   2910.9280       8.6835      53.4984    -999.2500    -999.2500     142.6944    -999.2500    -999.2500     464.6307     500.9185     510.9959    -999.2500    -999.2500       0.0212    -999.2500    -999.2500       4.8877      12.2979
   2911.0803       8.6616      58.5581    -999.2500    -999.2500     122.2601    -999.2500    -999.2500     632.5732     684.1771     678.3636    -999.2500    -999.2500       0.0252    -999.2500    -999.2500       5.1264      12.9546
   2911.2327       8.6867      55.5771    -999.2500    -999.2500     112.9752    -999.2500    -999.2500     725.8213     785.4337     966.2193    -999.2500    -999.2500       0.0248    -999.2500    -999.2500       4.2490      11.3487
   2911.3853       8.7242      50.4883    -999.2500    -999.2500     106.6129    -999.2500    -999.2500     799.4890     865.1942    1285.6598    -999.2500    -999.2500       0.0233    -999.2500    -999.2500       3.0790       9.1496
   2911.5376       8.7019      49.2280    -999.2500    -999.2500      99.9338    -999.2500    -999.2500     762.0673     824.5099    1051.8109    -999.2500    -999.2500       0.0218    -999.2500    -999.2500       3.2234       8.0783
   2911.6899       8.6640      48.9766    -999.2500    -999.2500      93.1712    -999.2500    -999.2500     695.3716     752.0862     672.1604    -999.2500    -999.2500       0.0203    -999.2500    -999.2500       3.7142       7.3041
   2911.8423       8.6948      45.2911    -999.2500    -999.2500      89.9522    -999.2500    -999.2500     755.3786     800.0663     995.5928    -999.2500    -999.2500       0.0188    -999.2500    -999.2500       3.4630       6.9228
   2911.9949       8.7440      40.6959    -999.2500    -999.2500      87.6719    -999.2500    -999.2500     848.9490     879.9412    1505.2706    -999.2500    -999.2500       0.0173    -999.2500    -999.2500       3.0153       6.6455
   2912.1472       8.7162      38.5293    -999.2500    -999.2500      94.2432    -999.2500    -999.2500     895.3486     916.6186    1664.0465    -999.2500    -999.2500       0.0166    -999.2500    -999.2500       2.7904       6.5154
   2912.2996       8.6688      36.9847    -999.2500    -999.2500     103.0813    -999.2500    -999.2500     929.6683     942.2335    1732.9601    -999.2500    -999.2500       0.0161    -999.2500    -999.2500       2.6226       6.4231
   2912.4519       8.6419      41.6159    -999.2500    -999.2500      98.6287    -999.2500    -999.2500    1069.2463    1085.3687    1168.4049    -999.2500    -999.2500       0.0180    -999.2500    -999.2500       3.0081       6.6666
   2912.6045       8.6205      47.8527    -999.2500    -999.2500      90.7206    -999.2500    -999.2500    1236.1908    1259.0581     439.1528    -999.2500    -999.2500       0.0205    -999.2500    -999.2500       3.5373       6.9974
   2912.7568       8.6330      46.5890    -999.2500    -999.2500      85.2351    -999.2500    -999.2500    2372.6204    2286.7791     917.7037    -999.2500    -999.2500       0.0202    -999.2500    -999.2500       3.3233       6.5953
   2912.9092       8.6545      43.3648    -999.2500    -999.2500      80.3827    -999.2500    -999.2500    3762.4392    3537.7139    1711.9316    -999.2500    -999.2500       0.0192    -999.2500    -999.2500       2.9150       6.0015
   2913.0615       8.6329      40.0384    -999.2500    -999.2500      90.9225    -999.2500    -999.2500    4234.9937    4060.9863    1814.1099    -999.2500    -999.2500       0.0182    -999.2500    -999.2500       2.5445       5.7281
   2913.2139       8.5999      36.6850    -999.2500    -999.2500     105.5065    -999.2500    -999.2500    4466.5454    4393.0723    1734.4585    -999.2500    -999.2500       0.0172    -999.2500    -999.2500       2.1839       5.5388
   2913.3665       8.6243      44.3389    -999.2500    -999.2500     102.3340    -999.2500    -999.2500    3195.2358    3163.0623    1124.7006    -999.2500    -999.2500       0.0198    -999.2500    -999.2500       2.9286       5.9043
   2913.5188       8.6639      54.9283    -999.2500    -999.2500      94.4261    -999.2500    -999.2500    1523.1361    1516.4652     373.5714    -999.2500    -999.2500       0.0233    -999.2500    -999.2500       3.9679       6.4178
   2913.6711       8.6505      52.9036    -999.2500    -999.2500      81.3734    -999.2500    -999.2500    1302.0037    1289.8407     845.0099    -999.2500    -999.2500       0.0224    -999.2500    -999.2500       3.8766       6.2604
   2913.8235       8.6236      47.6264    -999.2500    -999.2500      66.9941    -999.2500    -999.2500    1455.0046    1429.3575    1631.6886    -999.2500    -999.2500       0.0204    -999.2500    -999.2500       3.4938       5.9300
   2913.9761       8.6478      39.8336    -999.2500    -999.2500      72.7849    -999.2500    -999.2500    2313.2458    2290.1851    1771.9564    -999.2500    -999.2500       0.0164    -999.2500    -999.2500       3.5253       5.2651
   2914.1284       8.6853      31.3887    -999.2500    -999.2500      83.8041    -999.2500    -999.2500    3354.2988    3337.9900    1744.6624    -999.2500    -999.2500       0.0119    -999.2500    -999.2500       3.6643       4.5134
   2914.2808       8.6593      34.1829    -999.2500    -999.2500      94.9308    -999.2500    -999.2500    2950.0100    2968.7920    1515.8169    -999.2500    -999.2500       0.0134    -999.2500    -999.2500       3.3670       4.8892
   2914.4331       8.6169      39.9058    -999.2500    -999.2500     106.0856    -999.2500    -999.2500    2169.0791    2230.3369    1234.4492    -999.2500    -999.2500       0.0164    -999.2500    -999.2500       2.9560       5.5589
   2914.5857       8.6341      46.1751    -999.2500    -999.2500      98.3950    -999.2500    -999.2500    1886.5115    1940.4988    1451.7523    -999.2500    -999.2500       0.0194    -999.2500    -999.2500       3.3059       6.1753
   2914.7380       8.6671      52.5888    -999.2500    -999.2500      85.7195    -999.2500    -999.2500    1735.7711    1769.3292    1800.9640    -999.2500    -999.2500       0.0224    -999.2500    -999.2500       3.8572       6.7775
   2914.8904       8.6938      46.4166    -999.2500    -999.2500      78.9319    -999.2500    -999.2500    2032.8632    2017.2859    1790.0460    -999.2500    -999.2500       0.0186    -999.2500    -999.2500       4.1132       6.9123
   2915.0427       8.7189      36.8977    -999.2500    -999.2500      73.7099    -999.2500    -999.2500    2449.0352    2376.6897    1683.3683    -999.2500    -999.2500       0.0131    -999.2500    -999.2500       4.2907       6.9228
   2915.1951       8.6656      33.9169    -999.2500    -999.2500      80.6249    -999.2500    -999.2500    2486.2791    2406.5315    1462.2349    -999.2500    -999.2500       0.0132    -999.2500    -999.2500       3.6169       6.2018
   2915.3477       8.5921      32.6170    -999.2500    -999.2500      90.6601    -999.2500    -999.2500    2426.1074    2351.6492    1211.6770    -999.2500    -999.2500       0.0147    -999.2500    -999.2500       2.7243       5.2927
   2915.5000       8.5873      34.4075    -999.2500    -999.2500      90.8016    -999.2500    -999.2500    2799.9199    2696.7969    1461.7397    -999.2500    -999.2500       0.0154    -999.2500    -999.2500       2.6926       5.8548
   2915.6523       8.6003      36.9968    -999.2500    -999.2500      88.3860    -999.2500    -999.2500    3285.8943    3145.3315    1841.1864    -999.2500    -999.2500       0.0159    -999.2500    -999.2500       2.8834       6.7971
   2915.8047       8.6228      35.7906    -999.2500    -999.2500      94.4316    -999.2500    -999.2500    4468.3135    4211.8789    1882.5198    -999.2500    -999.2500       0.0152    -999.2500    -999.2500       2.7306       7.0274
   2915.9573       8.6478      33.5886    -999.2500    -999.2500     102.6970    -999.2500    -999.2500    5833.4556    5440.5708    1835.1442    -999.2500    -999.2500       0.0142    -999.2500    -999.2500       2.4877       7.0709
   2916.1096       8.6518      37.3464    -999.2500    -999.2500     106.7909    -999.2500    -999.2500    4445.6733    4173.7637    1851.0300    -999.2500    -999.2500       0.0152    -999.2500    -999.2500       2.9064       7.3185
