#------------------------------------------------------------------------------
#
#   Created by  : [OpenWorks] Log Export Utility (LEXP)
#   Created on  : 2016-05-11 12:13:42
#   Project     : CANT971
#   User        : R5K
#   Interpreter : PEP
#
#------------------------------------------------------------------------------
~VERSION INFORMATION
VERS. 2.0 : CWLS Log ASCII Standard - version 2.0
WRAP.  NO : One line per depth step
~WELL INFORMATION
#MNEMONIC   .UNIT                                           VALUE :DESCRIPTION
#------------------------------------------------------------------------------
STRT        .M                                           659.9800 :START DEPTH
STOP        .M                                          2975.8503 :STOP DEPTH
STEP        .M                                             0.1524 :STEP
NULL        .                                           -999.2500 :NULL VALUE
COMP        .                                   PEMEX EXPL & PROD :COMPANY
WELL        .                                                3085 :WELL
FLD         .                                           CANTARELL :FIELD
LOC         .                                             UNKNOWN :LOCATION
CNTY        .                                      CD. DEL CARMEN :COUNTY
STAT        .                                            CAMPECHE :STATE
CTRY        .                                              MEXICO :COUNTRY
SRVC        .                                             UNKNOWN :SERVICE COMPANY
DATE        .                                             UNKNOWN :LOG DATE
UWI         .                                                3085 :UNIQUE WELL ID
XCOORD      .                                       601394.300000 :SURFACE X
YCOORD      .                                      2149880.180000 :SURFACE Y
LAT         .                                           19.441902 :LATITUDE
LON         .                                          -92.034105 :LONGITUDE
ELEV        .M                                            28.0000 :SURFACE ELEV
ELEV_TYPE   .                                                  KB :ELEV TYPE
~CURVE INFORMATION
#MNEMONIC.UNIT        API CODE       : CURVE DESCRIPTION
#------------------------------------------------------------------------------
DEPTH    .M                          : Measured Depth
CALI     .inches      UNKNOWN        : CALI:Import:rC:NONE:v0 (auto-composite)
CGR      .API         UNKNOWN        : CGR:Import:rC:NONE:v0 (auto-composite)
DRHO     .g/cm3       UNKNOWN        : DRHO:Import:rC:NONE:v0 (auto-composite)
DT       .us/ft       UNKNOWN        : DT:Import:rC:NONE:v0 (auto-composite)
GR       .API         UNKNOWN        : GR:Import:rC:NONE:v0 (auto-composite)
ILD      .ohm.m       UNKNOWN        : ILD:Import:rC:NONE:v0 (auto-composite)
ILM      .ohm.m       UNKNOWN        : ILM:Import:rC:NONE:v0 (auto-composite)
LLD      .ohm.m       UNKNOWN        : LLD:Import:rC:NONE:v0 (auto-composite)
LLS      .ohm.m       UNKNOWN        : LLS:Import:rC:NONE:v0 (auto-composite)
MSFL     .ohm.m       UNKNOWN        : MSFL:Import:rC:NONE:v0 (auto-composite)
NPHI     .v/v_decimal UNKNOWN        : NPHI:Import:rC:NONE:v0 (auto-composite)
PEF      .b/elec      UNKNOWN        : PEF:Import:rC:NONE:v0 (auto-composite)
POTA     .wtpercent   UNKNOWN        : POTA:Import:rC:NONE:v0 (auto-composite)
RHOB     .g/cm3       UNKNOWN        : RHOB:Import:rC:NONE:v0 (auto-composite)
SP       .mV          UNKNOWN        : SP:Import:rC:NONE:v0 (auto-composite)
THOR     .ppm         UNKNOWN        : THOR:Import:rC:NONE:v0 (auto-composite)
URAN     .ppm         UNKNOWN        : URAN:Import:rC:NONE:v0 (auto-composite)
~A     DEPTH         CALI          CGR         DRHO           DT           GR          ILD          ILM          LLD          LLS         MSFL         NPHI          PEF         POTA         RHOB           SP         THOR         URAN
# ...
   2121.4961    -999.2500    -999.2500    -999.2500    -999.2500      26.2410       2.0724       1.7559    -999.2500    -999.2500    -999.2500    -999.2500    -999.2500       0.0000    -999.2500     -40.6691       0.0000       0.0000
   2121.6484    -999.2500    -999.2500    -999.2500    -999.2500      26.2410       2.1973       1.7159    -999.2500    -999.2500    -999.2500    -999.2500    -999.2500       0.0000    -999.2500     -38.0487       0.0000       0.0000
   2121.8008    -999.2500    -999.2500    -999.2500    -999.2500      26.2410       2.1224       1.6407    -999.2500    -999.2500    -999.2500    -999.2500    -999.2500       0.0000    -999.2500     -34.7768       0.0000       0.0000
   2121.9531    -999.2500    -999.2500    -999.2500    -999.2500      26.2410       1.9155       1.5422    -999.2500    -999.2500    -999.2500    -999.2500    -999.2500    -999.2500    -999.2500     -31.0749    -999.2500    -999.2500
   2122.1055      10.7860    -999.2500       0.3210    -999.2500      26.2410       1.6730       1.4403       0.0000       0.0000       0.0000       0.3246      10.0000    -999.2500       3.3640     -29.5051    -999.2500    -999.2500
   2122.2581      10.7860    -999.2500       0.3210    -999.2500      26.2410       1.4146       1.3369       0.0000       0.0000       0.0000       0.3246      10.0000    -999.2500       3.3640     -28.8804    -999.2500    -999.2500
   2122.4104      10.7860    -999.2500       0.3210    -999.2500      26.2410       1.2479       1.2604       0.0000       0.0000       0.0000       0.3246      10.0000    -999.2500       3.3640     -30.5888    -999.2500    -999.2500
   2122.5627      10.7860    -999.2500       0.3210    -999.2500      26.2410       1.1221       1.1960       0.0000       0.0000       0.0000       0.3246      10.0000    -999.2500       3.3640     -33.3354    -999.2500    -999.2500
   2122.7151      10.7860    -999.2500       0.3210    -999.2500      26.2410       1.0948       1.1591       0.0000       0.0000       0.0000       0.3246      10.0000    -999.2500       3.3640     -31.6554    -999.2500    -999.2500
   2122.8677      10.7860    -999.2500       0.3210    -999.2500      26.2410       1.1118       1.1345       0.0000       0.0000       0.0000       0.3246      10.0000    -999.2500       3.3640     -27.9827    -999.2500    -999.2500
   2123.0200      10.7860    -999.2500       0.3210    -999.2500      26.2410       1.1552       1.1249       0.0000       0.0000       0.0000       0.3246      10.0000    -999.2500       3.3640     -23.9142    -999.2500    -999.2500
   2123.1724      10.7860    -999.2500       0.3210    -999.2500      26.2410       1.2102       1.1219       0.0000       0.0000       0.0000       0.3246      10.0000    -999.2500       3.3640     -19.6720    -999.2500    -999.2500
   2123.3247      10.7860    -999.2500       0.3210    -999.2500      26.2410       1.2391       1.1449       0.0000       0.0000       0.0000       0.3246      10.0000    -999.2500       3.3640     -20.3920    -999.2500    -999.2500
   2123.4773      10.7860    -999.2500       0.3210    -999.2500      26.2410       1.2566       1.1794       0.0000       0.0000       0.0000       0.3246      10.0000    -999.2500       3.3640     -23.2972    -999.2500    -999.2500
   2123.6296      10.7860    -999.2500       0.3210    -999.2500      26.2410       1.2883       1.2520       0.0000       0.0000       0.0000       0.3246      10.0000    -999.2500       3.3640     -25.6378    -999.2500    -999.2500
   2123.7820      10.7860    -999.2500       0.3210    -999.2500      26.2410       1.3263       1.3414       0.0000       0.0000       0.0000       0.3246      10.0000    -999.2500       3.3640     -27.7287    -999.2500    -999.2500
   2123.9343      10.7860    -999.2500       0.3210    -999.2500      26.2410       1.4278       1.4180       0.0000       0.0000       0.0000       0.3246      10.0000    -999.2500       3.3640     -26.8011    -999.2500    -999.2500
   2124.0867      10.7860    -999.2500       0.3210    -999.2500      26.2410       1.5577       1.4890       0.0000       0.0000       0.0000       0.3235      10.0000    -999.2500       3.3640     -24.5231    -999.2500    -999.2500
   2124.2393      10.7860    -999.2500       0.3210    -999.2500      26.2410       1.6935       1.5705       0.0000       0.0000       0.0000       0.3023      10.0000    -999.2500       3.3640     -21.1508    -999.2500    -999.2500
   2124.3916      10.7860    -999.2500       0.3210    -999.2500      26.2410       1.8319       1.6567       0.0000       0.0000       0.0000       0.2797      10.0000    -999.2500       3.3640     -17.2871    -999.2500    -999.2500
   2124.5439      10.7860    -999.2500       0.3210    -999.2500      26.2410       1.8935       1.7313       0.0000       0.0000       0.0000       0.2836      10.0000    -999.2500       3.3640     -15.6813    -999.2500    -999.2500
   2124.6963      10.7860    -999.2500       0.3210    -999.2500      26.2410       1.9215       1.8008       0.0000       0.0000       0.0000       0.3056      10.0000    -999.2500       3.3640     -15.0636    -999.2500    -999.2500
   2124.8489      10.7860    -999.2500       0.3210    -999.2500      26.2410       1.9140       1.8112       0.0000       0.0000       0.0000       0.3224      10.0000    -999.2500       3.3640     -13.6607    -999.2500    -999.2500
   2125.0012      10.7860    -999.2500       0.3210    -999.2500      26.2410       1.8911       1.7958       0.0000       0.0000       0.0000       0.3317      10.0000    -999.2500       3.3640     -11.9129    -999.2500    -999.2500
   2125.1536      10.7915    -999.2500       0.3210    -999.2500      26.2410       1.8812       1.7872       0.0000       0.0000       0.0000       0.3289      10.0000    -999.2500       3.3640     -12.4130    -999.2500    -999.2500
   2125.3059      10.7995    -999.2500       0.3210    -999.2500      26.2410       1.8772       1.7817       0.0000       0.0000       0.0000       0.3179      10.0000    -999.2500       3.3640     -13.9123    -999.2500    -999.2500
   2125.4585      10.8286    -999.2500       0.3134    -999.2500      26.2410       1.8819       1.7769       0.0000       0.0000       0.0000       0.3039      10.0000    -999.2500       3.3360     -14.7206    -999.2500    -999.2500
   2125.6108      10.8671    -999.2500       0.3024    -999.2500      26.2410       1.8904       1.7724       0.0000       0.0000       0.0000       0.2893      10.0000    -999.2500       3.2955     -15.2203    -999.2500    -999.2500
   2125.7632      10.9240    -999.2500       0.2391    -999.2500      26.2410       1.8438       1.7679       0.0000       0.0000       0.0000       0.2748      10.0000    -999.2500       3.1781     -15.0720    -999.2500    -999.2500
   2125.9155      10.9892    -999.2500       0.1524    -999.2500      26.2410       1.7726       1.7634       0.0000       0.0000       0.0000       0.2604      10.0000    -999.2500       3.0262     -14.6333    -999.2500    -999.2500
   2126.0679      11.0166    -999.2500       0.0881    -999.2500      26.2410       1.7201       1.7596       0.0000       0.0000       0.0000       0.2455      10.0000    -999.2500       2.9025     -14.9668    -999.2500    -999.2500
   2126.2205      11.0276    -999.2500       0.0337    -999.2500      26.2410       1.6756       1.7561       0.0000       0.0000       0.0000       0.2327      10.0000    -999.2500       2.7911     -15.6375    -999.2500    -999.2500
   2126.3728      11.0591    -999.2500      -0.0055    -999.2500      26.2410       1.6800       1.7536       0.0000       0.0000       0.0000       0.2422      10.0000    -999.2500       2.7854     -16.4382    -999.2500    -999.2500
   2126.5251      11.0996    -999.2500      -0.0380    -999.2500      26.2410       1.7060       1.7516       0.0000       0.0000       0.0000       0.2619      10.0000    -999.2500       2.8264     -17.2963    -999.2500    -999.2500
   2126.6775      11.1477    -999.2500      -0.0342    -999.2500      26.2410       1.7386       1.7500       0.0000       0.0000       0.0000       0.2766      10.0000    -999.2500       2.9609     -17.9720    -999.2500    -999.2500
