#------------------------------------------------------------------------------
#
#   Created by  : [OpenWorks] Log Export Utility (LEXP)
#   Created on  : 2016-05-11 12:13:42
#   Project     : CANT971
#   User        : R5K
#   Interpreter : PEP
#
#------------------------------------------------------------------------------
~VERSION INFORMATION
VERS. 2.0 : CWLS Log ASCII Standard - version 2.0
WRAP.  NO : One line per depth step
~WELL INFORMATION
#MNEMONIC   .UNIT                                           VALUE :DESCRIPTION
#------------------------------------------------------------------------------
STRT        .M                                           659.9800 :START DEPTH
STOP        .M                                          2975.8503 :STOP DEPTH
STEP        .M                                             0.1524 :STEP
NULL        .                                           -999.2500 :NULL VALUE
COMP        .                                   PEMEX EXPL & PROD :COMPANY
WELL        .                                                3085 :WELL
FLD         .                                           CANTARELL :FIELD
LOC         .                                             UNKNOWN :LOCATION
CNTY        .                                      CD. DEL CARMEN :COUNTY
STAT        .                                            CAMPECHE :STATE
CTRY        .                                              MEXICO :COUNTRY
SRVC        .                                             UNKNOWN :SERVICE COMPANY
DATE        .                                             UNKNOWN :LOG DATE
UWI         .                                                3085 :UNIQUE WELL ID
XCOORD      .                                       601394.300000 :SURFACE X
YCOORD      .                                      2149880.180000 :SURFACE Y
LAT         .                                           19.441902 :LATITUDE
LON         .                                          -92.034105 :LONGITUDE
ELEV        .M                                            28.0000 :SURFACE ELEV
ELEV_TYPE   .                                                  KB :ELEV TYPE
~CURVE INFORMATION
#MNEMONIC.UNIT        API CODE       : CURVE DESCRIPTION
#------------------------------------------------------------------------------
DEPTH    .M                          : Measured Depth
CALI     .inches      UNKNOWN        : CALI:Import:rC:NONE:v0 (auto-composite)
CGR      .API         UNKNOWN        : CGR:Import:rC:NONE:v0 (auto-composite)
DRHO     .g/cm3       UNKNOWN        : DRHO:Import:rC:NONE:v0 (auto-composite)
DT       .us/ft       UNKNOWN        : DT:Import:rC:NONE:v0 (auto-composite)
GR       .API         UNKNOWN        : GR:Import:rC:NONE:v0 (auto-composite)
ILD      .ohm.m       UNKNOWN        : ILD:Import:rC:NONE:v0 (auto-composite)
ILM      .ohm.m       UNKNOWN        : ILM:Import:rC:NONE:v0 (auto-composite)
LLD      .ohm.m       UNKNOWN        : LLD:Import:rC:NONE:v0 (auto-composite)
LLS      .ohm.m       UNKNOWN        : LLS:Import:rC:NONE:v0 (auto-composite)
MSFL     .ohm.m       UNKNOWN        : MSFL:Import:rC:NONE:v0 (auto-composite)
NPHI     .v/v_decimal UNKNOWN        : NPHI:Import:rC:NONE:v0 (auto-composite)
PEF      .b/elec      UNKNOWN        : PEF:Import:rC:NONE:v0 (auto-composite)
POTA     .wtpercent   UNKNOWN        : POTA:Import:rC:NONE:v0 (auto-composite)
RHOB     .g/cm3       UNKNOWN        : RHOB:Import:rC:NONE:v0 (auto-composite)
SP       .mV          UNKNOWN        : SP:Import:rC:NONE:v0 (auto-composite)
THOR     .ppm         UNKNOWN        : THOR:Import:rC:NONE:v0 (auto-composite)
URAN     .ppm         UNKNOWN        : URAN:Import:rC:NONE:v0 (auto-composite)
~A     DEPTH         CALI          CGR         DRHO           DT           GR          ILD          ILM          LLD          LLS         MSFL         NPHI          PEF         POTA         RHOB           SP         THOR         URAN
# ...
   2857.5879       5.7995      45.4943       0.0269      92.1440     103.5320    -999.2500    -999.2500     215.5880     219.9020    1790.7563       0.3073       2.1434       0.0188       1.7765    -999.2500       3.3635       6.7484
   2857.7405       5.1803      48.5700       0.0154      92.1440     102.3780    -999.2500    -999.2500     372.3633     377.1346    1915.1361       0.3073       2.1439       0.0198       1.6386    -999.2500       3.7748       6.9568
   2857.8928       5.0520      48.4592       0.0265      92.1440     106.9877    -999.2500    -999.2500     907.8443     948.0661    1539.6874       0.3073       2.1440       0.0196       1.6191    -999.2500       3.9983       7.0547
   2858.0452       5.0520      47.5162       0.0435      92.1440     113.1031    -999.2500    -999.2500    1542.2544    1627.0679    1033.6689    -999.2500       2.1440       0.0191       1.6306    -999.2500       4.1727       7.1237
   2858.1975       6.5692      49.8683       0.0359      92.1440      94.7604    -999.2500    -999.2500    1927.2391    2010.3384    1333.2446    -999.2500    -999.2500       0.0194    -999.2500    -999.2500       4.5223       7.3555
   2858.3501       8.4848      53.0859       0.0219      92.1440      69.9949    -999.2500    -999.2500    2246.7236    2315.9485    1844.3729    -999.2500    -999.2500       0.0199    -999.2500    -999.2500       4.9178       7.6302
   2858.5024       8.8658      41.6866    -999.2500      92.1440      75.1061    -999.2500    -999.2500    3408.7588    3504.6543    1875.8970    -999.2500    -999.2500       0.0149    -999.2500    -999.2500       4.1329       6.7276
   2858.6548       8.8378      26.3911    -999.2500      92.1440      88.1809    -999.2500    -999.2500    4795.3735    4928.7471    1779.5834    -999.2500    -999.2500       0.0083    -999.2500    -999.2500       3.0333       5.5112
   2858.8071       8.8141      27.2820    -999.2500      92.1440     100.8540    -999.2500    -999.2500    3636.3853    3804.5361    1317.6434    -999.2500    -999.2500       0.0086    -999.2500    -999.2500       3.1414       6.0651
   2858.9595       8.7916      32.3443    -999.2500      92.1440     113.4235    -999.2500    -999.2500    1821.3541    2023.5862     761.4756    -999.2500    -999.2500       0.0106    -999.2500    -999.2500       3.5607       7.0752
   2859.1121       8.8211      40.9906    -999.2500      92.1440     114.4913    -999.2500    -999.2500    1061.0863    1216.1494     476.2700    -999.2500    -999.2500       0.0138    -999.2500    -999.2500       4.3488       7.5843
   2859.2644       8.8641      50.5655    -999.2500      92.1440     112.5791    -999.2500    -999.2500     574.0906     660.9341     261.2664    -999.2500    -999.2500       0.0173    -999.2500    -999.2500       5.2324       7.9636
   2859.4167       8.8833      51.6114    -999.2500      92.1440     113.4284    -999.2500    -999.2500     426.8787     489.0794     643.6526    -999.2500    -999.2500       0.0180    -999.2500    -999.2500       5.2898       7.9683
   2859.5691       8.8963      50.4358    -999.2500      92.1441     114.9970    -999.2500    -999.2500     368.1651     417.0727    1181.6318    -999.2500    -999.2500       0.0180    -999.2500    -999.2500       5.1320       7.8754
   2859.7217       8.8460      51.0960    -999.2500      92.1448     110.7342    -999.2500    -999.2500     434.3354     497.7817     882.1385    -999.2500    -999.2500       0.0184    -999.2500    -999.2500       5.1840       7.8983
   2859.8740       8.7791      52.2415    -999.2500      92.1595     104.9297    -999.2500    -999.2500     533.5231     618.8665     361.2305    -999.2500    -999.2500       0.0189    -999.2500    -999.2500       5.2914       7.9518
   2860.0264       8.7983      49.3673    -999.2500      92.4107     113.7137    -999.2500    -999.2500     651.2864     744.2961     821.9554    -999.2500    -999.2500       0.0178    -999.2500    -999.2500       4.8890       7.7748
   2860.1787       8.8404      45.4249    -999.2500      92.8075     126.3748    -999.2500    -999.2500     773.9865     870.8805    1543.5658    -999.2500    -999.2500       0.0163    -999.2500    -999.2500       4.3510       7.5367
   2860.3313       8.8295      53.8819    -999.2500      93.5256     129.8286    -999.2500    -999.2500     533.7442     602.0458    1215.3354    -999.2500    -999.2500       0.0184    -999.2500    -999.2500       5.6549       7.5866
   2860.4836       8.8050      65.5249    -999.2500      94.4107     130.9166    -999.2500    -999.2500     200.2452     231.6098     617.3527    -999.2500    -999.2500       0.0214    -999.2500    -999.2500       7.4322       7.7106
   2860.6360       8.8441      68.5595    -999.2500      93.6030     108.6828    -999.2500    -999.2500     120.4957     142.8974     308.7001    -999.2500    -999.2500       0.0220    -999.2500    -999.2500       7.8883       7.7638
   2860.7883       8.8995      69.3705    -999.2500      92.5577      80.4246    -999.2500    -999.2500     106.2927     126.9575      74.7850    -999.2500    -999.2500       0.0220    -999.2500    -999.2500       8.0031       7.7987
   2860.9407       8.8853      53.6886    -999.2500      92.1664      64.0699    -999.2500    -999.2500     136.8563     159.6826     443.0539    -999.2500    -999.2500       0.0184    -999.2500    -999.2500       5.6184       6.9753
   2861.0933       8.8528      33.6817    -999.2500      92.1440      50.8367    -999.2500    -999.2500     179.1590     205.1689     969.2327    -999.2500    -999.2500       0.0139    -999.2500    -999.2500       2.5782       5.9267
   2861.2456       8.8029      24.3967    -999.2500      92.1440      63.5053    -999.2500    -999.2500     367.7053     421.0426     669.5937    -999.2500    -999.2500       0.0114    -999.2500    -999.2500       1.3938       5.0285
   2861.3979       8.7484      17.9380    -999.2500      92.1440      83.0019    -999.2500    -999.2500     594.8022     681.8315     152.2641    -999.2500    -999.2500       0.0094    -999.2500    -999.2500       0.6986       4.1699
   2861.5503       8.7540      29.1853    -999.2500      92.1440     107.3677    -999.2500    -999.2500     465.2916     532.0825     173.5617    -999.2500    -999.2500       0.0122    -999.2500    -999.2500       2.3441       4.3527
   2861.7029       8.7756      45.1245    -999.2500      92.1440     133.0238    -999.2500    -999.2500     241.2846     273.5463     337.5884    -999.2500    -999.2500       0.0162    -999.2500    -999.2500       4.6099       4.8114
   2861.8552       8.7915      57.9069    -999.2500      92.1440     143.0989    -999.2500    -999.2500     162.8298     183.3933     266.1330    -999.2500    -999.2500       0.0202    -999.2500    -999.2500       6.1350       6.2749
   2862.0076       8.8060      69.8806    -999.2500      92.1440     149.1824    -999.2500    -999.2500     121.6620     136.3763     134.3524    -999.2500    -999.2500       0.0242    -999.2500    -999.2500       7.4704       7.9958
   2862.1599       8.7848      74.0773    -999.2500      92.1440     153.4603    -999.2500    -999.2500     108.3575     120.1887     137.0477    -999.2500    -999.2500       0.0262    -999.2500    -999.2500       7.4327       8.7445
   2862.3125       8.7543      76.2514    -999.2500      92.1440     157.2687    -999.2500    -999.2500     102.2996     112.0192     174.7174    -999.2500    -999.2500       0.0277    -999.2500    -999.2500       7.0378       9.2402
   2862.4648       8.7365      74.8839    -999.2500      92.1440     147.3215    -999.2500    -999.2500     112.6526     120.8090     227.5837    -999.2500    -999.2500       0.0276    -999.2500    -999.2500       7.0749       9.8303
   2862.6172       8.7220      72.5903    -999.2500      92.1440     133.7778    -999.2500    -999.2500     127.2962     134.0328     284.4232    -999.2500    -999.2500       0.0271    -999.2500    -999.2500       7.2248      10.4451
   2862.7695       8.7305      66.1765    -999.2500      92.1440     120.6726    -999.2500    -999.2500     171.6823     181.2548     570.4166    -999.2500    -999.2500       0.0250    -999.2500    -999.2500       6.3674      10.0929
