#------------------------------------------------------------------------------
#
#   Created by  : [OpenWorks] Log Export Utility (LEXP)
#   Created on  : 2016-05-11 12:13:42
#   Project     : CANT971
#   User        : R5K
#   Interpreter : PEP
#
#------------------------------------------------------------------------------
~VERSION INFORMATION
VERS. 2.0 : CWLS Log ASCII Standard - version 2.0
WRAP.  NO : One line per depth step
~WELL INFORMATION
#MNEMONIC   .UNIT                                           VALUE :DESCRIPTION
#------------------------------------------------------------------------------
STRT        .M                                           659.9800 :START DEPTH
STOP        .M                                          2975.8503 :STOP DEPTH
STEP        .M                                             0.1524 :STEP
NULL        .                                           -999.2500 :NULL VALUE
COMP        .                                   PEMEX EXPL & PROD :COMPANY
WELL        .                                                3085 :WELL
FLD         .                                           CANTARELL :FIELD
LOC         .                                             UNKNOWN :LOCATION
CNTY        .                                      CD. DEL CARMEN :COUNTY
STAT        .                                            CAMPECHE :STATE
CTRY        .                                              MEXICO :COUNTRY
SRVC        .                                             UNKNOWN :SERVICE COMPANY
DATE        .                                             UNKNOWN :LOG DATE
UWI         .                                                3085 :UNIQUE WELL ID
XCOORD      .                                       601394.300000 :SURFACE X
YCOORD      .                                      2149880.180000 :SURFACE Y
LAT         .                                           19.441902 :LATITUDE
LON         .                                          -92.034105 :LONGITUDE
ELEV        .M                                            28.0000 :SURFACE ELEV
ELEV_TYPE   .                                                  KB :ELEV TYPE
~CURVE INFORMATION
#MNEMONIC.UNIT        API CODE       : CURVE DESCRIPTION
#------------------------------------------------------------------------------
DEPTH    .M                          : Measured Depth
CALI     .inches      UNKNOWN        : CALI:Import:rC:NONE:v0 (auto-composite)
CGR      .API         UNKNOWN        : CGR:Import:rC:NONE:v0 (auto-composite)
DRHO     .g/cm3       UNKNOWN        : DRHO:Import:rC:NONE:v0 (auto-composite)
DT       .us/ft       UNKNOWN        : DT:Import:rC:NONE:v0 (auto-composite)
GR       .API         UNKNOWN        : GR:Import:rC:NONE:v0 (auto-composite)
ILD      .ohm.m       UNKNOWN        : ILD:Import:rC:NONE:v0 (auto-composite)
ILM      .ohm.m       UNKNOWN        : ILM:Import:rC:NONE:v0 (auto-composite)
LLD      .ohm.m       UNKNOWN        : LLD:Import:rC:NONE:v0 (auto-composite)
LLS      .ohm.m       UNKNOWN        : LLS:Import:rC:NONE:v0 (auto-composite)
MSFL     .ohm.m       UNKNOWN        : MSFL:Import:rC:NONE:v0 (auto-composite)
NPHI     .v/v_decimal UNKNOWN        : NPHI:Import:rC:NONE:v0 (auto-composite)
PEF      .b/elec      UNKNOWN        : PEF:Import:rC:NONE:v0 (auto-composite)
POTA     .wtpercent   UNKNOWN        : POTA:Import:rC:NONE:v0 (auto-composite)
RHOB     .g/cm3       UNKNOWN        : RHOB:Import:rC:NONE:v0 (auto-composite)
SP       .mV          UNKNOWN        : SP:Import:rC:NONE:v0 (auto-composite)
THOR     .ppm         UNKNOWN        : THOR:Import:rC:NONE:v0 (auto-composite)
URAN     .ppm         UNKNOWN        : URAN:Import:rC:NONE:v0 (auto-composite)
~A     DEPTH         CALI          CGR         DRHO           DT           GR          ILD          ILM          LLD          LLS         MSFL         NPHI          PEF         POTA         RHOB           SP         THOR         URAN
# ...
   2462.8721       9.7800      31.9727       0.1770      66.9565      73.5268    -999.2500    -999.2500      29.5705      20.4129      39.7090       0.1263       4.2712       0.0142       2.5611    -999.2500       2.0452       5.9783
   2463.0244       9.9035      33.1837       0.1405      66.9265      74.9092    -999.2500    -999.2500      32.5418      21.8748      24.4156       0.1367       4.1492       0.0157       2.5072    -999.2500       1.6663       5.3540
   2463.1768       9.9116      32.9891       0.1108      70.9049      76.1885    -999.2500    -999.2500      28.8705      19.4305      41.9879       0.1537       4.1973       0.0160       2.4540    -999.2500       1.6946       5.1691
   2463.3291       9.8896      32.4283       0.0829      76.3671      77.4410    -999.2500    -999.2500      23.4682      15.9683      68.1252       0.1722       4.2897       0.0160       2.4011    -999.2500       1.8289       5.0987
   2463.4817       9.8680      34.6749       0.0636      76.0063      74.9316    -999.2500    -999.2500      20.9982      14.8460      46.9509       0.1675       4.5533       0.0164       2.4564    -999.2500       2.4016       5.1658
   2463.6340       9.8465      37.6641       0.0466      73.3252      71.4272    -999.2500    -999.2500      19.3039      14.3427      13.2610       0.1508       4.8621       0.0169       2.5404    -999.2500       3.0903       5.2693
   2463.7864       9.7937      39.0976       0.0375      68.7752      67.9886    -999.2500    -999.2500      29.7250      21.8435      36.8523       0.1284       4.2454       0.0162       2.4705    -999.2500       3.3990       4.7195
   2463.9387       9.7325      40.1174       0.0304      63.8968      64.5676    -999.2500    -999.2500      43.3678      31.4727      75.6759       0.1163       3.3825       0.0152       2.3597    -999.2500       3.6065       3.9960
   2464.0911       9.6393      40.6198       0.0385      61.0027      73.4856    -999.2500    -999.2500      53.3691      38.5532      51.6570       0.1677       3.4863       0.0150       2.2603    -999.2500       3.7726       3.4667
   2464.2437       9.5378      40.9891       0.0505      59.1036      85.5759    -999.2500    -999.2500      62.4342      44.9784      11.4813       0.2343       3.8386       0.0150       2.1638    -999.2500       3.9281       2.9874
   2464.3960      10.0718      42.3733       0.0431      59.4458      86.7416    -999.2500    -999.2500      41.6372      30.2724       8.9220       0.2446       3.7015       0.0150       2.2837    -999.2500       4.2394       3.9398
   2464.5483      10.7699      44.0198       0.0306      59.4583      85.0836    -999.2500    -999.2500      13.1218      10.1048      16.0852       0.2175       3.4378       0.0150       2.4595    -999.2500       4.5909       5.2622
   2464.7007      10.2471      43.3192       0.0672      55.6084      75.7607    -999.2500    -999.2500       9.0217       7.1890      46.0990       0.1658       3.4238       0.0150       2.4833    -999.2500       4.5337       5.5026
   2464.8533       9.4040      42.0028       0.1167      49.6586      64.4265    -999.2500    -999.2500      11.3277       8.7998      82.1085       0.1089       3.4753       0.0150       2.4673    -999.2500       4.3693       5.4591
   2465.0056       9.2541      39.0419       0.1064      54.0021      69.9499    -999.2500    -999.2500      26.8639      20.7566      70.0208       0.0864       3.6315       0.0146       2.4861    -999.2500       3.7434       4.6539
   2465.1580       9.2871      35.6474       0.0804      60.3021      79.9196    -999.2500    -999.2500      45.8897      35.4423      45.2469       0.0882       3.8155       0.0141       2.5141    -999.2500       2.9957       3.6478
   2465.3103       9.4450      40.8153       0.1210      64.4200      86.8317    -999.2500    -999.2500      40.3580      31.5877      28.1173       0.1113       3.7105       0.0152       2.4883    -999.2500       3.8143       3.6938
   2465.4629       9.6360      48.2534       0.1791      67.1057      92.9331    -999.2500    -999.2500      28.3151      22.8174      13.0144       0.1453       3.5290       0.0167       2.4482    -999.2500       5.0482       4.0187
   2465.6152       9.6599      53.2809       0.1874      65.0046      80.5821    -999.2500    -999.2500      20.5801      16.9147      14.4036       0.1698       3.8533       0.0182       2.5048    -999.2500       5.6164       4.2531
   2465.7676       9.6409      57.6904       0.1829      62.7435      63.5011    -999.2500    -999.2500      13.9492      11.7471      20.0202       0.1812       4.3073       0.0197       2.5862    -999.2500       6.0139       4.4644
   2465.9199       9.5660      47.3262       0.1634      67.3748      45.9668    -999.2500    -999.2500      15.5710      12.6340      31.4154       0.1700       4.4875       0.0156       2.5459    -999.2500       5.2136       4.2181
   2466.0723       9.4766      33.1173       0.1399      73.9263      28.3144    -999.2500    -999.2500      19.3404      15.0964      44.3143       0.1454       4.5964       0.0101       2.4739    -999.2500       4.1016       3.8528
   2466.2249       9.3796      22.3023       0.0776      71.2584      21.8390    -999.2500    -999.2500      44.8421      32.2841     133.1122       0.1188       4.5311       0.0074       2.4919    -999.2500       2.6053       3.0009
   2466.3772       9.2806      12.3751       0.0051      64.9749      18.2875    -999.2500    -999.2500      76.0291      53.3240     241.7658       0.0943       4.4201       0.0054       2.5334    -999.2500       1.0085       2.0219
   2466.5295       9.2837       8.5441      -0.0041      61.7450      22.8673    -999.2500    -999.2500     153.5437     104.5711     332.0751       0.0768       4.4346       0.0042       2.5353    -999.2500       0.5305       1.6855
   2466.6819       9.3137       6.3164       0.0034      59.8115      29.5855    -999.2500    -999.2500     243.2417     163.7621     417.5602       0.0665       4.4820       0.0032       2.5268    -999.2500       0.3467       1.5182
   2466.8345       9.3588       6.0354       0.0141      58.8196      57.9897    -999.2500    -999.2500     178.5179     120.9614     301.3001       0.0707       4.3361       0.0022       2.5171    -999.2500       0.5494       2.1756
   2466.9868       9.4079       6.2740       0.0256      58.2760      92.1825    -999.2500    -999.2500      72.5747      50.9363     131.1885       0.0853       4.1385       0.0012       2.5071    -999.2500       0.8553       3.0530
   2467.1392       9.3803      12.4995       0.0415      61.9179     100.0579    -999.2500    -999.2500      37.3554      26.9697      61.5093       0.1146       3.9335       0.0034       2.4935    -999.2500       1.4873       5.8410
   2467.2915       9.3328      20.2702       0.0585      66.8881     101.1409    -999.2500    -999.2500      20.3892      14.8904      17.7506       0.1465       3.7266       0.0064       2.4790    -999.2500       2.2035       9.1221
   2467.4441       9.3631      22.5599       0.0588      73.3997      98.3723    -999.2500    -999.2500      15.0785      10.9937      11.7967       0.1659       3.6836       0.0074       2.4792    -999.2500       2.4498       9.8262
   2467.5964       9.4136      23.4275       0.0548      80.7424      94.6045    -999.2500    -999.2500      12.7920       9.2199      15.6515       0.1761       3.6831       0.0079       2.4832    -999.2500       2.5743       9.8617
   2467.7488       9.4462      24.6606       0.0560      83.2005      97.9755    -999.2500    -999.2500      12.9068       9.3786      12.9128       0.1729       3.8371       0.0088       2.4785    -999.2500       2.3659       9.6163
   2467.9011       9.4741      25.9889       0.0585      84.0365     103.2085    -999.2500    -999.2500      13.6479      10.0413       8.4543       0.1634       4.0313       0.0098       2.4715    -999.2500       2.0708       9.2977
   2468.0535       9.4053      27.4600       0.0566      82.6032      95.4745    -999.2500    -999.2500      15.7085      11.5314      15.3140       0.1516       3.9997       0.0104       2.4969    -999.2500       2.3575       9.3397
