#------------------------------------------------------------------------------
#
#   Created by  : [OpenWorks] Log Export Utility (LEXP)
#   Created on  : 2016-05-11 12:13:42
#   Project     : CANT971
#   User        : R5K
#   Interpreter : PEP
#
#------------------------------------------------------------------------------
~VERSION INFORMATION
VERS. 2.0 : CWLS Log ASCII Standard - version 2.0
WRAP.  NO : One line per depth step
~WELL INFORMATION
#MNEMONIC   .UNIT                                           VALUE :DESCRIPTION
#------------------------------------------------------------------------------
STRT        .M                                           659.9800 :START DEPTH
STOP        .M                                          2975.8503 :STOP DEPTH
STEP        .M                                             0.1524 :STEP
NULL        .                                           -999.2500 :NULL VALUE
COMP        .                                   PEMEX EXPL & PROD :COMPANY
WELL        .                                                3085 :WELL
FLD         .                                           CANTARELL :FIELD
LOC         .                                             UNKNOWN :LOCATION
CNTY        .                                      CD. DEL CARMEN :COUNTY
STAT        .                                            CAMPECHE :STATE
CTRY        .                                              MEXICO :COUNTRY
SRVC        .                                             UNKNOWN :SERVICE COMPANY
DATE        .                                             UNKNOWN :LOG DATE
UWI         .                                                3085 :UNIQUE WELL ID
XCOORD      .                                       601394.300000 :SURFACE X
YCOORD      .                                      2149880.180000 :SURFACE Y
LAT         .                                           19.441902 :LATITUDE
LON         .                                          -92.034105 :LONGITUDE
ELEV        .M                                            28.0000 :SURFACE ELEV
ELEV_TYPE   .                                                  KB :ELEV TYPE
~CURVE INFORMATION
#MNEMONIC.UNIT        API CODE       : CURVE DESCRIPTION
#------------------------------------------------------------------------------
DEPTH    .M                          : Measured Depth
CALI     .inches      UNKNOWN        : CALI:Import:rC:NONE:v0 (auto-composite)
CGR      .API         UNKNOWN        : CGR:Import:rC:NONE:v0 (auto-composite)
DRHO     .g/cm3       UNKNOWN        : DRHO:Import:rC:NONE:v0 (auto-composite)
DT       .us/ft       UNKNOWN        : DT:Import:rC:NONE:v0 (auto-composite)
GR       .API         UNKNOWN        : GR:Import:rC:NONE:v0 (auto-composite)
ILD      .ohm.m       UNKNOWN        : ILD:Import:rC:NONE:v0 (auto-composite)
ILM      .ohm.m       UNKNOWN        : ILM:Import:rC:NONE:v0 (auto-composite)
LLD      .ohm.m       UNKNOWN        : LLD:Import:rC:NONE:v0 (auto-composite)
LLS      .ohm.m       UNKNOWN        : LLS:Import:rC:NONE:v0 (auto-composite)
MSFL     .ohm.m       UNKNOWN        : MSFL:Import:rC:NONE:v0 (auto-composite)
NPHI     .v/v_decimal UNKNOWN        : NPHI:Import:rC:NONE:v0 (auto-composite)
PEF      .b/elec      UNKNOWN        : PEF:Import:rC:NONE:v0 (auto-composite)
POTA     .wtpercent   UNKNOWN        : POTA:Import:rC:NONE:v0 (auto-composite)
RHOB     .g/cm3       UNKNOWN        : RHOB:Import:rC:NONE:v0 (auto-composite)
SP       .mV          UNKNOWN        : SP:Import:rC:NONE:v0 (auto-composite)
THOR     .ppm         UNKNOWN        : THOR:Import:rC:NONE:v0 (auto-composite)
URAN     .ppm         UNKNOWN        : URAN:Import:rC:NONE:v0 (auto-composite)
~A     DEPTH         CALI          CGR         DRHO           DT           GR          ILD          ILM          LLD          LLS         MSFL         NPHI          PEF         POTA         RHOB           SP         THOR         URAN
# ...
   2516.2119      22.6828       6.5628       0.0580      81.1570      23.7745    -999.2500    -999.2500     102.4115      41.6555       2.2612       0.3770       1.4819       0.0044       1.1942    -999.2500      -0.2643       2.6608
   2516.3645      22.2440       5.8531       0.0290      82.3831      21.5269    -999.2500    -999.2500     108.7922      45.8487       2.4631       0.3548       1.6808       0.0049       1.3092    -999.2500      -0.4223       2.5409
   2516.5168      22.4997       4.7425       0.0194      87.8323      22.7919    -999.2500    -999.2500     116.7973      49.2599       3.9098       0.3940       2.1792       0.0046       1.4946    -999.2500      -0.5889       2.4122
   2516.6692      22.9370       3.5270       0.0149      92.5736      24.9755    -999.2500    -999.2500     125.2272      52.4665       5.6821       0.4495       2.7559       0.0041       1.6986    -999.2500      -0.7578       2.2813
   2516.8215      20.3933       4.4943       0.0302      90.2222      22.4307    -999.2500    -999.2500     131.4037      52.9193       7.6521       0.4585       2.6316       0.0040       1.8375    -999.2500      -0.5324       2.3181
   2516.9739      17.0659       6.0354       0.0507      83.9487      18.6428    -999.2500    -999.2500     136.9878      52.6481       9.6741       0.4372       2.3230       0.0040       1.9593    -999.2500      -0.2033       2.3990
   2517.1265      18.1049       4.6257       0.0784      86.0798      20.1207    -999.2500    -999.2500     150.5685      54.8489       7.6473       0.3981       2.1286       0.0032       1.8773    -999.2500      -0.1079       2.3669
   2517.2788      20.3090       2.4286       0.1079      89.8880      23.0037    -999.2500    -999.2500     166.2831      57.7094       4.5402       0.3664       1.9646       0.0022       1.7410    -999.2500      -0.0748       2.3048
   2517.4312      18.1743       1.0944       0.1140      92.0012      25.6025    -999.2500    -999.2500     178.7619      60.9777       4.7047       0.3712       2.5945       0.0016       1.7944    -999.2500      -0.3397       2.5391
   2517.5835      14.9202      -0.0171       0.1140      92.7839      28.1279    -999.2500    -999.2500     190.4059      64.3512       5.7133       0.3898       3.4291       0.0011       1.8969    -999.2500      -0.6816       2.8500
   2517.7361      12.8963       0.8993       0.0922      87.3382      28.3393    -999.2500    -999.2500     207.7709      70.7476      27.1899       0.3363       3.4958       0.0014       2.1565    -999.2500      -0.4635       3.0656
   2517.8884      11.1916       2.3417       0.0647      80.5365      27.9504    -999.2500    -999.2500     226.6197      77.9280      53.9753       0.2598       3.3634       0.0019       2.4569    -999.2500      -0.1001       3.2565
   2518.0408      10.8568       2.0664       0.0824      77.7789      28.3746    -999.2500    -999.2500     245.4550      86.0125      54.0634       0.2081       3.1205       0.0016       2.5170    -999.2500      -0.1193       3.3297
   2518.1931      10.8793       1.3433       0.1118      75.9597      29.0109    -999.2500    -999.2500     264.2868      94.3327      47.1904       0.1730       2.8489       0.0011       2.5145    -999.2500      -0.2381       3.3721
   2518.3455      10.8508       0.7565       0.0805      68.8390      29.6684    -999.2500    -999.2500     265.2289      97.1430      74.7382       0.1511       2.8955       0.0010       2.5140    -999.2500      -0.2231       3.4170
   2518.4980      10.8088       0.2057       0.0330      59.8294      30.3316    -999.2500    -999.2500     261.4361      98.4949     111.3964       0.1344       3.0265       0.0010       2.5140    -999.2500      -0.1726       3.4624
   2518.6504      11.1133       1.3410       0.0190      60.7142      29.2243    -999.2500    -999.2500     264.6872     101.0221     105.5813       0.1176       3.1542       0.0014       2.5378    -999.2500      -0.0776       3.4732
   2518.8027      11.5099       2.9249       0.0140      63.4340      27.6459    -999.2500    -999.2500     269.8124     103.8620      88.4659       0.1019       3.2810       0.0019       2.5678    -999.2500       0.0291       3.4747
   2518.9551      12.1917       2.7918       0.0265      60.7613      28.3387    -999.2500    -999.2500     267.6736     105.4499     129.9291       0.0909       3.0983       0.0016       2.5875    -999.2500       0.0176       3.3641
   2519.1077      12.9468       2.2171       0.0435      55.1730      29.6156    -999.2500    -999.2500     263.6664     106.7159     186.4607       0.0856       2.8359       0.0011       2.6045    -999.2500      -0.0244       3.2247
   2519.2600      12.7580       3.0798       0.0799      70.0967      27.7842    -999.2500    -999.2500     269.1748     111.1191     146.3870       0.0966       2.8352       0.0014       2.5786    -999.2500       0.0960       3.2004
   2519.4124      12.3250       4.3143       0.1214      86.8859      25.1490    -999.2500    -999.2500     277.1440     116.3337      81.3312       0.1144       2.9021       0.0019       2.5417    -999.2500       0.2583       3.2059
   2519.5647      12.3348       4.2785       0.1351      91.3338      26.0697    -999.2500    -999.2500     292.1036     124.2169      75.1401       0.1295       2.9631       0.0024       2.4920    -999.2500       0.1938       2.9794
   2519.7173      12.4607       3.9091       0.1416      88.9223      27.9239    -999.2500    -999.2500     308.8983     132.8008      84.4021       0.1414       3.0226       0.0029       2.4391    -999.2500       0.0699       2.6920
   2519.8696      11.7867       4.8898       0.1343      84.9615      25.5742    -999.2500    -999.2500     297.2564     135.6563      68.5799       0.1406       3.3332       0.0026       2.4608    -999.2500       0.3513       2.6838
   2520.0220      10.9016       6.2267       0.1233      80.3035      22.1152    -999.2500    -999.2500     278.1102     137.0002      46.1381       0.1346       3.7100       0.0021       2.5023    -999.2500       0.7396       2.7493
   2520.1743      10.4814       5.6733       0.1036      73.2903      20.8693    -999.2500    -999.2500     262.3720     130.4638     115.4398       0.1290       3.7363       0.0016       2.5629    -999.2500       0.6435       2.5094
   2520.3267      10.1846       4.6183       0.0815      66.0460      20.2105    -999.2500    -999.2500     247.5379     121.8369     209.0788       0.1235       3.6696       0.0011       2.6286    -999.2500       0.4188       2.1885
   2520.4792      10.0680       4.5365       0.0706      66.9989      20.0068    -999.2500    -999.2500     242.5037     123.2854     175.8900       0.1178       3.4120       0.0010       2.6321    -999.2500       0.5348       2.0515
   2520.6316       9.9975       4.7043       0.0627      70.4465      19.9200    -999.2500    -999.2500     239.9828     127.3180     110.1746       0.1172       3.1053       0.0010       2.6196    -999.2500       0.7380       1.9616
   2520.7839      10.3399       5.2648       0.0701      68.3447      21.8375    -999.2500    -999.2500     214.9599     117.1828      70.0044       0.1318       3.0075       0.0014       2.5726    -999.2500       0.8605       1.8772
   2520.9363      10.7897       5.9275       0.0816      65.0598      24.2770    -999.2500    -999.2500     184.0782     103.3587      36.4853       0.1533       2.9640       0.0019       2.5166    -999.2500       0.9620       1.7942
   2521.0889      11.6297       7.5678       0.0753      66.6664      25.1399    -999.2500    -999.2500     180.0764     102.1935      45.3925       0.1674       3.1348       0.0032       2.4638    -999.2500       0.7846       1.8222
   2521.2412      12.5718       9.4640       0.0643      70.6842      25.5902    -999.2500    -999.2500     183.1101     104.3415      65.4044       0.1714       3.3617       0.0047       2.4118    -999.2500       0.5342       1.8791
   2521.3936      11.4939       9.5983       0.0569      71.2802      29.4192    -999.2500    -999.2500     209.3960     119.5580      84.0931       0.1528       3.4288       0.0050       2.4497    -999.2500       0.5184       1.9689
