#------------------------------------------------------------------------------
#
#   Created by  : [OpenWorks] Log Export Utility (LEXP)
#   Created on  : 2016-05-11 12:13:42
#   Project     : CANT971
#   User        : R5K
#   Interpreter : PEP
#
#------------------------------------------------------------------------------
~VERSION INFORMATION
VERS. 2.0 : CWLS Log ASCII Standard - version 2.0
WRAP.  NO : One line per depth step
~WELL INFORMATION
#MNEMONIC   .UNIT                                           VALUE :DESCRIPTION
#------------------------------------------------------------------------------
STRT        .M                                           659.9800 :START DEPTH
STOP        .M                                          2975.8503 :STOP DEPTH
STEP        .M                                             0.1524 :STEP
NULL        .                                           -999.2500 :NULL VALUE
COMP        .                                   PEMEX EXPL & PROD :COMPANY
WELL        .                                                3085 :WELL
FLD         .                                           CANTARELL :FIELD
LOC         .                                             UNKNOWN :LOCATION
CNTY        .                                      CD. DEL CARMEN :COUNTY
STAT        .                                            CAMPECHE :STATE
CTRY        .                                              MEXICO :COUNTRY
SRVC        .                                             UNKNOWN :SERVICE COMPANY
DATE        .                                             UNKNOWN :LOG DATE
UWI         .                                                3085 :UNIQUE WELL ID
XCOORD      .                                       601394.300000 :SURFACE X
YCOORD      .                                      2149880.180000 :SURFACE Y
LAT         .                                           19.441902 :LATITUDE
LON         .                                          -92.034105 :LONGITUDE
ELEV        .M                                            28.0000 :SURFACE ELEV
ELEV_TYPE   .                                                  KB :ELEV TYPE
~CURVE INFORMATION
#MNEMONIC.UNIT        API CODE       : CURVE DESCRIPTION
#------------------------------------------------------------------------------
DEPTH    .M                          : Measured Depth
CALI     .inches      UNKNOWN        : CALI:Import:rC:NONE:v0 (auto-composite)
CGR      .API         UNKNOWN        : CGR:Import:rC:NONE:v0 (auto-composite)
DRHO     .g/cm3       UNKNOWN        : DRHO:Import:rC:NONE:v0 (auto-composite)
DT       .us/ft       UNKNOWN        : DT:Import:rC:NONE:v0 (auto-composite)
GR       .API         UNKNOWN        : GR:Import:rC:NONE:v0 (auto-composite)
ILD      .ohm.m       UNKNOWN        : ILD:Import:rC:NONE:v0 (auto-composite)
ILM      .ohm.m       UNKNOWN        : ILM:Import:rC:NONE:v0 (auto-composite)
LLD      .ohm.m       UNKNOWN        : LLD:Import:rC:NONE:v0 (auto-composite)
LLS      .ohm.m       UNKNOWN        : LLS:Import:rC:NONE:v0 (auto-composite)
MSFL     .ohm.m       UNKNOWN        : MSFL:Import:rC:NONE:v0 (auto-composite)
NPHI     .v/v_decimal UNKNOWN        : NPHI:Import:rC:NONE:v0 (auto-composite)
PEF      .b/elec      UNKNOWN        : PEF:Import:rC:NONE:v0 (auto-composite)
POTA     .wtpercent   UNKNOWN        : POTA:Import:rC:NONE:v0 (auto-composite)
RHOB     .g/cm3       UNKNOWN        : RHOB:Import:rC:NONE:v0 (auto-composite)
SP       .mV          UNKNOWN        : SP:Import:rC:NONE:v0 (auto-composite)
THOR     .ppm         UNKNOWN        : THOR:Import:rC:NONE:v0 (auto-composite)
URAN     .ppm         UNKNOWN        : URAN:Import:rC:NONE:v0 (auto-composite)
~A     DEPTH         CALI          CGR         DRHO           DT           GR          ILD          ILM          LLD          LLS         MSFL         NPHI          PEF         POTA         RHOB           SP         THOR         URAN
# ...
   2233.5100      12.7098    -999.2500       0.0674    -999.2500      82.3889    -999.2500    -999.2500       4.8174       4.7642       2.1330       0.3083       3.0696    -999.2500       2.4794     -30.9860    -999.2500    -999.2500
   2233.6624      12.7187    -999.2500       0.0556    -999.2500      76.9356    -999.2500    -999.2500       5.0782       4.8169       3.1050       0.2738       3.0287    -999.2500       2.4796     -30.8298    -999.2500    -999.2500
   2233.8147      12.8556    -999.2500       0.0376    -999.2500      72.2668    -999.2500    -999.2500       4.9918       4.6910       4.3934       0.2204       3.0167    -999.2500       2.4761     -30.6735    -999.2500    -999.2500
   2233.9673      12.8756    -999.2500       0.0292    -999.2500      66.7125    -999.2500    -999.2500       5.1860       4.7451       5.1299       0.2031       3.0164    -999.2500       2.4767     -30.3447    -999.2500    -999.2500
   2234.1196      12.8431    -999.2500       0.0252    -999.2500      60.7601    -999.2500    -999.2500       5.5064       4.8800       5.6182       0.2052       3.0214    -999.2500       2.4792     -29.9384    -999.2500    -999.2500
   2234.2720      12.8271    -999.2500       0.0309    -999.2500      56.4938    -999.2500    -999.2500       5.4443       5.0906       5.6785       0.2036       3.0448    -999.2500       2.4755     -29.5101    -999.2500    -999.2500
   2234.4243      12.8186    -999.2500       0.0409    -999.2500      52.9886    -999.2500    -999.2500       5.2097       5.3353       5.5456       0.1992       3.0764    -999.2500       2.4690     -29.0718    -999.2500    -999.2500
   2234.5767      12.8368    -999.2500       0.0357    -999.2500      53.8335    -999.2500    -999.2500       5.3581       5.5877       5.6737       0.1984       3.0978    -999.2500       2.4590     -29.6753    -999.2500    -999.2500
   2234.7292      12.8668    -999.2500       0.0237    -999.2500      56.5913    -999.2500    -999.2500       5.6749       5.8436       5.9166       0.1999       3.1148    -999.2500       2.4475     -30.7369    -999.2500    -999.2500
   2234.8816      12.8327    -999.2500       0.0231    -999.2500      56.5370    -999.2500    -999.2500       6.0678       6.0665       5.9390       0.2020       3.1422    -999.2500       2.4405     -32.7726    -999.2500    -999.2500
   2235.0339      12.7703    -999.2500       0.0276    -999.2500      55.2411    -999.2500    -999.2500       6.4943       6.2747       5.8641       0.2032       3.1741    -999.2500       2.4355     -35.2386    -999.2500    -999.2500
   2235.1863      12.7666    -999.2500       0.0307    -999.2500      57.3391    -999.2500    -999.2500       6.5823       6.4090       6.0337       0.2004       3.2370    -999.2500       2.4350     -35.7834    -999.2500    -999.2500
   2235.3389      12.7892    -999.2500       0.0332    -999.2500      60.9532    -999.2500    -999.2500       6.5192       6.5103       6.3125       0.1946       3.3137    -999.2500       2.4365     -35.4700    -999.2500    -999.2500
   2235.4912      12.8294    -999.2500       0.0267    -999.2500      62.8614    -999.2500    -999.2500       6.5202       6.7559       6.9054       0.1830       3.3892    -999.2500       2.4610     -35.0919    -999.2500    -999.2500
   2235.6436      12.8774    -999.2500       0.0162    -999.2500      64.0274    -999.2500    -999.2500       6.5492       7.0642       7.6351       0.1701       3.4642    -999.2500       2.4955     -34.6856    -999.2500    -999.2500
   2235.7959      12.8451    -999.2500       0.0165    -999.2500      63.7964    -999.2500    -999.2500       6.7206       7.3849       7.9522       0.1612       3.5134    -999.2500       2.5164     -34.0407    -999.2500    -999.2500
   2235.9485      12.7777    -999.2500       0.0215    -999.2500      62.9549    -999.2500    -999.2500       6.9544       7.7110       8.0891       0.1551       3.5514    -999.2500       2.5314     -33.2916    -999.2500    -999.2500
   2236.1008      12.7431    -999.2500       0.0227    -999.2500      61.7394    -999.2500    -999.2500       7.2378       8.1486       8.2565       0.1519       3.5568    -999.2500       2.5332     -32.6506    -999.2500    -999.2500
   2236.2532      12.7231    -999.2500       0.0222    -999.2500      60.3585    -999.2500    -999.2500       7.5431       8.6354       8.4374       0.1497       3.5478    -999.2500       2.5292     -32.0574    -999.2500    -999.2500
   2236.4055      12.7267    -999.2500       0.0265    -999.2500      60.9254    -999.2500    -999.2500       7.7917       8.5046       8.6235       0.1466       3.5093    -999.2500       2.5349     -32.0048    -999.2500    -999.2500
   2236.5579      12.7407    -999.2500       0.0330    -999.2500      62.3567    -999.2500    -999.2500       8.0151       8.0998       8.8119       0.1443       3.4579    -999.2500       2.5449     -32.1922    -999.2500    -999.2500
   2236.7104      12.7111    -999.2500       0.0315    -999.2500      62.3465    -999.2500    -999.2500       7.8766       8.2111       8.4410       0.1532       3.3915    -999.2500       2.5148     -32.4014    -999.2500    -999.2500
   2236.8628      12.6621    -999.2500       0.0265    -999.2500      61.6938    -999.2500    -999.2500       7.5767       8.5525       7.8207       0.1690       3.3186    -999.2500       2.4668     -32.6203    -999.2500    -999.2500
   2237.0151      12.5989    -999.2500       0.0267    -999.2500      59.5105    -999.2500    -999.2500       7.8246       8.8446       8.2541       0.1892       3.2250    -999.2500       2.4607     -32.8611    -999.2500    -999.2500
   2237.1675      12.5293    -999.2500       0.0292    -999.2500      56.6423    -999.2500    -999.2500       8.3175       9.1146       9.1589       0.2082       3.1223    -999.2500       2.4732     -33.1115    -999.2500    -999.2500
   2237.3201      12.5240    -999.2500       0.0283    -999.2500      55.3159    -999.2500    -999.2500       8.9166       9.6377       9.8948       0.2124       3.0636    -999.2500       2.4905     -33.9908    -999.2500    -999.2500
   2237.4724      12.5470    -999.2500       0.0258    -999.2500      54.6667    -999.2500    -999.2500       9.5624      10.2719      10.5565       0.2064       3.0241    -999.2500       2.5100     -35.1463    -999.2500    -999.2500
   2237.6248      12.4975    -999.2500       0.0240    -999.2500      55.8865    -999.2500    -999.2500       9.6598      10.3228      10.9168       0.1935       3.0352    -999.2500       2.5219     -35.0665    -999.2500    -999.2500
   2237.7771      12.4160    -999.2500       0.0225    -999.2500      57.9306    -999.2500    -999.2500       9.5153      10.1164      11.1442       0.1791       3.0687    -999.2500       2.5304     -34.4417    -999.2500    -999.2500
   2237.9297      12.4073    -999.2500       0.0262    -999.2500      56.7644    -999.2500    -999.2500       9.2448       9.9009      10.6574       0.1686       3.1244    -999.2500       2.5340     -34.9643    -999.2500    -999.2500
   2238.0820      12.4308    -999.2500       0.0322    -999.2500      54.1765    -999.2500    -999.2500       8.9184       9.6815       9.8542       0.1613       3.1898    -999.2500       2.5355     -35.9948    -999.2500    -999.2500
   2238.2344      12.4314    -999.2500       0.0357    -999.2500      52.8566    -999.2500    -999.2500       8.9898       9.6793       9.3757       0.1623       3.2287    -999.2500       2.5232     -36.0099    -999.2500    -999.2500
   2238.3867      12.4219    -999.2500       0.0382    -999.2500      52.1006    -999.2500    -999.2500       9.2380       9.7737       9.0417       0.1676       3.2556    -999.2500       2.5047     -35.5734    -999.2500    -999.2500
   2238.5391      12.3820    -999.2500       0.0431    -999.2500      51.5046    -999.2500    -999.2500       9.2590       9.7352       9.0874       0.1746       3.2543    -999.2500       2.4966     -35.2433    -999.2500    -999.2500
   2238.6917      12.3283    -999.2500       0.0492    -999.2500      50.9807    -999.2500    -999.2500       9.1777       9.6369       9.3040       0.1823       3.2403    -999.2500       2.4931     -34.9610    -999.2500    -999.2500
