#------------------------------------------------------------------------------
#
#   Created by  : [OpenWorks] Log Export Utility (LEXP)
#   Created on  : 2016-05-11 12:13:42
#   Project     : CANT971
#   User        : R5K
#   Interpreter : PEP
#
#------------------------------------------------------------------------------
~VERSION INFORMATION
VERS. 2.0 : CWLS Log ASCII Standard - version 2.0
WRAP.  NO : One line per depth step
~WELL INFORMATION
#MNEMONIC   .UNIT                                           VALUE :DESCRIPTION
#------------------------------------------------------------------------------
STRT        .M                                           659.9800 :START DEPTH
STOP        .M                                          2975.8503 :STOP DEPTH
STEP        .M                                             0.1524 :STEP
NULL        .                                           -999.2500 :NULL VALUE
COMP        .                                   PEMEX EXPL & PROD :COMPANY
WELL        .                                                3085 :WELL
FLD         .                                           CANTARELL :FIELD
LOC         .                                             UNKNOWN :LOCATION
CNTY        .                                      CD. DEL CARMEN :COUNTY
STAT        .                                            CAMPECHE :STATE
CTRY        .                                              MEXICO :COUNTRY
SRVC        .                                             UNKNOWN :SERVICE COMPANY
DATE        .                                             UNKNOWN :LOG DATE
UWI         .                                                3085 :UNIQUE WELL ID
XCOORD      .                                       601394.300000 :SURFACE X
YCOORD      .                                      2149880.180000 :SURFACE Y
LAT         .                                           19.441902 :LATITUDE
LON         .                                          -92.034105 :LONGITUDE
ELEV        .M                                            28.0000 :SURFACE ELEV
ELEV_TYPE   .                                                  KB :ELEV TYPE
~CURVE INFORMATION
#MNEMONIC.UNIT        API CODE       : CURVE DESCRIPTION
#------------------------------------------------------------------------------
DEPTH    .M                          : Measured Depth
CALI     .inches      UNKNOWN        : CALI:Import:rC:NONE:v0 (auto-composite)
CGR      .API         UNKNOWN        : CGR:Import:rC:NONE:v0 (auto-composite)
DRHO     .g/cm3       UNKNOWN        : DRHO:Import:rC:NONE:v0 (auto-composite)
DT       .us/ft       UNKNOWN        : DT:Import:rC:NONE:v0 (auto-composite)
GR       .API         UNKNOWN        : GR:Import:rC:NONE:v0 (auto-composite)
ILD      .ohm.m       UNKNOWN        : ILD:Import:rC:NONE:v0 (auto-composite)
ILM      .ohm.m       UNKNOWN        : ILM:Import:rC:NONE:v0 (auto-composite)
LLD      .ohm.m       UNKNOWN        : LLD:Import:rC:NONE:v0 (auto-composite)
LLS      .ohm.m       UNKNOWN        : LLS:Import:rC:NONE:v0 (auto-composite)
MSFL     .ohm.m       UNKNOWN        : MSFL:Import:rC:NONE:v0 (auto-composite)
NPHI     .v/v_decimal UNKNOWN        : NPHI:Import:rC:NONE:v0 (auto-composite)
PEF      .b/elec      UNKNOWN        : PEF:Import:rC:NONE:v0 (auto-composite)
POTA     .wtpercent   UNKNOWN        : POTA:Import:rC:NONE:v0 (auto-composite)
RHOB     .g/cm3       UNKNOWN        : RHOB:Import:rC:NONE:v0 (auto-composite)
SP       .mV          UNKNOWN        : SP:Import:rC:NONE:v0 (auto-composite)
THOR     .ppm         UNKNOWN        : THOR:Import:rC:NONE:v0 (auto-composite)
URAN     .ppm         UNKNOWN        : URAN:Import:rC:NONE:v0 (auto-composite)
~A     DEPTH         CALI          CGR         DRHO           DT           GR          ILD          ILM          LLD          LLS         MSFL         NPHI          PEF         POTA         RHOB           SP         THOR         URAN
# ...
   2180.1699      11.9397    -999.2500       0.0397    -999.2500      40.6369    -999.2500    -999.2500      28.0338      31.6917      13.2039       0.0333       4.2309    -999.2500       2.5862     -28.9036    -999.2500    -999.2500
   2180.3223      12.0035    -999.2500       0.0403    -999.2500      37.3211    -999.2500    -999.2500      26.2187      30.1576      18.9409       0.0305       4.2510    -999.2500       2.6073     -27.9386    -999.2500    -999.2500
   2180.4749      12.1228    -999.2500       0.0378    -999.2500      35.4133    -999.2500    -999.2500      28.1926      31.4371      31.8261       0.0224       4.2901    -999.2500       2.6439     -26.4034    -999.2500    -999.2500
   2180.6272      12.0542    -999.2500       0.0363    -999.2500      33.5808    -999.2500    -999.2500      23.4751      25.9101      26.9169       0.0175       4.3055    -999.2500       2.6498     -24.6535    -999.2500    -999.2500
   2180.7795      11.9037    -999.2500       0.0353    -999.2500      31.7811    -999.2500    -999.2500      15.8469      17.4223      14.2674       0.0157       4.3105    -999.2500       2.6423     -22.8103    -999.2500    -999.2500
   2180.9319      11.9699    -999.2500       0.0277    -999.2500      30.4784    -999.2500    -999.2500      11.8329      14.0579      18.6703       0.0176       4.3374    -999.2500       2.6334     -22.9017    -999.2500    -999.2500
   2181.0845      12.1307    -999.2500       0.0172    -999.2500      29.3927    -999.2500    -999.2500       9.3974      12.9313      30.5212       0.0216       4.3738    -999.2500       2.6239     -23.8380    -999.2500    -999.2500
   2181.2368      12.1034    -999.2500       0.0095    -999.2500      28.1023    -999.2500    -999.2500      17.3862      18.6837      25.0126       0.0237       4.4013    -999.2500       2.6248     -23.7351    -999.2500    -999.2500
   2181.3892      11.9929    -999.2500       0.0030    -999.2500      26.7214    -999.2500    -999.2500      29.9812      27.4759      11.8333       0.0241       4.4248    -999.2500       2.6303     -23.1728    -999.2500    -999.2500
   2181.5415      11.9794    -999.2500       0.0069    -999.2500      25.8639    -999.2500    -999.2500      25.1769      23.4266       6.8455       0.0227       4.3752    -999.2500       2.6157     -24.2331    -999.2500    -999.2500
   2181.6941      12.0089    -999.2500       0.0154    -999.2500      25.2387    -999.2500    -999.2500      12.6528      13.6799       5.4921       0.0213       4.2933    -999.2500       2.5922     -26.0134    -999.2500    -999.2500
   2181.8464      11.9941    -999.2500       0.0197    -999.2500      28.5986    -999.2500    -999.2500       9.3545      11.0757       6.6361       0.0418       4.2811    -999.2500       2.5981     -26.3245    -999.2500    -999.2500
   2181.9988      11.9597    -999.2500       0.0222    -999.2500      33.7339    -999.2500    -999.2500      10.1662      11.6534       8.8926       0.0696       4.3001    -999.2500       2.6171     -25.9811    -999.2500    -999.2500
   2182.1511      11.9365    -999.2500       0.0143    -999.2500      35.0060    -999.2500    -999.2500      11.1045      12.5406      11.6358       0.0850       4.3261    -999.2500       2.6317     -26.3942    -999.2500    -999.2500
   2182.3035      11.9185    -999.2500       0.0018    -999.2500      34.5501    -999.2500    -999.2500      12.0994      13.5661      14.5966       0.0887       4.3551    -999.2500       2.6442     -27.1457    -999.2500    -999.2500
   2182.4561      11.8852    -999.2500      -0.0020    -999.2500      32.5474    -999.2500    -999.2500      14.0117      15.5165      16.1869       0.0723       4.3668    -999.2500       2.6543     -26.7454    -999.2500    -999.2500
   2182.6084      11.8452    -999.2500      -0.0020    -999.2500      29.8656    -999.2500    -999.2500      16.3267      17.8730      17.1755       0.0473       4.3708    -999.2500       2.6632     -25.8392    -999.2500    -999.2500
   2182.7607      11.8573    -999.2500       0.0011    -999.2500      28.5257    -999.2500    -999.2500      16.7197      18.4504      17.0573       0.0317       4.3831    -999.2500       2.6715     -25.9741    -999.2500    -999.2500
   2182.9131      11.8923    -999.2500       0.0056    -999.2500      27.7776    -999.2500    -999.2500      16.2654      18.2435      16.4510       0.0235       4.3991    -999.2500       2.6795     -26.5678    -999.2500    -999.2500
   2183.0657      11.8930    -999.2500       0.0150    -999.2500      29.1936    -999.2500    -999.2500      14.0588      15.5717      18.5594       0.0203       4.3943    -999.2500       2.6792     -27.1616    -999.2500    -999.2500
   2183.2180      11.8785    -999.2500       0.0265    -999.2500      31.5675    -999.2500    -999.2500      11.0766      11.8088      21.8695       0.0202       4.3803    -999.2500       2.6752     -27.7553    -999.2500    -999.2500
   2183.3704      11.8301    -999.2500       0.0331    -999.2500      32.4014    -999.2500    -999.2500      10.5265      10.9781      17.9715       0.0259       4.3553    -999.2500       2.6636     -26.4037    -999.2500    -999.2500
   2183.5227      11.7667    -999.2500       0.0376    -999.2500      32.5507    -999.2500    -999.2500      11.0573      11.4505      10.8697       0.0332       4.3253    -999.2500       2.6486     -24.1874    -999.2500    -999.2500
   2183.6753      11.8166    -999.2500       0.0476    -999.2500      34.4163    -999.2500    -999.2500      10.8717      12.3986      14.0771       0.0361       4.3094    -999.2500       2.6474     -20.8711    -999.2500    -999.2500
   2183.8276      11.9176    -999.2500       0.0601    -999.2500      37.0537    -999.2500    -999.2500      10.3639      13.5606      21.9197       0.0359       4.3000    -999.2500       2.6524     -17.0603    -999.2500    -999.2500
   2183.9800      12.1525    -999.2500       0.0609    -999.2500      39.3711    -999.2500    -999.2500      10.6457      12.6221      20.3491       0.0363       4.2131    -999.2500       2.6564     -14.8604    -999.2500    -999.2500
   2184.1323      12.4478    -999.2500       0.0564    -999.2500      41.5442    -999.2500    -999.2500      11.2840      10.7354      14.5290       0.0361       4.0912    -999.2500       2.6599     -13.3879    -999.2500    -999.2500
   2184.2847      12.2207    -999.2500       0.0363    -999.2500      40.7890    -999.2500    -999.2500      12.1080      12.1517      18.5074       0.0328       4.0342    -999.2500       2.6554     -13.2199    -999.2500    -999.2500
   2184.4373      11.7639    -999.2500       0.0093    -999.2500      38.7459    -999.2500    -999.2500      13.0136      15.0210      26.7958       0.0281       4.0057    -999.2500       2.6474     -13.6257    -999.2500    -999.2500
   2184.5896      11.6399    -999.2500       0.0048    -999.2500      38.4425    -999.2500    -999.2500      12.0724      14.1874      25.9167       0.0306       4.0895    -999.2500       2.6512      -9.8097    -999.2500    -999.2500
   2184.7419      11.6629    -999.2500       0.0103    -999.2500      38.9074    -999.2500    -999.2500      10.3155      11.7185      20.9888       0.0372       4.2228    -999.2500       2.6602      -4.1292    -999.2500    -999.2500
   2184.8943      11.8075    -999.2500       0.0251    -999.2500      40.4234    -999.2500    -999.2500      10.5344      11.5184      15.0996       0.0444       4.1262    -999.2500       2.6526      -5.8294    -999.2500    -999.2500
   2185.0469      12.0064    -999.2500       0.0441    -999.2500      42.4091    -999.2500    -999.2500      11.6359      12.3320       8.7808       0.0503       3.9268    -999.2500       2.6376     -10.8273    -999.2500    -999.2500
   2185.1992      11.9517    -999.2500       0.0400    -999.2500      44.3462    -999.2500    -999.2500      12.6910      13.3714       8.2137       0.0477       3.8290    -999.2500       2.6160     -14.9927    -999.2500    -999.2500
   2185.3516      11.7832    -999.2500       0.0254    -999.2500      46.2615    -999.2500    -999.2500      13.7254      14.5121      10.2267       0.0401       3.7769    -999.2500       2.5915     -18.7847    -999.2500    -999.2500
