#------------------------------------------------------------------------------
#
#   Created by  : [OpenWorks] Log Export Utility (LEXP)
#   Created on  : 2016-05-11 12:13:42
#   Project     : CANT971
#   User        : R5K
#   Interpreter : PEP
#
#------------------------------------------------------------------------------
~VERSION INFORMATION
VERS. 2.0 : CWLS Log ASCII Standard - version 2.0
WRAP.  NO : One line per depth step
~WELL INFORMATION
#MNEMONIC   .UNIT                                           VALUE :DESCRIPTION
#------------------------------------------------------------------------------
STRT        .M                                           659.9800 :START DEPTH
STOP        .M                                          2975.8503 :STOP DEPTH
STEP        .M                                             0.1524 :STEP
NULL        .                                           -999.2500 :NULL VALUE
COMP        .                                   PEMEX EXPL & PROD :COMPANY
WELL        .                                                3085 :WELL
FLD         .                                           CANTARELL :FIELD
LOC         .                                             UNKNOWN :LOCATION
CNTY        .                                      CD. DEL CARMEN :COUNTY
STAT        .                                            CAMPECHE :STATE
CTRY        .                                              MEXICO :COUNTRY
SRVC        .                                             UNKNOWN :SERVICE COMPANY
DATE        .                                             UNKNOWN :LOG DATE
UWI         .                                                3085 :UNIQUE WELL ID
XCOORD      .                                       601394.300000 :SURFACE X
YCOORD      .                                      2149880.180000 :SURFACE Y
LAT         .                                           19.441902 :LATITUDE
LON         .                                          -92.034105 :LONGITUDE
ELEV        .M                                            28.0000 :SURFACE ELEV
ELEV_TYPE   .                                                  KB :ELEV TYPE
~CURVE INFORMATION
#MNEMONIC.UNIT        API CODE       : CURVE DESCRIPTION
#------------------------------------------------------------------------------
DEPTH    .M                          : Measured Depth
CALI     .inches      UNKNOWN        : CALI:Import:rC:NONE:v0 (auto-composite)
CGR      .API         UNKNOWN        : CGR:Import:rC:NONE:v0 (auto-composite)
DRHO     .g/cm3       UNKNOWN        : DRHO:Import:rC:NONE:v0 (auto-composite)
DT       .us/ft       UNKNOWN        : DT:Import:rC:NONE:v0 (auto-composite)
GR       .API         UNKNOWN        : GR:Import:rC:NONE:v0 (auto-composite)
ILD      .ohm.m       UNKNOWN        : ILD:Import:rC:NONE:v0 (auto-composite)
ILM      .ohm.m       UNKNOWN        : ILM:Import:rC:NONE:v0 (auto-composite)
LLD      .ohm.m       UNKNOWN        : LLD:Import:rC:NONE:v0 (auto-composite)
LLS      .ohm.m       UNKNOWN        : LLS:Import:rC:NONE:v0 (auto-composite)
MSFL     .ohm.m       UNKNOWN        : MSFL:Import:rC:NONE:v0 (auto-composite)
NPHI     .v/v_decimal UNKNOWN        : NPHI:Import:rC:NONE:v0 (auto-composite)
PEF      .b/elec      UNKNOWN        : PEF:Import:rC:NONE:v0 (auto-composite)
POTA     .wtpercent   UNKNOWN        : POTA:Import:rC:NONE:v0 (auto-composite)
RHOB     .g/cm3       UNKNOWN        : RHOB:Import:rC:NONE:v0 (auto-composite)
SP       .mV          UNKNOWN        : SP:Import:rC:NONE:v0 (auto-composite)
THOR     .ppm         UNKNOWN        : THOR:Import:rC:NONE:v0 (auto-composite)
URAN     .ppm         UNKNOWN        : URAN:Import:rC:NONE:v0 (auto-composite)
~A     DEPTH         CALI          CGR         DRHO           DT           GR          ILD          ILM          LLD          LLS         MSFL         NPHI          PEF         POTA         RHOB           SP         THOR         URAN
# ...
   2345.5239      11.0332    -999.2500       0.0735    -999.2500      37.9548    -999.2500    -999.2500     756.4288     592.7538     201.2483       0.0510       2.9724    -999.2500       2.6750     -38.2992    -999.2500    -999.2500
   2345.6763      11.0047    -999.2500       0.0915    -999.2500      39.4177    -999.2500    -999.2500     568.7298     516.4243     217.5233       0.0456       2.9859    -999.2500       2.6865     -37.1122    -999.2500    -999.2500
   2345.8289      10.9894    -999.2500       0.0963    -999.2500      38.0363    -999.2500    -999.2500     566.6586     500.7090     175.7402       0.0458       3.0150    -999.2500       2.6792     -35.0583    -999.2500    -999.2500
   2345.9812      10.9799    -999.2500       0.0953    -999.2500      35.4060    -999.2500    -999.2500     646.0941     511.6085     108.4647       0.0489       3.0509    -999.2500       2.6638     -32.6238    -999.2500    -999.2500
   2346.1335      10.9915    -999.2500       0.0915    -999.2500      35.2029    -999.2500    -999.2500     582.3609     482.5559      97.7275       0.0510       3.0585    -999.2500       2.6645     -29.8852    -999.2500    -999.2500
   2346.2859      11.0125    -999.2500       0.0865    -999.2500      36.0781    -999.2500    -999.2500     455.0304     435.7562     112.1052       0.0527       3.0535    -999.2500       2.6725     -27.0114    -999.2500    -999.2500
   2346.4385      11.0111    -999.2500       0.0788    -999.2500      36.9926    -999.2500    -999.2500     485.3545     447.7923     119.7136       0.0554       3.0316    -999.2500       2.6695     -25.4555    -999.2500    -999.2500
   2346.5908      10.9996    -999.2500       0.0698    -999.2500      37.9247    -999.2500    -999.2500     585.9951     486.0703     124.3026       0.0584       3.0021    -999.2500       2.6615     -24.4874    -999.2500    -999.2500
   2346.7432      10.9960    -999.2500       0.0667    -999.2500      41.4454    -999.2500    -999.2500     528.4025     483.9940     110.0278       0.0569       3.0082    -999.2500       2.6604     -24.8370    -999.2500    -999.2500
   2346.8955      10.9960    -999.2500       0.0662    -999.2500      46.1254    -999.2500    -999.2500     399.9495     463.8462      87.3053       0.0529       3.0303    -999.2500       2.6624     -25.7766    -999.2500    -999.2500
   2347.0481      11.0120    -999.2500       0.0608    -999.2500      43.4957    -999.2500    -999.2500     443.0382     467.2944      89.7802       0.0479       3.0756    -999.2500       2.6647     -26.7143    -999.2500    -999.2500
   2347.2004      11.0350    -999.2500       0.0533    -999.2500      37.6769    -999.2500    -999.2500     560.9698     481.0375     103.2486       0.0424       3.1310    -999.2500       2.6672     -27.6511    -999.2500    -999.2500
   2347.3528      11.0486    -999.2500       0.0555    -999.2500      34.4065    -999.2500    -999.2500     528.3545     511.7165     100.5936       0.0343       3.1199    -999.2500       2.6826     -28.7611    -999.2500    -999.2500
   2347.5051      11.0581    -999.2500       0.0620    -999.2500      32.2609    -999.2500    -999.2500     429.2878     549.8710      90.8219       0.0259       3.0794    -999.2500       2.7036     -29.9476    -999.2500    -999.2500
   2347.6575      11.0423    -999.2500       0.0668    -999.2500      31.3111    -999.2500    -999.2500     522.3534     628.2677     110.9586       0.0202       3.0095    -999.2500       2.7180     -30.8533    -999.2500    -999.2500
   2347.8101      11.0153    -999.2500       0.0708    -999.2500      30.8913    -999.2500    -999.2500     700.5714     724.4996     144.3507       0.0168       2.9265    -999.2500       2.7295     -31.6344    -999.2500    -999.2500
   2347.9624      11.0450    -999.2500       0.0699    -999.2500      32.0120    -999.2500    -999.2500     770.3080     818.3342     201.0001       0.0163       2.9152    -999.2500       2.7413     -32.2852    -999.2500    -999.2500
   2348.1147      11.0999    -999.2500       0.0669    -999.2500      33.8183    -999.2500    -999.2500     791.7705     911.1017     267.9990       0.0169       2.9356    -999.2500       2.7533     -32.8780    -999.2500    -999.2500
   2348.2671      11.0831    -999.2500       0.0740    -999.2500      33.5814    -999.2500    -999.2500     909.1536     992.3363     264.5899       0.0163       3.0070    -999.2500       2.7719     -34.1428    -999.2500    -999.2500
   2348.4197      11.0340    -999.2500       0.0855    -999.2500      32.4247    -999.2500    -999.2500    1069.7166    1068.3792     229.4856       0.0147       3.1013    -999.2500       2.7934     -35.7101    -999.2500    -999.2500
   2348.5720      11.0270    -999.2500       0.0890    -999.2500      30.1143    -999.2500    -999.2500    1241.4097    1114.9913     231.8811       0.0130       3.1557    -999.2500       2.7976     -37.3820    -999.2500    -999.2500
   2348.7244      11.0385    -999.2500       0.0890    -999.2500      27.2981    -999.2500    -999.2500    1417.9845    1148.6953     250.7239       0.0115       3.1927    -999.2500       2.7941     -39.0998    -999.2500    -999.2500
   2348.8767      11.0177    -999.2500       0.0907    -999.2500      25.6945    -999.2500    -999.2500    1374.5643    1134.7299     272.8898       0.0113       3.1707    -999.2500       2.7986     -40.1673    -999.2500    -999.2500
   2349.0293      10.9827    -999.2500       0.0932    -999.2500      24.6249    -999.2500    -999.2500    1234.2610    1099.7715     296.5191       0.0118       3.1227    -999.2500       2.8065     -40.9485    -999.2500    -999.2500
   2349.1816      10.9848    -999.2500       0.0874    -999.2500      24.4289    -999.2500    -999.2500    1135.9760    1144.5482     314.9347       0.0128       3.1018    -999.2500       2.8048     -41.5343    -999.2500    -999.2500
   2349.3340      11.0033    -999.2500       0.0779    -999.2500      24.6192    -999.2500    -999.2500    1056.2706    1224.5825     331.0448       0.0139       3.0928    -999.2500       2.7989     -42.0337    -999.2500    -999.2500
   2349.4863      11.0197    -999.2500       0.0715    -999.2500      23.8665    -999.2500    -999.2500    1120.8176    1236.8328     311.0667       0.0151       3.0682    -999.2500       2.7977     -42.5547    -999.2500    -999.2500
   2349.6387      11.0352    -999.2500       0.0665    -999.2500      22.6920    -999.2500    -999.2500    1249.8928    1218.7611     274.9453       0.0162       3.0368    -999.2500       2.7987     -43.0855    -999.2500    -999.2500
   2349.7913      11.0085    -999.2500       0.0692    -999.2500      21.5554    -999.2500    -999.2500    1449.8922    1194.1195     286.4401       0.0173       3.0059    -999.2500       2.7938     -43.5095    -999.2500    -999.2500
   2349.9436      10.9629    -999.2500       0.0752    -999.2500      20.4358    -999.2500    -999.2500    1681.7465    1166.5270     319.3212       0.0188       2.9753    -999.2500       2.7863     -43.8855    -999.2500    -999.2500
   2350.0959      10.9389    -999.2500       0.0888    -999.2500      21.0236    -999.2500    -999.2500    1513.7787    1087.3015     269.0565       0.0292       2.9681    -999.2500       2.7882     -44.6084    -999.2500    -999.2500
   2350.2483      10.9244    -999.2500       0.1058    -999.2500      22.3585    -999.2500    -999.2500    1170.8523     985.4820     182.4080       0.0433       2.9711    -999.2500       2.7942     -45.4830    -999.2500    -999.2500
   2350.4009      10.9006    -999.2500       0.1079    -999.2500      23.5768    -999.2500    -999.2500    1003.8768     977.1592     124.3538       0.0561       2.9852    -999.2500       2.7547     -46.0102    -999.2500    -999.2500
   2350.5532      10.8726    -999.2500       0.1034    -999.2500      24.7439    -999.2500    -999.2500     914.2103    1009.9168      78.8634       0.0664       3.0042    -999.2500       2.6953     -46.3847    -999.2500    -999.2500
   2350.7056      10.8827    -999.2500       0.0975    -999.2500      23.5042    -999.2500    -999.2500     842.6019    1057.3400      69.4739       0.0692       3.0020    -999.2500       2.6594     -46.0890    -999.2500    -999.2500
