#------------------------------------------------------------------------------
#
#   Created by  : [OpenWorks] Log Export Utility (LEXP)
#   Created on  : 2016-05-11 12:13:43
#   Project     : CANT971
#   User        : R5K
#   Interpreter : PEP
#
#------------------------------------------------------------------------------
~VERSION INFORMATION
VERS. 2.0 : CWLS Log ASCII Standard - version 2.0
WRAP.  NO : One line per depth step
~WELL INFORMATION
#MNEMONIC   .UNIT                                           VALUE :DESCRIPTION
#------------------------------------------------------------------------------
STRT        .M                                           704.3840 :START DEPTH
STOP        .M                                          2722.4648 :STOP DEPTH
STEP        .M                                             0.1524 :STEP
NULL        .                                           -999.2500 :NULL VALUE
COMP        .                                   PEMEX EXPL & PROD :COMPANY
WELL        .                                                3087 :WELL
FLD         .                                           CANTARELL :FIELD
LOC         .                                             UNKNOWN :LOCATION
CNTY        .                                      CD. DEL CARMEN :COUNTY
STAT        .                                            CAMPECHE :STATE
CTRY        .                                              MEXICO :COUNTRY
SRVC        .                                             UNKNOWN :SERVICE COMPANY
DATE        .                                             UNKNOWN :LOG DATE
UWI         .                                          3060000698 :UNIQUE WELL ID
XCOORD      .                                       601395.890000 :SURFACE X
YCOORD      .                                      2149878.530000 :SURFACE Y
LAT         .                                           19.441887 :LATITUDE
LON         .                                          -92.034090 :LONGITUDE
ELEV        .M                                            28.0000 :SURFACE ELEV
ELEV_TYPE   .                                                  KB :ELEV TYPE
~CURVE INFORMATION
#MNEMONIC.UNIT        API CODE       : CURVE DESCRIPTION
#------------------------------------------------------------------------------
DEPTH    .M                          : Measured Depth
CALI     .inches      UNKNOWN        : CALI:Import:rC:NONE:v0 (auto-composite)
DRHO     .g/cm3       UNKNOWN        : DRHO:Import:rC:NONE:v0 (auto-composite)
DT       .us/ft       UNKNOWN        : DT:Import:rC:NONE:v0 (auto-composite)
GR       .API         UNKNOWN        : GR:Import:rC:NONE:v0 (auto-composite)
ILD      .ohm.m       UNKNOWN        : ILD:Import:rC:NONE:v0 (auto-composite)
ILM      .ohm.m       UNKNOWN        : ILM:Import:rC:NONE:v0 (auto-composite)
LLD      .ohm.m       UNKNOWN        : LLD:Import:rC:NONE:v0 (auto-composite)
LLS      .ohm.m       UNKNOWN        : LLS:Import:rC:NONE:v0 (auto-composite)
MSFL     .ohm.m       UNKNOWN        : MSFL:Import:rC:NONE:v0 (auto-composite)
NPHI     .v/v_decimal UNKNOWN        : NPHI:Import:rC:NONE:v0 (auto-composite)
PEF      .b/elec      UNKNOWN        : PEF:Import:rC:NONE:v0 (auto-composite)
RHOB     .g/cm3       UNKNOWN        : RHOB:Import:rC:NONE:v0 (auto-composite)
~A     DEPTH         CALI         DRHO           DT           GR          ILD          ILM          LLD          LLS         MSFL         NPHI          PEF         RHOB
# ...
   2511.2383       6.7930       0.0731      56.3567      40.7226    -999.2500    -999.2500     315.6833     262.1980      89.7450       0.0555       3.4415       2.7598
   2511.3909       6.9309       0.0776      55.5834      39.6367    -999.2500    -999.2500     339.8300     281.2828     161.0910       0.0503       3.4167       2.7737
   2511.5432       7.0943       0.0826      55.5517      38.7011    -999.2500    -999.2500     364.6583     301.1647     240.6986       0.0480       3.3867       2.7887
   2511.6956       6.9504       0.0912      56.0140      40.5292    -999.2500    -999.2500     333.4629     277.1217     188.8720       0.0489       3.4058       2.7950
   2511.8479       6.7761       0.1002      56.5610      42.6301    -999.2500    -999.2500     296.7372     248.7427     124.0709       0.0513       3.4298       2.8005
   2512.0005       6.9233       0.0969      57.2664      43.4745    -999.2500    -999.2500     279.5243     233.5079     131.0361       0.0531       3.4570       2.7942
   2512.1528       7.1032       0.0924      57.8973      44.1912    -999.2500    -999.2500     264.2959     219.6099     145.3000       0.0553       3.4844       2.7867
   2512.3052       6.9563       0.0897      58.0001      46.5991    -999.2500    -999.2500     251.5629     208.9910     187.7733       0.0585       3.4461       2.7842
   2512.4575       6.7758       0.0872      57.8217      49.1808    -999.2500    -999.2500     239.0863     198.7090     233.1450       0.0610       3.4010       2.7822
   2512.6099       6.8831       0.0838      57.9540      47.8133    -999.2500    -999.2500     220.0426     183.6113     173.8345       0.0597       3.3947       2.7647
   2512.7625       7.0181       0.0803      58.7512      46.0666    -999.2500    -999.2500     200.3681     168.0510     104.4694       0.0593       3.3922       2.7457
   2512.9148       6.9531       0.0782      59.7224      42.3387    -999.2500    -999.2500     197.0966     165.7054      90.8659       0.0653       3.4198       2.7235
   2513.0671       6.8687       0.0762      60.7919      38.4186    -999.2500    -999.2500     195.4177     164.6427      82.6760       0.0709       3.4502       2.7010
   2513.2195       6.9690       0.0769      61.9162      35.6723    -999.2500    -999.2500     207.5743     174.2797      92.4076       0.0664       3.3956       2.7063
   2513.3721       7.0879       0.0779      62.3178      33.0435    -999.2500    -999.2500     221.1154     184.9874     103.9326       0.0587       3.3324       2.7143
   2513.5244       6.9741       0.0734      62.2516      34.0458    -999.2500    -999.2500     209.0679     175.5666     121.8706       0.0568       3.2822       2.7310
   2513.6768       6.8387       0.0684      62.4358      35.3873    -999.2500    -999.2500     194.6306     164.2660     140.4076       0.0594       3.2332       2.7485
   2513.8291       6.9196       0.0666      62.3262      43.7775    -999.2500    -999.2500     194.2889     163.6734     119.1584       0.0652       3.2331       2.7432
   2513.9817       7.0210       0.0651      61.7256      52.8333    -999.2500    -999.2500     195.2782     164.0919      94.1522       0.0718       3.2376       2.7357
   2514.1340       6.9171       0.0682      61.3418      49.9954    -999.2500    -999.2500     190.7493     157.2033      90.6910       0.0764       3.2621       2.7359
   2514.2864       6.7931       0.0717      61.1562      45.9991    -999.2500    -999.2500     185.6830     149.6030      89.3281       0.0783       3.2886       2.7369
   2514.4387       6.8998       0.0761      59.9346      45.2620    -999.2500    -999.2500     165.2596     131.5442     104.1291       0.0771       3.3315       2.7456
   2514.5911       7.0293       0.0806      58.2034      44.8457    -999.2500    -999.2500     143.3245     112.4560     120.5210       0.0775       3.3760       2.7551
   2514.7437       6.9233       0.0742      57.9955      45.7149    -999.2500    -999.2500     141.0823     110.1958      92.4471       0.0873       3.3959       2.7274
   2514.8960       6.7938       0.0667      58.7394      46.7119    -999.2500    -999.2500     140.7989     109.6095      59.9502       0.0958       3.4134       2.6959
   2515.0483       6.8849       0.0701      59.2462      42.3991    -999.2500    -999.2500     154.5459     119.6088      65.4310       0.0907       3.3362       2.6925
   2515.2007       6.9981       0.0746      59.0618      37.5526    -999.2500    -999.2500     169.7033     130.6721      74.7294       0.0796       3.2496       2.6920
   2515.3533       6.9154       0.0796      57.6191      34.8494    -999.2500    -999.2500     202.6968     155.1617      84.0511       0.0717       3.2402       2.7139
   2515.5056       6.8140       0.0846      55.7871      32.3515    -999.2500    -999.2500     237.3983     180.9371      93.3751       0.0670       3.2382       2.7379
   2515.6580       6.9075       0.0832      55.3311      34.8072    -999.2500    -999.2500     251.2190     192.6039     106.9642       0.0645       3.2125       2.7341
   2515.8103       7.0200       0.0812      55.5012      37.7424    -999.2500    -999.2500     263.0184     202.9050     120.9661       0.0641       3.1845       2.7276
   2515.9629       6.9376       0.0878      55.7400      42.1271    -999.2500    -999.2500     228.9490     173.7570     116.3946       0.0665       3.1788       2.7265
   2516.1152       6.8361       0.0953      56.2598      46.6537    -999.2500    -999.2500     190.3916     140.7492     110.0059       0.0692       3.1753       2.7260
   2516.2676       6.9397       0.0905      56.6026      51.9713    -999.2500    -999.2500     158.8163     116.8376     116.6190       0.0687       3.2095       2.7355
   2516.4199       7.0635       0.0846      56.6259      57.3671    -999.2500    -999.2500     127.9314      93.8255     124.5177       0.0681       3.2475       2.7460
   2516.5723       6.9676       0.0822      57.0122      58.9294    -999.2500    -999.2500     122.1069      90.3411     106.9424       0.0708       3.2592       2.7283
   2516.7249       6.8493       0.0802      58.1980      60.1012    -999.2500    -999.2500     118.8353      88.8459      86.7720       0.0757       3.2682       2.7078
   2516.8772       6.9467       0.0832      59.0932      58.0093    -999.2500    -999.2500     136.0237     103.3315      91.3686       0.0813       3.2439       2.7019
   2517.0295       7.0646       0.0867      59.4183      55.6069    -999.2500    -999.2500     155.1594     119.3381      98.3226       0.0827       3.2164       2.6974
   2517.1819       6.9724       0.0792      58.9041      52.6217    -999.2500    -999.2500     178.5060     137.3926     136.2106       0.0747       3.2040       2.7157
   2517.3345       6.8600       0.0708      58.0400      49.5806    -999.2500    -999.2500     202.2578     155.6443     177.0750       0.0640       3.1930       2.7362
   2517.4868       6.9164       0.0673      57.4920      48.1218    -999.2500    -999.2500     171.8751     134.5733     123.5715       0.0594       3.1920       2.7435
   2517.6392       6.9894       0.0643      57.4004      46.8169    -999.2500    -999.2500     136.2275     109.6780      60.8903       0.0594       3.1920       2.7495
   2517.7915       6.9247       0.0695      57.9139      46.7380    -999.2500    -999.2500     132.7888     106.5655      53.6914       0.0616       3.2061       2.7586
   2517.9441       6.8462       0.0754      58.7289      46.7820    -999.2500    -999.2500     132.5784     105.6364      52.0536       0.0646       3.2216       2.7681
   2518.0964       7.0079       0.0719      59.3636      40.7672    -999.2500    -999.2500     141.1342     113.0121      94.5818       0.0663       3.2016       2.7453
   2518.2488       7.1939       0.0674      59.0216      34.1388    -999.2500    -999.2500     150.5779     121.2289     141.5831       0.0659       3.1780       2.7193
   2518.4011       7.0557       0.0729      58.4180      33.8614    -999.2500    -999.2500     156.9795     127.1574     110.6253       0.0630       3.2303       2.7216
