#------------------------------------------------------------------------------
#
#   Created by  : [OpenWorks] Log Export Utility (LEXP)
#   Created on  : 2016-05-11 12:13:43
#   Project     : CANT971
#   User        : R5K
#   Interpreter : PEP
#
#------------------------------------------------------------------------------
~VERSION INFORMATION
VERS. 2.0 : CWLS Log ASCII Standard - version 2.0
WRAP.  NO : One line per depth step
~WELL INFORMATION
#MNEMONIC   .UNIT                                           VALUE :DESCRIPTION
#------------------------------------------------------------------------------
STRT        .M                                           704.3840 :START DEPTH
STOP        .M                                          2722.4648 :STOP DEPTH
STEP        .M                                             0.1524 :STEP
NULL        .                                           -999.2500 :NULL VALUE
COMP        .                                   PEMEX EXPL & PROD :COMPANY
WELL        .                                                3087 :WELL
FLD         .                                           CANTARELL :FIELD
LOC         .                                             UNKNOWN :LOCATION
CNTY        .                                      CD. DEL CARMEN :COUNTY
STAT        .                                            CAMPECHE :STATE
CTRY        .                                              MEXICO :COUNTRY
SRVC        .                                             UNKNOWN :SERVICE COMPANY
DATE        .                                             UNKNOWN :LOG DATE
UWI         .                                          3060000698 :UNIQUE WELL ID
XCOORD      .                                       601395.890000 :SURFACE X
YCOORD      .                                      2149878.530000 :SURFACE Y
LAT         .                                           19.441887 :LATITUDE
LON         .                                          -92.034090 :LONGITUDE
ELEV        .M                                            28.0000 :SURFACE ELEV
ELEV_TYPE   .                                                  KB :ELEV TYPE
~CURVE INFORMATION
#MNEMONIC.UNIT        API CODE       : CURVE DESCRIPTION
#------------------------------------------------------------------------------
DEPTH    .M                          : Measured Depth
CALI     .inches      UNKNOWN        : CALI:Import:rC:NONE:v0 (auto-composite)
DRHO     .g/cm3       UNKNOWN        : DRHO:Import:rC:NONE:v0 (auto-composite)
DT       .us/ft       UNKNOWN        : DT:Import:rC:NONE:v0 (auto-composite)
GR       .API         UNKNOWN        : GR:Import:rC:NONE:v0 (auto-composite)
ILD      .ohm.m       UNKNOWN        : ILD:Import:rC:NONE:v0 (auto-composite)
ILM      .ohm.m       UNKNOWN        : ILM:Import:rC:NONE:v0 (auto-composite)
LLD      .ohm.m       UNKNOWN        : LLD:Import:rC:NONE:v0 (auto-composite)
LLS      .ohm.m       UNKNOWN        : LLS:Import:rC:NONE:v0 (auto-composite)
MSFL     .ohm.m       UNKNOWN        : MSFL:Import:rC:NONE:v0 (auto-composite)
NPHI     .v/v_decimal UNKNOWN        : NPHI:Import:rC:NONE:v0 (auto-composite)
PEF      .b/elec      UNKNOWN        : PEF:Import:rC:NONE:v0 (auto-composite)
RHOB     .g/cm3       UNKNOWN        : RHOB:Import:rC:NONE:v0 (auto-composite)
~A     DEPTH         CALI         DRHO           DT           GR          ILD          ILM          LLD          LLS         MSFL         NPHI          PEF         RHOB
# ...
   2306.4128       9.1506       0.0251      61.7004      78.3986    -999.2500    -999.2500      18.1534      15.2170      20.5499       0.0719       4.7055       2.5967
   2306.5652       9.3640       0.0146      61.3009      82.4389    -999.2500    -999.2500      14.3006      12.0679      22.0128       0.0765       4.7075       2.5817
   2306.7175       9.2739       0.0154      61.3970      79.8684    -999.2500    -999.2500      14.5620      12.3462      18.0964       0.0884       4.5882       2.5585
   2306.8699       9.0834       0.0199      63.1362      75.1144    -999.2500    -999.2500      16.1823      13.7566      12.4034       0.1028       4.4287       2.5325
   2307.0225       9.1283       0.0150      64.0838      72.6331    -999.2500    -999.2500      19.0823      16.1859      15.5344       0.1114       4.4254       2.5200
   2307.1748       9.2513       0.0070      64.0614      70.9058    -999.2500    -999.2500      22.4068      18.9532      21.5932       0.1135       4.4739       2.5120
   2307.3271       9.1794       0.0102      64.8674      66.3376    -999.2500    -999.2500      23.5504      19.9690      24.5829       0.1054       4.4242       2.5276
   2307.4795       9.0425       0.0172      64.6404      60.8224    -999.2500    -999.2500      23.9669      20.4009      26.5495       0.0922       4.3418       2.5511
   2307.6321       9.0894       0.0224      62.3246      59.1068    -999.2500    -999.2500      22.8003      19.3862      24.2727       0.0836       4.4140       2.5626
   2307.7844       9.1984       0.0269      61.5242      58.6745    -999.2500    -999.2500      21.0990      17.8829      20.5628       0.0793       4.5385       2.5701
   2307.9368       9.1399       0.0310      61.7925      59.2722    -999.2500    -999.2500      19.4726      16.4096      20.0580       0.0784       4.5326       2.5656
   2308.0891       9.0246       0.0350      61.0631      60.2193    -999.2500    -999.2500      17.8717      14.9465      20.6406       0.0803       4.4824       2.5571
   2308.2415       9.0531       0.0243      60.7589      59.7604    -999.2500    -999.2500      16.6893      13.9629      19.0215       0.0857       4.2892       2.5358
   2308.3940       9.1291       0.0089      60.4729      58.8383    -999.2500    -999.2500      15.6447      13.1373      16.6770       0.0920       4.0488       2.5103
   2308.5464       9.0444       0.0080      59.2773      61.2550    -999.2500    -999.2500      16.9860      14.3244      17.2395       0.0950       4.0483       2.4890
   2308.6987       8.9066       0.0120      58.3020      64.7766    -999.2500    -999.2500      19.1169      16.1776      18.7641       0.0949       4.1272       2.4690
   2308.8511       8.9577       0.0186      58.0632      65.8096    -999.2500    -999.2500      26.5077      21.8795      16.8695       0.0893       4.2432       2.4861
   2309.0037       9.0722       0.0261      57.4344      66.0080    -999.2500    -999.2500      35.6622      28.8720      13.8283       0.0805       4.3716       2.5156
   2309.1560       9.0294       0.0201      57.4800      68.0600    -999.2500    -999.2500      33.1031      26.9330      22.2237       0.0725       4.4501       2.5313
   2309.3083       8.9336       0.0096      57.9789      70.7364    -999.2500    -999.2500      26.5981      21.9853      34.4716       0.0674       4.5118       2.5423
   2309.4607       8.9657       0.0115      57.4716      73.7627    -999.2500    -999.2500      20.4101      17.1399      32.4942       0.0747       4.4720       2.5401
   2309.6133       9.0397       0.0175      56.6828      76.9033    -999.2500    -999.2500      14.3257      12.3280      25.8645       0.0913       4.3990       2.5336
   2309.7656       9.0005       0.0258      57.0002      79.3091    -999.2500    -999.2500      12.0508      10.4426      18.4101       0.1116       4.3427       2.5399
   2309.9180       8.9241       0.0348      59.2819      81.4734    -999.2500    -999.2500      11.0276       9.5188      10.6846       0.1281       4.2917       2.5504
   2310.0703       8.9747       0.0314      61.0409      78.5667    -999.2500    -999.2500      13.7780      11.7653      11.3508       0.1234       4.2625       2.5324
   2310.2227       9.0677       0.0239      60.4896      73.9717    -999.2500    -999.2500      17.7848      15.0674      14.8108       0.1059       4.2405       2.5049
   2310.3752       9.2292       0.0153      58.7576      69.8515    -999.2500    -999.2500      19.8006      16.8950      13.1084       0.0937       4.2665       2.4965
   2310.5276       9.4136       0.0063      57.3504      65.8903    -999.2500    -999.2500      21.1505      18.2294       9.6794       0.0864       4.3084       2.4945
   2310.6799       9.2590       0.0100      58.2497      65.4032    -999.2500    -999.2500      24.8357      21.3654      14.2979       0.0808       4.3584       2.5165
   2310.8323       8.9905       0.0180      59.3869      66.0836    -999.2500    -999.2500      29.3055      25.1068      21.6203       0.0763       4.4110       2.5466
   2310.9849       8.8698       0.0185      59.3138      65.6710    -999.2500    -999.2500      28.1759      24.2396      21.9615       0.0731       4.4266       2.5630
   2311.1372       8.7979       0.0165      59.4717      64.8988    -999.2500    -999.2500      25.2042      21.8561      20.0058       0.0738       4.4301       2.5750
   2311.2896       8.8589       0.0306      59.8179      70.0424    -999.2500    -999.2500      20.8844      18.6515      25.1920       0.0826       4.3840       2.5667
   2311.4419       8.9638       0.0501      59.7897      77.1414    -999.2500    -999.2500      16.1189      15.1755      32.7387       0.0959       4.3216       2.5517
   2311.5945       8.8279       0.0861      59.4639      79.6415    -999.2500    -999.2500      15.5066      14.8294      26.9814       0.1033       4.2861       2.5360
   2311.7468       8.6120       0.1276      59.5093      80.6146    -999.2500    -999.2500      16.2732      15.5226      16.8063       0.1025       4.2596       2.5200
   2311.8992       8.6936       0.1275      60.1421      79.2961    -999.2500    -999.2500      19.2477      17.6672      15.9173       0.0913       4.2620       2.5314
   2312.0515       8.8743       0.1135      60.6315      77.2132    -999.2500    -999.2500      22.9586      20.2959      18.1260       0.0765       4.2740       2.5518
   2312.2039       8.8244       0.1276      60.8716      80.8675    -999.2500    -999.2500      16.7986      14.9429      21.7512       0.0759       4.3014       2.5963
   2312.3564       8.6966       0.1512      61.9883      86.4610    -999.2500    -999.2500       7.3022       6.8921      25.8551       0.0930       4.3339       2.6490
   2312.5088       8.8242       0.1032      63.4906      88.1365    -999.2500    -999.2500       4.3942       4.3863      18.2317       0.1348       4.1915       2.6650
   2312.6611       9.0356       0.0317      62.6572      88.5264    -999.2500    -999.2500       3.6480       3.7001       6.7602       0.1839       3.9916       2.6690
   2312.8135       9.5691       0.0189      59.7389      88.9120    -999.2500    -999.2500       5.3807       5.1793       5.0696       0.2061       3.7326       2.5711
   2312.9661      10.2088       0.0254      57.4739      89.2964    -999.2500    -999.2500       7.9306       7.3724       6.6034       0.1995       3.4543       2.4397
   2313.1184       9.8162       0.0202      56.1185      83.1688    -999.2500    -999.2500      23.1418      20.9777      25.5773       0.1480       3.3801       2.4708
   2313.2708       9.0816       0.0113      56.6584      74.8845    -999.2500    -999.2500      42.5464      38.3628      50.3273       0.0832       3.3736       2.5557
   2313.4231       8.8296       0.0195      58.4167      75.2616    -999.2500    -999.2500      48.6644      44.8842      48.7194       0.0581       3.6373       2.5935
   2313.5757       8.7397       0.0335      58.7928      78.5451    -999.2500    -999.2500      50.3237      47.7600      38.2665       0.0614       3.9917       2.6155
