#------------------------------------------------------------------------------
#
#   Created by  : [OpenWorks] Log Export Utility (LEXP)
#   Created on  : 2016-05-11 12:13:43
#   Project     : CANT971
#   User        : R5K
#   Interpreter : PEP
#
#------------------------------------------------------------------------------
~VERSION INFORMATION
VERS. 2.0 : CWLS Log ASCII Standard - version 2.0
WRAP.  NO : One line per depth step
~WELL INFORMATION
#MNEMONIC   .UNIT                                           VALUE :DESCRIPTION
#------------------------------------------------------------------------------
STRT        .M                                           704.3840 :START DEPTH
STOP        .M                                          2722.4648 :STOP DEPTH
STEP        .M                                             0.1524 :STEP
NULL        .                                           -999.2500 :NULL VALUE
COMP        .                                   PEMEX EXPL & PROD :COMPANY
WELL        .                                                3087 :WELL
FLD         .                                           CANTARELL :FIELD
LOC         .                                             UNKNOWN :LOCATION
CNTY        .                                      CD. DEL CARMEN :COUNTY
STAT        .                                            CAMPECHE :STATE
CTRY        .                                              MEXICO :COUNTRY
SRVC        .                                             UNKNOWN :SERVICE COMPANY
DATE        .                                             UNKNOWN :LOG DATE
UWI         .                                          3060000698 :UNIQUE WELL ID
XCOORD      .                                       601395.890000 :SURFACE X
YCOORD      .                                      2149878.530000 :SURFACE Y
LAT         .                                           19.441887 :LATITUDE
LON         .                                          -92.034090 :LONGITUDE
ELEV        .M                                            28.0000 :SURFACE ELEV
ELEV_TYPE   .                                                  KB :ELEV TYPE
~CURVE INFORMATION
#MNEMONIC.UNIT        API CODE       : CURVE DESCRIPTION
#------------------------------------------------------------------------------
DEPTH    .M                          : Measured Depth
CALI     .inches      UNKNOWN        : CALI:Import:rC:NONE:v0 (auto-composite)
DRHO     .g/cm3       UNKNOWN        : DRHO:Import:rC:NONE:v0 (auto-composite)
DT       .us/ft       UNKNOWN        : DT:Import:rC:NONE:v0 (auto-composite)
GR       .API         UNKNOWN        : GR:Import:rC:NONE:v0 (auto-composite)
ILD      .ohm.m       UNKNOWN        : ILD:Import:rC:NONE:v0 (auto-composite)
ILM      .ohm.m       UNKNOWN        : ILM:Import:rC:NONE:v0 (auto-composite)
LLD      .ohm.m       UNKNOWN        : LLD:Import:rC:NONE:v0 (auto-composite)
LLS      .ohm.m       UNKNOWN        : LLS:Import:rC:NONE:v0 (auto-composite)
MSFL     .ohm.m       UNKNOWN        : MSFL:Import:rC:NONE:v0 (auto-composite)
NPHI     .v/v_decimal UNKNOWN        : NPHI:Import:rC:NONE:v0 (auto-composite)
PEF      .b/elec      UNKNOWN        : PEF:Import:rC:NONE:v0 (auto-composite)
RHOB     .g/cm3       UNKNOWN        : RHOB:Import:rC:NONE:v0 (auto-composite)
~A     DEPTH         CALI         DRHO           DT           GR          ILD          ILM          LLD          LLS         MSFL         NPHI          PEF         RHOB
# ...
   2664.8577       6.6540       0.0505    -999.2500      50.5977    -999.2500    -999.2500      31.4378      28.3343      33.9059       0.0668       3.1595       2.7563
   2665.0100       6.7395       0.0446    -999.2500      45.7963    -999.2500    -999.2500      40.7719      36.0428      46.7745       0.0625       3.1061       2.7601
   2665.1624       6.8409       0.0376    -999.2500      40.6246    -999.2500    -999.2500      50.6927      44.1728      59.8514       0.0595       3.0491       2.7646
   2665.3147       6.7681       0.0388    -999.2500      40.7095    -999.2500    -999.2500      59.8179      51.3667     101.3863       0.0579       3.0390       2.7732
   2665.4673       6.6781       0.0408    -999.2500      41.3107    -999.2500    -999.2500      68.8650      58.4686     145.7167       0.0601       3.0335       2.7822
   2665.6196       6.7618       0.0515    -999.2500      45.7537    -999.2500    -999.2500      50.1871      43.2241      88.8428       0.0704       3.0571       2.7894
   2665.7720       6.8628       0.0630    -999.2500      50.5782    -999.2500    -999.2500      28.7568      25.7611      21.9222       0.0786       3.0836       2.7964
   2665.9243       6.7746       0.0531    -999.2500      45.9417    -999.2500    -999.2500      26.6104      24.0101      16.6201       0.0737       3.1101       2.7770
   2666.0767       6.6674       0.0410    -999.2500      40.3562    -999.2500    -999.2500      26.3985      23.8353      17.4993       0.0629       3.1367       2.7549
   2666.2292       6.7556       0.0341    -999.2500      37.9352    -999.2500    -999.2500      35.6694      30.7906      79.4740       0.0553       3.2115       2.7507
   2666.3816       6.8626       0.0276    -999.2500      35.8166    -999.2500    -999.2500      45.8465      38.4273     147.2872       0.0519       3.2910       2.7482
   2666.5339       6.7489       0.0370    -999.2500      38.4343    -999.2500    -999.2500      57.8047      48.1550      99.3167       0.0526       3.2615       2.7699
   2666.6863       6.6140       0.0480    -999.2500      41.5094    -999.2500    -999.2500      69.9349      58.0847      40.1612       0.0540       3.2216       2.7939
   2666.8389       6.6840       0.0536    -999.2500      38.8193    -999.2500    -999.2500      67.1319      56.2461      34.7770       0.0516       3.1711       2.8037
   2666.9912       6.7739       0.0586    -999.2500      35.5662    -999.2500    -999.2500      62.8707      53.2584      34.6430       0.0483       3.1196       2.8122
   2667.1436       6.7156       0.0517    -999.2500      33.2818    -999.2500    -999.2500      73.7258      62.5179      59.2865       0.0482       3.1223       2.7962
   2667.2959       6.6427       0.0437    -999.2500      31.0930    -999.2500    -999.2500      86.0726      72.9859      86.3751       0.0499       3.1303       2.7777
   2667.4485       6.7226       0.0439    -999.2500      29.5826    -999.2500    -999.2500     102.1139      87.0215     104.5454       0.0519       3.1600       2.7724
   2667.6008       6.8181       0.0449    -999.2500      28.1413    -999.2500    -999.2500     118.5308     101.4198     121.8089       0.0531       3.1920       2.7684
   2667.7532       6.7452       0.0391    -999.2500      26.6175    -999.2500    -999.2500     137.7223     115.4354     173.8094       0.0519       3.2241       2.7657
   2667.9055       6.6549       0.0326    -999.2500      25.0852    -999.2500    -999.2500     157.1988     129.4116     229.3779       0.0555       3.2562       2.7632
   2668.0579       6.6420       0.0416    -999.2500      26.1238    -999.2500    -999.2500     119.8953      99.2518     164.3324       0.0719       3.2421       2.7443
   2668.2104       6.6365       0.0521    -999.2500      27.4092    -999.2500    -999.2500      77.1400      64.8542      87.7058       0.0870       3.2237       2.7238
   2668.3628       6.9589       0.0607    -999.2500      24.9360    -999.2500    -999.2500      70.2957      59.2752      74.1339       0.0808       3.1756       2.6974
   2668.5151       7.3137       0.0692    -999.2500      22.0907    -999.2500    -999.2500      67.0061      56.5489      66.8036       0.0660       3.1246       2.6705
   2668.6675       6.9914       0.0595    -999.2500      21.7632    -999.2500    -999.2500      83.7369      69.7657     128.4448       0.0583       3.1136       2.6981
   2668.8201       6.6013       0.0480    -999.2500      21.6875    -999.2500    -999.2500     102.4703      84.5772     196.9853       0.0547       3.1066       2.7312
   2668.9724       6.6969       0.0415    -999.2500      22.2899    -999.2500    -999.2500     106.2065      89.1985     232.5308       0.0519       3.1270       2.7505
   2669.1248       6.8378       0.0355    -999.2500      22.9556    -999.2500    -999.2500     108.5425      92.8685     264.9958       0.0490       3.1500       2.7684
   2669.2771       6.7163       0.0309    -999.2500      21.9954    -999.2500    -999.2500     101.1697      87.9799     237.9939       0.0452       3.1739       2.7650
   2669.4297       6.5700       0.0264    -999.2500      20.8818    -999.2500    -999.2500      92.8804      82.2834     205.3786       0.0419       3.1979       2.7595
   2669.5820       6.6390       0.0347    -999.2500      24.4721    -999.2500    -999.2500      85.1489      75.3736     183.2653       0.0413       3.1918       2.7840
   2669.7344       6.7289       0.0441    -999.2500      28.5203    -999.2500    -999.2500      77.4717      68.3456     162.1744       0.0422       3.1828       2.8115
   2669.8867       6.7011       0.0505    -999.2500      26.9401    -999.2500    -999.2500      76.1115      65.3704     148.0811       0.0432       3.1938       2.8231
   2670.0391       6.6616       0.0565    -999.2500      24.8060    -999.2500    -999.2500      75.3728      62.7940     134.6764       0.0447       3.2068       2.8331
   2670.1917       6.6325       0.0434    -999.2500      26.3036    -999.2500    -999.2500      74.5173      61.6600     125.7248       0.0468       3.1894       2.8067
   2670.3440       6.6046       0.0284    -999.2500      28.1623    -999.2500    -999.2500      73.6502      60.6694     117.2160       0.0496       3.1689       2.7767
   2670.4963       6.6689       0.0193    -999.2500      28.6707    -999.2500    -999.2500      75.4493      64.4923     109.9177       0.0535       3.1652       2.7540
   2670.6487       6.7426       0.0107    -999.2500      29.0434    -999.2500    -999.2500      77.5164      68.7988     102.7410       0.0583       3.1632       2.7319
   2670.8013       6.6614       0.0100    -999.2500      27.7993    -999.2500    -999.2500      87.7074      80.0352     113.6018       0.0636       3.1589       2.7181
   2670.9536       6.5655       0.0100    -999.2500      26.4004    -999.2500    -999.2500      98.6762      91.9350     126.1894       0.0672       3.1544       2.7051
   2671.1060       6.7365       0.0068    -999.2500      24.5623    -999.2500    -999.2500     110.0464     101.5109     127.3009       0.0659       3.1672       2.6972
   2671.2583       6.9335       0.0033    -999.2500      22.6816    -999.2500    -999.2500     121.4555     110.8619     127.3019       0.0644       3.1817       2.6897
   2671.4109       6.7821       0.0116    -999.2500      22.2713    -999.2500    -999.2500      76.9592      70.6315      74.5730       0.0684       3.1885       2.7008
   2671.5632       6.5967       0.0211    -999.2500      22.0050    -999.2500    -999.2500      26.9948      25.5514      16.6865       0.0767       3.1945       2.7138
   2671.7156       6.7027       0.0347    -999.2500      25.6089    -999.2500    -999.2500      22.0387      21.1638      12.3243       0.0880       3.1891       2.7368
   2671.8679       6.8375       0.0487    -999.2500      29.5955    -999.2500    -999.2500      21.5318      20.7987      13.2531       0.0947       3.1826       2.7608
   2672.0203       6.7476       0.0386    -999.2500      37.7603    -999.2500    -999.2500      36.1066      32.8038      61.7657       0.0865       3.1734       2.7739
