#------------------------------------------------------------------------------
#
#   Created by  : [OpenWorks] Log Export Utility (LEXP)
#   Created on  : 2016-05-11 12:13:43
#   Project     : CANT971
#   User        : R5K
#   Interpreter : PEP
#
#------------------------------------------------------------------------------
~VERSION INFORMATION
VERS. 2.0 : CWLS Log ASCII Standard - version 2.0
WRAP.  NO : One line per depth step
~WELL INFORMATION
#MNEMONIC   .UNIT                                           VALUE :DESCRIPTION
#------------------------------------------------------------------------------
STRT        .M                                           704.3840 :START DEPTH
STOP        .M                                          2722.4648 :STOP DEPTH
STEP        .M                                             0.1524 :STEP
NULL        .                                           -999.2500 :NULL VALUE
COMP        .                                   PEMEX EXPL & PROD :COMPANY
WELL        .                                                3087 :WELL
FLD         .                                           CANTARELL :FIELD
LOC         .                                             UNKNOWN :LOCATION
CNTY        .                                      CD. DEL CARMEN :COUNTY
STAT        .                                            CAMPECHE :STATE
CTRY        .                                              MEXICO :COUNTRY
SRVC        .                                             UNKNOWN :SERVICE COMPANY
DATE        .                                             UNKNOWN :LOG DATE
UWI         .                                          3060000698 :UNIQUE WELL ID
XCOORD      .                                       601395.890000 :SURFACE X
YCOORD      .                                      2149878.530000 :SURFACE Y
LAT         .                                           19.441887 :LATITUDE
LON         .                                          -92.034090 :LONGITUDE
ELEV        .M                                            28.0000 :SURFACE ELEV
ELEV_TYPE   .                                                  KB :ELEV TYPE
~CURVE INFORMATION
#MNEMONIC.UNIT        API CODE       : CURVE DESCRIPTION
#------------------------------------------------------------------------------
DEPTH    .M                          : Measured Depth
CALI     .inches      UNKNOWN        : CALI:Import:rC:NONE:v0 (auto-composite)
DRHO     .g/cm3       UNKNOWN        : DRHO:Import:rC:NONE:v0 (auto-composite)
DT       .us/ft       UNKNOWN        : DT:Import:rC:NONE:v0 (auto-composite)
GR       .API         UNKNOWN        : GR:Import:rC:NONE:v0 (auto-composite)
ILD      .ohm.m       UNKNOWN        : ILD:Import:rC:NONE:v0 (auto-composite)
ILM      .ohm.m       UNKNOWN        : ILM:Import:rC:NONE:v0 (auto-composite)
LLD      .ohm.m       UNKNOWN        : LLD:Import:rC:NONE:v0 (auto-composite)
LLS      .ohm.m       UNKNOWN        : LLS:Import:rC:NONE:v0 (auto-composite)
MSFL     .ohm.m       UNKNOWN        : MSFL:Import:rC:NONE:v0 (auto-composite)
NPHI     .v/v_decimal UNKNOWN        : NPHI:Import:rC:NONE:v0 (auto-composite)
PEF      .b/elec      UNKNOWN        : PEF:Import:rC:NONE:v0 (auto-composite)
RHOB     .g/cm3       UNKNOWN        : RHOB:Import:rC:NONE:v0 (auto-composite)
~A     DEPTH         CALI         DRHO           DT           GR          ILD          ILM          LLD          LLS         MSFL         NPHI          PEF         RHOB
# ...
   2204.0000       9.4462      -0.0054      57.2860      27.9565    -999.2500    -999.2500    1046.1914     382.1721     270.1826       0.0847       3.1275       2.6431
   2204.1523       9.2543      -0.0019      58.0497      26.5761    -999.2500    -999.2500    1049.4806     389.4225     297.7212       0.0750       3.0461       2.6631
   2204.3047       9.3282      -0.0018      55.7537      25.3938    -999.2500    -999.2500     892.1119     334.5189     294.5933       0.0709       3.0467       2.6740
   2204.4573       9.4890      -0.0028      54.2935      24.2761    -999.2500    -999.2500     682.2112     259.2921     281.4380       0.0717       3.0742       2.6820
   2204.6096       9.7824      -0.0011      55.7340      22.7592    -999.2500    -999.2500     521.2186     202.0288     250.0022       0.0774       3.0637       2.6679
   2204.7620      10.1198       0.0014      53.3524      21.1099    -999.2500    -999.2500     376.4311     150.7175     212.5094       0.0852       3.0407       2.6464
   2204.9143       9.8669       0.0013      51.0706      22.6373    -999.2500    -999.2500     353.4990     143.0044     222.7992       0.0911       3.0136       2.6549
   2205.0667       9.4176       0.0003      52.6652      25.2222    -999.2500    -999.2500     371.1289     149.8040     248.9944       0.0947       2.9851       2.6734
   2205.2192       9.6234       0.0011      56.0989      25.1378    -999.2500    -999.2500     421.1248     169.8165     181.9974       0.0921       3.0207       2.6780
   2205.3716      10.0482       0.0026      60.7367      24.1607    -999.2500    -999.2500     481.9440     194.2474      83.8363       0.0907       3.0777       2.6780
   2205.5239       9.8426       0.0034      63.5576      24.9879    -999.2500    -999.2500     504.4111     205.5327     108.5335       0.1031       3.1445       2.6375
   2205.6763       9.4253       0.0039      62.2761      26.4212    -999.2500    -999.2500     513.9940     212.4017     174.5045       0.1256       3.2146       2.5834
   2205.8289       9.4942       0.0002      62.5039      30.0768    -999.2500    -999.2500     457.8927     192.8259     128.7045       0.1513       3.1993       2.5091
   2205.9812       9.7231      -0.0048      66.8312      34.4634    -999.2500    -999.2500     380.1848     164.5511      46.1377       0.1770       3.1558       2.4281
   2206.1335       9.6688      -0.0045      66.2871      37.5698    -999.2500    -999.2500     380.4153     160.6395      51.0233       0.1986       3.1604       2.3997
   2206.2859       9.5209      -0.0025      61.1660      40.2532    -999.2500    -999.2500     406.4026     164.7792      84.8097       0.2120       3.1809       2.3887
   2206.4385       9.7917       0.0070      64.6004      40.2275    -999.2500    -999.2500     427.3925     163.5597      71.7257       0.2087       3.1387       2.4010
   2206.5908      10.2015       0.0190      76.0047      39.3024    -999.2500    -999.2500     446.7231     160.5610      43.0806       0.1949       3.0758       2.4210
   2206.7432      10.0269       0.0145      82.4723      36.7080    -999.2500    -999.2500     512.1208     163.9486      61.9926       0.1841       3.0907       2.4312
   2206.8955       9.6573       0.0045      82.8525      33.5569    -999.2500    -999.2500     592.8838     169.4663      96.7667       0.1789       3.1317       2.4382
   2207.0479       9.7240       0.0057      77.2126      32.1637    -999.2500    -999.2500     613.6671     163.9523      88.3037       0.1817       3.1060       2.4471
   2207.2004       9.9381       0.0108      69.0769      31.3644    -999.2500    -999.2500     614.1810     154.7102      65.2293       0.1876       3.0579       2.4566
   2207.3528       9.6606       0.0052      64.0801      30.4998    -999.2500    -999.2500     572.6506     142.1287      53.1982       0.1837       3.0731       2.4624
   2207.5051       9.2218      -0.0038      60.5906      29.6137    -999.2500    -999.2500     517.3260     128.4516      44.7903       0.1759       3.1091       2.4669
   2207.6575       9.2739      -0.0030      56.4790      28.9568    -999.2500    -999.2500     487.3712     121.6468      52.8925       0.1762       3.0951       2.4695
   2207.8101       9.4878       0.0010      53.6496      28.3756    -999.2500    -999.2500     465.7785     117.1073      66.4367       0.1785       3.0646       2.4715
   2207.9624      10.0114       0.0020      53.4138      27.4747    -999.2500    -999.2500     500.8750     128.6586      99.6582       0.1626       3.0739       2.4409
   2208.1147      10.6377       0.0020      52.7664      26.4679    -999.2500    -999.2500     554.7435     145.5383     139.3957       0.1367       3.0964       2.3994
   2208.2671      10.3268      -0.0017      52.6062      26.4167    -999.2500    -999.2500     656.1999     176.1217     123.8682       0.1183       3.1394       2.4231
   2208.4197       9.7016      -0.0067      54.1196      26.6861    -999.2500    -999.2500     773.6232     211.3030      89.7979       0.1038       3.1894       2.4685
   2208.5720       9.8732      -0.0117      55.5280      27.9034    -999.2500    -999.2500     726.7386     199.4732     199.0604       0.0849       3.2204       2.5025
   2208.7244      10.3135      -0.0168      56.7854      29.4401    -999.2500    -999.2500     624.4711     171.7975     356.6357       0.0686       3.2449       2.5326
   2208.8767      11.0087      -0.0150      57.1026      30.4561    -999.2500    -999.2500     497.8085     139.1855     295.9230       0.0742       3.1960       2.5441
   2209.0291      11.7873      -0.0110      59.9076      31.3018    -999.2500    -999.2500     363.1632     104.9583     163.7800       0.0940       3.1231       2.5496
   2209.1816      10.9916      -0.0010      67.0948      30.5053    -999.2500    -999.2500     309.5078      90.1971     233.9295       0.1130       3.1411       2.5781
   2209.3340       9.6782       0.0110      65.9289      29.1689    -999.2500    -999.2500     282.4782      81.8354     370.5830       0.1274       3.1890       2.6140
   2209.4863       9.7665       0.0106      60.8304      28.5936    -999.2500    -999.2500     330.0726      93.7747     288.3706       0.1253       3.1354       2.6432
   2209.6387      10.3218       0.0061      64.1863      28.2717    -999.2500    -999.2500     402.5258     112.4766     133.2496       0.1097       3.0479       2.6702
   2209.7913      10.0787       0.0084      70.6768      28.5542    -999.2500    -999.2500     495.7653     139.0116      87.8480       0.0873       3.0814       2.6470
   2209.9436       9.5684       0.0129      76.0726      29.0390    -999.2500    -999.2500     595.9610     168.1680      79.1648       0.0641       3.1554       2.6071
   2210.0959      10.2869       0.0215      73.4987      27.6728    -999.2500    -999.2500     720.4053     202.9518     103.1013       0.0612       3.1590       2.5606
   2210.2483      11.4185       0.0315      67.9959      25.6843    -999.2500    -999.2500     853.0019     239.6275     138.0046       0.0713       3.1389       2.5120
   2210.4009      10.7727       0.0265      66.8431      24.3625    -999.2500    -999.2500     828.0488     237.5816     184.2558       0.0788       3.0963       2.5527
   2210.5532       9.5467       0.0165      65.7814      23.2584    -999.2500    -999.2500     751.6759     222.8982     234.2108       0.0813       3.0464       2.6226
   2210.7056       9.5222       0.0196      68.5148      22.8541    -999.2500    -999.2500     714.6127     225.4069     339.4395       0.0692       3.0122       2.6667
   2210.8579       9.8950       0.0271      76.4647      22.6811    -999.2500    -999.2500     690.5500     233.6014     462.9487       0.0517       2.9832       2.7022
   2211.0103       9.6916       0.0290      82.6278      23.3238    -999.2500    -999.2500     721.4217     243.1812     509.3756       0.0471       3.0300       2.6967
   2211.1628       9.2968       0.0290      84.2291      24.2374    -999.2500    -999.2500     770.5454     253.2214     530.1917       0.0525       3.1020       2.6778
