#------------------------------------------------------------------------------
#
#   Created by  : [OpenWorks] Log Export Utility (LEXP)
#   Created on  : 2016-05-11 12:13:43
#   Project     : CANT971
#   User        : R5K
#   Interpreter : PEP
#
#------------------------------------------------------------------------------
~VERSION INFORMATION
VERS. 2.0 : CWLS Log ASCII Standard - version 2.0
WRAP.  NO : One line per depth step
~WELL INFORMATION
#MNEMONIC   .UNIT                                           VALUE :DESCRIPTION
#------------------------------------------------------------------------------
STRT        .M                                           704.3840 :START DEPTH
STOP        .M                                          2722.4648 :STOP DEPTH
STEP        .M                                             0.1524 :STEP
NULL        .                                           -999.2500 :NULL VALUE
COMP        .                                   PEMEX EXPL & PROD :COMPANY
WELL        .                                                3087 :WELL
FLD         .                                           CANTARELL :FIELD
LOC         .                                             UNKNOWN :LOCATION
CNTY        .                                      CD. DEL CARMEN :COUNTY
STAT        .                                            CAMPECHE :STATE
CTRY        .                                              MEXICO :COUNTRY
SRVC        .                                             UNKNOWN :SERVICE COMPANY
DATE        .                                             UNKNOWN :LOG DATE
UWI         .                                          3060000698 :UNIQUE WELL ID
XCOORD      .                                       601395.890000 :SURFACE X
YCOORD      .                                      2149878.530000 :SURFACE Y
LAT         .                                           19.441887 :LATITUDE
LON         .                                          -92.034090 :LONGITUDE
ELEV        .M                                            28.0000 :SURFACE ELEV
ELEV_TYPE   .                                                  KB :ELEV TYPE
~CURVE INFORMATION
#MNEMONIC.UNIT        API CODE       : CURVE DESCRIPTION
#------------------------------------------------------------------------------
DEPTH    .M                          : Measured Depth
CALI     .inches      UNKNOWN        : CALI:Import:rC:NONE:v0 (auto-composite)
DRHO     .g/cm3       UNKNOWN        : DRHO:Import:rC:NONE:v0 (auto-composite)
DT       .us/ft       UNKNOWN        : DT:Import:rC:NONE:v0 (auto-composite)
GR       .API         UNKNOWN        : GR:Import:rC:NONE:v0 (auto-composite)
ILD      .ohm.m       UNKNOWN        : ILD:Import:rC:NONE:v0 (auto-composite)
ILM      .ohm.m       UNKNOWN        : ILM:Import:rC:NONE:v0 (auto-composite)
LLD      .ohm.m       UNKNOWN        : LLD:Import:rC:NONE:v0 (auto-composite)
LLS      .ohm.m       UNKNOWN        : LLS:Import:rC:NONE:v0 (auto-composite)
MSFL     .ohm.m       UNKNOWN        : MSFL:Import:rC:NONE:v0 (auto-composite)
NPHI     .v/v_decimal UNKNOWN        : NPHI:Import:rC:NONE:v0 (auto-composite)
PEF      .b/elec      UNKNOWN        : PEF:Import:rC:NONE:v0 (auto-composite)
RHOB     .g/cm3       UNKNOWN        : RHOB:Import:rC:NONE:v0 (auto-composite)
~A     DEPTH         CALI         DRHO           DT           GR          ILD          ILM          LLD          LLS         MSFL         NPHI          PEF         RHOB
# ...
   1947.9680       8.6647    -999.2500    -999.2500      17.3316       6.3572    -999.2500    -999.2500    -999.2500    -999.2500    -999.2500    -999.2500    -999.2500
   1948.1204       8.7099    -999.2500    -999.2500      17.9087       6.7533    -999.2500    -999.2500    -999.2500    -999.2500    -999.2500    -999.2500    -999.2500
   1948.2728       8.6871    -999.2500    -999.2500      18.7602       8.9311    -999.2500    -999.2500    -999.2500    -999.2500    -999.2500    -999.2500    -999.2500
   1948.4252       8.6422    -999.2500    -999.2500      19.7014      11.6918    -999.2500    -999.2500    -999.2500    -999.2500    -999.2500    -999.2500    -999.2500
   1948.5775       8.6648    -999.2500    -999.2500      20.0669      12.1903    -999.2500    -999.2500    -999.2500    -999.2500    -999.2500    -999.2500    -999.2500
   1948.7300       8.7098    -999.2500    -999.2500      20.2423      11.9419    -999.2500    -999.2500    -999.2500    -999.2500    -999.2500    -999.2500    -999.2500
   1948.8823       8.7293    -999.2500    -999.2500      19.4888      11.6482    -999.2500    -999.2500    -999.2500    -999.2500    -999.2500    -999.2500    -999.2500
   1949.0348       8.7402    -999.2500    -999.2500      18.4272      11.3394    -999.2500    -999.2500    -999.2500    -999.2500    -999.2500    -999.2500    -999.2500
   1949.1871       8.7348    -999.2500    -999.2500      18.2587       9.8366    -999.2500    -999.2500    -999.2500    -999.2500    -999.2500    -999.2500    -999.2500
   1949.3396       8.7238    -999.2500    -999.2500      18.3891       7.9342    -999.2500    -999.2500    -999.2500    -999.2500    -999.2500    -999.2500    -999.2500
   1949.4919       8.7379    -999.2500    -999.2500      18.7616       8.2813    -999.2500    -999.2500    -999.2500    -999.2500    -999.2500    -999.2500    -999.2500
   1949.6444       8.7604    -999.2500    -999.2500      19.2159       9.3878    -999.2500    -999.2500    -999.2500    -999.2500    -999.2500    -999.2500    -999.2500
   1949.7968       8.7743    -999.2500    -999.2500      19.6734      10.0418    -999.2500    -999.2500    -999.2500    -999.2500    -999.2500    -999.2500    -999.2500
   1949.9492       8.7853    -999.2500    -999.2500      20.1320      10.5474    -999.2500    -999.2500    -999.2500    -999.2500    -999.2500    -999.2500    -999.2500
   1950.1016       8.7711    -999.2500    -999.2500      20.3211      11.2942    -999.2500    -999.2500    -999.2500    -999.2500    -999.2500    -999.2500    -999.2500
   1950.2540       8.7486    -999.2500    -999.2500      20.4211      12.1208    -999.2500    -999.2500    -999.2500    -999.2500    -999.2500    -999.2500    -999.2500
   1950.4064       8.8735    -999.2500    -999.2500      20.9736      12.3270    -999.2500    -999.2500    -999.2500    -999.2500    -999.2500    -999.2500    -999.2500
   1950.5587       9.0474    -999.2500    -999.2500      21.6765      12.3270    -999.2500    -999.2500    -999.2500    -999.2500    -999.2500    -999.2500    -999.2500
   1950.7112       9.5282       0.3862    -999.2500      22.5384    -999.2500    -999.2500       0.9277       1.2432       6.5984       0.1365       6.4152       3.1472
   1950.8635      10.1119       0.5346    -999.2500      23.4535    -999.2500    -999.2500       1.8873       2.6241      15.0188       0.1317       5.1897       2.7229
   1951.0160      10.1623       0.3673    -999.2500      25.0105    -999.2500    -999.2500      24.9394      16.6716      14.5136       0.1305       5.0411       2.6051
   1951.1683      10.0330       0.0936    -999.2500      26.7837    -999.2500    -999.2500      55.4312      34.9845      11.0028       0.1308       5.2551       2.5906
   1951.3208      10.6286       0.0335    -999.2500      28.9930    -999.2500    -999.2500      42.7220      29.4192       9.4664       0.1285       5.0183       2.5810
   1951.4731      11.4622       0.0435    -999.2500      31.3455    -999.2500    -999.2500      15.8286      16.0140       8.5783       0.1237       4.6335       2.5730
   1951.6256      11.6247       0.0325    -999.2500      31.5507    -999.2500    -999.2500       8.5021      11.4790       9.6251       0.1169       4.5579       2.5804
   1951.7780      11.5657       0.0145    -999.2500      31.0476    -999.2500    -999.2500       7.6298       9.8698      11.3102       0.1091       4.5844       2.5929
   1951.9304      10.8955       0.0104    -999.2500      30.7506    -999.2500    -999.2500       7.8372      10.0826      12.4660       0.1014       4.5554       2.5979
   1952.0828      10.0219       0.0109    -999.2500      30.5222    -999.2500    -999.2500       8.4040      10.9018      13.4456       0.0954       4.5079       2.6004
   1952.2352       9.7457       0.0121    -999.2500      30.9997    -999.2500    -999.2500       9.9654      11.3901      12.7026       0.0973       4.5057       2.5920
   1952.3876       9.6693       0.0136    -999.2500      31.7131    -999.2500    -999.2500      11.8593      11.7677      11.3837       0.1036       4.5187       2.5800
   1952.5399       9.5626       0.0118    -999.2500      31.7622    -999.2500    -999.2500      16.8368      12.1382      11.7022       0.1081       4.4988       2.5695
   1952.6924       9.4458       0.0087    -999.2500      31.5872    -999.2500    -999.2500      22.8545      12.5062      12.5732       0.1110       4.4677       2.5595
   1952.8447       9.4934       0.0091    -999.2500      31.7739    -999.2500    -999.2500      23.0421      12.4483      12.2103       0.1124       4.5085       2.5653
   1952.9972       9.5948       0.0106    -999.2500      32.0792    -999.2500    -999.2500      21.3206      12.2510      11.4435       0.1112       4.5730       2.5763
   1953.1495       9.5449       0.0133    -999.2500      33.4334    -999.2500    -999.2500      21.1950      12.5059      11.9765       0.1057       4.5390       2.5816
   1953.3020       9.4449       0.0163    -999.2500      35.1341    -999.2500    -999.2500      21.5969      12.9102      12.9391       0.0985       4.4726       2.5851
   1953.4543       9.4748       0.0489    -999.2500      32.7033    -999.2500    -999.2500      20.8407      13.0541      16.4981       0.0963       4.4271       2.5890
   1953.6068       9.5477       0.0913    -999.2500      28.9009    -999.2500    -999.2500      19.7001      13.1116      20.9189       0.0960       4.3887       2.5930
   1953.7592       9.6959       0.1248    -999.2500      28.2604    -999.2500    -999.2500      19.2272      12.9654      14.9144       0.0905       4.2195       2.5498
   1953.9116       9.8693       0.1553    -999.2500      28.6787    -999.2500    -999.2500      18.9778      12.7510       5.4185       0.0875       4.0066       2.4908
   1954.0640      10.1114       0.1326    -999.2500      37.4390    -999.2500    -999.2500      20.3836      13.0409       3.3993       0.1034       3.8825       2.4329
   1954.2164      10.3765       0.0920    -999.2500      49.0060    -999.2500    -999.2500      22.3462      13.5005       3.8954       0.1313       3.7883       2.3752
   1954.3688      10.2422       0.0718    -999.2500      53.0575    -999.2500    -999.2500      17.7305      10.8976       3.5562       0.1557       3.8452       2.3821
   1954.5211       9.9768       0.0583    -999.2500      54.6438    -999.2500    -999.2500      10.9569       7.2902       2.9430       0.1750       3.9516       2.4101
   1954.6736      10.0654       0.0670    -999.2500      55.7724    -999.2500    -999.2500       7.0163       5.4814       3.2814       0.1893       4.0137       2.4320
   1954.8259      10.2708       0.0830    -999.2500      56.7500    -999.2500    -999.2500       4.0093       4.2654       3.9333       0.1997       4.0612       2.4520
   1954.9784      10.1405       0.0780    -999.2500      57.9527    -999.2500    -999.2500       3.4274       3.7636       3.5075       0.2063       4.0734       2.4379
   1955.1307       9.8986       0.0660    -999.2500      59.2301    -999.2500    -999.2500       3.6518       3.4992       2.7233       0.2134       4.0739       2.4124
