#------------------------------------------------------------------------------
#
#   Created by  : [OpenWorks] Log Export Utility (LEXP)
#   Created on  : 2016-05-11 12:13:43
#   Project     : CANT971
#   User        : R5K
#   Interpreter : PEP
#
#------------------------------------------------------------------------------
~VERSION INFORMATION
VERS. 2.0 : CWLS Log ASCII Standard - version 2.0
WRAP.  NO : One line per depth step
~WELL INFORMATION
#MNEMONIC   .UNIT                                           VALUE :DESCRIPTION
#------------------------------------------------------------------------------
STRT        .M                                           704.3840 :START DEPTH
STOP        .M                                          2722.4648 :STOP DEPTH
STEP        .M                                             0.1524 :STEP
NULL        .                                           -999.2500 :NULL VALUE
COMP        .                                   PEMEX EXPL & PROD :COMPANY
WELL        .                                                3087 :WELL
FLD         .                                           CANTARELL :FIELD
LOC         .                                             UNKNOWN :LOCATION
CNTY        .                                      CD. DEL CARMEN :COUNTY
STAT        .                                            CAMPECHE :STATE
CTRY        .                                              MEXICO :COUNTRY
SRVC        .                                             UNKNOWN :SERVICE COMPANY
DATE        .                                             UNKNOWN :LOG DATE
UWI         .                                          3060000698 :UNIQUE WELL ID
XCOORD      .                                       601395.890000 :SURFACE X
YCOORD      .                                      2149878.530000 :SURFACE Y
LAT         .                                           19.441887 :LATITUDE
LON         .                                          -92.034090 :LONGITUDE
ELEV        .M                                            28.0000 :SURFACE ELEV
ELEV_TYPE   .                                                  KB :ELEV TYPE
~CURVE INFORMATION
#MNEMONIC.UNIT        API CODE       : CURVE DESCRIPTION
#------------------------------------------------------------------------------
DEPTH    .M                          : Measured Depth
CALI     .inches      UNKNOWN        : CALI:Import:rC:NONE:v0 (auto-composite)
DRHO     .g/cm3       UNKNOWN        : DRHO:Import:rC:NONE:v0 (auto-composite)
DT       .us/ft       UNKNOWN        : DT:Import:rC:NONE:v0 (auto-composite)
GR       .API         UNKNOWN        : GR:Import:rC:NONE:v0 (auto-composite)
ILD      .ohm.m       UNKNOWN        : ILD:Import:rC:NONE:v0 (auto-composite)
ILM      .ohm.m       UNKNOWN        : ILM:Import:rC:NONE:v0 (auto-composite)
LLD      .ohm.m       UNKNOWN        : LLD:Import:rC:NONE:v0 (auto-composite)
LLS      .ohm.m       UNKNOWN        : LLS:Import:rC:NONE:v0 (auto-composite)
MSFL     .ohm.m       UNKNOWN        : MSFL:Import:rC:NONE:v0 (auto-composite)
NPHI     .v/v_decimal UNKNOWN        : NPHI:Import:rC:NONE:v0 (auto-composite)
PEF      .b/elec      UNKNOWN        : PEF:Import:rC:NONE:v0 (auto-composite)
RHOB     .g/cm3       UNKNOWN        : RHOB:Import:rC:NONE:v0 (auto-composite)
~A     DEPTH         CALI         DRHO           DT           GR          ILD          ILM          LLD          LLS         MSFL         NPHI          PEF         RHOB
# ...
   1999.1743      11.1267       0.0012      79.8088      71.9916    -999.2500    -999.2500      14.0806      11.7379      16.6616       0.1750       2.8121       2.4608
   1999.3268      13.5176       0.0042      82.1962      70.4128    -999.2500    -999.2500      12.7776      10.6314      15.1427       0.1719       2.8216       2.4378
   1999.4791      17.7613       0.0080      82.0196      67.2371    -999.2500    -999.2500      12.0085       9.9950      14.0156       0.1684       2.8120       2.3998
   1999.6316      22.6247       0.0120      81.2040      63.5272    -999.2500    -999.2500      11.4180       9.5159      13.0194       0.1679       2.7960       2.3568
   1999.7839      23.3411       0.0235      81.2439      60.8805    -999.2500    -999.2500      11.5093       9.5652      13.0964       0.1754       2.7969       2.3595
   1999.9364      22.6577       0.0375      81.4445      58.5927    -999.2500    -999.2500      11.8307       9.7928      13.5356       0.1915       2.8034       2.3775
   2000.0887      18.2423       0.0286      85.6837      59.3676    -999.2500    -999.2500      12.6287      10.3912      14.0440       0.2236       2.8671       2.3967
   2000.2412      12.6039       0.0121      96.8402      61.1461    -999.2500    -999.2500      13.5829      11.1111      14.5750       0.2600       2.9495       2.4162
   2000.3936      11.7615       0.0133     106.3827      59.4125    -999.2500    -999.2500      14.1246      11.6006      14.5068       0.2805       2.9437       2.4131
   2000.5460      12.5047       0.0203     113.0254      56.5178    -999.2500    -999.2500      14.5299      12.0139      14.2404       0.2848       2.9087       2.4026
   2000.6984      11.6156       0.0318     121.4814      57.7836    -999.2500    -999.2500      14.9820      12.4189      14.4973       0.2682       2.9544       2.3974
   2000.8508      10.1843       0.0447     126.3491      60.4314    -999.2500    -999.2500      15.4496      12.8211      14.9279       0.2423       3.0268       2.3939
   2001.0032       9.9867       0.0368     123.0460      61.1027    -999.2500    -999.2500      15.7613      13.1294      15.4545       0.2287       2.9900       2.3863
   2001.1555      10.2026       0.0218     111.9103      61.1117    -999.2500    -999.2500      16.0207      13.4063      16.0133       0.2248       2.9165       2.3773
   2001.3080      10.0122       0.0131      95.9779      59.5703    -999.2500    -999.2500      16.5416      13.8915      16.0261       0.2240       2.9261       2.3795
   2001.4603       9.6849       0.0066      82.9424      57.5069    -999.2500    -999.2500      17.1505      14.4468      15.8552       0.2236       2.9637       2.3855
   2001.6128       9.7116       0.0020      82.6782      57.6837    -999.2500    -999.2500      17.4319      14.7390      16.0628       0.2175       2.9937       2.3783
   2001.7651       9.8546      -0.0020      89.9797      58.5958    -999.2500    -999.2500      17.6059      14.9449      16.3947       0.2077       3.0212       2.3669
   2001.9176       9.7980      -0.0019      94.7974      58.9347    -999.2500    -999.2500      17.6343      15.0204      16.9774       0.1987       3.0389       2.3565
   2002.0699       9.6756      -0.0004      95.8268      59.0846    -999.2500    -999.2500      17.6149      15.0529      17.6429       0.1906       3.0534       2.3465
   2002.2224       9.7680      -0.0015      96.4346      59.2709    -999.2500    -999.2500      17.9516      15.4409      18.0419       0.1847       3.0202       2.3628
   2002.3748       9.9319      -0.0035      99.3523      59.4693    -999.2500    -999.2500      18.4069      15.9472      18.3523       0.1821       2.9713       2.3877
   2002.5272       9.8712      -0.0029     101.2845      57.5300    -999.2500    -999.2500      21.6385      18.8699      18.1046       0.1848       3.0039       2.4011
   2002.6796       9.7353      -0.0014     101.9365      54.8762    -999.2500    -999.2500      25.7981      22.6003      17.6705       0.1891       3.0639       2.4106
   2002.8320       9.8112      -0.0040     103.5816      56.0495    -999.2500    -999.2500      27.8564      24.5215      18.8272       0.1838       3.1116       2.4160
   2002.9844       9.9586      -0.0080     104.9103      58.5133    -999.2500    -999.2500      29.2061      25.8326      20.5204       0.1732       3.1552       2.4200
   2003.1367       9.8290      -0.0067     100.4087      60.2339    -999.2500    -999.2500      29.9605      26.5787      19.5658       0.1659       3.1491       2.4233
   2003.2892       9.6087      -0.0037      93.9210      61.7112    -999.2500    -999.2500      30.5201      27.1397      17.7443       0.1612       3.1266       2.4263
   2003.4415       9.6671      -0.0038      94.8479      63.8513    -999.2500    -999.2500      31.9581      28.7325      19.0840       0.1570       3.1281       2.4221
   2003.5940       9.8175      -0.0048      95.4135      66.2102    -999.2500    -999.2500      33.6864      30.6662      21.4680       0.1538       3.1376       2.4156
   2003.7463       9.7710      -0.0061      95.9977      64.1085    -999.2500    -999.2500      34.9182      32.1623      23.0294       0.1536       3.1561       2.4125
   2003.8988       9.6591      -0.0076      98.4124      60.5265    -999.2500    -999.2500      35.9853      33.5132      24.3178       0.1545       3.1776       2.4105
   2004.0511       9.7235      -0.0076      97.3255      60.2889    -999.2500    -999.2500      36.2287      33.8385      25.4554       0.1527       3.1699       2.4111
   2004.2036       9.8469      -0.0071      97.3394      61.1710    -999.2500    -999.2500      36.1962      33.8205      26.5424       0.1502       3.1524       2.4126
   2004.3560       9.7467      -0.0066      96.4953      61.6559    -999.2500    -999.2500      36.6699      34.3808      25.4801       0.1536       3.1300       2.4141
   2004.5084       9.5713      -0.0061      92.8003      62.0072    -999.2500    -999.2500      37.3140      35.1356      23.6949       0.1603       3.1059       2.4156
   2004.6608       9.6360      -0.0049      93.6324      62.1636    -999.2500    -999.2500      36.9544      35.6991      24.8404       0.1647       3.0725       2.4299
   2004.8132       9.7795      -0.0034      97.0269      62.2561    -999.2500    -999.2500      36.2657      36.1999      26.9470       0.1659       3.0360       2.4484
   2004.9656       9.8935       0.0000      97.3419      60.1806    -999.2500    -999.2500      39.2659      39.1724      29.3321       0.1594       3.0176       2.4609
   2005.1179       9.9980       0.0040      93.9017      57.3909    -999.2500    -999.2500      43.4813      42.9593      31.8091       0.1494       3.0051       2.4714
   2005.2704       9.8680       0.0028      91.1007      57.5758    -999.2500    -999.2500      45.1539      44.4990      30.8263       0.1435       2.9728       2.4785
   2005.4227       9.6602      -0.0002      94.0961      58.7493    -999.2500    -999.2500      45.9812      45.2919      28.6936       0.1384       2.9338       2.4845
   2005.5752       9.7573       0.0024      95.6559      61.5774    -999.2500    -999.2500      48.1977      47.3934      28.8631       0.1254       2.9319       2.4976
   2005.7275       9.9567       0.0069      92.7408      64.9605    -999.2500    -999.2500      50.8800      49.9338      29.8047       0.1090       2.9424       2.5131
   2005.8800       9.8026       0.0057      97.4253      65.8655    -999.2500    -999.2500      58.5745      56.7708      32.6140       0.1002       2.9881       2.5376
   2006.0323       9.5293       0.0027     107.4727      65.9357    -999.2500    -999.2500      67.9575      65.0552      36.0525       0.0968       3.0458       2.5652
   2006.1848       9.6258       0.0009     102.8291      65.6789    -999.2500    -999.2500      75.0070      71.2075      42.7377       0.0941       3.1048       2.5776
   2006.3372       9.8431      -0.0006      89.8741      65.3152    -999.2500    -999.2500      81.2932      76.6625      50.4848       0.0916       3.1642       2.5851
