#------------------------------------------------------------------------------
#
#   Created by  : [OpenWorks] Log Export Utility (LEXP)
#   Created on  : 2016-05-11 12:13:43
#   Project     : CANT971
#   User        : R5K
#   Interpreter : PEP
#
#------------------------------------------------------------------------------
~VERSION INFORMATION
VERS. 2.0 : CWLS Log ASCII Standard - version 2.0
WRAP.  NO : One line per depth step
~WELL INFORMATION
#MNEMONIC   .UNIT                                           VALUE :DESCRIPTION
#------------------------------------------------------------------------------
STRT        .M                                           704.3840 :START DEPTH
STOP        .M                                          2722.4648 :STOP DEPTH
STEP        .M                                             0.1524 :STEP
NULL        .                                           -999.2500 :NULL VALUE
COMP        .                                   PEMEX EXPL & PROD :COMPANY
WELL        .                                                3087 :WELL
FLD         .                                           CANTARELL :FIELD
LOC         .                                             UNKNOWN :LOCATION
CNTY        .                                      CD. DEL CARMEN :COUNTY
STAT        .                                            CAMPECHE :STATE
CTRY        .                                              MEXICO :COUNTRY
SRVC        .                                             UNKNOWN :SERVICE COMPANY
DATE        .                                             UNKNOWN :LOG DATE
UWI         .                                          3060000698 :UNIQUE WELL ID
XCOORD      .                                       601395.890000 :SURFACE X
YCOORD      .                                      2149878.530000 :SURFACE Y
LAT         .                                           19.441887 :LATITUDE
LON         .                                          -92.034090 :LONGITUDE
ELEV        .M                                            28.0000 :SURFACE ELEV
ELEV_TYPE   .                                                  KB :ELEV TYPE
~CURVE INFORMATION
#MNEMONIC.UNIT        API CODE       : CURVE DESCRIPTION
#------------------------------------------------------------------------------
DEPTH    .M                          : Measured Depth
CALI     .inches      UNKNOWN        : CALI:Import:rC:NONE:v0 (auto-composite)
DRHO     .g/cm3       UNKNOWN        : DRHO:Import:rC:NONE:v0 (auto-composite)
DT       .us/ft       UNKNOWN        : DT:Import:rC:NONE:v0 (auto-composite)
GR       .API         UNKNOWN        : GR:Import:rC:NONE:v0 (auto-composite)
ILD      .ohm.m       UNKNOWN        : ILD:Import:rC:NONE:v0 (auto-composite)
ILM      .ohm.m       UNKNOWN        : ILM:Import:rC:NONE:v0 (auto-composite)
LLD      .ohm.m       UNKNOWN        : LLD:Import:rC:NONE:v0 (auto-composite)
LLS      .ohm.m       UNKNOWN        : LLS:Import:rC:NONE:v0 (auto-composite)
MSFL     .ohm.m       UNKNOWN        : MSFL:Import:rC:NONE:v0 (auto-composite)
NPHI     .v/v_decimal UNKNOWN        : NPHI:Import:rC:NONE:v0 (auto-composite)
PEF      .b/elec      UNKNOWN        : PEF:Import:rC:NONE:v0 (auto-composite)
RHOB     .g/cm3       UNKNOWN        : RHOB:Import:rC:NONE:v0 (auto-composite)
~A     DEPTH         CALI         DRHO           DT           GR          ILD          ILM          LLD          LLS         MSFL         NPHI          PEF         RHOB
# ...
   2613.6511       8.3996       0.0684      54.4675      37.9101    -999.2500    -999.2500      94.9387      75.8547     168.9069       0.0683       3.2180       2.8010
   2613.8035       7.7031       0.0789      54.4675      36.8162    -999.2500    -999.2500     107.8107      85.9912     159.7133       0.0636       3.2117       2.8023
   2613.9561       6.8443       0.0910      54.4675      35.4459    -999.2500    -999.2500     122.3018      97.3141     146.0855       0.0566       3.2092       2.8048
   2614.1084       6.8172       0.1007      54.4675      33.1402    -999.2500    -999.2500     138.3373     110.0457     139.8176       0.0577       3.2410       2.8119
   2614.2607       6.8677       0.1102      54.4675      30.7472    -999.2500    -999.2500     154.5168     122.9086     134.2360       0.0625       3.2760       2.8194
   2614.4131       6.8159       0.1032      54.4675      30.9599    -999.2500    -999.2500     126.0879     101.0574     110.6900       0.0652       3.2498       2.8059
   2614.5657       6.7544       0.0948      54.4675      31.4184    -999.2500    -999.2500      93.4526      75.9329      85.4501       0.0659       3.2178       2.7904
   2614.7180       6.8050       0.0867      54.4675      32.9484    -999.2500    -999.2500      88.0061      71.3807      75.8851       0.0643       3.2191       2.7790
   2614.8704       6.8665       0.0787      54.4675      34.5827    -999.2500    -999.2500      85.2038      68.8293      67.8446       0.0618       3.2236       2.7680
   2615.0227       6.8210       0.0803      54.4675      33.2974    -999.2500    -999.2500      89.0544      71.5211      77.4447       0.0601       3.2076       2.7779
   2615.1753       6.7651       0.0828      54.4675      31.7251    -999.2500    -999.2500      93.5590      74.7282      88.7788       0.0596       3.1896       2.7899
   2615.3276       6.8214       0.0875      54.4675      30.6428    -999.2500    -999.2500      98.7209      79.1110      77.3995       0.0609       3.1766       2.8042
   2615.4800       6.8888       0.0925      54.4675      29.6093    -999.2500    -999.2500     103.9481      83.6105      63.7639       0.0626       3.1641       2.8187
   2615.6323       6.8181       0.0884      54.4675      31.1950    -999.2500    -999.2500     112.0460      90.4783      71.3011       0.0624       3.1712       2.7968
   2615.7847       6.7334       0.0834      54.4675      33.0436    -999.2500    -999.2500     120.4320      97.5838      80.9636       0.0620       3.1802       2.7712
   2615.9373       6.7981       0.0839      54.4675      33.7916    -999.2500    -999.2500     125.8971     101.5267     108.7328       0.0633       3.2134       2.7777
   2616.0896       6.8770       0.0849      54.4675      34.4343    -999.2500    -999.2500     131.0829     105.1671     138.2336       0.0632       3.2489       2.7872
   2616.2419       6.8170       0.0882      54.4675      34.5070    -999.2500    -999.2500     138.1317     110.2089     113.3740       0.0568       3.2711       2.7962
   2616.3943       6.7435       0.0917      54.4675      34.5244    -999.2500    -999.2500     145.3605     115.3862      83.2595       0.0494       3.2921       2.8052
   2616.5469       6.7165       0.0856      54.4675      33.0713    -999.2500    -999.2500     159.9557     125.7447      83.3882       0.0474       3.2553       2.8147
   2616.6992       6.6940       0.0786      54.4675      31.4745    -999.2500    -999.2500     175.2706     136.6095      86.4719       0.0486       3.2128       2.8241
   2616.8516       6.7534       0.0639      54.4675      30.5770    -999.2500    -999.2500     192.4364     147.3601     101.5358       0.0503       3.1890       2.8109
   2617.0039       6.8208       0.0484      54.4675      29.7485    -999.2500    -999.2500     209.7850     158.0993     117.7827       0.0512       3.1670       2.7954
   2617.1565       6.7490       0.0443      54.4675      31.2683    -999.2500    -999.2500     186.1387     138.9878     137.3009       0.0500       3.1500       2.7926
   2617.3088       6.6630       0.0413      54.4675      33.0271    -999.2500    -999.2500     158.3217     116.8393     157.1518       0.0482       3.1335       2.7911
   2617.4612       6.6923       0.0469      54.4675      34.6986    -999.2500    -999.2500     146.9164     108.2257     132.0253       0.0479       3.1161       2.8015
   2617.6135       6.7334       0.0534      54.4675      36.3613    -999.2500    -999.2500     137.1979     101.0031     102.2759       0.0485       3.0985       2.8130
   2617.7659       6.6823       0.0467      54.4675      34.6220    -999.2500    -999.2500     142.0780     103.9471      91.9871       0.0488       3.1020       2.7967
   2617.9185       6.6223       0.0387      54.4213      32.5559    -999.2500    -999.2500     148.3608     107.8679      83.5683       0.0503       3.1075       2.7777
   2618.0708       6.6411       0.0412      54.2481      32.8236    -999.2500    -999.2500     153.4551     111.0198      85.3629       0.0551       3.1294       2.7856
   2618.2231       6.6676       0.0447      53.6902      33.3180    -999.2500    -999.2500     158.4340     114.0970      88.1495       0.0605       3.1529       2.7960
   2618.3755       6.6441       0.0368      52.8729      32.6506    -999.2500    -999.2500     144.3223     104.2963      94.9132       0.0629       3.1632       2.8025
   2618.5281       6.6156       0.0278      52.3651      31.8670    -999.2500    -999.2500     128.2997      93.2066     102.0751       0.0650       3.1722       2.8084
   2618.6804       6.5925       0.0183      52.9122      35.0206    -999.2500    -999.2500     114.1524      82.9615     115.8312       0.0697       3.1584       2.7821
   2618.8328       6.5699       0.0088      54.0316      38.5724    -999.2500    -999.2500     100.1947      72.8019     130.2542       0.0768       3.1424       2.7526
   2618.9851       6.7068       0.0089      54.4675      36.6122    -999.2500    -999.2500      90.8831      65.7936      94.3288       0.0860       3.1798       2.7249
   2619.1375       6.8588       0.0099      54.4675      34.1313    -999.2500    -999.2500      82.0105      59.0830      53.6473       0.0944       3.2223       2.6974
   2619.2900       7.0981       0.0150      54.4675      35.8050    -999.2500    -999.2500      81.7011      58.4132      52.1273       0.0993       3.1941       2.6740
   2619.4424       7.3458       0.0205      54.4675      37.8754    -999.2500    -999.2500      82.2094      58.3203      54.3470       0.1010       3.1591       2.6511
   2619.5947       7.0604       0.0142      54.4675      33.9452    -999.2500    -999.2500      83.8402      60.0496      75.4420       0.0997       3.1724       2.6481
   2619.7471       6.7226       0.0067      54.4675      29.4242    -999.2500    -999.2500      85.5814      61.9583      98.3956       0.0983       3.1904       2.6471
   2619.8997       6.8970       0.0078      54.4675      27.2754    -999.2500    -999.2500      89.2559      65.6892      85.8878       0.1001       3.2079       2.6638
   2620.0520       7.1224       0.0098      54.4675      25.3628    -999.2500    -999.2500      93.1227      69.6015      69.8512       0.1031       3.2254       2.6823
   2620.2043       6.9941       0.0182      54.4675      26.8859    -999.2500    -999.2500      92.5879      71.0670      77.0669       0.1049       3.2411       2.6931
   2620.3567       6.8303       0.0272      54.4675      28.7546    -999.2500    -999.2500      91.6105      72.2864      86.6208       0.1063       3.2566       2.7031
   2620.5093       7.4431       0.0216      54.4675      31.1912    -999.2500    -999.2500      84.0073      65.6369     100.8450       0.1085       3.2466       2.6958
   2620.6616       8.1303       0.0146      54.4675      33.6821    -999.2500    -999.2500      75.7693      58.2336     115.5167       0.1121       3.2341       2.6868
   2620.8140       7.7495       0.0117      54.4675      31.4656    -999.2500    -999.2500      66.9085      51.1092      94.9044       0.1177       3.2690       2.6609
