#------------------------------------------------------------------------------
#
#   Created by  : [OpenWorks] Log Export Utility (LEXP)
#   Created on  : 2016-05-11 12:13:43
#   Project     : CANT971
#   User        : R5K
#   Interpreter : PEP
#
#------------------------------------------------------------------------------
~VERSION INFORMATION
VERS. 2.0 : CWLS Log ASCII Standard - version 2.0
WRAP.  NO : One line per depth step
~WELL INFORMATION
#MNEMONIC   .UNIT                                           VALUE :DESCRIPTION
#------------------------------------------------------------------------------
STRT        .M                                           704.3840 :START DEPTH
STOP        .M                                          2722.4648 :STOP DEPTH
STEP        .M                                             0.1524 :STEP
NULL        .                                           -999.2500 :NULL VALUE
COMP        .                                   PEMEX EXPL & PROD :COMPANY
WELL        .                                                3087 :WELL
FLD         .                                           CANTARELL :FIELD
LOC         .                                             UNKNOWN :LOCATION
CNTY        .                                      CD. DEL CARMEN :COUNTY
STAT        .                                            CAMPECHE :STATE
CTRY        .                                              MEXICO :COUNTRY
SRVC        .                                             UNKNOWN :SERVICE COMPANY
DATE        .                                             UNKNOWN :LOG DATE
UWI         .                                          3060000698 :UNIQUE WELL ID
XCOORD      .                                       601395.890000 :SURFACE X
YCOORD      .                                      2149878.530000 :SURFACE Y
LAT         .                                           19.441887 :LATITUDE
LON         .                                          -92.034090 :LONGITUDE
ELEV        .M                                            28.0000 :SURFACE ELEV
ELEV_TYPE   .                                                  KB :ELEV TYPE
~CURVE INFORMATION
#MNEMONIC.UNIT        API CODE       : CURVE DESCRIPTION
#------------------------------------------------------------------------------
DEPTH    .M                          : Measured Depth
CALI     .inches      UNKNOWN        : CALI:Import:rC:NONE:v0 (auto-composite)
DRHO     .g/cm3       UNKNOWN        : DRHO:Import:rC:NONE:v0 (auto-composite)
DT       .us/ft       UNKNOWN        : DT:Import:rC:NONE:v0 (auto-composite)
GR       .API         UNKNOWN        : GR:Import:rC:NONE:v0 (auto-composite)
ILD      .ohm.m       UNKNOWN        : ILD:Import:rC:NONE:v0 (auto-composite)
ILM      .ohm.m       UNKNOWN        : ILM:Import:rC:NONE:v0 (auto-composite)
LLD      .ohm.m       UNKNOWN        : LLD:Import:rC:NONE:v0 (auto-composite)
LLS      .ohm.m       UNKNOWN        : LLS:Import:rC:NONE:v0 (auto-composite)
MSFL     .ohm.m       UNKNOWN        : MSFL:Import:rC:NONE:v0 (auto-composite)
NPHI     .v/v_decimal UNKNOWN        : NPHI:Import:rC:NONE:v0 (auto-composite)
PEF      .b/elec      UNKNOWN        : PEF:Import:rC:NONE:v0 (auto-composite)
RHOB     .g/cm3       UNKNOWN        : RHOB:Import:rC:NONE:v0 (auto-composite)
~A     DEPTH         CALI         DRHO           DT           GR          ILD          ILM          LLD          LLS         MSFL         NPHI          PEF         RHOB
# ...
   2050.3809       9.2863       0.0211      66.1808      47.1170    -999.2500    -999.2500     614.3364     412.7495     100.7269       0.0572       3.0513       2.6772
   2050.5332       9.0954       0.0026      67.0988      46.0765    -999.2500    -999.2500     423.0430     272.2492     132.4352       0.0500       3.0823       2.7027
   2050.6855       9.2584      -0.0009      65.7669      47.4621    -999.2500    -999.2500     349.6939     220.7362     141.8848       0.0533       3.0979       2.6913
   2050.8379       9.5382       0.0006      64.3958      49.6497    -999.2500    -999.2500     315.3277     198.6353     143.9774       0.0625       3.1084       2.6679
   2050.9905       9.3930      -0.0009      64.3796      46.1492    -999.2500    -999.2500     301.1675     201.0633     113.0070       0.0725       3.0618       2.6294
   2051.1428       9.1066      -0.0034      62.8756      40.7601    -999.2500    -999.2500     293.7167     211.6363      71.0582       0.0818       2.9964       2.5859
   2051.2952       9.1552      -0.0010      57.5791      40.6571    -999.2500    -999.2500     312.3255     224.7886      55.7123       0.0893       2.9796       2.5522
   2051.4475       9.3155       0.0030      53.6299      42.3176    -999.2500    -999.2500     339.6273     238.8013      49.2408       0.0940       2.9791       2.5217
   2051.5999       9.4733      -0.0009      53.9721      45.4107    -999.2500    -999.2500     309.8183     219.3716      62.7738       0.0910       3.0641       2.4908
   2051.7524       9.6302      -0.0074      54.2946      48.9882    -999.2500    -999.2500     260.7067     188.6389      83.0680       0.0839       3.1779       2.4597
   2051.9048       9.3307      -0.0075      53.3928      49.9032    -999.2500    -999.2500     257.1931     177.9735      72.9124       0.0794       3.1349       2.4697
   2052.0571       8.8814      -0.0055      54.1406      49.9447    -999.2500    -999.2500     268.6416     173.8927      52.7651       0.0792       3.0404       2.4932
   2052.2095       8.9320      -0.0039      58.5587      48.4744    -999.2500    -999.2500     304.3077     195.0756      62.7572       0.0922       3.0538       2.5200
   2052.3621       9.1474      -0.0024      61.5561      46.5058    -999.2500    -999.2500     347.9574     224.5869      82.6851       0.1065       3.1028       2.5480
   2052.5144       9.1282      -0.0061      62.2599      45.9046    -999.2500    -999.2500     364.9941     234.8105      76.0852       0.0996       3.1619       2.5599
   2052.6667       9.0313      -0.0116      64.3038      45.7563    -999.2500    -999.2500     373.2169     238.6462      60.6997       0.0808       3.2243       2.5664
   2052.8191       9.1571      -0.0089      65.6600      45.9925    -999.2500    -999.2500     397.0714     250.3233      69.1848       0.0700       3.2419       2.5500
   2052.9717       9.3575      -0.0034      65.4629      46.3579    -999.2500    -999.2500     426.1713     264.6316      85.6802       0.0669       3.2444       2.5260
   2053.1240       9.1841      -0.0050      64.0340      47.7771    -999.2500    -999.2500     457.9173     287.6599      86.4432       0.0685       3.0973       2.5526
   2053.2764       8.8848      -0.0090      64.2947      49.5515    -999.2500    -999.2500     490.5553     313.6279      81.9026       0.0716       2.8997       2.5962
   2053.4287       8.9925      -0.0055      65.7892      54.6812    -999.2500    -999.2500     508.1990     329.0731      91.9899       0.0714       2.8431       2.6239
   2053.5811       9.2334       0.0005      67.2721      60.9090    -999.2500    -999.2500     520.9355     341.0744     106.8644       0.0693       2.8326       2.6464
   2053.7336       9.1457      -0.0006      65.8811      64.1310    -999.2500    -999.2500     509.0464     345.8633     104.9401       0.0699       2.9315       2.6497
   2053.8860       8.9499      -0.0041      62.1671      66.3648    -999.2500    -999.2500     489.0606     348.2809      97.4922       0.0715       3.0663       2.6467
   2054.0383       9.0296      -0.0046      61.6631      62.2066    -999.2500    -999.2500     472.4929     333.1818     110.5601       0.0704       3.0813       2.6396
   2054.1907       9.2010      -0.0041      63.8258      55.9188    -999.2500    -999.2500     457.0641     312.2469     130.4630       0.0686       3.0563       2.6311
   2054.3433       9.1489      -0.0033      64.1598      53.6268    -999.2500    -999.2500     435.6728     296.3700     122.0512       0.0707       3.0874       2.6245
   2054.4956       9.0219      -0.0023      63.8198      52.6722    -999.2500    -999.2500     412.2859     282.1861     104.1624       0.0752       3.1374       2.6185
   2054.6479       9.0572      -0.0028      66.6279      53.1603    -999.2500    -999.2500     416.4514     287.5961     103.7701       0.0780       3.1365       2.6260
   2054.8003       9.1469      -0.0038      70.8041      54.1335    -999.2500    -999.2500     429.8811     299.5944     109.2608       0.0791       3.1184       2.6380
   2054.9529       9.2243      -0.0055      73.4129      52.3249    -999.2500    -999.2500     456.1810     316.5702     124.7990       0.0777       3.1712       2.6271
   2055.1052       9.2978      -0.0075      72.0881      49.6082    -999.2500    -999.2500     486.6819     335.1707     143.6168       0.0722       3.2471       2.6086
   2055.2576       9.8748      -0.0076      69.4291      48.4102    -999.2500    -999.2500     520.0614     357.2320     128.7679       0.0584       3.2754       2.5841
   2055.4099      10.6185      -0.0071      69.1804      47.7145    -999.2500    -999.2500     554.3931     380.4380     102.7831       0.0432       3.2879       2.5576
   2055.5623      10.1805      -0.0047      68.3091      46.1343    -999.2500    -999.2500     529.0252     361.4210     126.3232       0.0403       3.2284       2.5889
   2055.7148       9.3499      -0.0018      65.3426      44.2601    -999.2500    -999.2500     483.8192     328.3733     166.3204       0.0476       3.1449       2.6394
   2055.8672       9.1117      -0.0006      62.4361      42.3960    -999.2500    -999.2500     479.6354     323.4693     218.8506       0.0619       3.1371       2.6640
   2056.0195       9.0712      -0.0001      60.4239      40.5353    -999.2500    -999.2500     489.1461     327.9608     275.5646       0.0775       3.1546       2.6800
   2056.1719       9.1120      -0.0022      58.9032      42.2755    -999.2500    -999.2500     476.4521     320.3360     218.9840       0.0857       3.1493       2.6450
   2056.3245       9.1801      -0.0053      58.3916      45.2337    -999.2500    -999.2500     456.2476     308.6130     124.0829       0.0876       3.1362       2.5929
   2056.4768       9.1240      -0.0056      59.8315      48.3089    -999.2500    -999.2500     417.4309     286.8408     110.9785       0.0841       3.1635       2.5683
   2056.6292       9.0271      -0.0051      61.1426      51.4226    -999.2500    -999.2500     372.5023     261.7686     124.7346       0.0784       3.2040       2.5528
   2056.7815       9.1206      -0.0058      61.5137      53.5077    -999.2500    -999.2500     351.0051     250.4358     116.0112       0.0747       3.2429       2.5746
   2056.9341       9.2771      -0.0068      62.1352      55.2534    -999.2500    -999.2500     337.2381     243.6357      99.8716       0.0730       3.2814       2.6085
   2057.0864       9.2211      -0.0040      62.6851      56.0203    -999.2500    -999.2500     401.7508     279.6160     121.9151       0.0739       3.2569       2.6140
   2057.2388       9.0948      -0.0000      60.4881      56.4628    -999.2500    -999.2500     492.2083     329.7751     156.6138       0.0734       3.2114       2.6100
   2057.3911       9.1281      -0.0009      57.4475      55.2151    -999.2500    -999.2500     530.4369     350.3287     129.9464       0.0639       3.1712       2.6221
   2057.5435       9.2151      -0.0034      57.2382      53.3999    -999.2500    -999.2500     551.1259     360.9402      82.6708       0.0497       3.1327       2.6396
