#------------------------------------------------------------------------------
#
#   Created by  : [OpenWorks] Log Export Utility (LEXP)
#   Created on  : 2016-05-11 12:13:43
#   Project     : CANT971
#   User        : R5K
#   Interpreter : PEP
#
#------------------------------------------------------------------------------
~VERSION INFORMATION
VERS. 2.0 : CWLS Log ASCII Standard - version 2.0
WRAP.  NO : One line per depth step
~WELL INFORMATION
#MNEMONIC   .UNIT                                           VALUE :DESCRIPTION
#------------------------------------------------------------------------------
STRT        .M                                           704.3840 :START DEPTH
STOP        .M                                          2722.4648 :STOP DEPTH
STEP        .M                                             0.1524 :STEP
NULL        .                                           -999.2500 :NULL VALUE
COMP        .                                   PEMEX EXPL & PROD :COMPANY
WELL        .                                                3087 :WELL
FLD         .                                           CANTARELL :FIELD
LOC         .                                             UNKNOWN :LOCATION
CNTY        .                                      CD. DEL CARMEN :COUNTY
STAT        .                                            CAMPECHE :STATE
CTRY        .                                              MEXICO :COUNTRY
SRVC        .                                             UNKNOWN :SERVICE COMPANY
DATE        .                                             UNKNOWN :LOG DATE
UWI         .                                          3060000698 :UNIQUE WELL ID
XCOORD      .                                       601395.890000 :SURFACE X
YCOORD      .                                      2149878.530000 :SURFACE Y
LAT         .                                           19.441887 :LATITUDE
LON         .                                          -92.034090 :LONGITUDE
ELEV        .M                                            28.0000 :SURFACE ELEV
ELEV_TYPE   .                                                  KB :ELEV TYPE
~CURVE INFORMATION
#MNEMONIC.UNIT        API CODE       : CURVE DESCRIPTION
#------------------------------------------------------------------------------
DEPTH    .M                          : Measured Depth
CALI     .inches      UNKNOWN        : CALI:Import:rC:NONE:v0 (auto-composite)
DRHO     .g/cm3       UNKNOWN        : DRHO:Import:rC:NONE:v0 (auto-composite)
DT       .us/ft       UNKNOWN        : DT:Import:rC:NONE:v0 (auto-composite)
GR       .API         UNKNOWN        : GR:Import:rC:NONE:v0 (auto-composite)
ILD      .ohm.m       UNKNOWN        : ILD:Import:rC:NONE:v0 (auto-composite)
ILM      .ohm.m       UNKNOWN        : ILM:Import:rC:NONE:v0 (auto-composite)
LLD      .ohm.m       UNKNOWN        : LLD:Import:rC:NONE:v0 (auto-composite)
LLS      .ohm.m       UNKNOWN        : LLS:Import:rC:NONE:v0 (auto-composite)
MSFL     .ohm.m       UNKNOWN        : MSFL:Import:rC:NONE:v0 (auto-composite)
NPHI     .v/v_decimal UNKNOWN        : NPHI:Import:rC:NONE:v0 (auto-composite)
PEF      .b/elec      UNKNOWN        : PEF:Import:rC:NONE:v0 (auto-composite)
RHOB     .g/cm3       UNKNOWN        : RHOB:Import:rC:NONE:v0 (auto-composite)
~A     DEPTH         CALI         DRHO           DT           GR          ILD          ILM          LLD          LLS         MSFL         NPHI          PEF         RHOB
# ...
   2562.4448       7.2538       0.0878      52.7506      51.3325    -999.2500    -999.2500      22.6699      16.1789       9.5301       0.1137       3.3736       2.7407
   2562.5972       7.1488       0.0802      52.1936      43.6711    -999.2500    -999.2500      35.8078      23.8075      11.9328       0.0977       3.3110       2.7511
   2562.7495       7.0193       0.0717      52.4224      35.5741    -999.2500    -999.2500      50.3661      32.1329      15.9171       0.0794       3.2476       2.7611
   2562.9019       7.1105       0.0669      53.3208      34.6431    -999.2500    -999.2500      60.6346      38.6374      47.5715       0.0706       3.2438       2.7670
   2563.0544       7.2229       0.0624      54.3219      34.3999    -999.2500    -999.2500      70.4915      44.9671      81.8817       0.0694       3.2458       2.7725
   2563.2068       7.1102       0.0611      55.6356      36.1876    -999.2500    -999.2500      54.4292      35.6559      71.1470       0.0748       3.2610       2.7780
   2563.3591       6.9753       0.0601      56.2900      38.1762    -999.2500    -999.2500      35.8023      24.7971      55.9550       0.0823       3.2775       2.7835
   2563.5115       7.0551       0.0650      56.0847      39.0143    -999.2500    -999.2500      36.6228      24.6751      41.8651       0.0867       3.2617       2.7781
   2563.6641       7.1564       0.0705      55.9855      39.7373    -999.2500    -999.2500      39.3880      25.6268      27.8853       0.0897       3.2426       2.7716
   2563.8164       7.0877       0.0765      55.2682      42.1838    -999.2500    -999.2500      33.1722      21.9367      23.4844       0.0935       3.2383       2.7683
   2563.9688       7.0033       0.0825      54.0796      44.7912    -999.2500    -999.2500      26.1182      17.8135      19.9774       0.0985       3.2353       2.7653
   2564.1211       7.0526       0.0762      53.2097      47.4094    -999.2500    -999.2500      24.3313      16.8096      21.9539       0.1059       3.2117       2.7677
   2564.2737       7.1145       0.0687      53.1341      50.0287    -999.2500    -999.2500      23.0414      16.0999      24.4478       0.1121       3.1863       2.7707
   2564.4260       7.0535       0.0562      54.0243      51.2953    -999.2500    -999.2500      27.7744      19.0453      26.7992       0.1138       3.1772       2.7227
   2564.5784       6.9805       0.0432      55.0220      52.4304    -999.2500    -999.2500      33.0936      22.3464      29.1367       0.1149       3.1697       2.6697
   2564.7307       7.0404       0.0470      56.1089      47.6013    -999.2500    -999.2500      33.7948      23.3518      25.1206       0.1211       3.1913       2.6614
   2564.8831       7.1134       0.0525      56.8745      42.1857    -999.2500    -999.2500      34.0417      24.1315      20.4796       0.1296       3.2158       2.6574
   2565.0356       7.0486       0.0675      55.9554      43.9722    -999.2500    -999.2500      36.9966      26.1199      23.2813       0.1365       3.2898       2.6688
   2565.1880       6.9702       0.0835      53.8762      46.4746    -999.2500    -999.2500      40.2207      28.2285      26.8227       0.1386       3.3688       2.6818
   2565.3403       7.0654       0.0896      53.2550      51.7258    -999.2500    -999.2500      41.2275      28.9910      28.5405       0.1298       3.4015       2.6520
   2565.4927       7.1782       0.0946      53.8859      57.2532    -999.2500    -999.2500      42.0115      29.6182      30.0750       0.1162       3.4295       2.6180
   2565.6453       7.0544       0.0850      54.0737      52.3313    -999.2500    -999.2500      42.7295      30.4384      32.4623       0.1054       3.3558       2.6145
   2565.7976       6.9079       0.0740      54.3831      46.4093    -999.2500    -999.2500      43.4412      31.2770      34.9312       0.0977       3.2724       2.6140
   2565.9500       7.0030       0.0712      55.0444      42.6005    -999.2500    -999.2500      45.2940      32.7514      39.0972       0.0936       3.2408       2.6505
   2566.1023       7.1214       0.0692      55.3244      38.9960    -999.2500    -999.2500      47.2571      34.2872      43.4273       0.0943       3.2144       2.6904
   2566.2549       7.0241       0.0685      54.7510      40.1300    -999.2500    -999.2500      39.0241      28.5401      52.6603       0.1029       3.2056       2.7204
   2566.4072       6.9057       0.0680      54.2426      41.7274    -999.2500    -999.2500      29.7941      22.0809      62.3726       0.1179       3.1986       2.7494
   2566.5596       6.9768       0.0680      53.5113      44.9696    -999.2500    -999.2500      25.7254      19.1549      44.9770       0.1374       3.1975       2.7320
   2566.7119       7.0667       0.0680      52.8199      48.3744    -999.2500    -999.2500      22.1668      16.5781      24.9028       0.1598       3.1970       2.7100
   2566.8643       7.0596       0.0748      53.1975      51.4474    -999.2500    -999.2500      22.2326      16.5781      21.0158       0.1839       3.2451       2.6309
   2567.0168       7.0426       0.0823      54.0141      54.4866    -999.2500    -999.2500      22.6674      16.8405      18.7768       0.1975       3.2981       2.5459
   2567.1692       8.1989       0.1044      54.8637      50.8993    -999.2500    -999.2500      24.7898      18.1611      17.5996       0.1887       3.3694       2.5112
   2567.3215       9.4760       0.1279      55.7379      46.6304    -999.2500    -999.2500      27.0856      19.5906      16.5317       0.1656       3.4426       2.4816
   2567.4739       8.5503       0.1414      56.7873      41.3441    -999.2500    -999.2500      30.0578      21.9273      21.6089       0.1366       3.4157       2.5602
   2567.6265       7.4128       0.1539      57.9613      35.9599    -999.2500    -999.2500      33.0950      24.3513      27.2769       0.1137       3.3792       2.6491
   2567.7788       8.5887       0.1254      58.3349      32.8682    -999.2500    -999.2500      35.3348      26.1276      37.6949       0.1100       3.3796       2.6898
   2567.9312       9.9895       0.0930      58.7943      29.9992    -999.2500    -999.2500      37.4971      27.8410      48.5745       0.1138       3.3836       2.7257
   2568.0835       8.7046       0.0900      59.4912      33.9542    -999.2500    -999.2500      38.7011      28.6980      35.6522       0.1106       3.3613       2.7145
   2568.2361       7.1508       0.0900      59.4180      38.5927    -999.2500    -999.2500      39.8092      29.4691      20.3458       0.1045       3.3363       2.6985
   2568.3884       7.1209       0.0932      59.3091      42.9633    -999.2500    -999.2500      40.8708      29.1585      20.7652       0.1026       3.3012       2.7088
   2568.5408       7.2453       0.0967      59.4357      47.3069    -999.2500    -999.2500      41.9277      28.7383      22.7763       0.1019       3.2651       2.7219
   2568.6931       7.1222       0.1034      59.4435      47.8295    -999.2500    -999.2500      43.1898      29.6184      31.9281       0.0987       3.2583       2.7376
   2568.8455       6.9758       0.1104      59.3626      47.9909    -999.2500    -999.2500      44.4712      30.6215      41.7548       0.0943       3.2543       2.7536
   2568.9980       7.0400       0.1046      59.0521      47.5401    -999.2500    -999.2500      46.0740      31.6945      50.5356       0.0903       3.2700       2.7454
   2569.1504       7.1244       0.0976      58.6831      47.0307    -999.2500    -999.2500      47.7075      32.7742      59.2164       0.0887       3.2874       2.7349
   2569.3027       6.8295       0.0970      58.1814      49.7025    -999.2500    -999.2500      49.7416      34.1799      52.6074       0.0913       3.3113       2.7240
   2569.4551       6.4971       0.0970      57.4431      52.6877    -999.2500    -999.2500      51.8152      35.6178      44.4919       0.0963       3.3358       2.7130
   2569.6077       6.6820       0.0838      56.9757      57.3178    -999.2500    -999.2500      54.2206      36.9861      33.7311       0.1017       3.3185       2.6615
