#------------------------------------------------------------------------------
#
#   Created by  : [OpenWorks] Log Export Utility (LEXP)
#   Created on  : 2016-05-11 12:13:43
#   Project     : CANT971
#   User        : R5K
#   Interpreter : PEP
#
#------------------------------------------------------------------------------
~VERSION INFORMATION
VERS. 2.0 : CWLS Log ASCII Standard - version 2.0
WRAP.  NO : One line per depth step
~WELL INFORMATION
#MNEMONIC   .UNIT                                           VALUE :DESCRIPTION
#------------------------------------------------------------------------------
STRT        .M                                           704.3840 :START DEPTH
STOP        .M                                          2722.4648 :STOP DEPTH
STEP        .M                                             0.1524 :STEP
NULL        .                                           -999.2500 :NULL VALUE
COMP        .                                   PEMEX EXPL & PROD :COMPANY
WELL        .                                                3087 :WELL
FLD         .                                           CANTARELL :FIELD
LOC         .                                             UNKNOWN :LOCATION
CNTY        .                                      CD. DEL CARMEN :COUNTY
STAT        .                                            CAMPECHE :STATE
CTRY        .                                              MEXICO :COUNTRY
SRVC        .                                             UNKNOWN :SERVICE COMPANY
DATE        .                                             UNKNOWN :LOG DATE
UWI         .                                          3060000698 :UNIQUE WELL ID
XCOORD      .                                       601395.890000 :SURFACE X
YCOORD      .                                      2149878.530000 :SURFACE Y
LAT         .                                           19.441887 :LATITUDE
LON         .                                          -92.034090 :LONGITUDE
ELEV        .M                                            28.0000 :SURFACE ELEV
ELEV_TYPE   .                                                  KB :ELEV TYPE
~CURVE INFORMATION
#MNEMONIC.UNIT        API CODE       : CURVE DESCRIPTION
#------------------------------------------------------------------------------
DEPTH    .M                          : Measured Depth
CALI     .inches      UNKNOWN        : CALI:Import:rC:NONE:v0 (auto-composite)
DRHO     .g/cm3       UNKNOWN        : DRHO:Import:rC:NONE:v0 (auto-composite)
DT       .us/ft       UNKNOWN        : DT:Import:rC:NONE:v0 (auto-composite)
GR       .API         UNKNOWN        : GR:Import:rC:NONE:v0 (auto-composite)
ILD      .ohm.m       UNKNOWN        : ILD:Import:rC:NONE:v0 (auto-composite)
ILM      .ohm.m       UNKNOWN        : ILM:Import:rC:NONE:v0 (auto-composite)
LLD      .ohm.m       UNKNOWN        : LLD:Import:rC:NONE:v0 (auto-composite)
LLS      .ohm.m       UNKNOWN        : LLS:Import:rC:NONE:v0 (auto-composite)
MSFL     .ohm.m       UNKNOWN        : MSFL:Import:rC:NONE:v0 (auto-composite)
NPHI     .v/v_decimal UNKNOWN        : NPHI:Import:rC:NONE:v0 (auto-composite)
PEF      .b/elec      UNKNOWN        : PEF:Import:rC:NONE:v0 (auto-composite)
RHOB     .g/cm3       UNKNOWN        : RHOB:Import:rC:NONE:v0 (auto-composite)
~A     DEPTH         CALI         DRHO           DT           GR          ILD          ILM          LLD          LLS         MSFL         NPHI          PEF         RHOB
# ...
   2152.7935       9.2307       0.0007      70.3960      22.0338    -999.2500    -999.2500     800.9403     186.2857      84.1752       0.0981       2.9467       2.5700
   2152.9460       9.3527      -0.0023      70.3806      24.7536    -999.2500    -999.2500     809.7830     186.5446      58.4703       0.1062       3.0406       2.5620
   2153.0984       9.3110      -0.0022      64.5754      27.5765    -999.2500    -999.2500     651.6443     152.9489      80.8511       0.1158       3.0449       2.5761
   2153.2507       9.2151      -0.0013      59.3557      30.4335    -999.2500    -999.2500     438.2365     108.1476     119.1479       0.1271       3.0194       2.5976
   2153.4031       9.3227      -0.0014      59.6461      36.3888    -999.2500    -999.2500     368.9396      95.5011      98.5815       0.1404       3.0530       2.5832
   2153.5557       9.4987      -0.0019      60.9069      43.3833    -999.2500    -999.2500     347.9736      93.6384      58.2739       0.1522       3.1065       2.5567
   2153.7080       9.4207       0.0033      63.4803      41.7737    -999.2500    -999.2500     412.9175     111.5573      38.5736       0.1499       3.0877       2.5579
   2153.8604       9.2573       0.0103      64.9842      37.2652    -999.2500    -999.2500     506.8058     136.1410      25.8162       0.1344       3.0446       2.5684
   2154.0127       9.3281       0.0086      63.5627      32.5989    -999.2500    -999.2500     561.0969     148.9017      36.1737       0.1074       3.0189       2.5819
   2154.1653       9.4755       0.0041      64.7025      27.8809    -999.2500    -999.2500     602.4365     157.7953      54.0914       0.0791       2.9989       2.5964
   2154.3176       9.4094       0.0060      66.0221      25.5044    -999.2500    -999.2500     648.7094     156.1040      49.8238       0.0706       3.0538       2.6030
   2154.4700       9.2731       0.0100      66.7718      23.8974    -999.2500    -999.2500     696.6033     150.9344      38.2661       0.0761       3.1332       2.6070
   2154.6223       9.3226       0.0061      69.0992      22.4244    -999.2500    -999.2500     752.2109     154.0617      52.6259       0.0821       3.1039       2.6192
   2154.7747       9.4341      -0.0004      69.3325      20.9960    -999.2500    -999.2500     810.3867     159.9516      75.6155       0.0861       3.0384       2.6342
   2154.9272       9.3365      -0.0039      66.8023      20.4354    -999.2500    -999.2500     872.9354     166.0584      88.3948       0.0859       3.0681       2.6294
   2155.0796       9.1691      -0.0064      59.2204      20.1650    -999.2500    -999.2500     936.9467     172.2378      97.7588       0.0835       3.1295       2.6179
   2155.2319       9.2695      -0.0070      53.9315      21.0693    -999.2500    -999.2500     953.6785     166.4852      87.4289       0.0835       3.1240       2.6109
   2155.3843       9.4599      -0.0070      53.6681      22.3684    -999.2500    -999.2500     954.5222     156.7229      70.4810       0.0893       3.0959       2.6054
   2155.5369       9.4141      -0.0047      52.9136      22.3049    -999.2500    -999.2500     839.0810     141.2673      79.3767       0.1048       3.1104       2.6153
   2155.6892       9.2907      -0.0017      52.0426      21.7931    -999.2500    -999.2500     685.3768     123.9383      96.7762       0.1281       3.1389       2.6303
   2155.8416       9.3821       0.0009      51.4498      23.0757    -999.2500    -999.2500     631.7045     122.6721      84.1471       0.1570       3.0739       2.6175
   2155.9939       9.5445       0.0034      49.7426      24.9514    -999.2500    -999.2500     611.0999     126.7159      61.5913       0.1858       2.9779       2.5955
   2156.1465       9.5070      -0.0001      46.7252      27.0458    -999.2500    -999.2500     620.7655     131.9595      48.1976       0.2058       3.0204       2.5356
   2156.2988       9.4030      -0.0056      45.1991      29.2129    -999.2500    -999.2500     640.4840     137.6015      37.8465       0.2156       3.1089       2.4631
   2156.4512       9.5807      -0.0100      45.6326      28.6799    -999.2500    -999.2500     638.3821     139.5672      32.8796       0.2081       3.1786       2.4120
   2156.6035       9.8524      -0.0140      49.4646      27.2462    -999.2500    -999.2500     629.0002     140.3063      29.7090       0.1910       3.2420       2.3681
   2156.7559       9.6598      -0.0113      55.8621      26.6704    -999.2500    -999.2500     571.3254     128.6919      36.6804       0.1770       3.1891       2.3825
   2156.9084       9.3104      -0.0062      60.7220      26.3846    -999.2500    -999.2500     497.3258     112.9017      47.0803       0.1702       3.0968       2.4166
   2157.0608       9.3967      -0.0080      64.5827      29.5557    -999.2500    -999.2500     438.1509      99.7214      44.4391       0.1769       3.1011       2.4367
   2157.2131       9.6261      -0.0120      67.9782      33.8614    -999.2500    -999.2500     383.8414      87.3977      37.5181       0.1917       3.1371       2.4522
   2157.3655       9.5154      -0.0081      69.3692      35.1128    -999.2500    -999.2500     362.4590      82.4785      33.8908       0.2023       3.1077       2.4402
   2157.5181       9.2925      -0.0016      69.1073      35.3572    -999.2500    -999.2500     351.9331      80.0006      31.3494       0.2086       3.0567       2.4192
   2157.6704       9.4058      -0.0023      70.3600      33.6902    -999.2500    -999.2500     377.2692      85.1591      30.5651       0.2131       3.0661       2.4106
   2157.8228       9.6305      -0.0052      72.0295      31.3900    -999.2500    -999.2500     414.4843      92.8471      30.3628       0.2131       3.0956       2.4061
   2157.9751       9.5025      -0.0045      66.8207      30.2578    -999.2500    -999.2500     441.3322      99.6746      40.4897       0.1961       3.0603       2.4417
   2158.1277       9.2561      -0.0025      62.2635      29.5176    -999.2500    -999.2500     464.7007     106.2133      54.0834       0.1703       3.0034       2.4906
   2158.2800       9.4865      -0.0035      62.3759      30.8804    -999.2500    -999.2500     499.7056     114.0373      69.7030       0.1504       3.0644       2.5382
   2158.4324       9.8776      -0.0055      60.6536      32.9521    -999.2500    -999.2500     538.6340     122.2947      86.0057       0.1344       3.1651       2.5854
   2158.5847       9.6622      -0.0034      58.7384      33.2894    -999.2500    -999.2500     499.6795     114.6488      77.4095       0.1174       3.1956       2.6151
   2158.7371       9.2484       0.0001      57.0007      33.0590    -999.2500    -999.2500     435.2318     101.7973      60.6632       0.1010       3.2031       2.6391
   2158.8896       9.3117      -0.0009      57.0941      32.1944    -999.2500    -999.2500     385.0084      91.5241      60.8745       0.0890       3.1592       2.6446
   2159.0420       9.5320      -0.0034      57.9948      31.1212    -999.2500    -999.2500     339.4625      82.0987      66.6624       0.0823       3.0982       2.6441
   2159.1943       9.4389      -0.0029      57.2534      31.2534    -999.2500    -999.2500     318.6667      78.6465      77.9756       0.0833       3.0691       2.6406
   2159.3467       9.2415      -0.0014      57.3301      31.7871    -999.2500    -999.2500     306.1182      77.1846      91.1299       0.0912       3.0506       2.6361
   2159.4993       9.5189       0.0012      58.2421      30.0668    -999.2500    -999.2500     313.9694      79.6813      81.8924       0.1070       3.0288       2.6155
   2159.6516       9.9552       0.0042      57.7496      27.5918    -999.2500    -999.2500     328.6495      83.5032      65.1591       0.1258       3.0058       2.5895
   2159.8040       9.7194       0.0200      57.8141      29.3373    -999.2500    -999.2500     317.4632      81.1316      55.6290       0.1396       3.0191       2.5582
   2159.9563       9.2577       0.0401      61.5299      32.5021    -999.2500    -999.2500     297.5781      76.6773      48.5213       0.1492       3.0447       2.5251
