#------------------------------------------------------------------------------
#
#   Created by  : [OpenWorks] Log Export Utility (LEXP)
#   Created on  : 2016-05-11 12:13:43
#   Project     : CANT971
#   User        : R5K
#   Interpreter : PEP
#
#------------------------------------------------------------------------------
~VERSION INFORMATION
VERS. 2.0 : CWLS Log ASCII Standard - version 2.0
WRAP.  NO : One line per depth step
~WELL INFORMATION
#MNEMONIC   .UNIT                                           VALUE :DESCRIPTION
#------------------------------------------------------------------------------
STRT        .M                                           704.3840 :START DEPTH
STOP        .M                                          2722.4648 :STOP DEPTH
STEP        .M                                             0.1524 :STEP
NULL        .                                           -999.2500 :NULL VALUE
COMP        .                                   PEMEX EXPL & PROD :COMPANY
WELL        .                                                3087 :WELL
FLD         .                                           CANTARELL :FIELD
LOC         .                                             UNKNOWN :LOCATION
CNTY        .                                      CD. DEL CARMEN :COUNTY
STAT        .                                            CAMPECHE :STATE
CTRY        .                                              MEXICO :COUNTRY
SRVC        .                                             UNKNOWN :SERVICE COMPANY
DATE        .                                             UNKNOWN :LOG DATE
UWI         .                                          3060000698 :UNIQUE WELL ID
XCOORD      .                                       601395.890000 :SURFACE X
YCOORD      .                                      2149878.530000 :SURFACE Y
LAT         .                                           19.441887 :LATITUDE
LON         .                                          -92.034090 :LONGITUDE
ELEV        .M                                            28.0000 :SURFACE ELEV
ELEV_TYPE   .                                                  KB :ELEV TYPE
~CURVE INFORMATION
#MNEMONIC.UNIT        API CODE       : CURVE DESCRIPTION
#------------------------------------------------------------------------------
DEPTH    .M                          : Measured Depth
CALI     .inches      UNKNOWN        : CALI:Import:rC:NONE:v0 (auto-composite)
DRHO     .g/cm3       UNKNOWN        : DRHO:Import:rC:NONE:v0 (auto-composite)
DT       .us/ft       UNKNOWN        : DT:Import:rC:NONE:v0 (auto-composite)
GR       .API         UNKNOWN        : GR:Import:rC:NONE:v0 (auto-composite)
ILD      .ohm.m       UNKNOWN        : ILD:Import:rC:NONE:v0 (auto-composite)
ILM      .ohm.m       UNKNOWN        : ILM:Import:rC:NONE:v0 (auto-composite)
LLD      .ohm.m       UNKNOWN        : LLD:Import:rC:NONE:v0 (auto-composite)
LLS      .ohm.m       UNKNOWN        : LLS:Import:rC:NONE:v0 (auto-composite)
MSFL     .ohm.m       UNKNOWN        : MSFL:Import:rC:NONE:v0 (auto-composite)
NPHI     .v/v_decimal UNKNOWN        : NPHI:Import:rC:NONE:v0 (auto-composite)
PEF      .b/elec      UNKNOWN        : PEF:Import:rC:NONE:v0 (auto-composite)
RHOB     .g/cm3       UNKNOWN        : RHOB:Import:rC:NONE:v0 (auto-composite)
~A     DEPTH         CALI         DRHO           DT           GR          ILD          ILM          LLD          LLS         MSFL         NPHI          PEF         RHOB
# ...
   2357.6191       8.9555       0.0194      65.4116      26.6741    -999.2500    -999.2500    1238.1891     945.5170     310.1421       0.0836       3.0606       2.6861
   2357.7715       9.0429       0.0079      64.2937      22.8837    -999.2500    -999.2500    1676.9746    1231.5874     472.2886       0.0946       3.0026       2.6637
   2357.9241       8.9656       0.0076      64.0219      19.5231    -999.2500    -999.2500    2027.2183    1498.6190     349.9034       0.1087       2.9869       2.6270
   2358.0764       8.8327       0.0111      65.0462      16.3074    -999.2500    -999.2500    2347.5664    1759.2225     131.4482       0.1246       2.9854       2.5855
   2358.2288       8.7953       0.0060      65.9115      14.1643    -999.2500    -999.2500    3313.7463    2541.1099      73.1793       0.1398       3.0161       2.5439
   2358.3811       8.7902      -0.0020      66.2634      12.3848    -999.2500    -999.2500    4498.9854    3499.8108      69.2439       0.1522       3.0577       2.5023
   2358.5337       8.9442       0.0028      67.5551      11.5646    -999.2500    -999.2500    4327.1411    3436.3254     130.5080       0.1589       3.0323       2.5190
   2358.6860       9.1504       0.0118      69.5378      11.0602    -999.2500    -999.2500    3708.3831    3036.2141     213.2435       0.1591       2.9849       2.5550
   2358.8384       9.0386       0.0103      70.1438      11.1210    -999.2500    -999.2500    3249.9590    2656.1709     199.1515       0.1462       2.9846       2.5891
   2358.9907       8.8207       0.0053      69.6837      11.3704    -999.2500    -999.2500    2845.0366    2282.8242     152.7490       0.1283       3.0001       2.6226
   2359.1431       8.8126       0.0115      68.0469      12.0879    -999.2500    -999.2500    2850.2422    2123.7483     108.2195       0.1190       2.9717       2.6134
   2359.2957       8.8747       0.0215      65.6905      12.9623    -999.2500    -999.2500    2992.9341    2036.5018      64.3178       0.1162       2.9286       2.5898
   2359.4480       8.9277       0.0150      66.8916      12.5213    -999.2500    -999.2500    3570.2068    2589.2214      59.7393       0.1166       2.9044       2.5618
   2359.6003       8.9777       0.0030      71.0319      11.6521    -999.2500    -999.2500    4288.8994    3350.1973      67.9572       0.1186       2.8864       2.5323
   2359.7527       8.9268       0.0015      74.9279      12.3491    -999.2500    -999.2500    4934.9766    3697.6079      75.7547       0.1213       2.8654       2.5182
   2359.9053       8.8429       0.0035      77.5351      13.5581    -999.2500    -999.2500    5557.3135    3909.8088      83.4148       0.1246       2.8435       2.5092
   2360.0576       8.8836       0.0032      78.5357      13.8965    -999.2500    -999.2500    6022.6855    4070.7451     109.5659       0.1288       2.8508       2.5231
   2360.2100       8.9655       0.0022      78.0762      13.9465    -999.2500    -999.2500    6436.0562    4214.6978     141.8430       0.1326       2.8678       2.5446
   2360.3623       8.9219       0.0001      74.3783      13.6069    -999.2500    -999.2500    6023.3110    4185.8584     174.0983       0.1305       2.9102       2.5612
   2360.5149       8.8364      -0.0024      72.4107      13.1376    -999.2500    -999.2500    5335.6138    4099.5093     206.3464       0.1251       2.9612       2.5762
   2360.6672       8.8678       0.0034      68.0645      13.4286    -999.2500    -999.2500    4566.1133    3659.6135     184.7833       0.1213       2.9605       2.5837
   2360.8196       8.9383       0.0119      64.1738      13.9739    -999.2500    -999.2500    3769.2615    3101.5056     145.2279       0.1194       2.9425       2.5887
   2360.9719       8.8866       0.0129      65.5239      12.9342    -999.2500    -999.2500    3352.3733    2796.7888     143.3370       0.1217       2.9549       2.5821
   2361.1243       8.7939       0.0114      64.1343      11.3621    -999.2500    -999.2500    3063.1152    2577.1865     154.0977       0.1258       2.9774       2.5716
   2361.2769       8.8425       0.0133      62.7445      11.6127    -999.2500    -999.2500    2858.0696    2345.3628     142.2305       0.1274       3.0097       2.5777
   2361.4292       8.9374       0.0163      61.2890      12.4629    -999.2500    -999.2500    2680.7217    2109.5198     122.9208       0.1259       3.0452       2.5891
   2361.5815       8.8754       0.0121      60.4417      12.4152    -999.2500    -999.2500    2698.2466    2085.4360     141.9131       0.1190       3.0337       2.6067
   2361.7339       8.7614       0.0056      60.6671      12.0708    -999.2500    -999.2500    2780.1633    2131.3235     173.5614       0.1106       3.0067       2.6261
   2361.8865       8.8043       0.0081      60.8750      12.5129    -999.2500    -999.2500    2334.8579    1830.5619     151.3053       0.1084       3.0049       2.6370
   2362.0388       8.8993       0.0136      61.1587      13.2161    -999.2500    -999.2500    1714.5358    1414.7266     111.1552       0.1103       3.0114       2.6450
   2362.1912       8.8526       0.0244      61.3391      14.1166    -999.2500    -999.2500    1401.6816    1176.5780     111.7942       0.1125       2.9845       2.6335
   2362.3435       8.7587       0.0368      61.3774      15.0830    -999.2500    -999.2500    1191.3665     997.6871     126.0361       0.1139       2.9466       2.6155
   2362.4961       8.8463       0.0355      62.1650      15.7456    -999.2500    -999.2500    1081.1252     901.6475     137.7387       0.1123       2.9692       2.6312
   2362.6484       8.9952       0.0295      64.4987      16.3057    -999.2500    -999.2500    1004.6984     833.6028     148.5833       0.1076       3.0123       2.6583
   2362.8008       8.9466       0.0205      66.5668      17.3517    -999.2500    -999.2500     924.9747     772.7612     134.5958       0.0993       3.0365       2.6515
   2362.9531       8.8331       0.0105      68.3153      18.5572    -999.2500    -999.2500     844.1697     714.2825     112.4623       0.0897       3.0545       2.6335
   2363.1055       8.8873       0.0072      69.6274      19.6488    -999.2500    -999.2500     767.8250     668.4569     133.2758       0.0849       3.0733       2.6380
   2363.2581       8.9968       0.0062      71.0579      20.7028    -999.2500    -999.2500     692.9503     626.8014     168.2432       0.0835       3.0923       2.6500
   2363.4104       8.9647       0.0203      73.3606      19.9888    -999.2500    -999.2500     608.5591     572.4298     166.1553       0.0823       3.0797       2.6688
   2363.5627       8.8858       0.0392      73.9802      18.6894    -999.2500    -999.2500     521.0170     513.8480     151.7985       0.0815       3.0568       2.6897
   2363.7151       8.8914       0.0369      73.5977      18.8862    -999.2500    -999.2500     404.6187     413.4492     169.2899       0.0818       3.0372       2.6864
   2363.8677       8.9254       0.0274      71.4440      19.5849    -999.2500    -999.2500     278.5396     299.0217     197.4657       0.0816       3.0187       2.6749
   2364.0200       9.0248       0.0280      68.2902      21.2385    -999.2500    -999.2500     204.2233     221.8755     178.4193       0.0782       3.0054       2.6769
   2364.1724       9.1461       0.0320      68.3161      23.2140    -999.2500    -999.2500     147.3522     157.2940     143.4579       0.0763       2.9938       2.6834
   2364.3247       9.0182       0.0371      68.7068      25.6437    -999.2500    -999.2500     127.8961     133.2224     124.6670       0.0882       2.9948       2.6933
   2364.4771       8.8088       0.0426      68.1512      28.2221    -999.2500    -999.2500     120.6818     122.4051     111.1668       0.1072       2.9998       2.7043
   2364.6296       8.8325       0.0342      69.9327      30.6956    -999.2500    -999.2500     131.7929     128.9007      93.2346       0.1183       3.0205       2.7130
   2364.7820       8.9329       0.0212      72.8044      33.1346    -999.2500    -999.2500     148.9278     141.0872      73.8455       0.1225       3.0465       2.7210
