#------------------------------------------------------------------------------
#
#   Created by  : [OpenWorks] Log Export Utility (LEXP)
#   Created on  : 2016-05-11 12:13:43
#   Project     : CANT971
#   User        : R5K
#   Interpreter : PEP
#
#------------------------------------------------------------------------------
~VERSION INFORMATION
VERS. 2.0 : CWLS Log ASCII Standard - version 2.0
WRAP.  NO : One line per depth step
~WELL INFORMATION
#MNEMONIC   .UNIT                                           VALUE :DESCRIPTION
#------------------------------------------------------------------------------
STRT        .M                                           704.3840 :START DEPTH
STOP        .M                                          2722.4648 :STOP DEPTH
STEP        .M                                             0.1524 :STEP
NULL        .                                           -999.2500 :NULL VALUE
COMP        .                                   PEMEX EXPL & PROD :COMPANY
WELL        .                                                3087 :WELL
FLD         .                                           CANTARELL :FIELD
LOC         .                                             UNKNOWN :LOCATION
CNTY        .                                      CD. DEL CARMEN :COUNTY
STAT        .                                            CAMPECHE :STATE
CTRY        .                                              MEXICO :COUNTRY
SRVC        .                                             UNKNOWN :SERVICE COMPANY
DATE        .                                             UNKNOWN :LOG DATE
UWI         .                                          3060000698 :UNIQUE WELL ID
XCOORD      .                                       601395.890000 :SURFACE X
YCOORD      .                                      2149878.530000 :SURFACE Y
LAT         .                                           19.441887 :LATITUDE
LON         .                                          -92.034090 :LONGITUDE
ELEV        .M                                            28.0000 :SURFACE ELEV
ELEV_TYPE   .                                                  KB :ELEV TYPE
~CURVE INFORMATION
#MNEMONIC.UNIT        API CODE       : CURVE DESCRIPTION
#------------------------------------------------------------------------------
DEPTH    .M                          : Measured Depth
CALI     .inches      UNKNOWN        : CALI:Import:rC:NONE:v0 (auto-composite)
DRHO     .g/cm3       UNKNOWN        : DRHO:Import:rC:NONE:v0 (auto-composite)
DT       .us/ft       UNKNOWN        : DT:Import:rC:NONE:v0 (auto-composite)
GR       .API         UNKNOWN        : GR:Import:rC:NONE:v0 (auto-composite)
ILD      .ohm.m       UNKNOWN        : ILD:Import:rC:NONE:v0 (auto-composite)
ILM      .ohm.m       UNKNOWN        : ILM:Import:rC:NONE:v0 (auto-composite)
LLD      .ohm.m       UNKNOWN        : LLD:Import:rC:NONE:v0 (auto-composite)
LLS      .ohm.m       UNKNOWN        : LLS:Import:rC:NONE:v0 (auto-composite)
MSFL     .ohm.m       UNKNOWN        : MSFL:Import:rC:NONE:v0 (auto-composite)
NPHI     .v/v_decimal UNKNOWN        : NPHI:Import:rC:NONE:v0 (auto-composite)
PEF      .b/elec      UNKNOWN        : PEF:Import:rC:NONE:v0 (auto-composite)
RHOB     .g/cm3       UNKNOWN        : RHOB:Import:rC:NONE:v0 (auto-composite)
~A     DEPTH         CALI         DRHO           DT           GR          ILD          ILM          LLD          LLS         MSFL         NPHI          PEF         RHOB
# ...
   2101.5872       9.6168       0.0108      62.0534      60.6261    -999.2500    -999.2500     333.1929     104.3752      40.0388       0.1221       3.0072       2.5380
   2101.7395       9.8605       0.0038      67.1611      63.5960    -999.2500    -999.2500     317.9577     101.8498      54.3561       0.1153       3.0502       2.5739
   2101.8921       9.7016       0.0054      70.5441      63.1461    -999.2500    -999.2500     333.4534     107.0855      91.6517       0.1076       3.0957       2.5744
   2102.0444       9.4067       0.0099      70.7282      61.5408    -999.2500    -999.2500     359.3328     114.9436     136.7112       0.1033       3.1422       2.5629
   2102.1968       9.4349       0.0039      66.3694      56.7659    -999.2500    -999.2500     358.2318     114.9589     100.9158       0.1135       3.1795       2.5488
   2102.3491       9.5728      -0.0056      62.5315      50.9152    -999.2500    -999.2500     347.9729     112.3121      37.6755       0.1303       3.2135       2.5337
   2102.5015       9.6953       0.0048      61.4783      46.2191    -999.2500    -999.2500     385.3233     123.3947      39.8129       0.1350       3.1867       2.5281
   2102.6541       9.8128       0.0218      60.3195      41.9035    -999.2500    -999.2500     438.3640     139.0019      63.4961       0.1325       3.1397       2.5256
   2102.8064       9.7073       0.0211      60.3962      37.9506    -999.2500    -999.2500     527.8324     162.2244      56.1855       0.1330       3.0871       2.5205
   2102.9587       9.5280       0.0146      61.0263      34.1178    -999.2500    -999.2500     629.3618     187.9681      38.6132       0.1359       3.0327       2.5145
   2103.1111       9.3995       0.0212      62.7912      31.4687    -999.2500    -999.2500     599.0088     182.4512      55.6855       0.1381       3.0684       2.5074
   2103.2637       9.2881       0.0322      65.2178      29.2167    -999.2500    -999.2500     524.4130     166.4471      84.3801       0.1373       3.1344       2.4999
   2103.4160       9.3519       0.0189      66.0334      32.7013    -999.2500    -999.2500     446.8269     146.6638      80.2840       0.1303       3.1307       2.5201
   2103.5684       9.4747      -0.0027      65.0326      38.1193    -999.2500    -999.2500     368.2330     125.6069      65.1370       0.1208       3.1037       2.5497
   2103.7207       9.4255      -0.0050      64.1010      42.7131    -999.2500    -999.2500     345.5995     122.3889      89.5502       0.1201       3.0563       2.5724
   2103.8733       9.3201      -0.0010      64.3040      47.0373    -999.2500    -999.2500     341.2748     125.0073     126.9066       0.1263       3.0024       2.5929
   2104.0256       9.3402       0.0026      63.7070      53.1644    -999.2500    -999.2500     359.4997     135.7615     101.7857       0.1343       3.0138       2.5995
   2104.1780       9.4017       0.0061      61.9937      59.8841    -999.2500    -999.2500     385.1366     149.1899      56.1285       0.1399       3.0468       2.6015
   2104.3303       9.4987       0.0048      60.7485      60.0630    -999.2500    -999.2500     430.4351     167.0354      41.0270       0.1295       3.0378       2.5690
   2104.4827       9.6077       0.0018      59.6683      58.0633    -999.2500    -999.2500     482.2822     186.3521      36.1026       0.1119       3.0148       2.5250
   2104.6353       9.4740       0.0021      58.7876      54.4714    -999.2500    -999.2500     545.3649     205.4328      55.0642       0.1054       3.0244       2.5507
   2104.7876       9.2591       0.0036      58.6544      50.3467    -999.2500    -999.2500     612.2070     224.4346      82.0180       0.1065       3.0448       2.5997
   2104.9399       9.3067       0.0014      56.1987      45.6882    -999.2500    -999.2500     695.3915     249.2988      75.9939       0.1085       3.0241       2.6191
   2105.0923       9.4426      -0.0021      52.8462      40.8503    -999.2500    -999.2500     784.0693     276.1337      58.8845       0.1078       2.9895       2.6287
   2105.2449       9.5517       0.0023      51.8141      40.3136    -999.2500    -999.2500     661.0469     246.9298      60.0811       0.0950       3.0239       2.6382
   2105.3972       9.6521       0.0093      52.7734      41.1806    -999.2500    -999.2500     468.9427     199.4393      67.2512       0.0768       3.0809       2.6476
   2105.5496       9.4787       0.0148      54.8266      42.5385    -999.2500    -999.2500     443.1134     204.9331      80.6447       0.0653       3.0469       2.6752
   2105.7019       9.2148       0.0198      56.8932      44.0589    -999.2500    -999.2500     472.2664     227.9471      96.0960       0.0587       2.9830       2.7086
   2105.8545       9.3381       0.0169      62.0815      40.7761    -999.2500    -999.2500     715.2487     342.1047      88.3225       0.0537       3.0064       2.7245
   2106.0068       9.5900       0.0114      66.2882      35.8977    -999.2500    -999.2500    1029.2655     486.5403      72.8337       0.0510       3.0589       2.7345
   2106.1592       9.5201       0.0126      67.2437      32.6364    -999.2500    -999.2500    1183.9878     548.7431     159.0072       0.0534       3.0990       2.7415
   2106.3115       9.3428       0.0161      68.0576      29.9147    -999.2500    -999.2500    1285.5476     583.5017     279.1092       0.0594       3.1349       2.7475
   2106.4639       9.4393       0.0125      67.4382      28.9617    -999.2500    -999.2500    1204.3256     502.5368     257.6560       0.0663       3.1624       2.7179
   2106.6165       9.6283       0.0065      66.4448      28.6067    -999.2500    -999.2500    1061.2980     382.4414     188.3379       0.0729       3.1869       2.6763
   2106.7688       9.5106       0.0099      65.5337      28.7726    -999.2500    -999.2500    1037.6741     360.4358     144.2975       0.0786       3.1667       2.6792
   2106.9211       9.2922       0.0164      63.3877      29.1095    -999.2500    -999.2500    1053.2484     370.6314     108.5555       0.0828       3.1317       2.6967
   2107.0735       9.3797       0.0120      59.8564      27.9317    -999.2500    -999.2500     886.7446     315.8656     138.4836       0.0833       3.0565       2.7029
   2107.2261       9.5681       0.0040      59.3446      26.2544    -999.2500    -999.2500     660.1900     239.6750     190.0703       0.0845       2.9680       2.7054
   2107.3784       9.5182       0.0012      60.7813      26.2387    -999.2500    -999.2500     530.9928     198.5686     160.1311       0.0966       2.9621       2.6467
   2107.5308       9.3894       0.0003      60.4181      26.7736    -999.2500    -999.2500     434.0538     169.0870     103.1794       0.1157       2.9836       2.5678
   2107.6831       9.4262       0.0007      58.4996      26.1252    -999.2500    -999.2500     390.6248     155.8119      67.8368       0.1348       3.0249       2.5308
   2107.8357       9.5187       0.0017      56.1842      25.0797    -999.2500    -999.2500     365.1603     147.9778      39.7489       0.1503       3.0729       2.5078
   2107.9880       9.4711       0.0001      54.8605      24.3031    -999.2500    -999.2500     418.0219     159.2770      31.8315       0.1494       3.0940       2.5294
   2108.1404       9.3764      -0.0024      55.4037      23.6172    -999.2500    -999.2500     497.3001     177.0292      30.7169       0.1373       3.1060       2.5660
   2108.2927       9.3733      -0.0026      57.3762      24.6280    -999.2500    -999.2500     544.4217     184.3436      58.9955       0.1239       3.1418       2.5942
   2108.4451       9.4003      -0.0021      57.2688      26.1943    -999.2500    -999.2500     581.0144     188.2404      96.8982       0.1106       3.1852       2.6197
   2108.5977       9.3600      -0.0028      56.6536      25.7658    -999.2500    -999.2500     617.1075     183.1314      93.1659       0.1019       3.1471       2.6365
   2108.7500       9.2976      -0.0038      60.0140      24.6812    -999.2500    -999.2500     653.0362     175.0598      75.7378       0.0954       3.0822       2.6505
