#------------------------------------------------------------------------------
#
#   Created by  : [OpenWorks] Log Export Utility (LEXP)
#   Created on  : 2016-05-11 12:13:43
#   Project     : CANT971
#   User        : R5K
#   Interpreter : PEP
#
#------------------------------------------------------------------------------
~VERSION INFORMATION
VERS. 2.0 : CWLS Log ASCII Standard - version 2.0
WRAP.  NO : One line per depth step
~WELL INFORMATION
#MNEMONIC   .UNIT                                           VALUE :DESCRIPTION
#------------------------------------------------------------------------------
STRT        .M                                           704.3840 :START DEPTH
STOP        .M                                          2722.4648 :STOP DEPTH
STEP        .M                                             0.1524 :STEP
NULL        .                                           -999.2500 :NULL VALUE
COMP        .                                   PEMEX EXPL & PROD :COMPANY
WELL        .                                                3087 :WELL
FLD         .                                           CANTARELL :FIELD
LOC         .                                             UNKNOWN :LOCATION
CNTY        .                                      CD. DEL CARMEN :COUNTY
STAT        .                                            CAMPECHE :STATE
CTRY        .                                              MEXICO :COUNTRY
SRVC        .                                             UNKNOWN :SERVICE COMPANY
DATE        .                                             UNKNOWN :LOG DATE
UWI         .                                          3060000698 :UNIQUE WELL ID
XCOORD      .                                       601395.890000 :SURFACE X
YCOORD      .                                      2149878.530000 :SURFACE Y
LAT         .                                           19.441887 :LATITUDE
LON         .                                          -92.034090 :LONGITUDE
ELEV        .M                                            28.0000 :SURFACE ELEV
ELEV_TYPE   .                                                  KB :ELEV TYPE
~CURVE INFORMATION
#MNEMONIC.UNIT        API CODE       : CURVE DESCRIPTION
#------------------------------------------------------------------------------
DEPTH    .M                          : Measured Depth
CALI     .inches      UNKNOWN        : CALI:Import:rC:NONE:v0 (auto-composite)
DRHO     .g/cm3       UNKNOWN        : DRHO:Import:rC:NONE:v0 (auto-composite)
DT       .us/ft       UNKNOWN        : DT:Import:rC:NONE:v0 (auto-composite)
GR       .API         UNKNOWN        : GR:Import:rC:NONE:v0 (auto-composite)
ILD      .ohm.m       UNKNOWN        : ILD:Import:rC:NONE:v0 (auto-composite)
ILM      .ohm.m       UNKNOWN        : ILM:Import:rC:NONE:v0 (auto-composite)
LLD      .ohm.m       UNKNOWN        : LLD:Import:rC:NONE:v0 (auto-composite)
LLS      .ohm.m       UNKNOWN        : LLS:Import:rC:NONE:v0 (auto-composite)
MSFL     .ohm.m       UNKNOWN        : MSFL:Import:rC:NONE:v0 (auto-composite)
NPHI     .v/v_decimal UNKNOWN        : NPHI:Import:rC:NONE:v0 (auto-composite)
PEF      .b/elec      UNKNOWN        : PEF:Import:rC:NONE:v0 (auto-composite)
RHOB     .g/cm3       UNKNOWN        : RHOB:Import:rC:NONE:v0 (auto-composite)
~A     DEPTH         CALI         DRHO           DT           GR          ILD          ILM          LLD          LLS         MSFL         NPHI          PEF         RHOB
# ...
   2460.0320       8.8430       0.0150      74.5358      20.8708    -999.2500    -999.2500     321.4856     127.1906     101.5992       0.0770       3.0939       2.7698
   2460.1843       9.0869       0.0190      67.1332      21.9373    -999.2500    -999.2500     325.0830     129.5251      80.9286       0.0796       3.1004       2.7748
   2460.3367       8.9411       0.0177      58.5691      26.2425    -999.2500    -999.2500     311.9940     125.9348      67.4025       0.0752       3.0915       2.7737
   2460.4893       8.6679       0.0147      54.8227      31.6059    -999.2500    -999.2500     293.4529     120.4086      56.2108       0.0673       3.0775       2.7707
   2460.6416       8.7911       0.0166      54.9449      36.8636    -999.2500    -999.2500     276.5985     113.6997      58.6531       0.0628       3.0642       2.7527
   2460.7939       9.0455       0.0201      60.9698      42.0864    -999.2500    -999.2500     260.3025     106.5993      65.6096       0.0605       3.0512       2.7297
   2460.9463       8.9639       0.0184      66.0142      46.2335    -999.2500    -999.2500     250.3600     107.5269      60.3223       0.0585       3.0521       2.7045
   2461.0989       8.7704       0.0149      68.2369      50.0229    -999.2500    -999.2500     242.5309     111.1248      50.9624       0.0571       3.0576       2.6785
   2461.2512       8.7617       0.0174      70.4064      42.9682    -999.2500    -999.2500     248.5034     115.8312      56.4375       0.0580       3.0463       2.6750
   2461.4036       8.8147       0.0219      71.7282      32.2898    -999.2500    -999.2500     259.0878     120.9080      66.8700       0.0612       3.0293       2.6790
   2461.5559       8.7462       0.0204      68.4016      27.7171    -999.2500    -999.2500     262.1017     122.4901      52.9040       0.0669       3.0089       2.6823
   2461.7083       8.6370       0.0169      63.2493      25.1942    -999.2500    -999.2500     262.5741     122.8989      30.7473       0.0724       2.9873       2.6853
   2461.8608       8.6615       0.0506      60.0901      24.8754    -999.2500    -999.2500     247.3459     114.3299      30.2834       0.0696       3.0162       2.6664
   2462.0132       8.7300       0.0966      58.4685      25.2813    -999.2500    -999.2500     226.9567     102.8099      36.9500       0.0613       3.0617       2.6405
   2462.1655       8.6873       0.1084      60.1892      26.0158    -999.2500    -999.2500     252.4644     109.8834      56.7346       0.0534       3.0655       2.6487
   2462.3179       8.6078       0.1089      62.6514      26.8590    -999.2500    -999.2500     293.1288     123.0972      80.8512       0.0463       3.0555       2.6681
   2462.4705       8.6661       0.0816      63.3809      26.6937    -999.2500    -999.2500     396.3648     165.4658     122.9692       0.0410       3.0451       2.6996
   2462.6228       8.7700       0.0451      63.7165      26.1939    -999.2500    -999.2500     520.3597     217.5068     171.0594       0.0376       3.0346       2.7351
   2462.7751       8.7218       0.0401      62.4907      26.0244    -999.2500    -999.2500     650.7020     274.4913     188.5700       0.0358       3.0305       2.7369
   2462.9275       8.6230       0.0456      61.4716      25.9650    -999.2500    -999.2500     783.1597     333.1235     195.8885       0.0352       3.0285       2.7274
   2463.0801       8.7676       0.0347      61.5492      24.5448    -999.2500    -999.2500     729.6509     313.6076     157.5207       0.0354       3.0713       2.7489
   2463.2324       8.9945       0.0182      60.7431      22.6651    -999.2500    -999.2500     613.3421     267.7015     103.7250       0.0364       3.1293       2.7809
   2463.3848       8.8873       0.0177      59.3462      21.2602    -999.2500    -999.2500     577.6824     253.4209      84.7080       0.0391       3.1444       2.7677
   2463.5371       8.6667       0.0228      57.0665      20.0162    -999.2500    -999.2500     569.3824     249.8690      77.4895       0.0427       3.1449       2.7391
   2463.6895       8.6812       0.0278      56.4801      23.8454    -999.2500    -999.2500     467.0291     214.9000      87.7793       0.0454       3.1145       2.7218
   2463.8420       8.7731       0.0328      56.5202      29.3455    -999.2500    -999.2500     333.6972     169.5831     103.8359       0.0484       3.0741       2.7084
   2463.9944       8.8410       0.0306      54.9917      32.5583    -999.2500    -999.2500     286.9440     180.7408      95.4246       0.0555       3.0895       2.7159
   2464.1467       8.9010       0.0261      53.8230      35.0143    -999.2500    -999.2500     268.8399     210.5860      78.9170       0.0644       3.1235       2.7304
   2464.2991       8.8217       0.0269      52.6233      37.8090    -999.2500    -999.2500     259.9956     215.8436      66.8206       0.0703       3.1810       2.7351
   2464.4517       8.6957       0.0294      52.4375      40.7172    -999.2500    -999.2500     254.2561     212.8574      56.2031       0.0738       3.2465       2.7366
   2464.6040       8.8328       0.0334      53.7526      46.5808    -999.2500    -999.2500     225.4381     189.1168      53.5419       0.0754       3.2698       2.7107
   2464.7563       9.0584       0.0379      55.3168      53.4398    -999.2500    -999.2500     188.8467     158.3856      53.5604       0.0762       3.2788       2.6756
   2464.9087       8.9774       0.0277      58.7555      63.0980    -999.2500    -999.2500     153.8069     122.2681      34.7192       0.0780       3.2080       2.6497
   2465.0613       8.7961       0.0127      61.0634      73.6715    -999.2500    -999.2500     119.2744      84.3893       9.7110       0.0806       3.1111       2.6267
   2465.2136       8.8734      -0.0060      60.8290      87.9794    -999.2500    -999.2500     158.6416     100.9091       3.4682       0.0847       3.2191       2.5500
   2465.3660       9.0363      -0.0260      60.4039     103.5247    -999.2500    -999.2500     222.4950     135.4537       3.4432       0.0932       3.3951       2.4556
   2465.5183       8.9364      -0.0198      59.1362     112.4814    -999.2500    -999.2500     246.6556     148.3234     123.8754       0.1118       3.3678       2.4001
   2465.6707       8.7490      -0.0048      59.3539     119.2450    -999.2500    -999.2500     257.6034     153.9779     284.4050       0.1292       3.2728       2.3576
   2465.8232       8.7361      -0.0085      60.2630      96.7735    -999.2500    -999.2500     725.7307     381.1984     209.5863       0.1178       3.3097       2.4399
   2465.9756       8.7816      -0.0185      60.1070      64.5255    -999.2500    -999.2500    1346.7455     682.5138      56.0636       0.0877       3.3906       2.5638
   2466.1279       8.7322      -0.0056      60.1414      46.3085    -999.2500    -999.2500    1340.3955     650.7267     125.1272       0.0610       3.2809       2.6580
   2466.2803       8.6511       0.0149      58.3138      32.8054    -999.2500    -999.2500    1123.2795     507.0325     268.9698       0.0407       3.1070       2.7422
   2466.4329       8.6611       0.0174      55.5162      25.8339    -999.2500    -999.2500    1054.7006     474.6971     236.7736       0.0294       3.0809       2.7638
   2466.5852       8.7011       0.0139      53.9378      21.0110    -999.2500    -999.2500    1034.9836     478.9937     146.6685       0.0345       3.1034       2.7648
   2466.7375       8.6412       0.0291      52.8977      13.3332    -999.2500    -999.2500    1031.1398     480.5741     353.1500       0.0733       3.0445       2.7919
   2466.8899       8.7087       0.0260      52.3386      12.2623    -999.2500    -999.2500    1034.8530     496.3412     284.8755       0.0944       3.0416       2.7850
   2467.0425       8.7916       0.0205      52.4084      11.9185    -999.2500    -999.2500    1038.7888     513.5608     180.7095       0.0879       3.0466       2.7740
   2467.1948       8.6993       0.0309      54.1708      12.2762    -999.2500    -999.2500     858.3452     462.2252     215.4067       0.0839       3.0161       2.7798
