#------------------------------------------------------------------------------
#
#   Created by  : [OpenWorks] Log Export Utility (LEXP)
#   Created on  : 2016-05-11 12:13:43
#   Project     : CANT971
#   User        : R5K
#   Interpreter : PEP
#
#------------------------------------------------------------------------------
~VERSION INFORMATION
VERS. 2.0 : CWLS Log ASCII Standard - version 2.0
WRAP.  NO : One line per depth step
~WELL INFORMATION
#MNEMONIC   .UNIT                                           VALUE :DESCRIPTION
#------------------------------------------------------------------------------
STRT        .M                                           704.3840 :START DEPTH
STOP        .M                                          2722.4648 :STOP DEPTH
STEP        .M                                             0.1524 :STEP
NULL        .                                           -999.2500 :NULL VALUE
COMP        .                                   PEMEX EXPL & PROD :COMPANY
WELL        .                                                3087 :WELL
FLD         .                                           CANTARELL :FIELD
LOC         .                                             UNKNOWN :LOCATION
CNTY        .                                      CD. DEL CARMEN :COUNTY
STAT        .                                            CAMPECHE :STATE
CTRY        .                                              MEXICO :COUNTRY
SRVC        .                                             UNKNOWN :SERVICE COMPANY
DATE        .                                             UNKNOWN :LOG DATE
UWI         .                                          3060000698 :UNIQUE WELL ID
XCOORD      .                                       601395.890000 :SURFACE X
YCOORD      .                                      2149878.530000 :SURFACE Y
LAT         .                                           19.441887 :LATITUDE
LON         .                                          -92.034090 :LONGITUDE
ELEV        .M                                            28.0000 :SURFACE ELEV
ELEV_TYPE   .                                                  KB :ELEV TYPE
~CURVE INFORMATION
#MNEMONIC.UNIT        API CODE       : CURVE DESCRIPTION
#------------------------------------------------------------------------------
DEPTH    .M                          : Measured Depth
CALI     .inches      UNKNOWN        : CALI:Import:rC:NONE:v0 (auto-composite)
DRHO     .g/cm3       UNKNOWN        : DRHO:Import:rC:NONE:v0 (auto-composite)
DT       .us/ft       UNKNOWN        : DT:Import:rC:NONE:v0 (auto-composite)
GR       .API         UNKNOWN        : GR:Import:rC:NONE:v0 (auto-composite)
ILD      .ohm.m       UNKNOWN        : ILD:Import:rC:NONE:v0 (auto-composite)
ILM      .ohm.m       UNKNOWN        : ILM:Import:rC:NONE:v0 (auto-composite)
LLD      .ohm.m       UNKNOWN        : LLD:Import:rC:NONE:v0 (auto-composite)
LLS      .ohm.m       UNKNOWN        : LLS:Import:rC:NONE:v0 (auto-composite)
MSFL     .ohm.m       UNKNOWN        : MSFL:Import:rC:NONE:v0 (auto-composite)
NPHI     .v/v_decimal UNKNOWN        : NPHI:Import:rC:NONE:v0 (auto-composite)
PEF      .b/elec      UNKNOWN        : PEF:Import:rC:NONE:v0 (auto-composite)
RHOB     .g/cm3       UNKNOWN        : RHOB:Import:rC:NONE:v0 (auto-composite)
~A     DEPTH         CALI         DRHO           DT           GR          ILD          ILM          LLD          LLS         MSFL         NPHI          PEF         RHOB
# ...
   2408.8257       9.1242       0.0195      50.1543      24.8426    -999.2500    -999.2500     750.6366     372.6474     115.1350       0.0530       3.0856       2.7257
   2408.9780       8.6673       0.0255      50.5128      25.9532    -999.2500    -999.2500     903.5431     439.8401     148.8095       0.0533       3.0611       2.7731
   2409.1304       8.6740       0.0274      51.4497      25.8611    -999.2500    -999.2500     994.9194     479.5274     184.5039       0.0466       3.0869       2.7944
   2409.2827       8.8355       0.0279      52.3169      25.3678    -999.2500    -999.2500    1065.7698     510.0392     220.8722       0.0386       3.1293       2.8069
   2409.4351       8.8238       0.0190      52.8702      24.5440    -999.2500    -999.2500    1009.2436     505.5442     188.9263       0.0408       3.1193       2.7739
   2409.5876       8.7541       0.0070      54.7287      23.6094    -999.2500    -999.2500     910.0296     489.3172     134.0863       0.0500       3.0918       2.7258
   2409.7400       8.6472       0.0085      57.2109      24.0384    -999.2500    -999.2500     834.3366     472.2726     143.5469       0.0583       3.0511       2.7231
   2409.8923       8.5283       0.0145      58.9815      24.9110    -999.2500    -999.2500     766.2955     454.9621     173.9258       0.0645       3.0061       2.7350
   2410.0447       8.6838       0.0232      59.7557      26.3311    -999.2500    -999.2500     599.7941     383.9320     164.4681       0.0687       3.0044       2.7384
   2410.1973       8.9290       0.0326      59.9622      27.9302    -999.2500    -999.2500     401.1121     295.3442     141.9904       0.0725       3.0169       2.7389
   2410.3496       8.7876       0.0301      59.8597      30.6310    -999.2500    -999.2500     249.7880     196.4874     224.3322       0.0817       3.0144       2.7431
   2410.5020       8.5183       0.0236      59.0048      33.6966    -999.2500    -999.2500     114.1486      94.2295     341.3896       0.0957       3.0069       2.7486
   2410.6543       8.6051       0.0280      57.0142      45.9838    -999.2500    -999.2500      74.1780      63.7758     383.0733       0.1121       3.0129       2.6930
   2410.8069       8.8105       0.0360      54.2145      61.3391    -999.2500    -999.2500      66.0390      57.2131     399.6781       0.1264       3.0234       2.6170
   2410.9592       9.3257       0.0268      51.9044      88.1236    -999.2500    -999.2500      68.7215      59.8347     257.9904       0.1217       3.0485       2.5669
   2411.1116       9.9445       0.0118      50.4049     118.7284    -999.2500    -999.2500      75.0213      65.5262      63.3915       0.1032       3.0785       2.5254
   2411.2639       9.5926       0.0054      49.4925     105.8391    -999.2500    -999.2500     112.5794      99.4379      16.4987       0.0810       3.0612       2.4809
   2411.4163       8.9147       0.0019      48.4839      78.3444    -999.2500    -999.2500     160.6341     142.8259      19.2061       0.0601       3.0282       2.4353
   2411.5688       9.0727       0.0198      47.7303      61.0613    -999.2500    -999.2500     314.6689     244.6316      49.7614       0.0520       3.0414       2.4827
   2411.7212       9.5055       0.0448      48.3474      47.1358    -999.2500    -999.2500     503.5503     365.6454      89.4732       0.0507       3.0699       2.5606
   2411.8735       9.2272       0.0600      48.3658      37.5566    -999.2500    -999.2500     642.9778     440.7246     198.3921       0.0426       3.0330       2.6566
   2412.0259       8.7139       0.0720      47.3119      29.4131    -999.2500    -999.2500     766.0692     500.6302     330.1721       0.0310       2.9746       2.7586
   2412.1785       8.6524       0.0761      47.1404      23.1042    -999.2500    -999.2500     758.9952     494.0760     402.9416       0.0235       3.0373       2.7968
   2412.3308       8.7409       0.0776      48.1006      17.4042    -999.2500    -999.2500     708.7245     465.4664     456.1276       0.0197       3.1403       2.8138
   2412.4832       8.6581       0.0623      49.3903      15.0689    -999.2500    -999.2500     684.4835     450.9185     364.2003       0.0195       3.1570       2.8011
   2412.6355       8.5183       0.0413      50.6948      13.8554    -999.2500    -999.2500     668.9207     441.0586     223.8928       0.0214       3.1450       2.7787
   2412.7881       8.5887       0.0218      52.1182      13.4956    -999.2500    -999.2500     816.3533     529.5048     185.2802       0.0227       3.1371       2.7420
   2412.9404       8.7302       0.0028      52.3708      13.4241    -999.2500    -999.2500    1018.8448     651.1583     181.0195       0.0238       3.1306       2.7005
   2413.0928       8.6952       0.0002      51.9853      14.0918    -999.2500    -999.2500    1161.5176     739.9728     233.9389       0.0251       3.1342       2.6795
   2413.2451       8.6005       0.0033      56.3203      15.0104    -999.2500    -999.2500    1283.8912     817.6436     306.2619       0.0272       3.1413       2.6655
   2413.3975       8.6180       0.0194      63.1758      15.6808    -999.2500    -999.2500    1278.0421     800.3045     265.7302       0.0309       3.0776       2.6552
   2413.5500       8.6725       0.0399      66.5450      16.2696    -999.2500    -999.2500    1229.9475     751.6625     188.0163       0.0361       2.9906       2.6462
   2413.7024       8.6316       0.0533      67.4918      15.2660    -999.2500    -999.2500    1256.6505     755.8401     136.0544       0.0431       2.9562       2.6489
   2413.8547       8.5592       0.0642      66.6657      13.7354    -999.2500    -999.2500    1308.1116     777.5009      92.6164       0.0511       2.9393       2.6554
   2414.0071       8.5073       0.0625      65.3074      13.9966    -999.2500    -999.2500    1383.0155     818.8182      90.8128       0.0594       2.9283       2.6338
   2414.1597       8.4623       0.0565      63.6861      14.8587    -999.2500    -999.2500    1465.7817     866.7281     102.9726       0.0658       2.9193       2.6028
   2414.3120       8.5298       0.0618      60.5107      15.2856    -999.2500    -999.2500    1682.9482    1021.4847     102.3174       0.0657       2.9102       2.6040
   2414.4644       8.6350       0.0708      56.7969      15.5659    -999.2500    -999.2500    1945.3972    1212.2405      97.3446       0.0618       2.9012       2.6160
   2414.6167       8.8410       0.0858      54.2445      16.0892    -999.2500    -999.2500    1900.6367    1175.6205      83.0626       0.0604       2.9397       2.6190
   2414.7693       9.0799       0.1028      54.3281      16.6919    -999.2500    -999.2500    1755.3920    1064.6289      65.7355       0.0621       2.9936       2.6190
   2414.9216       8.7793       0.1269      55.5730      17.1845    -999.2500    -999.2500    1703.8905    1026.2407      52.4449       0.0670       2.9927       2.6122
   2415.0740       8.3014       0.1534      56.6500      17.6410    -999.2500    -999.2500    1683.1940    1011.7106      40.4807       0.0735       2.9737       2.6032
   2415.2263       8.4261       0.1540      55.3935      17.4580    -999.2500    -999.2500    1670.3611    1008.1718      49.0678       0.0768       2.9915       2.5946
   2415.3787       8.7514       0.1460      51.2602      17.0622    -999.2500    -999.2500    1660.1465    1008.2927      64.4982       0.0755       3.0215       2.5861
   2415.5312       8.7409       0.1073      48.4409      17.3529    -999.2500    -999.2500    1356.6987     816.8411      91.5341       0.0683       3.0181       2.6308
   2415.6836       8.6179       0.0583      48.0166      17.8731    -999.2500    -999.2500     955.1606     561.3059     122.4523       0.0579       3.0036       2.6933
   2415.8359       8.6681       0.0287      48.7395      18.4851    -999.2500    -999.2500     787.7131     470.3832     125.8450       0.0510       3.0113       2.7304
   2415.9883       8.7764       0.0057      49.5563      19.1279    -999.2500    -999.2500     698.9325     434.7790     119.9878       0.0467       3.0263       2.7590
