#------------------------------------------------------------------------------
#
#   Created by  : [OpenWorks] Log Export Utility (LEXP)
#   Created on  : 2016-05-11 12:13:43
#   Project     : CANT971
#   User        : R5K
#   Interpreter : PEP
#
#------------------------------------------------------------------------------
~VERSION INFORMATION
VERS. 2.0 : CWLS Log ASCII Standard - version 2.0
WRAP.  NO : One line per depth step
~WELL INFORMATION
#MNEMONIC   .UNIT                                           VALUE :DESCRIPTION
#------------------------------------------------------------------------------
STRT        .M                                           704.3840 :START DEPTH
STOP        .M                                          2722.4648 :STOP DEPTH
STEP        .M                                             0.1524 :STEP
NULL        .                                           -999.2500 :NULL VALUE
COMP        .                                   PEMEX EXPL & PROD :COMPANY
WELL        .                                                3087 :WELL
FLD         .                                           CANTARELL :FIELD
LOC         .                                             UNKNOWN :LOCATION
CNTY        .                                      CD. DEL CARMEN :COUNTY
STAT        .                                            CAMPECHE :STATE
CTRY        .                                              MEXICO :COUNTRY
SRVC        .                                             UNKNOWN :SERVICE COMPANY
DATE        .                                             UNKNOWN :LOG DATE
UWI         .                                          3060000698 :UNIQUE WELL ID
XCOORD      .                                       601395.890000 :SURFACE X
YCOORD      .                                      2149878.530000 :SURFACE Y
LAT         .                                           19.441887 :LATITUDE
LON         .                                          -92.034090 :LONGITUDE
ELEV        .M                                            28.0000 :SURFACE ELEV
ELEV_TYPE   .                                                  KB :ELEV TYPE
~CURVE INFORMATION
#MNEMONIC.UNIT        API CODE       : CURVE DESCRIPTION
#------------------------------------------------------------------------------
DEPTH    .M                          : Measured Depth
CALI     .inches      UNKNOWN        : CALI:Import:rC:NONE:v0 (auto-composite)
DRHO     .g/cm3       UNKNOWN        : DRHO:Import:rC:NONE:v0 (auto-composite)
DT       .us/ft       UNKNOWN        : DT:Import:rC:NONE:v0 (auto-composite)
GR       .API         UNKNOWN        : GR:Import:rC:NONE:v0 (auto-composite)
ILD      .ohm.m       UNKNOWN        : ILD:Import:rC:NONE:v0 (auto-composite)
ILM      .ohm.m       UNKNOWN        : ILM:Import:rC:NONE:v0 (auto-composite)
LLD      .ohm.m       UNKNOWN        : LLD:Import:rC:NONE:v0 (auto-composite)
LLS      .ohm.m       UNKNOWN        : LLS:Import:rC:NONE:v0 (auto-composite)
MSFL     .ohm.m       UNKNOWN        : MSFL:Import:rC:NONE:v0 (auto-composite)
NPHI     .v/v_decimal UNKNOWN        : NPHI:Import:rC:NONE:v0 (auto-composite)
PEF      .b/elec      UNKNOWN        : PEF:Import:rC:NONE:v0 (auto-composite)
RHOB     .g/cm3       UNKNOWN        : RHOB:Import:rC:NONE:v0 (auto-composite)
~A     DEPTH         CALI         DRHO           DT           GR          ILD          ILM          LLD          LLS         MSFL         NPHI          PEF         RHOB
# ...
   2255.2063       9.3780       0.0430      67.4072      17.9393    -999.2500    -999.2500    2645.1008    2141.4160    1758.1384       0.0774       2.9532       2.5341
   2255.3589       9.5499       0.0430      66.8771      15.1795    -999.2500    -999.2500    3156.7742    2520.8616    3649.1157       0.0827       2.9762       2.5196
   2255.5112       9.4319       0.0381      67.2110      13.3523    -999.2500    -999.2500    2299.0095    1839.2639    3031.0234       0.0911       2.9487       2.5512
   2255.6636       9.2170       0.0316      69.1763      11.8370    -999.2500    -999.2500     983.4307     802.9510    1574.1292       0.0983       2.9042       2.5982
   2255.8159       9.2984       0.0255      71.9624      14.0216    -999.2500    -999.2500     547.4413     441.8519    1926.1176       0.0958       2.9466       2.6299
   2255.9683       9.4792       0.0195      74.1237      17.4489    -999.2500    -999.2500     406.8596     307.5216    2885.6147       0.0858       3.0183       2.6564
   2256.1208       9.3920       0.0180      76.1076      22.3025    -999.2500    -999.2500     412.1250     297.5910    2248.7505       0.0723       3.0409       2.6837
   2256.2732       9.2166       0.0180      77.5759      27.6252    -999.2500    -999.2500     465.3520     328.5691    1086.9232       0.0589       3.0474       2.7112
   2256.4255       9.2628       0.0270      77.2858      30.2258    -999.2500    -999.2500     529.5366     372.0143     611.2369       0.0510       3.0449       2.7315
   2256.5779       9.3822       0.0390      76.3424      31.9271    -999.2500    -999.2500     597.3412     419.5782     362.2354       0.0468       3.0394       2.7495
   2256.7305       9.4717       0.0382      74.5352      31.7761    -999.2500    -999.2500     648.2009     452.8797     404.9909       0.0427       3.0331       2.7394
   2256.8828       9.5511       0.0332      71.4550      31.0105    -999.2500    -999.2500     693.4364     481.4474     544.5826       0.0401       3.0266       2.7199
   2257.0352       9.4669       0.0264      69.4427      29.5659    -999.2500    -999.2500     726.8616     488.1270     669.6360       0.0429       3.0411       2.7124
   2257.1875       9.3281       0.0189      68.2784      27.8950    -999.2500    -999.2500     756.3487     487.5082     789.8419       0.0490       3.0626       2.7089
   2257.3401       9.2657       0.0200      66.7611      29.4402    -999.2500    -999.2500     677.3862     429.0245    1025.2783       0.0543       3.0714       2.7196
   2257.4924       9.2292       0.0240      66.6492      32.0721    -999.2500    -999.2500     561.7852     350.9917    1299.6444       0.0557       3.0759       2.7351
   2257.6448       9.3578       0.0216      68.2026      33.3525    -999.2500    -999.2500     445.5283     276.2224     990.2377       0.0482       3.0688       2.7442
   2257.7971       9.5423       0.0171      69.9348      34.1743    -999.2500    -999.2500     329.0490     202.5608     482.7058       0.0375       3.0577       2.7513
   2257.9495       9.4933       0.0269      71.3195      31.2876    -999.2500    -999.2500     281.0798     173.2119     597.8611       0.0367       3.0640       2.7872
   2258.1021       9.3673       0.0414      71.8788      27.1789    -999.2500    -999.2500     255.6857     158.4648     918.2012       0.0430       3.0760       2.8327
   2258.2544       9.3987       0.0349      71.3253      26.3540    -999.2500    -999.2500     307.0468     184.7534     772.4416       0.0491       3.0546       2.8312
   2258.4067       9.4821       0.0214      70.4787      26.6161    -999.2500    -999.2500     383.8172     224.6268     472.3825       0.0532       3.0222       2.8143
   2258.5591       9.5786       0.0124      69.5567      26.4241    -999.2500    -999.2500     403.4634     218.2128     386.0599       0.0530       2.9979       2.7917
   2258.7117       9.6796       0.0049      65.8975      26.0798    -999.2500    -999.2500     403.9487     196.2728     371.4303       0.0512       2.9764       2.7672
   2258.8640       9.5632       0.0022      62.3597      26.7243    -999.2500    -999.2500     357.2757     176.6902     276.0761       0.0554       2.9710       2.7362
   2259.0164       9.3737       0.0012      63.5199      27.7020    -999.2500    -999.2500     294.7117     157.9022     153.5204       0.0594       2.9710       2.7032
   2259.1687       9.4196      -0.0005      64.6653      30.0850    -999.2500    -999.2500     316.8484     169.3397     159.9743       0.0515       3.0124       2.6675
   2259.3213       9.5426      -0.0025      64.7472      32.9278    -999.2500    -999.2500     366.6934     190.6650     208.6313       0.0370       3.0674       2.6310
   2259.4736       9.5031      -0.0030      64.7470      37.2599    -999.2500    -999.2500     429.8099     224.6081     313.2989       0.0295       3.1314       2.6461
   2259.6260       9.4102      -0.0030      64.8910      42.0815    -999.2500    -999.2500     497.2882     262.6982     436.3746       0.0366       3.1983       2.6780
   2259.7783       9.4725      -0.0019      65.9923      41.4286    -999.2500    -999.2500     532.7989     281.8717     360.5347       0.0683       3.2547       2.6905
   2259.9307       9.5864      -0.0004      66.7246      38.9527    -999.2500    -999.2500     557.6637     294.7456     218.4516       0.1143       3.3077       2.6965
   2260.0833       9.5360       0.0049      68.5899      34.4777    -999.2500    -999.2500     502.8548     273.2961     197.2364       0.1497       3.2645       2.7351
   2260.2356       9.4305       0.0114      71.6947      29.3339    -999.2500    -999.2500     421.3905     240.3633     216.4586       0.1747       3.1890       2.7846
   2260.3879       9.5038       0.0138      73.7267      27.1559    -999.2500    -999.2500     287.9578     169.8835     292.0065       0.1946       3.1141       2.7996
   2260.5403       9.6372       0.0148      74.2916      25.9746    -999.2500    -999.2500     137.0584      86.7841     386.4854       0.2098       3.0394       2.8031
   2260.6929       9.5849       0.0255      73.9723      26.0436    -999.2500    -999.2500      92.3210      61.5263     482.7819       0.2208       2.9837       2.6421
   2260.8452       9.4720       0.0395      72.6715      26.5205    -999.2500    -999.2500      82.2215      55.1407     579.6714       0.2278       2.9343       2.4274
   2260.9976       9.6434       0.0299      70.7139      26.6435    -999.2500    -999.2500      77.2405      52.1170     384.6662       0.2297       2.9160       2.3225
   2261.1499       9.9088       0.0124      68.2137      26.6495    -999.2500    -999.2500      73.9520      50.2048      93.1532       0.2184       2.9080       2.2541
   2261.3025      11.5098      -0.0074      65.8694      25.8496    -999.2500    -999.2500      79.7492      54.2360      34.1684       0.1794       3.2230       2.3098
   2261.4548      13.5544      -0.0279      64.4325      24.7821    -999.2500    -999.2500      88.5644      60.2414      52.4195       0.1269       3.6453       2.4067
   2261.6072      12.3979       0.0243      64.0516      25.1942    -999.2500    -999.2500     103.5526      68.8048      39.3343       0.1011       3.4327       2.5138
   2261.7595      10.1731       0.1007      64.4717      26.1001    -999.2500    -999.2500     120.6005      78.2217      15.7923       0.0948       3.0083       2.6241
   2261.9119       9.4338       0.1605      65.5325      27.0447    -999.2500    -999.2500     150.0770      93.9251       9.6877       0.0889       2.9857       2.6820
   2262.0645       9.1966       0.2146      67.2864      28.0023    -999.2500    -999.2500     183.7553     111.7541       9.4787       0.0841       3.0990       2.7221
   2262.2168       9.3047       0.2167      69.0232      30.0760    -999.2500    -999.2500     226.9163     135.8705      29.2594       0.0831       3.0115       2.7154
   2262.3691       9.5261       0.2017      71.1925      32.5159    -999.2500    -999.2500     273.1898     162.0507      55.6015       0.0850       2.8580       2.6935
