#------------------------------------------------------------------------------
#
#   Created by  : [OpenWorks] Log Export Utility (LEXP)
#   Created on  : 2016-05-11 12:13:43
#   Project     : CANT971
#   User        : R5K
#   Interpreter : PEP
#
#------------------------------------------------------------------------------
~VERSION INFORMATION
VERS. 2.0 : CWLS Log ASCII Standard - version 2.0
WRAP.  NO : One line per depth step
~WELL INFORMATION
#MNEMONIC   .UNIT                                           VALUE :DESCRIPTION
#------------------------------------------------------------------------------
STRT        .M                                           704.3840 :START DEPTH
STOP        .M                                          2722.4648 :STOP DEPTH
STEP        .M                                             0.1524 :STEP
NULL        .                                           -999.2500 :NULL VALUE
COMP        .                                   PEMEX EXPL & PROD :COMPANY
WELL        .                                                3087 :WELL
FLD         .                                           CANTARELL :FIELD
LOC         .                                             UNKNOWN :LOCATION
CNTY        .                                      CD. DEL CARMEN :COUNTY
STAT        .                                            CAMPECHE :STATE
CTRY        .                                              MEXICO :COUNTRY
SRVC        .                                             UNKNOWN :SERVICE COMPANY
DATE        .                                             UNKNOWN :LOG DATE
UWI         .                                          3060000698 :UNIQUE WELL ID
XCOORD      .                                       601395.890000 :SURFACE X
YCOORD      .                                      2149878.530000 :SURFACE Y
LAT         .                                           19.441887 :LATITUDE
LON         .                                          -92.034090 :LONGITUDE
ELEV        .M                                            28.0000 :SURFACE ELEV
ELEV_TYPE   .                                                  KB :ELEV TYPE
~CURVE INFORMATION
#MNEMONIC.UNIT        API CODE       : CURVE DESCRIPTION
#------------------------------------------------------------------------------
DEPTH    .M                          : Measured Depth
CALI     .inches      UNKNOWN        : CALI:Import:rC:NONE:v0 (auto-composite)
DRHO     .g/cm3       UNKNOWN        : DRHO:Import:rC:NONE:v0 (auto-composite)
DT       .us/ft       UNKNOWN        : DT:Import:rC:NONE:v0 (auto-composite)
GR       .API         UNKNOWN        : GR:Import:rC:NONE:v0 (auto-composite)
ILD      .ohm.m       UNKNOWN        : ILD:Import:rC:NONE:v0 (auto-composite)
ILM      .ohm.m       UNKNOWN        : ILM:Import:rC:NONE:v0 (auto-composite)
LLD      .ohm.m       UNKNOWN        : LLD:Import:rC:NONE:v0 (auto-composite)
LLS      .ohm.m       UNKNOWN        : LLS:Import:rC:NONE:v0 (auto-composite)
MSFL     .ohm.m       UNKNOWN        : MSFL:Import:rC:NONE:v0 (auto-composite)
NPHI     .v/v_decimal UNKNOWN        : NPHI:Import:rC:NONE:v0 (auto-composite)
PEF      .b/elec      UNKNOWN        : PEF:Import:rC:NONE:v0 (auto-composite)
RHOB     .g/cm3       UNKNOWN        : RHOB:Import:rC:NONE:v0 (auto-composite)
~A     DEPTH         CALI         DRHO           DT           GR          ILD          ILM          LLD          LLS         MSFL         NPHI          PEF         RHOB
# ...
   2716.0640       6.6470       0.0610    -999.2500     119.5750    -999.2500    -999.2500      43.9061      35.5030      57.9010       0.0891       3.1230       2.7370
   2716.2163       6.6470       0.0610    -999.2500     119.5750    -999.2500    -999.2500      50.8774      40.5782      57.9010       0.0891       3.1230       2.7370
   2716.3687       6.6470       0.0610    -999.2500     119.5750    -999.2500    -999.2500      58.3266      46.0224      57.9010       0.0891       3.1230       2.7370
   2716.5212       6.6470       0.0610    -999.2500     119.5750    -999.2500    -999.2500      53.2322      43.2880      57.9010       0.0891       3.1230       2.7370
   2716.6736       6.6470       0.0610    -999.2500     119.5750    -999.2500    -999.2500      46.9400      39.7725      57.9010       0.0891       3.1230       2.7370
   2716.8259       6.6470       0.0610    -999.2500     119.5750    -999.2500    -999.2500      46.1545      39.2069      57.9010       0.0891       3.1230       2.7370
   2716.9783       6.6470       0.0610    -999.2500     119.5750    -999.2500    -999.2500      45.9006      38.9260      57.9010       0.0891       3.1230       2.7370
   2717.1309       6.6470       0.0610    -999.2500     119.5750    -999.2500    -999.2500      40.2930      34.8498      57.9015       0.0891       3.1225       2.7370
   2717.2832       6.6470       0.0610    -999.2500     119.5750    -999.2500    -999.2500      34.1631      30.4033      57.9020       0.0891       3.1220       2.7370
   2717.4355       6.6470       0.0610    -999.2500     119.5750    -999.2500    -999.2500      35.1811      31.1777      57.9020       0.0891       3.1225       2.7370
   2717.5879       6.6470       0.0610    -999.2500     119.5750    -999.2500    -999.2500      36.9178      32.4772      57.9020       0.0891       3.1230       2.7370
   2717.7405       6.6470       0.0610    -999.2500     119.5750    -999.2500    -999.2500      37.5919      33.0016      57.9020       0.0891       3.1225       2.7370
   2717.8928       6.6470       0.0610    -999.2500     119.5750    -999.2500    -999.2500      38.1579      33.4474      57.9020       0.0891       3.1220       2.7370
   2718.0452       6.6470       0.0610    -999.2500     119.5750    -999.2500    -999.2500      38.1116      33.4349      57.9020       0.0891       3.1225       2.7370
   2718.1975       6.6470       0.0610    -999.2500     119.5750    -999.2500    -999.2500      38.0071      33.3789      57.9020       0.0891       3.1230       2.7370
   2718.3499       6.6470       0.0610    -999.2500     119.5750    -999.2500    -999.2500      37.9980      33.3740      57.9020       0.0891       3.1230       2.7370
   2718.5024       6.6470       0.0610    -999.2500     119.5750    -999.2500    -999.2500      37.9980      33.3740      57.9020       0.0891       3.1230       2.7370
   2718.6548       6.6470       0.0610    -999.2500     119.5750    -999.2500    -999.2500      37.9980      33.3740      57.9020       0.0891       3.1225       2.7370
   2718.8071       6.6470       0.0610    -999.2500     119.5750    -999.2500    -999.2500      37.9980      33.3740      57.9020       0.0891       3.1220       2.7370
   2718.9595       6.6470       0.0610    -999.2500     119.5750    -999.2500    -999.2500      37.9980      33.3740      57.9020       0.0891       3.1225       2.7370
   2719.1121       6.6470       0.0610    -999.2500     119.5750    -999.2500    -999.2500      37.9980      33.3740      57.9020       0.0891       3.1230       2.7370
   2719.2644       6.6470       0.0610    -999.2500     119.5750    -999.2500    -999.2500      37.9980      33.3740      57.9020       0.0891       3.1230       2.7370
   2719.4167       6.6470       0.0610    -999.2500     119.5750    -999.2500    -999.2500      37.9980      33.3740      57.9020       0.0891       3.1230       2.7370
   2719.5691       6.6470       0.0610    -999.2500     119.5750    -999.2500    -999.2500      37.9980      33.3740      57.9020       0.0891       3.1230       2.7370
   2719.7217       6.6470       0.0610    -999.2500     119.5750    -999.2500    -999.2500      37.9980      33.3740      57.9020       0.0891       3.1230       2.7370
   2719.8740       6.6470       0.0610    -999.2500     119.5750    -999.2500    -999.2500      37.9980      33.3740      57.9020       0.0891       3.1225       2.7370
   2720.0264       6.6470       0.0610    -999.2500     119.5750    -999.2500    -999.2500      37.9980      33.3740      57.9020       0.0891       3.1220       2.7370
   2720.1787       6.6470       0.0615    -999.2500     119.5750    -999.2500    -999.2500      37.9980      33.3740      57.9020       0.0891       3.1225       2.7370
   2720.3311       6.6470       0.0620    -999.2500     119.5750    -999.2500    -999.2500      37.9980      33.3740      57.9020       0.0891       3.1230       2.7370
   2720.4836       6.6470       0.0625    -999.2500     119.5750    -999.2500    -999.2500      37.9980      33.3740      57.9020       0.0891       3.1230       2.7370
   2720.6360       6.6470       0.0630    -999.2500     119.5750    -999.2500    -999.2500      37.9980      33.3740      57.9020       0.0891       3.1230       2.7370
   2720.7883       6.6470       0.2911    -999.2500     119.5750    -999.2500    -999.2500      37.9980      33.3740      57.9025       0.0891       3.1230       2.7356
   2720.9407       6.6470       0.5421    -999.2500     119.5750    -999.2500    -999.2500      37.9980      33.3740      57.9030       0.0891       3.1230       2.7341
   2721.0933       6.6470    -999.2500    -999.2500     119.5750    -999.2500    -999.2500      37.9980      33.3740      57.9030       0.0891    -999.2500    -999.2500
   2721.2456       6.6470    -999.2500    -999.2500     119.5750    -999.2500    -999.2500      37.9980      33.3740      57.9030       0.0891    -999.2500    -999.2500
   2721.3979       6.6470    -999.2500    -999.2500     119.5750    -999.2500    -999.2500      37.9980      33.3740      57.9030       0.0891    -999.2500    -999.2500
   2721.5503       6.6470    -999.2500    -999.2500     119.5750    -999.2500    -999.2500      37.9980      33.3740      57.9030       0.0891    -999.2500    -999.2500
   2721.7029       6.6470    -999.2500    -999.2500     119.5750    -999.2500    -999.2500      37.9980      33.3740      57.9030       0.0891    -999.2500    -999.2500
   2721.8552       6.6470    -999.2500    -999.2500     119.5750    -999.2500    -999.2500      37.9980      33.3740      57.9030       0.0891    -999.2500    -999.2500
   2722.0076       6.6470    -999.2500    -999.2500     119.5750    -999.2500    -999.2500      37.9980      33.3740      57.9030       0.0891    -999.2500    -999.2500
   2722.1599       6.6470    -999.2500    -999.2500     119.5750    -999.2500    -999.2500      37.9980      33.3740      57.9030       0.0891    -999.2500    -999.2500
   2722.3123       6.6470    -999.2500    -999.2500     119.5750    -999.2500    -999.2500      37.9980      33.3740      57.9030       0.0891    -999.2500    -999.2500
   2722.4648    -999.2500    -999.2500    -999.2500    -999.2500    -999.2500    -999.2500    -999.2500    -999.2500    -999.2500       0.0891    -999.2500    -999.2500
