#------------------------------------------------------------------------------
#
#   Created by  : [OpenWorks] Log Export Utility (LEXP)
#   Created on  : 2016-05-23 17:52:13
#   Project     : CANT971
#   User        : R5K
#   Interpreter : PEP
#
#------------------------------------------------------------------------------
~VERSION INFORMATION
VERS. 2.0 : CWLS Log ASCII Standard - version 2.0
WRAP.  NO : One line per depth step
~WELL INFORMATION
#MNEMONIC   .UNIT                                           VALUE :DESCRIPTION
#------------------------------------------------------------------------------
STRT        .M                                           632.7651 :START DEPTH
STOP        .M                                          2429.8660 :STOP DEPTH
STEP        .M                                             0.1524 :STEP
NULL        .                                           -999.2500 :NULL VALUE
COMP        .                                   PEMEX EXPL & PROD :COMPANY
WELL        .                                                  72 :WELL
FLD         .                                           CANTARELL :FIELD
LOC         .                                             UNKNOWN :LOCATION
CNTY        .                                      CD. DEL CARMEN :COUNTY
STAT        .                                            CAMPECHE :STATE
CTRY        .                                              MEXICO :COUNTRY
SRVC        .                                             UNKNOWN :SERVICE COMPANY
DATE        .                                             UNKNOWN :LOG DATE
UWI         .                                          3060000469 :UNIQUE WELL ID
XCOORD      .                                       598503.510000 :SURFACE X
YCOORD      .                                      2149271.040000 :SURFACE Y
LAT         .                                           19.436542 :LATITUDE
LON         .                                          -92.061672 :LONGITUDE
ELEV        .M                                            27.6000 :SURFACE ELEV
ELEV_TYPE   .                                                  KB :ELEV TYPE
~CURVE INFORMATION
#MNEMONIC.UNIT        API CODE       : CURVE DESCRIPTION
#------------------------------------------------------------------------------
DEPTH    .M                          : Measured Depth
CALI     .inches      UNKNOWN        : CALI:registros:rC:NONE:v0 (auto-composite)
DRHO     .g/cm3       UNKNOWN        : DRHO:registros:rC:NONE:v0 (auto-composite)
DT       .us/ft       UNKNOWN        : DT:registros:rC:NONE:v0 (auto-composite)
GR       .API         UNKNOWN        : GR:registros:rC:NONE:v0 (auto-composite)
ILD      .ohm.m       UNKNOWN        : ILD:registros:rC:NONE:v0 (auto-composite)
ILM      .ohm.m       UNKNOWN        : ILM:registros:rC:NONE:v0 (auto-composite)
LLD      .ohm.m       UNKNOWN        : LLD:registros:rC:NONE:v0 (auto-composite)
LLS      .ohm.m       UNKNOWN        : LLS:registros:rC:NONE:v0 (auto-composite)
MSFL     .ohm.m       UNKNOWN        : MSFL:registros:rC:NONE:v0 (auto-composite)
NPHI     .UNKNOWN     UNKNOWN        : NPHI:registros:rC:NONE:v0 (auto-composite)
PEF      .UNKNOWN     UNKNOWN        : PEF:registros:rC:NONE:v0 (auto-composite)
RHOB     .g/cm3       UNKNOWN        : RHOB:registros:rC:NONE:v0 (auto-composite)
SIGM     .UNKNOWN     UNKNOWN        : SIGM:registros:rC:NONE:v0 (auto-composite)
SP       .mV          UNKNOWN        : SP:registros:rC:NONE:v0 (auto-composite)
~A     DEPTH         CALI         DRHO           DT           GR          ILD          ILM          LLD          LLS         MSFL         NPHI          PEF         RHOB         SIGM           SP
# ...
   1823.3138       8.0820       0.0370    -999.2500      12.9450    -999.2500    -999.2500     855.9360     198.4760    -999.2500       0.0906       3.1490       2.7010       6.6670     -13.9960
   1823.4663       8.0935       0.0390    -999.2500      11.5119    -999.2500    -999.2500     812.2188     185.3263    -999.2500       0.0902       3.0071       2.6799       6.6670     -12.4448
   1823.6187       8.1050       0.0410    -999.2500      10.0940    -999.2500    -999.2500     768.9650     172.3160    -999.2500       0.0907       2.8660       2.6590       6.6670     -10.9100
   1823.7711       8.1622       0.0395    -999.2500      10.1870    -999.2500    -999.2500     668.2797     150.1459    -999.2500       0.0924       2.9342       2.6675       6.6670     -11.3096
   1823.9235       8.2190       0.0380    -999.2500      10.2790    -999.2500    -999.2500     568.6490     128.2080    -999.2500       0.0947       3.0020       2.6760       6.6670     -11.7050
   1824.0759       8.1874       0.0445    -999.2500      10.5087    -999.2500    -999.2500     500.5063     117.6609    -999.2500       0.1003       3.0747       2.6755       6.7067     -12.4735
   1824.2283       8.1560       0.0510    -999.2500      10.7360    -999.2500    -999.2500     433.0690     107.2230    -999.2500       0.1051       3.1470       2.6750       6.7460     -13.2340
   1824.3806       8.1620       0.0676    -999.2500      11.3137    -999.2500    -999.2500     387.2849      99.4327    -999.2500       0.1029       3.1099       2.6605       6.9336     -13.7152
   1824.5331       8.1680       0.0840    -999.2500      11.8850    -999.2500    -999.2500     341.9690      91.7220    -999.2500       0.1004       3.0730       2.6460       7.1190     -14.1910
   1824.6854       8.2562       0.1046    -999.2500      12.3849    -999.2500    -999.2500     291.3895      79.7058    -999.2500       0.1022       2.9492       2.6570       7.4782     -15.3246
   1824.8379       8.3440       0.1250    -999.2500      12.8790    -999.2500    -999.2500     241.3210      67.8110    -999.2500       0.1058       2.8260       2.6680       7.8330     -16.4450
   1824.9902       8.3089       0.1180    -999.2500      12.1463    -999.2500    -999.2500     208.3756      59.7945    -999.2500       0.1166       2.8466       2.6865       7.7751     -15.8717
   1825.1427       8.2740       0.1110    -999.2500      11.4220    -999.2500    -999.2500     175.7590      51.8580    -999.2500       0.1282       2.8670       2.7050       7.7180     -15.3050
   1825.2950       8.2249       0.0859    -999.2500      11.5985    -999.2500    -999.2500     178.3935      50.0129    -999.2500       0.1388       2.9267       2.6870       7.5454     -16.4284
   1825.4475       8.1760       0.0610    -999.2500      11.7730    -999.2500    -999.2500     181.0020      48.1860    -999.2500       0.1466       2.9860       2.6690       7.3750     -17.5390
   1825.5999       8.1269       0.0339    -999.2500      12.2014    -999.2500    -999.2500     202.9035      50.9801    -999.2500       0.1375       3.0176       2.6550       7.1722     -16.7541
   1825.7523       8.0780       0.0070    -999.2500      12.6250    -999.2500    -999.2500     224.5920      53.7470    -999.2500       0.1275       3.0490       2.6410       6.9720     -15.9780
   1825.9047       8.0780       0.0145    -999.2500      12.9493    -999.2500    -999.2500     266.5356      58.9551    -999.2500       0.1279       3.0405       2.6360       6.8185     -15.5179
   1826.0571       8.0780       0.0220    -999.2500      13.2700    -999.2500    -999.2500     308.0430      64.1090    -999.2500       0.1304       3.0320       2.6310       6.6670     -15.0630
   1826.2095       8.0780       0.0315    -999.2500      13.5199    -999.2500    -999.2500     341.7832      67.1036    -999.2500       0.1365       2.9919       2.6260       6.6927     -15.7764
   1826.3618       8.0780       0.0410    -999.2500      13.7670    -999.2500    -999.2500     375.1500      70.0650    -999.2500       0.1418       2.9520       2.6210       6.7180     -16.4820
   1826.5143       8.0780       0.0365    -999.2500      14.1948    -999.2500    -999.2500     384.5836      70.5909    -999.2500       0.1385       2.9721       2.6270       6.9102     -20.0143
   1826.6666       8.0780       0.0320    -999.2500      14.6180    -999.2500    -999.2500     393.9140      71.1110    -999.2500       0.1339       2.9920       2.6330       7.1000     -23.5080
   1826.8191       8.0780       0.0194    -999.2500      14.9066    -999.2500    -999.2500     400.5680      75.7823    -999.2500       0.1294       3.0371       2.6325       7.5282     -23.2773
   1826.9714       8.0780       0.0070    -999.2500      15.1920    -999.2500    -999.2500     407.1500      80.4030    -999.2500       0.1250       3.0820       2.6320       7.9510     -23.0490
   1827.1239       8.0780       0.0075    -999.2500      15.8938    -999.2500    -999.2500     388.5345      80.2301    -999.2500       0.1209       3.1813       2.6360       7.8866     -22.0858
   1827.2762       8.0780       0.0080    -999.2500      16.5880    -999.2500    -999.2500     370.1180      80.0590    -999.2500       0.1163       3.2800       2.6400       7.8230     -21.1330
   1827.4287       8.0810       0.0105    -999.2500      21.0285    -999.2500    -999.2500     372.5845      81.0352    -999.2500       0.1090       3.2795       2.6560       7.5368     -21.1657
   1827.5811       8.0840       0.0130    -999.2500      25.4220    -999.2500    -999.2500     375.0250      82.0010    -999.2500       0.1014       3.2790       2.6720       7.2540     -21.1980
   1827.7335       8.1577       0.0130    -999.2500      24.8726    -999.2500    -999.2500     409.5096      94.2138    -999.2500       0.0947       3.2609       2.6941       6.9587     -22.6179
   1827.8859       8.2310       0.0130    -999.2500      24.3290    -999.2500    -999.2500     443.6340     106.2990    -999.2500       0.0882       3.2430       2.7160       6.6670     -24.0230
   1828.0383       8.4521       0.0105    -999.2500      22.1876    -999.2500    -999.2500     424.9873     102.8291    -999.2500       0.0824       3.1177       2.7125       6.6670     -23.2457
   1828.1907       8.6720       0.0080    -999.2500      20.0700    -999.2500    -999.2500     406.5330      99.3950    -999.2500       0.0779       2.9930       2.7090       6.6670     -22.4770
   1828.3430       8.3205       0.0090    -999.2500      17.2408    -999.2500    -999.2500     346.6004      86.6008    -999.2500       0.0794       3.0161       2.6975       6.6670     -22.7320
   1828.4955       7.9710       0.0100    -999.2500      14.4450    -999.2500    -999.2500     287.2790      73.9370    -999.2500       0.0852       3.0390       2.6860       6.6670     -22.9840
   1828.6478       7.9715       0.0160    -999.2500      15.2527    -999.2500    -999.2500     316.0388      76.0285    -999.2500       0.1097       3.1914       2.6815       6.6670     -24.7171
   1828.8003       7.9720       0.0220    -999.2500      16.0510    -999.2500    -999.2500     344.5090      78.0990    -999.2500       0.1328       3.3430       2.6770       6.6670     -26.4300
   1828.9526       8.0096       0.0155    -999.2500      15.6708    -999.2500    -999.2500     342.5844      87.9038    -999.2500       0.1303       3.3280       2.6625       6.6670     -25.9467
   1829.1051       8.0470       0.0090    -999.2500      15.2950    -999.2500    -999.2500     340.6790      97.6110    -999.2500       0.1223       3.3130       2.6480       6.6670     -25.4690
   1829.2574       8.0350       0.0105    -999.2500      14.2963    -999.2500    -999.2500     331.6225      96.5166    -999.2500       0.1081       3.2203       2.6510       6.6670     -25.9678
   1829.4099       8.0230       0.0120    -999.2500      13.3090    -999.2500    -999.2500     322.6550      95.4330    -999.2500       0.0941       3.1280       2.6540       6.6670     -26.4610
   1829.5623       8.0330       0.0185    -999.2500      14.0100    -999.2500    -999.2500     305.7103      93.0766    -999.2500       0.0869       3.2163       2.6690       6.6670     -26.4137
