#------------------------------------------------------------------------------
#
#   Created by  : [OpenWorks] Log Export Utility (LEXP)
#   Created on  : 2016-05-23 17:52:13
#   Project     : CANT971
#   User        : R5K
#   Interpreter : PEP
#
#------------------------------------------------------------------------------
~VERSION INFORMATION
VERS. 2.0 : CWLS Log ASCII Standard - version 2.0
WRAP.  NO : One line per depth step
~WELL INFORMATION
#MNEMONIC   .UNIT                                           VALUE :DESCRIPTION
#------------------------------------------------------------------------------
STRT        .M                                           632.7651 :START DEPTH
STOP        .M                                          2429.8660 :STOP DEPTH
STEP        .M                                             0.1524 :STEP
NULL        .                                           -999.2500 :NULL VALUE
COMP        .                                   PEMEX EXPL & PROD :COMPANY
WELL        .                                                  72 :WELL
FLD         .                                           CANTARELL :FIELD
LOC         .                                             UNKNOWN :LOCATION
CNTY        .                                      CD. DEL CARMEN :COUNTY
STAT        .                                            CAMPECHE :STATE
CTRY        .                                              MEXICO :COUNTRY
SRVC        .                                             UNKNOWN :SERVICE COMPANY
DATE        .                                             UNKNOWN :LOG DATE
UWI         .                                          3060000469 :UNIQUE WELL ID
XCOORD      .                                       598503.510000 :SURFACE X
YCOORD      .                                      2149271.040000 :SURFACE Y
LAT         .                                           19.436542 :LATITUDE
LON         .                                          -92.061672 :LONGITUDE
ELEV        .M                                            27.6000 :SURFACE ELEV
ELEV_TYPE   .                                                  KB :ELEV TYPE
~CURVE INFORMATION
#MNEMONIC.UNIT        API CODE       : CURVE DESCRIPTION
#------------------------------------------------------------------------------
DEPTH    .M                          : Measured Depth
CALI     .inches      UNKNOWN        : CALI:registros:rC:NONE:v0 (auto-composite)
DRHO     .g/cm3       UNKNOWN        : DRHO:registros:rC:NONE:v0 (auto-composite)
DT       .us/ft       UNKNOWN        : DT:registros:rC:NONE:v0 (auto-composite)
GR       .API         UNKNOWN        : GR:registros:rC:NONE:v0 (auto-composite)
ILD      .ohm.m       UNKNOWN        : ILD:registros:rC:NONE:v0 (auto-composite)
ILM      .ohm.m       UNKNOWN        : ILM:registros:rC:NONE:v0 (auto-composite)
LLD      .ohm.m       UNKNOWN        : LLD:registros:rC:NONE:v0 (auto-composite)
LLS      .ohm.m       UNKNOWN        : LLS:registros:rC:NONE:v0 (auto-composite)
MSFL     .ohm.m       UNKNOWN        : MSFL:registros:rC:NONE:v0 (auto-composite)
NPHI     .UNKNOWN     UNKNOWN        : NPHI:registros:rC:NONE:v0 (auto-composite)
PEF      .UNKNOWN     UNKNOWN        : PEF:registros:rC:NONE:v0 (auto-composite)
RHOB     .g/cm3       UNKNOWN        : RHOB:registros:rC:NONE:v0 (auto-composite)
SIGM     .UNKNOWN     UNKNOWN        : SIGM:registros:rC:NONE:v0 (auto-composite)
SP       .mV          UNKNOWN        : SP:registros:rC:NONE:v0 (auto-composite)
~A     DEPTH         CALI         DRHO           DT           GR          ILD          ILM          LLD          LLS         MSFL         NPHI          PEF         RHOB         SIGM           SP
# ...
   1426.4642    -999.2500    -999.2500    -999.2500      24.4440    -999.2500    -999.2500    -999.2500    -999.2500    -999.2500    -999.2500    -999.2500    -999.2500      10.6260    -999.2500
   1426.6167    -999.2500    -999.2500    -999.2500      24.2918    -999.2500    -999.2500    -999.2500    -999.2500    -999.2500    -999.2500    -999.2500    -999.2500      10.2393    -999.2500
   1426.7690    -999.2500    -999.2500    -999.2500      24.1410    -999.2500    -999.2500    -999.2500    -999.2500    -999.2500    -999.2500    -999.2500    -999.2500       9.8570    -999.2500
   1426.9215    -999.2500    -999.2500    -999.2500      23.4218    -999.2500    -999.2500    -999.2500    -999.2500    -999.2500    -999.2500    -999.2500    -999.2500       9.7614    -999.2500
   1427.0739    -999.2500    -999.2500    -999.2500      22.7090    -999.2500    -999.2500    -999.2500    -999.2500    -999.2500    -999.2500    -999.2500    -999.2500       9.6670    -999.2500
   1427.2263    -999.2500    -999.2500    -999.2500      21.9983    -999.2500    -999.2500    -999.2500    -999.2500    -999.2500    -999.2500    -999.2500    -999.2500       9.6866    -999.2500
   1427.3787    -999.2500    -999.2500    -999.2500      21.2940    -999.2500    -999.2500    -999.2500    -999.2500    -999.2500    -999.2500    -999.2500    -999.2500       9.7060    -999.2500
   1427.5311    -999.2500    -999.2500    -999.2500      21.6370    -999.2500    -999.2500    -999.2500    -999.2500    -999.2500    -999.2500    -999.2500    -999.2500       9.8182    -999.2500
   1427.6835    -999.2500    -999.2500    -999.2500      21.9770    -999.2500    -999.2500    -999.2500    -999.2500    -999.2500    -999.2500    -999.2500    -999.2500       9.9290    -999.2500
   1427.8358    -999.2500    -999.2500    -999.2500      21.9298    -999.2500    -999.2500    -999.2500    -999.2500    -999.2500    -999.2500    -999.2500    -999.2500      10.1176    -999.2500
   1427.9883    -999.2500    -999.2500    -999.2500      21.8830    -999.2500    -999.2500    -999.2500    -999.2500    -999.2500    -999.2500    -999.2500    -999.2500      10.3040    -999.2500
   1428.1406    -999.2500    -999.2500    -999.2500      21.7419    -999.2500    -999.2500    -999.2500    -999.2500    -999.2500    -999.2500    -999.2500    -999.2500      10.2577    -999.2500
   1428.2931    -999.2500    -999.2500    -999.2500      21.6020    -999.2500    -999.2500    -999.2500    -999.2500    -999.2500    -999.2500    -999.2500    -999.2500      10.2120    -999.2500
   1428.4454    -999.2500    -280.9940    -180.1580      21.8260    -999.2500    -280.6700    -999.2500    -999.2500    -999.2500      -2.9160    -999.2500    -999.2500      10.0481    -999.2500
   1428.5979    -280.8140    -280.9940    -180.1580      22.0480    -999.2500    -280.6700    -999.2500    -999.2500    -999.2500      -2.5760    -280.8140    -279.4120       9.8860    -999.2500
   1428.7502    -140.3867    -140.1520     -19.5431      22.1354    -999.2500    -139.5399    -999.2500    -999.2500    -999.2500      -1.5308    -140.3867    -138.7107       9.9765    -999.2500
   1428.9027       0.0000      -0.2500     140.0000      22.2220    -999.2500       0.2000    -999.2500    -999.2500    -999.2500      -0.4547       0.0000       1.9500      10.0660    -999.2500
   1429.0551       4.2488      -0.4727    -999.2500      22.7496    -999.2500    -999.2500    -999.2500    -999.2500    -999.2500      -0.0125      32.5026       2.1400      10.1510    -384.1850
   1429.2075       8.4970      -0.6940    -999.2500      23.2720    -999.2500    -999.2500       0.1530       0.1530    -999.2500       0.0896      65.0000       2.3300      10.2350    -384.1850
   1429.3599       8.5025      -0.6900    -999.2500      23.8242    -999.2500    -999.2500       0.1766       0.1766    -999.2500       0.1184      54.6953       2.3140      10.0389    -191.1658
   1429.5123       8.5080      -0.6860    -999.2500      24.3710    -999.2500    -999.2500       0.2000       0.2000    -999.2500       0.1172      44.3910       2.2980       9.8450       0.0000
   1429.6647       8.5040      -0.6855    -999.2500      24.1685    -999.2500    -999.2500       0.4691       0.1779    -999.2500       0.1265      58.8804       2.2890       9.8168      25.0773
   1429.8170       8.5000      -0.6850    -999.2500      23.9680    -999.2500    -999.2500       0.7360       0.1560    -999.2500       0.1369      73.3710       2.2800       9.7890      49.9170
   1429.9695       8.5025      -0.6785    -999.2500      23.2230    -999.2500    -999.2500       0.6652       0.1580    -999.2500       0.1389     116.2904       2.2860       9.8016      75.9081
   1430.1218       8.5050      -0.6720    -999.2500      22.4850    -999.2500    -999.2500       0.5950       0.1600    -999.2500       0.1377     159.2190       2.2920       9.8140     101.6560
   1430.2743       8.5065      -0.6610    -999.2500      22.5217    -999.2500    -999.2500       0.5197       0.1580    -999.2500       0.1381     103.6894       2.3015      10.1037     100.9904
   1430.4266       8.5080      -0.6500    -999.2500      22.5580    -999.2500    -999.2500       0.4450       0.1560    -999.2500       0.1388      48.1410       2.3110      10.3900     100.3310
   1430.5791       8.5080      -0.6435    -999.2500      22.6956    -999.2500    -999.2500       0.6026       0.1575    -999.2500       0.1385      61.3852       2.3045      10.9026      97.8196
   1430.7314       8.5080      -0.6370    -999.2500      22.8320    -999.2500    -999.2500       0.7590       0.1590    -999.2500       0.1366      74.6250       2.2980      11.4090      95.3310
   1430.8839       8.5080      -0.6300    -999.2500      22.3277    -999.2500    -999.2500       0.6877       0.1595    -999.2500       0.1324      61.9311       2.2990      11.6887      89.3783
   1431.0363       8.5080      -0.6230    -999.2500      21.8280    -999.2500    -999.2500       0.6170       0.1600    -999.2500       0.1269      49.2500       2.3000      11.9650      83.4790
   1431.1887       8.5080      -0.6095    -999.2500      22.1595    -999.2500    -999.2500       0.6562       0.1640    -999.2500       0.1206     207.6296       2.3090      11.8186      68.1998
   1431.3411       8.5080      -0.5960    -999.2500      22.4880    -999.2500    -999.2500       0.6950       0.1680    -999.2500       0.1193     365.8690       2.3180      11.6740      53.0560
   1431.4935       8.5080      -0.6060    -999.2500      23.3688    -999.2500    -999.2500       0.6433       0.1610    -999.2500       0.1286     600.3586       2.2825      11.2620      20.3678
   1431.6459       8.5080      -0.6160    -999.2500      24.2420    -999.2500    -999.2500       0.5920       0.1540    -999.2500       0.1477     834.6700       2.2470      10.8550     -12.0350
   1431.7982       8.5080      -0.6426    -999.2500      24.0929    -999.2500    -999.2500       0.7396       0.1686    -999.2500       0.1761     917.3612       2.1565      10.5024      -9.8431
   1431.9507       8.5080      -0.6690    -999.2500      23.9450    -999.2500    -999.2500       0.8860       0.1830    -999.2500       0.1992    1000.0000       2.0660      10.1540      -7.6700
   1432.1030       8.5080      -0.7061    -999.2500      23.5396    -999.2500    -999.2500       0.7760       0.1649    -999.2500       0.2023    1000.0000       1.9680       9.7582       5.1289
   1432.2555       8.5080      -0.7430    -999.2500      23.1380    -999.2500    -999.2500       0.6670       0.1470    -999.2500       0.1910    1000.0000       1.8700       9.3670      17.8090
   1432.4078       8.5080      -0.7425    -999.2500      22.3149    -999.2500    -999.2500       0.4290       0.1480    -999.2500       0.1700    1000.0000       1.8165       9.4178      17.0487
   1432.5603       8.5080      -0.7420    -999.2500      21.5000    -999.2500    -999.2500       0.1930       0.1490    -999.2500       0.1442    1000.0000       1.7630       9.4680      16.2960
   1432.7126       8.5085      -0.7340    -999.2500      20.8870    -999.2500    -999.2500       0.3993       0.1646    -999.2500       0.1182    1000.0000       1.7915       9.6867      13.5354
