#------------------------------------------------------------------------------
#
#   Created by  : [OpenWorks] Log Export Utility (LEXP)
#   Created on  : 2016-05-23 17:52:13
#   Project     : CANT971
#   User        : R5K
#   Interpreter : PEP
#
#------------------------------------------------------------------------------
~VERSION INFORMATION
VERS. 2.0 : CWLS Log ASCII Standard - version 2.0
WRAP.  NO : One line per depth step
~WELL INFORMATION
#MNEMONIC   .UNIT                                           VALUE :DESCRIPTION
#------------------------------------------------------------------------------
STRT        .M                                           632.7651 :START DEPTH
STOP        .M                                          2429.8660 :STOP DEPTH
STEP        .M                                             0.1524 :STEP
NULL        .                                           -999.2500 :NULL VALUE
COMP        .                                   PEMEX EXPL & PROD :COMPANY
WELL        .                                                  72 :WELL
FLD         .                                           CANTARELL :FIELD
LOC         .                                             UNKNOWN :LOCATION
CNTY        .                                      CD. DEL CARMEN :COUNTY
STAT        .                                            CAMPECHE :STATE
CTRY        .                                              MEXICO :COUNTRY
SRVC        .                                             UNKNOWN :SERVICE COMPANY
DATE        .                                             UNKNOWN :LOG DATE
UWI         .                                          3060000469 :UNIQUE WELL ID
XCOORD      .                                       598503.510000 :SURFACE X
YCOORD      .                                      2149271.040000 :SURFACE Y
LAT         .                                           19.436542 :LATITUDE
LON         .                                          -92.061672 :LONGITUDE
ELEV        .M                                            27.6000 :SURFACE ELEV
ELEV_TYPE   .                                                  KB :ELEV TYPE
~CURVE INFORMATION
#MNEMONIC.UNIT        API CODE       : CURVE DESCRIPTION
#------------------------------------------------------------------------------
DEPTH    .M                          : Measured Depth
CALI     .inches      UNKNOWN        : CALI:registros:rC:NONE:v0 (auto-composite)
DRHO     .g/cm3       UNKNOWN        : DRHO:registros:rC:NONE:v0 (auto-composite)
DT       .us/ft       UNKNOWN        : DT:registros:rC:NONE:v0 (auto-composite)
GR       .API         UNKNOWN        : GR:registros:rC:NONE:v0 (auto-composite)
ILD      .ohm.m       UNKNOWN        : ILD:registros:rC:NONE:v0 (auto-composite)
ILM      .ohm.m       UNKNOWN        : ILM:registros:rC:NONE:v0 (auto-composite)
LLD      .ohm.m       UNKNOWN        : LLD:registros:rC:NONE:v0 (auto-composite)
LLS      .ohm.m       UNKNOWN        : LLS:registros:rC:NONE:v0 (auto-composite)
MSFL     .ohm.m       UNKNOWN        : MSFL:registros:rC:NONE:v0 (auto-composite)
NPHI     .UNKNOWN     UNKNOWN        : NPHI:registros:rC:NONE:v0 (auto-composite)
PEF      .UNKNOWN     UNKNOWN        : PEF:registros:rC:NONE:v0 (auto-composite)
RHOB     .g/cm3       UNKNOWN        : RHOB:registros:rC:NONE:v0 (auto-composite)
SIGM     .UNKNOWN     UNKNOWN        : SIGM:registros:rC:NONE:v0 (auto-composite)
SP       .mV          UNKNOWN        : SP:registros:rC:NONE:v0 (auto-composite)
~A     DEPTH         CALI         DRHO           DT           GR          ILD          ILM          LLD          LLS         MSFL         NPHI          PEF         RHOB         SIGM           SP
# ...
   1893.7227       6.9610       0.0050    -999.2500      57.1560    -999.2500    -999.2500     153.6020      70.9050      28.7950       0.1265       3.0880       2.5670       8.0000    -239.8100
   1893.8751       6.9600       0.0060    -999.2500      55.4467    -999.2500    -999.2500     148.3516      69.5977      24.5711       0.1237       3.0243       2.5780       7.9980    -242.3196
   1894.0275       6.9590       0.0070    -999.2500      53.7580    -999.2500    -999.2500     143.1560      68.3040      20.3980       0.1234       2.9610       2.5890       7.9960    -244.7990
   1894.1799       6.9680       0.0095    -999.2500      48.9142    -999.2500    -999.2500     133.1133      65.7247      20.7254       0.1223       2.9776       2.6025       7.9548    -247.4890
   1894.3323       6.9770       0.0120    -999.2500      44.1280    -999.2500    -999.2500     123.1740      63.1720      21.0490       0.1196       2.9940       2.6160       7.9140    -250.1470
   1894.4846       6.9750       0.0185    -999.2500      39.7030    -999.2500    -999.2500     113.2379      58.9872      22.4311       0.1142       3.0748       2.6386       7.7897    -253.4243
   1894.6371       6.9730       0.0250    -999.2500      35.3300    -999.2500    -999.2500     103.4030      54.8450      23.7970       0.1113       3.1550       2.6610       7.6670    -256.6630
   1894.7894       6.9815       0.0200    -999.2500      33.1916    -999.2500    -999.2500      81.2265      43.5342      20.4113       0.1161       3.2584       2.6204       7.6670    -260.7347
   1894.9419       6.9900       0.0150    -999.2500      31.0780    -999.2500    -999.2500      59.2730      32.3370      17.0650       0.1246       3.3610       2.5800       7.6670    -264.7590
   1895.0942       6.9880       0.0281    -999.2500      31.6493    -999.2500    -999.2500      63.7892      34.5097      14.7431       0.1333       3.3394       2.5308       7.6705    -266.7032
   1895.2467       6.9860       0.0410    -999.2500      32.2140    -999.2500    -999.2500      68.2570      36.6590      12.4480       0.1394       3.3180       2.4820       7.6740    -268.6250
   1895.3990       6.9654       0.0571    -999.2500      34.0751    -999.2500    -999.2500      79.2903      41.7631      11.8436       0.1398       3.2377       2.4910       7.8154    -267.0214
   1895.5515       6.9450       0.0730    -999.2500      35.9150    -999.2500    -999.2500      90.1980      46.8090      11.2460       0.1372       3.1580       2.5000       7.9550    -265.4360
   1895.7039       6.9470       0.0871    -999.2500      38.1672    -999.2500    -999.2500      98.5988      50.5928      18.9791       0.1341       3.1665       2.5266       7.9550    -263.6675
   1895.8563       6.9490       0.1010    -999.2500      40.3940    -999.2500    -999.2500     106.9050      54.3340      26.6250       0.1310       3.1750       2.5530       7.9550    -261.9190
   1896.0087       6.9520       0.0935    -999.2500      47.7696    -999.2500    -999.2500     111.3699      56.0395      22.9189       0.1283       3.1996       2.5530       7.8795    -260.5680
   1896.1611       6.9550       0.0860    -999.2500      55.0630    -999.2500    -999.2500     115.7850      57.7260      19.2540       0.1253       3.2240       2.5530       7.8050    -259.2320
   1896.3135       6.9575       0.0664    -999.2500      54.5924    -999.2500    -999.2500     125.4492      61.1549      26.5145       0.1213       3.2676       2.5440       7.4825    -256.9359
   1896.4658       6.9600       0.0470    -999.2500      54.1270    -999.2500    -999.2500     135.0070      64.5460      33.6950       0.1168       3.3110       2.5350       7.1640    -254.6650
   1896.6183       6.9811       0.0249    -999.2500      51.6611    -999.2500    -999.2500     145.1165      66.5720      22.8188       0.1119       3.2854       2.5360       7.1781    -253.5017
   1896.7706       7.0020       0.0030    -999.2500      49.2220    -999.2500    -999.2500     155.1160      68.5760      12.0610       0.1087       3.2600       2.5370       7.1920    -252.3510
   1896.9231       6.9744       0.0075    -999.2500      40.9495    -999.2500    -999.2500     150.9576      66.7839      19.3884       0.1088       3.0564       2.5435       7.3711    -250.5654
   1897.0754       6.9470       0.0120    -999.2500      32.7660    -999.2500    -999.2500     146.8440      65.0110      26.6310       0.1112       2.8540       2.5500       7.5480    -248.7990
   1897.2279       6.9590       0.0271    -999.2500      33.0994    -999.2500    -999.2500     136.2893      61.6401      24.3938       0.1151       2.9127       2.5701       7.7688    -246.7991
   1897.3802       6.9710       0.0420    -999.2500      33.4290    -999.2500    -999.2500     125.8470      58.3050      22.1840       0.1194       2.9710       2.5900       7.9870    -244.8220
   1897.5327       6.9625       0.0370    -999.2500      35.9643    -999.2500    -999.2500     130.7362      59.6154      22.6810       0.1235       3.0453       2.5860       7.9935    -242.6121
   1897.6851       6.9540       0.0320    -999.2500      38.4690    -999.2500    -999.2500     135.5740      60.9120      23.1720       0.1258       3.1190       2.5820       8.0000    -240.4290
   1897.8375       6.9420       0.0189    -999.2500      37.6159    -999.2500    -999.2500     135.5373      62.1635      22.6368       0.1251       3.1677       2.5850       7.9960    -238.8767
   1897.9899       6.9300       0.0060    -999.2500      36.7730    -999.2500    -999.2500     135.5010      63.4020      22.1080       0.1223       3.2160       2.5880       7.9920    -237.3430
   1898.1423       6.9305       0.0105    -999.2500      33.9835    -999.2500    -999.2500     128.7473      61.0203      19.7727       0.1187       3.1668       2.5920       7.9256    -236.1932
   1898.2947       6.9310       0.0150    -999.2500      31.2270    -999.2500    -999.2500     122.0630      58.6630      17.4650       0.1157       3.1180       2.5960       7.8600    -235.0570
   1898.4470       6.9365       0.0351    -999.2500      32.8415    -999.2500    -999.2500     113.5172      54.9351      14.6022       0.1149       3.1225       2.6045       7.6330    -233.5532
   1898.5995       6.9420       0.0550    -999.2500      34.4370    -999.2500    -999.2500     105.0580      51.2450      11.7730       0.1156       3.1270       2.6130       7.4090    -232.0670
   1898.7518       6.9510       0.0475    -999.2500      41.0851    -999.2500    -999.2500     102.8677      49.4448      14.0326       0.1171       3.1691       2.6331       7.5051    -230.4486
   1898.9043       6.9600       0.0400    -999.2500      47.6560    -999.2500    -999.2500     100.7010      47.6640      16.2660       0.1206       3.2110       2.6530       7.6000    -228.8490
   1899.0566       6.9645       0.0214    -999.2500      46.3515    -999.2500    -999.2500      98.3037      45.6595      13.5353       0.1275       3.0520       2.6430       7.8013    -227.9735
   1899.2091       6.9690       0.0030    -999.2500      45.0620    -999.2500    -999.2500      95.9340      43.6780      10.8360       0.1336       2.8940       2.6330       8.0000    -227.1080
   1899.3615       6.9675       0.0256    -999.2500      38.6114    -999.2500    -999.2500      99.3881      44.7707      12.0987       0.1348       3.0370       2.5949       8.0000    -225.6935
   1899.5139       6.9660       0.0480    -999.2500      32.2340    -999.2500    -999.2500     102.8030      45.8510      13.3470       0.1332       3.1790       2.5570       8.0000    -224.2950
   1899.6663       6.9525       0.0450    -999.2500      32.5729    -999.2500    -999.2500     101.4454      49.0133      15.9526       0.1307       3.1589       2.5630       7.9909    -223.0611
   1899.8187       6.9390       0.0420    -999.2500      32.9080    -999.2500    -999.2500     100.1030      52.1400      18.5290       0.1276       3.1390       2.5690       7.9820    -221.8410
   1899.9711       6.9405       0.0450    -999.2500      33.2660    -999.2500    -999.2500      95.1414      50.9479      19.8599       0.1246       3.1551       2.5655       7.8899    -221.4146
