#------------------------------------------------------------------------------
#
#   Created by  : [OpenWorks] Log Export Utility (LEXP)
#   Created on  : 2016-05-23 17:52:13
#   Project     : CANT971
#   User        : R5K
#   Interpreter : PEP
#
#------------------------------------------------------------------------------
~VERSION INFORMATION
VERS. 2.0 : CWLS Log ASCII Standard - version 2.0
WRAP.  NO : One line per depth step
~WELL INFORMATION
#MNEMONIC   .UNIT                                           VALUE :DESCRIPTION
#------------------------------------------------------------------------------
STRT        .M                                           632.7651 :START DEPTH
STOP        .M                                          2429.8660 :STOP DEPTH
STEP        .M                                             0.1524 :STEP
NULL        .                                           -999.2500 :NULL VALUE
COMP        .                                   PEMEX EXPL & PROD :COMPANY
WELL        .                                                  72 :WELL
FLD         .                                           CANTARELL :FIELD
LOC         .                                             UNKNOWN :LOCATION
CNTY        .                                      CD. DEL CARMEN :COUNTY
STAT        .                                            CAMPECHE :STATE
CTRY        .                                              MEXICO :COUNTRY
SRVC        .                                             UNKNOWN :SERVICE COMPANY
DATE        .                                             UNKNOWN :LOG DATE
UWI         .                                          3060000469 :UNIQUE WELL ID
XCOORD      .                                       598503.510000 :SURFACE X
YCOORD      .                                      2149271.040000 :SURFACE Y
LAT         .                                           19.436542 :LATITUDE
LON         .                                          -92.061672 :LONGITUDE
ELEV        .M                                            27.6000 :SURFACE ELEV
ELEV_TYPE   .                                                  KB :ELEV TYPE
~CURVE INFORMATION
#MNEMONIC.UNIT        API CODE       : CURVE DESCRIPTION
#------------------------------------------------------------------------------
DEPTH    .M                          : Measured Depth
CALI     .inches      UNKNOWN        : CALI:registros:rC:NONE:v0 (auto-composite)
DRHO     .g/cm3       UNKNOWN        : DRHO:registros:rC:NONE:v0 (auto-composite)
DT       .us/ft       UNKNOWN        : DT:registros:rC:NONE:v0 (auto-composite)
GR       .API         UNKNOWN        : GR:registros:rC:NONE:v0 (auto-composite)
ILD      .ohm.m       UNKNOWN        : ILD:registros:rC:NONE:v0 (auto-composite)
ILM      .ohm.m       UNKNOWN        : ILM:registros:rC:NONE:v0 (auto-composite)
LLD      .ohm.m       UNKNOWN        : LLD:registros:rC:NONE:v0 (auto-composite)
LLS      .ohm.m       UNKNOWN        : LLS:registros:rC:NONE:v0 (auto-composite)
MSFL     .ohm.m       UNKNOWN        : MSFL:registros:rC:NONE:v0 (auto-composite)
NPHI     .UNKNOWN     UNKNOWN        : NPHI:registros:rC:NONE:v0 (auto-composite)
PEF      .UNKNOWN     UNKNOWN        : PEF:registros:rC:NONE:v0 (auto-composite)
RHOB     .g/cm3       UNKNOWN        : RHOB:registros:rC:NONE:v0 (auto-composite)
SIGM     .UNKNOWN     UNKNOWN        : SIGM:registros:rC:NONE:v0 (auto-composite)
SP       .mV          UNKNOWN        : SP:registros:rC:NONE:v0 (auto-composite)
~A     DEPTH         CALI         DRHO           DT           GR          ILD          ILM          LLD          LLS         MSFL         NPHI          PEF         RHOB         SIGM           SP
# ...
   1695.2979       9.8010       0.0390    -999.2500      22.3870    -999.2500    -999.2500      83.2380      12.6830    -999.2500       0.0394       3.1130       2.5640       8.2880      55.7540
   1695.4503       9.4758       0.0450    -999.2500      19.9779    -999.2500    -999.2500      76.1439      12.1582    -999.2500       0.0416       3.0338       2.5891       8.1431      55.3152
   1695.6027       9.1520       0.0510    -999.2500      17.5940    -999.2500    -999.2500      69.1130      11.6380    -999.2500       0.0407       2.9550       2.6140       8.0000      54.8810
   1695.7551       9.1675       0.0636    -999.2500      17.6855    -999.2500    -999.2500      71.7119      11.8083    -999.2500       0.0387       2.9620       2.6095       8.0065      54.1226
   1695.9075       9.1830       0.0760    -999.2500      17.7760    -999.2500    -999.2500      74.2860      11.9770    -999.2500       0.0356       2.9690       2.6050       8.0130      53.3720
   1696.0599       9.5337       0.0921    -999.2500      18.1459    -999.2500    -999.2500      73.9151      12.7203    -999.2500       0.0316       3.0016       2.5865       8.0583      52.2447
   1696.2123       9.8830       0.1080    -999.2500      18.5120    -999.2500    -999.2500      73.5480      13.4560    -999.2500       0.0286       3.0340       2.5680       8.1030      51.1290
   1696.3646       9.8129       0.1065    -999.2500      18.8643    -999.2500    -999.2500      67.3074      12.5313    -999.2500       0.0288       3.0906       2.6341       8.1900      50.2656
   1696.5171       9.7430       0.1050    -999.2500      19.2130    -999.2500    -999.2500      61.1300      11.6160    -999.2500       0.0301       3.1470       2.7000       8.2760      49.4110
   1696.6694       9.4630       0.0678    -999.2500      20.5502    -999.2500    -999.2500      61.7601      11.8517    -999.2500       0.0303       3.3133       2.6960       8.3047      48.4547
   1696.8219       9.1840       0.0310    -999.2500      21.8740    -999.2500    -999.2500      62.3840      12.0850    -999.2500       0.0296       3.4790       2.6920       8.3330      47.5080
   1696.9742       8.9586       0.0340    -999.2500      30.3694    -999.2500    -999.2500      71.8924      14.4411    -999.2500       0.0285       3.4570       2.6945       8.3008      45.6302
   1697.1267       8.7340       0.0370    -999.2500      38.7810    -999.2500    -999.2500      81.3070      16.7740    -999.2500       0.0271       3.4350       2.6970       8.2690      43.7710
   1697.2791       8.7370       0.0521    -999.2500      37.1616    -999.2500    -999.2500     160.4856      32.2252    -999.2500       0.0258       3.2627       2.7195       8.1206      42.3435
   1697.4315       8.7400       0.0670    -999.2500      35.5580    -999.2500    -999.2500     238.8930      47.5260    -999.2500       0.0248       3.0910       2.7420       7.9740      40.9300
   1697.5839       8.7565       0.0851    -999.2500      31.1028    -999.2500    -999.2500     216.1547      44.5000    -999.2500       0.0240       3.1125       2.7410       7.8195      39.4885
   1697.7363       8.7730       0.1030    -999.2500      26.6940    -999.2500    -999.2500     193.6350      41.5030    -999.2500       0.0232       3.1340       2.7400       7.6670      38.0620
   1697.8887       8.7655       0.1010    -999.2500      22.4958    -999.2500    -999.2500     200.9045      42.8228    -999.2500       0.0220       3.1330       2.7320       7.6670      37.0926
   1698.0410       8.7580       0.0990    -999.2500      18.3440    -999.2500    -999.2500     208.1050      44.1300    -999.2500       0.0210       3.1320       2.7240       7.6670      36.1340
   1698.1935       8.7304       0.0940    -999.2500      18.7452    -999.2500    -999.2500     255.9516      62.1514    -999.2500       0.0210       3.0849       2.6924       7.6670      35.5307
   1698.3458       8.7030       0.0890    -999.2500      19.1420    -999.2500    -999.2500     303.3500      80.0040    -999.2500       0.0211       3.0380       2.6610       7.6670      34.9340
   1698.4983       8.7115       0.0905    -999.2500      20.1374    -999.2500    -999.2500     301.1011      79.0863    -999.2500       0.0205       3.0766       2.6680       7.6670      34.2056
   1698.6506       8.7200       0.0920    -999.2500      21.1220    -999.2500    -999.2500     298.8730      78.1770    -999.2500       0.0193       3.1150       2.6750       7.6670      33.4850
   1698.8031       8.7546       0.0870    -999.2500      22.6316    -999.2500    -999.2500     268.3268      71.8532    -999.2500       0.0174       3.1005       2.6900       7.6479      31.6547
   1698.9554       8.7890       0.0820    -999.2500      24.1250    -999.2500    -999.2500     238.0590      65.5870    -999.2500       0.0159       3.0860       2.7050       7.6290      29.8440
   1699.1079       8.7499       0.0684    -999.2500      27.4943    -999.2500    -999.2500     247.9681      68.8708    -999.2500       0.0163       3.1085       2.6940       7.5525      29.8711
   1699.2603       8.7110       0.0550    -999.2500      30.8280    -999.2500    -999.2500     257.7880      72.1250    -999.2500       0.0172       3.1310       2.6830       7.4770      29.8980
   1699.4127       8.7325       0.0445    -999.2500      29.0321    -999.2500    -999.2500     290.4363      82.6911    -999.2500       0.0173       3.1275       2.6605       7.4156      28.4766
   1699.5651       8.7540       0.0340    -999.2500      27.2550    -999.2500    -999.2500     322.7690      93.1550    -999.2500       0.0169       3.1240       2.6380       7.3550      27.0700
   1699.7175       8.7826       0.0295    -999.2500      22.1989    -999.2500    -999.2500     405.3928     121.6080    -999.2500       0.0162       3.1140       2.6260       7.3369      27.0780
   1699.8699       8.8110       0.0250    -999.2500      17.1950    -999.2500    -999.2500     487.1630     149.7670    -999.2500       0.0152       3.1040       2.6140       7.3190      27.0860
   1700.0222       8.9468       0.0190    -999.2500      17.3287    -999.2500    -999.2500     458.6028     149.3288    -999.2500       0.0135       3.0669       2.6090       7.2597      26.5442
   1700.1747       9.0820       0.0130    -999.2500      17.4610    -999.2500    -999.2500     430.3340     148.8950    -999.2500       0.0122       3.0300       2.6040       7.2010      26.0080
   1700.3270       9.2288       0.0140    -999.2500      18.2932    -999.2500    -999.2500     382.9044     138.3694    -999.2500       0.0121       2.9909       2.5860       7.0999      26.0316
   1700.4795       9.3750       0.0150    -999.2500      19.1170    -999.2500    -999.2500     335.9530     127.9500    -999.2500       0.0128       2.9520       2.5680       7.0000      26.0550
   1700.6318       9.2337       0.0230    -999.2500      18.7864    -999.2500    -999.2500     293.9323     112.6111    -999.2500       0.0138       2.9525       2.5835       7.0000      26.4394
   1700.7843       9.0930       0.0310    -999.2500      18.4590    -999.2500    -999.2500     252.3300      97.4250    -999.2500       0.0155       2.9530       2.5990       7.0000      26.8200
   1700.9366       8.9327       0.0370    -999.2500      17.9480    -999.2500    -999.2500     206.1705      82.1755    -999.2500       0.0182       2.9590       2.5845       7.0589      26.5989
   1701.0891       8.7730       0.0430    -999.2500      17.4420    -999.2500    -999.2500     160.4650      67.0760    -999.2500       0.0204       2.9650       2.5700       7.1170      26.3800
   1701.2415       8.8041       0.0766    -999.2500      17.2419    -999.2500    -999.2500     163.1872      69.0395    -999.2500       0.0206       3.0697       2.5840       7.2257      25.4486
   1701.3939       8.8350       0.1100    -999.2500      17.0440    -999.2500    -999.2500     165.8830      70.9840    -999.2500       0.0202       3.1740       2.5980       7.3330      24.5270
   1701.5463       8.8801       0.1662    -999.2500      15.3148    -999.2500    -999.2500     192.3162      90.2443    -999.2500       0.0204       3.1134       2.5920       7.3063      22.8481
