#------------------------------------------------------------------------------
#
#   Created by  : [OpenWorks] Log Export Utility (LEXP)
#   Created on  : 2016-05-23 17:52:13
#   Project     : CANT971
#   User        : R5K
#   Interpreter : PEP
#
#------------------------------------------------------------------------------
~VERSION INFORMATION
VERS. 2.0 : CWLS Log ASCII Standard - version 2.0
WRAP.  NO : One line per depth step
~WELL INFORMATION
#MNEMONIC   .UNIT                                           VALUE :DESCRIPTION
#------------------------------------------------------------------------------
STRT        .M                                           632.7651 :START DEPTH
STOP        .M                                          2429.8660 :STOP DEPTH
STEP        .M                                             0.1524 :STEP
NULL        .                                           -999.2500 :NULL VALUE
COMP        .                                   PEMEX EXPL & PROD :COMPANY
WELL        .                                                  72 :WELL
FLD         .                                           CANTARELL :FIELD
LOC         .                                             UNKNOWN :LOCATION
CNTY        .                                      CD. DEL CARMEN :COUNTY
STAT        .                                            CAMPECHE :STATE
CTRY        .                                              MEXICO :COUNTRY
SRVC        .                                             UNKNOWN :SERVICE COMPANY
DATE        .                                             UNKNOWN :LOG DATE
UWI         .                                          3060000469 :UNIQUE WELL ID
XCOORD      .                                       598503.510000 :SURFACE X
YCOORD      .                                      2149271.040000 :SURFACE Y
LAT         .                                           19.436542 :LATITUDE
LON         .                                          -92.061672 :LONGITUDE
ELEV        .M                                            27.6000 :SURFACE ELEV
ELEV_TYPE   .                                                  KB :ELEV TYPE
~CURVE INFORMATION
#MNEMONIC.UNIT        API CODE       : CURVE DESCRIPTION
#------------------------------------------------------------------------------
DEPTH    .M                          : Measured Depth
CALI     .inches      UNKNOWN        : CALI:registros:rC:NONE:v0 (auto-composite)
DRHO     .g/cm3       UNKNOWN        : DRHO:registros:rC:NONE:v0 (auto-composite)
DT       .us/ft       UNKNOWN        : DT:registros:rC:NONE:v0 (auto-composite)
GR       .API         UNKNOWN        : GR:registros:rC:NONE:v0 (auto-composite)
ILD      .ohm.m       UNKNOWN        : ILD:registros:rC:NONE:v0 (auto-composite)
ILM      .ohm.m       UNKNOWN        : ILM:registros:rC:NONE:v0 (auto-composite)
LLD      .ohm.m       UNKNOWN        : LLD:registros:rC:NONE:v0 (auto-composite)
LLS      .ohm.m       UNKNOWN        : LLS:registros:rC:NONE:v0 (auto-composite)
MSFL     .ohm.m       UNKNOWN        : MSFL:registros:rC:NONE:v0 (auto-composite)
NPHI     .UNKNOWN     UNKNOWN        : NPHI:registros:rC:NONE:v0 (auto-composite)
PEF      .UNKNOWN     UNKNOWN        : PEF:registros:rC:NONE:v0 (auto-composite)
RHOB     .g/cm3       UNKNOWN        : RHOB:registros:rC:NONE:v0 (auto-composite)
SIGM     .UNKNOWN     UNKNOWN        : SIGM:registros:rC:NONE:v0 (auto-composite)
SP       .mV          UNKNOWN        : SP:registros:rC:NONE:v0 (auto-composite)
~A     DEPTH         CALI         DRHO           DT           GR          ILD          ILM          LLD          LLS         MSFL         NPHI          PEF         RHOB         SIGM           SP
# ...
   2028.1395       6.6770       0.0650    -999.2500      44.1560    -999.2500    -999.2500      99.7620      45.7750      20.2970       0.0799       3.0410       2.7840      12.0000    -238.1330
   2028.2919       6.6830       0.0610    -999.2500      44.1651    -999.2500    -999.2500     105.4948      47.4473      21.0860       0.0797       3.0571       2.7780      11.9970    -238.7620
   2028.4443       6.6890       0.0570    -999.2500      44.1740    -999.2500    -999.2500     111.1640      49.1010      21.8650       0.0796       3.0730       2.7720      11.9940    -239.3830
   2028.5967       6.6875       0.0349    -999.2500      45.3680    -999.2500    -999.2500     110.1700      48.4595      36.8154       0.0797       3.0579       2.7444      11.9276    -239.9380
   2028.7490       6.6860       0.0130    -999.2500      46.5470    -999.2500    -999.2500     109.1870      47.8250      51.5780       0.0798       3.0430       2.7170      11.8620    -240.4860
   2028.9015       6.6945       0.0135    -999.2500      49.9819    -999.2500    -999.2500      99.3441      43.2291      43.9048       0.0822       3.0063       2.6969      11.7367    -240.9428
   2029.0538       6.7030       0.0140    -999.2500      53.3740    -999.2500    -999.2500      89.6080      38.6830      36.3270       0.0846       2.9700       2.6770      11.6130    -241.3940
   2029.2063       6.7216       0.0135    -999.2500      54.8601    -999.2500    -999.2500      82.1324      34.9480      25.6251       0.0860       2.9007       2.6865      11.4419    -242.6029
   2029.3586       6.7400       0.0130    -999.2500      56.3280    -999.2500    -999.2500      74.7430      31.2560      15.0550       0.0874       2.8320       2.6960      11.2730    -243.7970
   2029.5111       6.7370       0.0236    -999.2500      53.7448    -999.2500    -999.2500      76.5515      31.8602      23.4577       0.0939       2.8596       2.6900      11.0557    -245.2509
   2029.6635       6.7340       0.0340    -999.2500      51.1930    -999.2500    -999.2500      78.3380      32.4570      31.7580       0.1002       2.8870       2.6840      10.8410    -246.6870
   2029.8159       6.7390       0.0305    -999.2500      46.6531    -999.2500    -999.2500      81.1625      33.6668      30.9999       0.0982       2.9342       2.6855      10.6855    -246.6458
   2029.9683       6.7440       0.0270    -999.2500      42.1680    -999.2500    -999.2500      83.9530      34.8620      30.2510       0.0961       2.9810       2.6870      10.5320    -246.6050
   2030.1207       6.7596       0.0159    -999.2500      39.1676    -999.2500    -999.2500      86.1225      36.0451      22.3126       0.0923       3.0101       2.6890      10.4318    -246.3324
   2030.2731       6.7750       0.0050    -999.2500      36.2030    -999.2500    -999.2500      88.2660      37.2140      14.4690       0.0885       3.0390       2.6910      10.3330    -246.0630
   2030.4254       6.7509       0.0075    -999.2500      36.4525    -999.2500    -999.2500      92.3018      38.6273      24.8428       0.0835       3.0511       2.6920      10.0078    -246.1440
   2030.5779       6.7270       0.0100    -999.2500      36.6990    -999.2500    -999.2500      96.2900      40.0240      35.0940       0.0785       3.0630       2.6930       9.6870    -246.2240
   2030.7302       6.7642       0.0155    -999.2500      38.4221    -999.2500    -999.2500      94.9884      39.4391      33.5374       0.0786       3.0791       2.7045       9.7258    -246.7174
   2030.8827       6.8010       0.0210    -999.2500      40.1250    -999.2500    -999.2500      93.7020      38.8610      31.9990       0.0788       3.0950       2.7160       9.7640    -247.2050
   2031.0350       6.7844       0.0245    -999.2500      40.0486    -999.2500    -999.2500      85.1601      34.7165      21.1271       0.0809       3.1312       2.7050      10.0368    -248.8032
   2031.1875       6.7680       0.0280    -999.2500      39.9730    -999.2500    -999.2500      76.7170      30.6200      10.3810       0.0829       3.1670       2.6940      10.3060    -250.3830
   2031.3398       6.7921       0.0491    -999.2500      37.8493    -999.2500    -999.2500      78.8567      31.3909      11.5899       0.0826       3.1911       2.7050      10.1938    -251.7931
   2031.4923       6.8160       0.0700    -999.2500      35.7500    -999.2500    -999.2500      80.9720      32.1530      12.7850       0.0822       3.2150       2.7160      10.0830    -253.1870
   2031.6447       6.7693       0.0846    -999.2500      38.2446    -999.2500    -999.2500      89.1644      35.7680      17.4342       0.0812       3.3114       2.7396       9.6718    -252.5273
   2031.7971       6.7230       0.0990    -999.2500      40.7110    -999.2500    -999.2500      97.2640      39.3420      22.0270       0.0802       3.4070       2.7630       9.2660    -251.8750
   2031.9495       6.7642       0.0784    -999.2500      44.5898    -999.2500    -999.2500     105.4398      43.4294      31.7083       0.0818       3.3919       2.7479       9.2700    -252.0007
   2032.1019       6.8050       0.0580    -999.2500      48.4220    -999.2500    -999.2500     113.5240      47.4710      41.2660       0.0835       3.3770       2.7330       9.2740    -252.1250
   2032.2543       6.7794       0.0293    -999.2500      44.7815    -999.2500    -999.2500     110.3871      46.3322      37.1877       0.0854       3.3554       2.6999       9.4597    -252.0938
   2032.4066       6.7540       0.0010    -999.2500      41.1870    -999.2500    -999.2500     107.2850      45.2060      33.1610       0.0874       3.3340       2.6670       9.6430    -252.0630
   2032.5591       6.8549       0.0131    -999.2500      41.3284    -999.2500    -999.2500      97.3456      41.2514      26.4449       0.0897       3.4530       2.6188       9.5786    -252.1254
   2032.7114       6.9550       0.0250    -999.2500      41.4680    -999.2500    -999.2500      87.5150      37.3400      19.8130       0.0926       3.5710       2.5710       9.5150    -252.1870
   2032.8639       6.9158       0.0959    -999.2500      43.1570    -999.2500    -999.2500      88.6431      37.6638      20.1954       0.1171       3.4806       2.4450       9.2423    -251.5898
   2033.0162       6.8770       0.1660    -999.2500      44.8250    -999.2500    -999.2500      89.7590      37.9840      20.5730       0.1413       3.3910       2.3200       8.9730    -251.0000
   2033.1687       6.9152       0.1650    -999.2500      51.5946    -999.2500    -999.2500      96.7431      40.6795      21.7341       0.1418       3.1373       2.3250       8.5972    -252.4152
   2033.3210       6.9530       0.1640    -999.2500      58.2810    -999.2500    -999.2500     103.6470      43.3440      22.8810       0.1413       2.8860       2.3300       8.2260    -253.8130
   2033.4735       6.9460       0.1444    -999.2500      56.9298    -999.2500    -999.2500     139.3314      60.5702      34.7039       0.1315       2.9272       2.3983       8.0373    -252.5865
   2033.6259       6.9390       0.1250    -999.2500      55.5950    -999.2500    -999.2500     174.5820      77.5870      46.3830       0.1212       2.9680       2.4660       7.8510    -251.3750
   2033.7783       6.8360       0.0943    -999.2500      49.1060    -999.2500    -999.2500     167.0955      75.3425      45.0268       0.0999       3.1538       2.5654       7.8661    -252.8086
   2033.9307       6.7340       0.0640    -999.2500      42.6950    -999.2500    -999.2500     159.6990      73.1250      43.6870       0.0790       3.3380       2.6640       7.8810    -254.2250
   2034.0831       6.7370       0.0580    -999.2500      38.9427    -999.2500    -999.2500     150.0184      68.1891      49.2989       0.0713       3.4289       2.6961       7.9298    -255.3693
   2034.2355       6.7400       0.0520    -999.2500      35.2350    -999.2500    -999.2500     140.4530      63.3120      54.8440       0.0642       3.5190       2.7280       7.9780    -256.5000
   2034.3878       6.7038       0.0525    -999.2500      33.6607    -999.2500    -999.2500     136.1154      63.8321      48.8552       0.0590       3.4919       2.7506       8.0862    -256.4371
