#------------------------------------------------------------------------------
#
#   Created by  : [OpenWorks] Log Export Utility (LEXP)
#   Created on  : 2016-05-23 17:52:13
#   Project     : CANT971
#   User        : R5K
#   Interpreter : PEP
#
#------------------------------------------------------------------------------
~VERSION INFORMATION
VERS. 2.0 : CWLS Log ASCII Standard - version 2.0
WRAP.  NO : One line per depth step
~WELL INFORMATION
#MNEMONIC   .UNIT                                           VALUE :DESCRIPTION
#------------------------------------------------------------------------------
STRT        .M                                           632.7651 :START DEPTH
STOP        .M                                          2429.8660 :STOP DEPTH
STEP        .M                                             0.1524 :STEP
NULL        .                                           -999.2500 :NULL VALUE
COMP        .                                   PEMEX EXPL & PROD :COMPANY
WELL        .                                                  72 :WELL
FLD         .                                           CANTARELL :FIELD
LOC         .                                             UNKNOWN :LOCATION
CNTY        .                                      CD. DEL CARMEN :COUNTY
STAT        .                                            CAMPECHE :STATE
CTRY        .                                              MEXICO :COUNTRY
SRVC        .                                             UNKNOWN :SERVICE COMPANY
DATE        .                                             UNKNOWN :LOG DATE
UWI         .                                          3060000469 :UNIQUE WELL ID
XCOORD      .                                       598503.510000 :SURFACE X
YCOORD      .                                      2149271.040000 :SURFACE Y
LAT         .                                           19.436542 :LATITUDE
LON         .                                          -92.061672 :LONGITUDE
ELEV        .M                                            27.6000 :SURFACE ELEV
ELEV_TYPE   .                                                  KB :ELEV TYPE
~CURVE INFORMATION
#MNEMONIC.UNIT        API CODE       : CURVE DESCRIPTION
#------------------------------------------------------------------------------
DEPTH    .M                          : Measured Depth
CALI     .inches      UNKNOWN        : CALI:registros:rC:NONE:v0 (auto-composite)
DRHO     .g/cm3       UNKNOWN        : DRHO:registros:rC:NONE:v0 (auto-composite)
DT       .us/ft       UNKNOWN        : DT:registros:rC:NONE:v0 (auto-composite)
GR       .API         UNKNOWN        : GR:registros:rC:NONE:v0 (auto-composite)
ILD      .ohm.m       UNKNOWN        : ILD:registros:rC:NONE:v0 (auto-composite)
ILM      .ohm.m       UNKNOWN        : ILM:registros:rC:NONE:v0 (auto-composite)
LLD      .ohm.m       UNKNOWN        : LLD:registros:rC:NONE:v0 (auto-composite)
LLS      .ohm.m       UNKNOWN        : LLS:registros:rC:NONE:v0 (auto-composite)
MSFL     .ohm.m       UNKNOWN        : MSFL:registros:rC:NONE:v0 (auto-composite)
NPHI     .UNKNOWN     UNKNOWN        : NPHI:registros:rC:NONE:v0 (auto-composite)
PEF      .UNKNOWN     UNKNOWN        : PEF:registros:rC:NONE:v0 (auto-composite)
RHOB     .g/cm3       UNKNOWN        : RHOB:registros:rC:NONE:v0 (auto-composite)
SIGM     .UNKNOWN     UNKNOWN        : SIGM:registros:rC:NONE:v0 (auto-composite)
SP       .mV          UNKNOWN        : SP:registros:rC:NONE:v0 (auto-composite)
~A     DEPTH         CALI         DRHO           DT           GR          ILD          ILM          LLD          LLS         MSFL         NPHI          PEF         RHOB         SIGM           SP
# ...
   1490.4723      15.6410       0.0680    -999.2500      72.9690    -999.2500    -999.2500       4.7870       3.8990    -999.2500      -0.0033       3.4260       1.5680      17.1890     119.0600
   1490.6246      15.0036       0.0946    -999.2500      72.7564    -999.2500    -999.2500       4.5264       3.6961    -999.2500      -0.0026       3.4220       1.6145      17.1744     118.4490
   1490.7771      14.3670       0.1210    -999.2500      72.5460    -999.2500    -999.2500       4.2680       3.4950    -999.2500      -0.0020       3.4180       1.6610      17.1600     117.8440
   1490.9294      14.4881       0.1155    -999.2500      71.7672    -999.2500    -999.2500       4.7907       3.8274    -999.2500      -0.0024       3.2048       1.6365      17.0569     118.1736
   1491.0819      14.6090       0.1100    -999.2500      70.9960    -999.2500    -999.2500       5.3090       4.1570    -999.2500      -0.0028       2.9920       1.6120      16.9550     118.5000
   1491.2343      14.5745       0.0513    -999.2500      70.2845    -999.2500    -999.2500       5.1765       4.0747    -999.2500      -0.0026       3.0035       1.3973      16.6744     118.2548
   1491.3867      14.5400      -0.0070    -999.2500      69.5800    -999.2500    -999.2500       5.0450       3.9930    -999.2500      -0.0015       3.0150       1.1830      16.3970     118.0120
   1491.5391      13.9685      -0.0070    -999.2500      67.3890    -999.2500    -999.2500       4.6359       3.3730    -999.2500       0.0015       3.0911       1.2841      16.0299     116.6871
   1491.6915      13.3980      -0.0070    -999.2500      65.2190    -999.2500    -999.2500       4.2300       2.7580    -999.2500       0.0044       3.1670       1.3850      15.6670     115.3750
   1491.8439      14.0355      -0.0005    -999.2500      65.2813    -999.2500    -999.2500       3.4549       2.8142    -999.2500       0.0050       2.8973       1.3730      15.6670     115.5398
   1491.9962      14.6720       0.0060    -999.2500      65.3430    -999.2500    -999.2500       2.6860       2.8700    -999.2500       0.0047       2.6280       1.3610      15.6670     115.7030
   1492.1487      14.6670       0.0281    -999.2500      66.2226    -999.2500    -999.2500       2.7352       3.3102    -999.2500       0.0041       2.6590       1.3745      15.7067     116.6841
   1492.3010      14.6620       0.0500    -999.2500      67.0940    -999.2500    -999.2500       2.7840       3.7470    -999.2500       0.0034       2.6900       1.3880      15.7460     117.6560
   1492.4535      14.4754       0.0826    -999.2500      69.7347    -999.2500    -999.2500       3.9966       3.7058    -999.2500       0.0025       2.8446       1.4676      16.0318     117.5470
   1492.6058      14.2890       0.1150    -999.2500      72.3510    -999.2500    -999.2500       5.1990       3.6650    -999.2500       0.0015       2.9990       1.5470      16.3140     117.4390
   1492.7583      14.5431       0.1446    -999.2500      74.6927    -999.2500    -999.2500       4.0744       3.5103    -999.2500       0.0005       2.9875       1.6446      16.6345     117.2386
   1492.9106      14.7970       0.1740    -999.2500      77.0130    -999.2500    -999.2500       2.9600       3.3570    -999.2500      -0.0003       2.9760       1.7420      16.9510     117.0400
   1493.0631      14.7240       0.1896    -999.2500      79.4138    -999.2500    -999.2500       5.0047       3.0732    -999.2500      -0.0002       2.9455       1.7835      16.9757     116.9737
   1493.2155      14.6510       0.2050    -999.2500      81.7930    -999.2500    -999.2500       7.0310       2.7920    -999.2500       0.0006       2.9150       1.8250      17.0000     116.9080
   1493.3679      14.0207       0.1955    -999.2500      84.7692    -999.2500    -999.2500       6.8542       3.4107    -999.2500       0.0022       2.7279       1.8505      16.9044     116.7814
   1493.5203      13.3910       0.1860    -999.2500      87.7190    -999.2500    -999.2500       6.6790       4.0240    -999.2500       0.0037       2.5410       1.8760      16.8100     116.6560
   1493.6727      13.4110       0.1584    -999.2500      86.9071    -999.2500    -999.2500       6.0322       3.9602    -999.2500       0.0039       2.6010       1.9925      16.5605     116.7972
   1493.8251      13.4310       0.1310    -999.2500      86.1030    -999.2500    -999.2500       5.3910       3.8970    -999.2500       0.0036       2.6610       2.1090      16.3140     116.9370
   1493.9774      13.4830       0.0914    -999.2500      82.8142    -999.2500    -999.2500       4.3485       3.5836    -999.2500       0.0031       3.0411       2.0880      16.1561     116.7978
   1494.1299      13.5350       0.0520    -999.2500      79.5590    -999.2500    -999.2500       3.3150       3.2730    -999.2500       0.0026       3.4210       2.0670      16.0000     116.6600
   1494.2822      13.8086       0.0691    -999.2500      74.1271    -999.2500    -999.2500       5.1001       3.2991    -999.2500       0.0021       3.3935       1.9450      16.0000     116.3128
   1494.4347      14.0820       0.0860    -999.2500      68.7500    -999.2500    -999.2500       6.8700       3.3250    -999.2500       0.0018       3.3660       1.8230      16.0000     115.9690
   1494.5870      14.4512       0.1332    -999.2500      69.4254    -999.2500    -999.2500       6.0922       3.6840    -999.2500       0.0022       3.3720       1.8500      16.1116     115.6077
   1494.7395      14.8200       0.1800    -999.2500      70.0940    -999.2500    -999.2500       5.3210       4.0400    -999.2500       0.0030       3.3780       1.8770      16.2220     115.2500
   1494.8918      14.1439       0.2171    -999.2500      68.9790    -999.2500    -999.2500       5.5038       3.9888    -999.2500       0.0045       3.4025       1.9235      16.4619     114.7867
   1495.0443      13.4690       0.2540    -999.2500      67.8750    -999.2500    -999.2500       5.6850       3.9380    -999.2500       0.0055       3.4270       1.9700      16.6990     114.3280
   1495.1967      13.6311       0.2369    -999.2500      68.5658    -999.2500    -999.2500       4.8767       3.7256    -999.2500       0.0048       3.4886       1.9440      16.9293     114.0532
   1495.3491      13.7930       0.2200    -999.2500      69.2500    -999.2500    -999.2500       4.0750       3.5150    -999.2500       0.0038       3.5500       1.9180      17.1570     113.7810
   1495.5015      14.1958       0.1794    -999.2500      73.0653    -999.2500    -999.2500       4.3586       4.0963    -999.2500       0.0037       3.6891       1.8565      17.3621     114.8486
   1495.6539      14.5980       0.1390    -999.2500      76.8440    -999.2500    -999.2500       4.6400       4.6730    -999.2500       0.0039       3.8280       1.7950      17.5650     115.9060
   1495.8063      14.5234       0.0698    -999.2500      76.6174    -999.2500    -999.2500       5.3362       3.9461    -999.2500       0.0042       3.7014       1.6309      17.7852     115.0585
   1495.9586      14.4490       0.0010    -999.2500      76.3930    -999.2500    -999.2500       6.0270       3.2250    -999.2500       0.0044       3.5750       1.4670      18.0030     114.2190
   1496.1111      14.4860       0.0035    -999.2500      75.5913    -999.2500    -999.2500       5.7309       3.2451    -999.2500       0.0039       3.2793       1.4800      18.1670     114.3381
   1496.2634      14.5230       0.0060    -999.2500      74.7970    -999.2500    -999.2500       5.4370       3.2650    -999.2500       0.0034       2.9840       1.4930      18.3290     114.4560
   1496.4159      14.7852       0.0738    -999.2500      73.1409    -999.2500    -999.2500       4.4609       3.3539    -999.2500       0.0036       3.1876       1.7036      18.3270     114.8704
   1496.5682      15.0470       0.1410    -999.2500      71.5000    -999.2500    -999.2500       3.4930       3.4420    -999.2500       0.0041       3.3910       1.9140      18.3250     115.2810
   1496.7207      14.1070       0.2364    -999.2500      71.7828    -999.2500    -999.2500       3.8712       3.5942    -999.2500       0.0049       3.6586       2.1156      18.1766     114.2609
