#------------------------------------------------------------------------------
#
#   Created by  : [OpenWorks] Log Export Utility (LEXP)
#   Created on  : 2016-05-23 17:52:13
#   Project     : CANT971
#   User        : R5K
#   Interpreter : PEP
#
#------------------------------------------------------------------------------
~VERSION INFORMATION
VERS. 2.0 : CWLS Log ASCII Standard - version 2.0
WRAP.  NO : One line per depth step
~WELL INFORMATION
#MNEMONIC   .UNIT                                           VALUE :DESCRIPTION
#------------------------------------------------------------------------------
STRT        .M                                           632.7651 :START DEPTH
STOP        .M                                          2429.8660 :STOP DEPTH
STEP        .M                                             0.1524 :STEP
NULL        .                                           -999.2500 :NULL VALUE
COMP        .                                   PEMEX EXPL & PROD :COMPANY
WELL        .                                                  72 :WELL
FLD         .                                           CANTARELL :FIELD
LOC         .                                             UNKNOWN :LOCATION
CNTY        .                                      CD. DEL CARMEN :COUNTY
STAT        .                                            CAMPECHE :STATE
CTRY        .                                              MEXICO :COUNTRY
SRVC        .                                             UNKNOWN :SERVICE COMPANY
DATE        .                                             UNKNOWN :LOG DATE
UWI         .                                          3060000469 :UNIQUE WELL ID
XCOORD      .                                       598503.510000 :SURFACE X
YCOORD      .                                      2149271.040000 :SURFACE Y
LAT         .                                           19.436542 :LATITUDE
LON         .                                          -92.061672 :LONGITUDE
ELEV        .M                                            27.6000 :SURFACE ELEV
ELEV_TYPE   .                                                  KB :ELEV TYPE
~CURVE INFORMATION
#MNEMONIC.UNIT        API CODE       : CURVE DESCRIPTION
#------------------------------------------------------------------------------
DEPTH    .M                          : Measured Depth
CALI     .inches      UNKNOWN        : CALI:registros:rC:NONE:v0 (auto-composite)
DRHO     .g/cm3       UNKNOWN        : DRHO:registros:rC:NONE:v0 (auto-composite)
DT       .us/ft       UNKNOWN        : DT:registros:rC:NONE:v0 (auto-composite)
GR       .API         UNKNOWN        : GR:registros:rC:NONE:v0 (auto-composite)
ILD      .ohm.m       UNKNOWN        : ILD:registros:rC:NONE:v0 (auto-composite)
ILM      .ohm.m       UNKNOWN        : ILM:registros:rC:NONE:v0 (auto-composite)
LLD      .ohm.m       UNKNOWN        : LLD:registros:rC:NONE:v0 (auto-composite)
LLS      .ohm.m       UNKNOWN        : LLS:registros:rC:NONE:v0 (auto-composite)
MSFL     .ohm.m       UNKNOWN        : MSFL:registros:rC:NONE:v0 (auto-composite)
NPHI     .UNKNOWN     UNKNOWN        : NPHI:registros:rC:NONE:v0 (auto-composite)
PEF      .UNKNOWN     UNKNOWN        : PEF:registros:rC:NONE:v0 (auto-composite)
RHOB     .g/cm3       UNKNOWN        : RHOB:registros:rC:NONE:v0 (auto-composite)
SIGM     .UNKNOWN     UNKNOWN        : SIGM:registros:rC:NONE:v0 (auto-composite)
SP       .mV          UNKNOWN        : SP:registros:rC:NONE:v0 (auto-composite)
~A     DEPTH         CALI         DRHO           DT           GR          ILD          ILM          LLD          LLS         MSFL         NPHI          PEF         RHOB         SIGM           SP
# ...
   2092.1475       6.5820       0.0150    -999.2500      33.9690    -999.2500    -999.2500     133.5230      66.2410      43.1080       0.0781       3.5640       2.6900       7.8140    -243.8750
   2092.2998       6.5564       0.0256    -999.2500      33.9529    -999.2500    -999.2500     131.9281      64.4249      38.4146       0.0821       3.4846       2.6880       7.8482    -244.4728
   2092.4524       6.5310       0.0360    -999.2500      33.9370    -999.2500    -999.2500     130.3510      62.6290      33.7810       0.0854       3.4060       2.6860       7.8820    -245.0630
   2092.6047       6.5360       0.0360    -999.2500      34.7708    -999.2500    -999.2500     133.1796      64.1519      42.8698       0.0853       3.2809       2.6955       7.9238    -244.8738
   2092.7571       6.5410       0.0360    -999.2500      35.5940    -999.2500    -999.2500     135.9770      65.6580      51.8440       0.0836       3.1570       2.7050       7.9650    -244.6870
   2092.9094       6.5294       0.0325    -999.2500      33.2609    -999.2500    -999.2500     140.8917      68.9410      47.3786       0.0811       3.1756       2.7281       8.0686    -244.7816
   2093.0618       6.5180       0.0290    -999.2500      30.9570    -999.2500    -999.2500     145.7450      72.1830      42.9690       0.0774       3.1940       2.7510       8.1710    -244.8750
   2093.2144       6.5346       0.0200    -999.2500      27.7477    -999.2500    -999.2500     149.0660      76.2532      47.5282       0.0712       3.1408       2.7450       8.1604    -244.7638
   2093.3667       6.5510       0.0110    -999.2500      24.5780    -999.2500    -999.2500     152.3460      80.2730      52.0310       0.0660       3.0880       2.7390       8.1500    -244.6540
   2093.5190       6.5389       0.0180    -999.2500      26.0062    -999.2500    -999.2500     145.7265      76.3057      50.0936       0.0660       3.1724       2.7475       8.0745    -244.4216
   2093.6714       6.5270       0.0250    -999.2500      27.4170    -999.2500    -999.2500     139.1880      72.3870      48.1800       0.0694       3.2560       2.7560       8.0000    -244.1920
   2093.8240       6.5280       0.0411    -999.2500      32.8117    -999.2500    -999.2500     126.9232      64.5681      38.1975       0.0777       3.2369       2.7525       8.0166    -243.4666
   2093.9763       6.5290       0.0570    -999.2500      38.1410    -999.2500    -999.2500     114.8070      56.8440      28.3360       0.0854       3.2180       2.7490       8.0330    -242.7500
   2094.1287       6.5315       0.0555    -999.2500      36.6787    -999.2500    -999.2500     117.4136      57.8968      41.3632       0.0867       3.2361       2.7289       8.1080    -242.9386
   2094.2810       6.5340       0.0540    -999.2500      35.2340    -999.2500    -999.2500     119.9890      58.9370      54.2340       0.0846       3.2540       2.7090       8.1820    -243.1250
   2094.4336       6.5445       0.0414    -999.2500      35.4116    -999.2500    -999.2500     137.7287      66.8429      50.2338       0.0791       3.2475       2.7160       8.4216    -242.8735
   2094.5859       6.5550       0.0290    -999.2500      35.5870    -999.2500    -999.2500     155.2580      74.6550      46.2810       0.0723       3.2410       2.7230       8.6580    -242.6250
   2094.7383       6.5470       0.0310    -999.2500      37.9051    -999.2500    -999.2500     177.0883      85.2794      48.3476       0.0649       3.3163       2.7436       8.5790    -242.7246
   2094.8906       6.5390       0.0330    -999.2500      40.1960    -999.2500    -999.2500     198.6620      95.7790      50.3900       0.0597       3.3910       2.7640       8.5010    -242.8230
   2095.0430       6.5440       0.0415    -999.2500      50.7453    -999.2500    -999.2500     179.2100      87.2057      66.9056       0.0607       3.3809       2.7625       8.3621    -244.6023
   2095.1956       6.5490       0.0500    -999.2500      61.1720    -999.2500    -999.2500     159.9840      78.7320      83.2030       0.0652       3.3710       2.7610       8.2250    -246.3610
   2095.3479       6.5932       0.0570    -999.2500      60.7476    -999.2500    -999.2500     138.4165      68.6224      61.1815       0.0728       3.3444       2.7459       8.1012    -248.5365
   2095.5002       6.6370       0.0640    -999.2500      60.3280    -999.2500    -999.2500     117.0970      58.6290      39.4480       0.0835       3.3180       2.7310       7.9790    -250.6870
   2095.6526       6.6340       0.0771    -999.2500      54.3236    -999.2500    -999.2500      98.2011      49.0767      28.7899       0.0993       3.2562       2.7119       7.8119    -251.8108
   2095.8052       6.6310       0.0900    -999.2500      48.3970    -999.2500    -999.2500      79.5200      39.6330      18.2700       0.1131       3.1950       2.6930       7.6470    -252.9200
   2095.9575       6.6782       0.0855    -999.2500      38.5257    -999.2500    -999.2500      79.6487      39.7562      35.6530       0.1163       3.2287       2.6684       7.4331    -253.4449
   2096.1099       6.7250       0.0810    -999.2500      28.7810    -999.2500    -999.2500      79.7760      39.8780      52.8130       0.1148       3.2620       2.6440       7.2220    -253.9630
   2096.2622       6.7044       0.0579    -999.2500      32.2722    -999.2500    -999.2500      81.4235      40.9825      50.9356       0.1111       3.3364       2.5948       7.3181    -254.6801
   2096.4148       6.6840       0.0350    -999.2500      35.7190    -999.2500    -999.2500      83.0500      42.0730      49.0820       0.1058       3.4100       2.5460       7.4130    -255.3880
   2096.5671       6.6860       0.0355    -999.2500      35.7135    -999.2500    -999.2500     105.7191      53.5703      44.8891       0.0980       3.3487       2.5882       7.6364    -256.5931
   2096.7195       6.6880       0.0360    -999.2500      35.7080    -999.2500    -999.2500     128.1030      64.9230      40.7490       0.0891       3.2880       2.6300       7.8570    -257.7830
   2096.8718       6.7161       0.0415    -999.2500      34.3319    -999.2500    -999.2500     124.6973      64.3892      35.8756       0.0798       3.3076       2.6280       7.9289    -258.7027
   2097.0242       6.7440       0.0470    -999.2500      32.9730    -999.2500    -999.2500     121.3340      63.8620      31.0630       0.0725       3.3270       2.6260       8.0000    -259.6110
   2097.1768       6.7314       0.0842    -999.2500      28.9462    -999.2500    -999.2500     121.7028      62.3799      34.5933       0.0707       3.3210       2.6144       8.0000    -260.1151
   2097.3291       6.7190       0.1210    -999.2500      24.9690    -999.2500    -999.2500     122.0670      60.9160      38.0800       0.0719       3.3150       2.6030       8.0000    -260.6130
   2097.4814       6.7265       0.1728    -999.2500      26.5723    -999.2500    -999.2500     118.9092      58.5742      54.7825       0.0753       3.2693       2.6311       8.0065    -261.1739
   2097.6338       6.7340       0.2240    -999.2500      28.1560    -999.2500    -999.2500     115.7900      56.2610      71.2810       0.0795       3.2240       2.6590       8.0130    -261.7280
   2097.7864       6.7134       0.1817    -999.2500      27.5876    -999.2500    -999.2500     102.8715      49.8251      62.5447       0.0836       3.3179       2.6826       8.1117    -262.6828
   2097.9387       6.6930       0.1400    -999.2500      27.0260    -999.2500    -999.2500      90.1090      43.4670      53.9140       0.0878       3.4110       2.7060       8.2090    -263.6260
   2098.0911       6.6689       0.0771    -999.2500      25.8872    -999.2500    -999.2500      74.1897      36.0235      35.0451       0.0923       3.2287       2.5669       8.4652    -264.3302
   2098.2434       6.6450       0.0150    -999.2500      24.7620    -999.2500    -999.2500      58.4610      28.6690      16.4020       0.0975       3.0480       2.4290       8.7180    -265.0260
   2098.3960       6.6455       0.0482    -999.2500      23.6791    -999.2500    -999.2500      59.7738      29.1926      18.9209       0.1045       3.2710       2.4390       9.0744    -265.6170
