#------------------------------------------------------------------------------
#
#   Created by  : [OpenWorks] Log Export Utility (LEXP)
#   Created on  : 2016-05-23 17:52:13
#   Project     : CANT971
#   User        : R5K
#   Interpreter : PEP
#
#------------------------------------------------------------------------------
~VERSION INFORMATION
VERS. 2.0 : CWLS Log ASCII Standard - version 2.0
WRAP.  NO : One line per depth step
~WELL INFORMATION
#MNEMONIC   .UNIT                                           VALUE :DESCRIPTION
#------------------------------------------------------------------------------
STRT        .M                                           632.7651 :START DEPTH
STOP        .M                                          2429.8660 :STOP DEPTH
STEP        .M                                             0.1524 :STEP
NULL        .                                           -999.2500 :NULL VALUE
COMP        .                                   PEMEX EXPL & PROD :COMPANY
WELL        .                                                  72 :WELL
FLD         .                                           CANTARELL :FIELD
LOC         .                                             UNKNOWN :LOCATION
CNTY        .                                      CD. DEL CARMEN :COUNTY
STAT        .                                            CAMPECHE :STATE
CTRY        .                                              MEXICO :COUNTRY
SRVC        .                                             UNKNOWN :SERVICE COMPANY
DATE        .                                             UNKNOWN :LOG DATE
UWI         .                                          3060000469 :UNIQUE WELL ID
XCOORD      .                                       598503.510000 :SURFACE X
YCOORD      .                                      2149271.040000 :SURFACE Y
LAT         .                                           19.436542 :LATITUDE
LON         .                                          -92.061672 :LONGITUDE
ELEV        .M                                            27.6000 :SURFACE ELEV
ELEV_TYPE   .                                                  KB :ELEV TYPE
~CURVE INFORMATION
#MNEMONIC.UNIT        API CODE       : CURVE DESCRIPTION
#------------------------------------------------------------------------------
DEPTH    .M                          : Measured Depth
CALI     .inches      UNKNOWN        : CALI:registros:rC:NONE:v0 (auto-composite)
DRHO     .g/cm3       UNKNOWN        : DRHO:registros:rC:NONE:v0 (auto-composite)
DT       .us/ft       UNKNOWN        : DT:registros:rC:NONE:v0 (auto-composite)
GR       .API         UNKNOWN        : GR:registros:rC:NONE:v0 (auto-composite)
ILD      .ohm.m       UNKNOWN        : ILD:registros:rC:NONE:v0 (auto-composite)
ILM      .ohm.m       UNKNOWN        : ILM:registros:rC:NONE:v0 (auto-composite)
LLD      .ohm.m       UNKNOWN        : LLD:registros:rC:NONE:v0 (auto-composite)
LLS      .ohm.m       UNKNOWN        : LLS:registros:rC:NONE:v0 (auto-composite)
MSFL     .ohm.m       UNKNOWN        : MSFL:registros:rC:NONE:v0 (auto-composite)
NPHI     .UNKNOWN     UNKNOWN        : NPHI:registros:rC:NONE:v0 (auto-composite)
PEF      .UNKNOWN     UNKNOWN        : PEF:registros:rC:NONE:v0 (auto-composite)
RHOB     .g/cm3       UNKNOWN        : RHOB:registros:rC:NONE:v0 (auto-composite)
SIGM     .UNKNOWN     UNKNOWN        : SIGM:registros:rC:NONE:v0 (auto-composite)
SP       .mV          UNKNOWN        : SP:registros:rC:NONE:v0 (auto-composite)
~A     DEPTH         CALI         DRHO           DT           GR          ILD          ILM          LLD          LLS         MSFL         NPHI          PEF         RHOB         SIGM           SP
# ...
   1560.8811       8.7870       0.0210    -999.2500      45.7030    -999.2500    -999.2500    2479.0791     708.2840    -999.2500       0.0061       3.2010       2.6330       7.6670      37.2190
   1561.0334       8.7840       0.0290    -999.2500      42.9430    -999.2500    -999.2500    2247.8057     743.9903    -999.2500       0.0072       3.1845       2.6445       7.7113      36.4141
   1561.1859       8.7810       0.0370    -999.2500      40.2100    -999.2500    -999.2500    2018.4340     779.4030    -999.2500       0.0083       3.1680       2.6560       7.7550      35.6170
   1561.3383       8.7830       0.0300    -999.2500      38.6128    -999.2500    -999.2500    1834.2572     747.6327    -999.2500       0.0079       3.0589       2.6320       7.8390      33.4319
   1561.4907       8.7850       0.0230    -999.2500      37.0310    -999.2500    -999.2500    1651.7190     716.1450    -999.2500       0.0076       2.9500       2.6080       7.9220      31.2680
   1561.6431       8.7870       0.0265    -999.2500      37.2666    -999.2500    -999.2500    1453.5852     643.2380    -999.2500       0.0072       3.0236       2.6225       7.9612      27.7919
   1561.7955       8.7890       0.0300    -999.2500      37.5000    -999.2500    -999.2500    1257.3459     571.0280    -999.2500       0.0068       3.0970       2.6370       8.0000      24.3490
   1561.9479       8.8025       0.0410    -999.2500      38.5073    -999.2500    -999.2500    1180.5863     525.8192    -999.2500       0.0056       3.2286       2.6890       7.9613      22.4078
   1562.1002       8.8160       0.0520    -999.2500      39.5050    -999.2500    -999.2500    1104.5510     481.0370    -999.2500       0.0045       3.3600       2.7410       7.9230      20.4850
   1562.2527       8.8025       0.0490    -999.2500      40.0912    -999.2500    -999.2500    1149.3506     482.5355    -999.2500       0.0048       3.2994       2.7245       7.8319      19.6607
   1562.4050       8.7890       0.0460    -999.2500      40.6720    -999.2500    -999.2500    1193.7330     484.0200    -999.2500       0.0050       3.2390       2.7080       7.7420      18.8440
   1562.5575       8.7890       0.0440    -999.2500      40.0064    -999.2500    -999.2500    1291.2903     499.1535    -999.2500       0.0059       3.1974       2.6890       7.6409      19.7281
   1562.7098       8.7890       0.0420    -999.2500      39.3470    -999.2500    -999.2500    1387.9510     514.1480    -999.2500       0.0068       3.1560       2.6700       7.5410      20.6040
   1562.8623       8.7890       0.0410    -999.2500      38.9159    -999.2500    -999.2500    1698.9335     605.3102    -999.2500       0.0065       3.1119       2.6810       7.4364      22.5265
   1563.0146       8.7890       0.0400    -999.2500      38.4890    -999.2500    -999.2500    2007.0970     695.6460    -999.2500       0.0062       3.0680       2.6920       7.3330      24.4300
   1563.1671       8.7890       0.0445    -999.2500      37.6933    -999.2500    -999.2500    2327.4338     805.8320    -999.2500       0.0057       3.0264       2.7115       7.3662      26.8678
   1563.3195       8.7890       0.0490    -999.2500      36.9060    -999.2500    -999.2500    2644.9070     915.0330    -999.2500       0.0053       2.9850       2.7310       7.3990      29.2800
   1563.4719       8.7890       0.0570    -999.2500      39.2778    -999.2500    -999.2500    2307.4070     827.4219    -999.2500       0.0058       3.1607       2.7505       7.4664      31.6096
   1563.6243       8.7890       0.0650    -999.2500      41.6250    -999.2500    -999.2500    1972.8820     740.5830    -999.2500       0.0063       3.3360       2.7700       7.5330      33.9150
   1563.7767       8.7890       0.0785    -999.2500      41.4235    -999.2500    -999.2500    1644.5071     627.4228    -999.2500       0.0073       3.2264       2.7855       7.6140      35.6374
   1563.9291       8.7890       0.0920    -999.2500      41.2240    -999.2500    -999.2500    1318.9860     515.2460    -999.2500       0.0083       3.1170       2.8010       7.6940      37.3420
   1564.0814       8.7905       0.0910    -999.2500      40.3295    -999.2500    -999.2500    1417.7906     604.6429    -999.2500       0.0104       3.1610       2.8105       7.8217      37.6938
   1564.2339       8.7920       0.0900    -999.2500      39.4440    -999.2500    -999.2500    1515.7490     693.2740    -999.2500       0.0124       3.2050       2.8200       7.9480      38.0420
   1564.3862       8.8120       0.0855    -999.2500      38.3460    -999.2500    -999.2500    1473.2898     658.4023    -999.2500       0.0083       3.4488       2.8145       7.9244      39.3757
   1564.5387       8.8320       0.0810    -999.2500      37.2590    -999.2500    -999.2500    1431.1890     623.8250    -999.2500       0.0043       3.6920       2.8090       7.9010      40.6960
   1564.6910       8.8280       0.0715    -999.2500      35.9395    -999.2500    -999.2500    1182.0760     515.2595    -999.2500       0.0042       3.5589       2.7840       7.7833      42.7110
   1564.8435       8.8240       0.0620    -999.2500      34.6330    -999.2500    -999.2500     935.0350     407.5970    -999.2500       0.0043       3.4260       2.7590       7.6670      44.7060
   1564.9958       8.8365       0.0545    -999.2500      32.5408    -999.2500    -999.2500     950.2418     355.9705    -999.2500       0.0048       3.4770       2.7325       7.6670      45.4225
   1565.1483       8.8490       0.0470    -999.2500      30.4690    -999.2500    -999.2500     965.3240     304.7670    -999.2500       0.0053       3.5280       2.7060       7.6670      46.1320
   1565.3007       8.8895       0.0334    -999.2500      30.7363    -999.2500    -999.2500    1063.7528     307.3454    -999.2500       0.0052       3.3483       2.7080       7.6670      48.6426
   1565.4531       8.9300       0.0200    -999.2500      31.0010    -999.2500    -999.2500    1161.3090     309.9010    -999.2500       0.0051       3.1690       2.7100       7.6670      51.1290
   1565.6055       8.9300       0.0225    -999.2500      33.3457    -999.2500    -999.2500    1379.0452     325.9143    -999.2500       0.0048       3.1875       2.7170       7.6670      54.1474
   1565.7579       8.9300       0.0250    -999.2500      35.6680    -999.2500    -999.2500    1594.7061     341.7750    -999.2500       0.0045       3.2060       2.7240       7.6670      57.1370
   1565.9103       8.9300       0.0320    -999.2500      38.8334    -999.2500    -999.2500    2091.0696     372.7035    -999.2500       0.0046       3.3427       2.7300       7.6670      59.2188
   1566.0626       8.9300       0.0390    -999.2500      41.9690    -999.2500    -999.2500    2582.7639     403.3410    -999.2500       0.0047       3.4790       2.7360       7.6670      61.2810
   1566.2151       8.9630       0.0455    -999.2500      41.6550    -999.2500    -999.2500    2503.9531     384.7532    -999.2500       0.0050       3.4530       2.7425       7.6670      60.8440
   1566.3674       8.9960       0.0520    -999.2500      41.3440    -999.2500    -999.2500    2425.8740     366.3380    -999.2500       0.0052       3.4270       2.7490       7.6670      60.4110
   1566.5199       8.9865       0.0565    -999.2500      41.4460    -999.2500    -999.2500    2232.6306     328.9237    -999.2500       0.0049       3.2422       2.7460       7.6670      58.9162
   1566.6722       8.9770       0.0610    -999.2500      41.5470    -999.2500    -999.2500    2041.1570     291.8520    -999.2500       0.0045       3.0580       2.7430       7.6670      57.4350
   1566.8247       8.9940       0.0590    -999.2500      41.2129    -999.2500    -999.2500    2412.4062     342.6032    -999.2500       0.0047       3.1797       2.7345       7.6756      55.4457
   1566.9771       9.0110       0.0570    -999.2500      40.8820    -999.2500    -999.2500    2780.3020     392.8960    -999.2500       0.0049       3.3010       2.7260       7.6840      53.4760
   1567.1295       9.0405       0.0510    -999.2500      39.5043    -999.2500    -999.2500    2707.7593     382.2792    -999.2500       0.0046       3.2640       2.7180       7.7600      51.3282
