#------------------------------------------------------------------------------
#
#   Created by  : [OpenWorks] Log Export Utility (LEXP)
#   Created on  : 2016-05-23 17:52:13
#   Project     : CANT971
#   User        : R5K
#   Interpreter : PEP
#
#------------------------------------------------------------------------------
~VERSION INFORMATION
VERS. 2.0 : CWLS Log ASCII Standard - version 2.0
WRAP.  NO : One line per depth step
~WELL INFORMATION
#MNEMONIC   .UNIT                                           VALUE :DESCRIPTION
#------------------------------------------------------------------------------
STRT        .M                                           632.7651 :START DEPTH
STOP        .M                                          2429.8660 :STOP DEPTH
STEP        .M                                             0.1524 :STEP
NULL        .                                           -999.2500 :NULL VALUE
COMP        .                                   PEMEX EXPL & PROD :COMPANY
WELL        .                                                  72 :WELL
FLD         .                                           CANTARELL :FIELD
LOC         .                                             UNKNOWN :LOCATION
CNTY        .                                      CD. DEL CARMEN :COUNTY
STAT        .                                            CAMPECHE :STATE
CTRY        .                                              MEXICO :COUNTRY
SRVC        .                                             UNKNOWN :SERVICE COMPANY
DATE        .                                             UNKNOWN :LOG DATE
UWI         .                                          3060000469 :UNIQUE WELL ID
XCOORD      .                                       598503.510000 :SURFACE X
YCOORD      .                                      2149271.040000 :SURFACE Y
LAT         .                                           19.436542 :LATITUDE
LON         .                                          -92.061672 :LONGITUDE
ELEV        .M                                            27.6000 :SURFACE ELEV
ELEV_TYPE   .                                                  KB :ELEV TYPE
~CURVE INFORMATION
#MNEMONIC.UNIT        API CODE       : CURVE DESCRIPTION
#------------------------------------------------------------------------------
DEPTH    .M                          : Measured Depth
CALI     .inches      UNKNOWN        : CALI:registros:rC:NONE:v0 (auto-composite)
DRHO     .g/cm3       UNKNOWN        : DRHO:registros:rC:NONE:v0 (auto-composite)
DT       .us/ft       UNKNOWN        : DT:registros:rC:NONE:v0 (auto-composite)
GR       .API         UNKNOWN        : GR:registros:rC:NONE:v0 (auto-composite)
ILD      .ohm.m       UNKNOWN        : ILD:registros:rC:NONE:v0 (auto-composite)
ILM      .ohm.m       UNKNOWN        : ILM:registros:rC:NONE:v0 (auto-composite)
LLD      .ohm.m       UNKNOWN        : LLD:registros:rC:NONE:v0 (auto-composite)
LLS      .ohm.m       UNKNOWN        : LLS:registros:rC:NONE:v0 (auto-composite)
MSFL     .ohm.m       UNKNOWN        : MSFL:registros:rC:NONE:v0 (auto-composite)
NPHI     .UNKNOWN     UNKNOWN        : NPHI:registros:rC:NONE:v0 (auto-composite)
PEF      .UNKNOWN     UNKNOWN        : PEF:registros:rC:NONE:v0 (auto-composite)
RHOB     .g/cm3       UNKNOWN        : RHOB:registros:rC:NONE:v0 (auto-composite)
SIGM     .UNKNOWN     UNKNOWN        : SIGM:registros:rC:NONE:v0 (auto-composite)
SP       .mV          UNKNOWN        : SP:registros:rC:NONE:v0 (auto-composite)
~A     DEPTH         CALI         DRHO           DT           GR          ILD          ILM          LLD          LLS         MSFL         NPHI          PEF         RHOB         SIGM           SP
# ...
   2360.9810       6.1020       0.0160      61.0330      50.3020    -999.2500    -999.2500      52.7280      41.5850      88.4370       0.1162       3.0800       2.6050       9.5180    -252.3750
   2361.1335       6.1156       0.0452      62.1494      47.4746    -999.2500    -999.2500      60.8895      48.5279      64.5482       0.1160       3.1238       2.6347       9.3473    -252.5794
   2361.2859       6.1290       0.0740      63.2500      44.6870    -999.2500    -999.2500      68.9360      55.3730      40.9960       0.1136       3.1670       2.6640       9.1790    -252.7810
   2361.4382       6.0993       0.0503      62.0355      39.8014    -999.2500    -999.2500      93.1061      95.1188      42.3172       0.1039       3.2888       2.7012       8.9212    -253.5207
   2361.5906       6.0700       0.0270      60.8380      34.9840    -999.2500    -999.2500     116.9390     134.3100      43.6200       0.0943       3.4090       2.7380       8.6670    -254.2500
   2361.7432       6.0710       0.0381      59.1256      35.1602    -999.2500    -999.2500     142.7345     134.0935      90.1002       0.0919       3.5267       2.7360       8.3453    -254.0612
   2361.8955       6.0720       0.0490      57.4370      35.3340    -999.2500    -999.2500     168.1730     133.8800     135.9370       0.0921       3.6430       2.7340       8.0280    -253.8750
   2362.0479       6.0831       0.0465      56.8837      37.3684    -999.2500    -999.2500     154.9081     113.1303     105.2638       0.0905       3.5816       2.7310       8.0592    -254.0381
   2362.2002       6.0940       0.0440      56.3380      39.3750    -999.2500    -999.2500     141.8250      92.6650      75.0110       0.0844       3.5210       2.7280       8.0900    -254.1990
   2362.3528       6.0754       0.0289      54.8937      38.5459    -999.2500    -999.2500     145.7738      94.5191      44.3516       0.0710       3.5492       2.7310       8.2657    -254.5469
   2362.5051       6.0570       0.0140      53.4690      37.7280    -999.2500    -999.2500     149.6690      96.3480      14.1090       0.0584       3.5770       2.7340       8.4390    -254.8900
   2362.6575       6.0807       0.0195      53.4997      30.8885    -999.2500    -999.2500     214.9876     135.0515      46.9868       0.0549       3.5579       2.7441       8.9761    -255.2323
   2362.8098       6.1040       0.0250      53.5300      24.1410    -999.2500    -999.2500     279.4270     173.2340      79.4220       0.0563       3.5390       2.7540       9.5060    -255.5700
   2362.9622       6.0869       0.0532      54.2161      24.8709    -999.2500    -999.2500     269.3825     171.7571      42.9481       0.0587       3.4962       2.7464       9.9807    -256.6079
   2363.1147       6.0700       0.0810      54.8930      25.5910    -999.2500    -999.2500     259.4720     170.3000       6.9610       0.0611       3.4540       2.7390      10.4490    -257.6320
   2363.2671       6.1027       0.0765      55.6077      27.9058    -999.2500    -999.2500     244.7835     165.3196      12.9858       0.0628       3.3282       2.7325      10.3141    -258.0135
   2363.4194       6.1350       0.0720      56.3130      30.1900    -999.2500    -999.2500     230.2890     160.4050      18.9310       0.0657       3.2040       2.7260      10.1810    -258.3900
   2363.5718       6.1053       0.0403      56.2184      39.1713    -999.2500    -999.2500     215.1257     152.2209      41.2084       0.0716       3.2830       2.7079       9.9369    -259.0433
   2363.7244       6.0760       0.0090      56.1250      48.0350    -999.2500    -999.2500     200.1610     144.1440      63.1940       0.0798       3.3610       2.6900       9.6960    -259.6880
   2363.8767       6.0851       0.0115      56.8170      68.2420    -999.2500    -999.2500     183.5891     132.3294     137.0442       0.0896       3.3353       2.6729       9.5415    -260.8400
   2364.0291       6.0940       0.0140      57.5000      88.1870    -999.2500    -999.2500     167.2320     120.6680     209.9370       0.0940       3.3100       2.6560       9.3890    -261.9770
   2364.1814       6.1312       0.0125      57.1971      84.5833    -999.2500    -999.2500     174.0906     125.0929     207.4998       0.0860       3.3241       2.6671       9.4489    -263.1194
   2364.3340       6.1680       0.0110      56.8980      81.0260    -999.2500    -999.2500     180.8610     129.4610     205.0940       0.0763       3.3380       2.6780       9.5080    -264.2470
   2364.4863       6.0699       0.0362      56.0395      73.7731    -999.2500    -999.2500     210.5523     148.2429     111.5377       0.0753       3.3682       2.7011       9.3534    -265.2280
   2364.6387       5.9730       0.0610      55.1920      66.6240    -999.2500    -999.2500     239.8660     166.7860      19.3200       0.0773       3.3980       2.7240       9.2010    -266.1950
   2364.7910       6.0389       0.0575      53.5703      63.0613    -999.2500    -999.2500     230.8889     158.9315      37.4842       0.0771       3.3920       2.7381       9.2040    -267.3678
   2364.9434       6.1040       0.0540      51.9690      59.5490    -999.2500    -999.2500     222.0250     151.1760      55.3910       0.0742       3.3860       2.7520       9.2070    -268.5240
   2365.0959       6.0693       0.0384      52.4645      53.3545    -999.2500    -999.2500     223.4032     152.2803      45.5362       0.0679       3.2652       2.7631       9.2579    -271.5331
   2365.2483       6.0350       0.0230      52.9530      47.2470    -999.2500    -999.2500     224.7620     153.3690      35.8200       0.0620       3.1460       2.7740       9.3080    -274.5000
   2365.4006       6.0823       0.0165      51.1041      44.3206    -999.2500    -999.2500     273.1333     190.9089      87.1383       0.0605       3.1681       2.7891       9.2038    -274.5000
   2365.5530       6.1290       0.0100      49.2810      41.4350    -999.2500    -999.2500     320.8310     227.9260     137.7420       0.0623       3.1900       2.8040       9.1010    -274.5000
   2365.7056       6.0767       0.0135      51.7118      40.4749    -999.2500    -999.2500     318.0015     225.8643     262.1678       0.0666       3.2126       2.7934       8.9263    -275.0035
   2365.8579       6.0250       0.0170      54.1090      39.5280    -999.2500    -999.2500     315.2110     223.8310     384.8750       0.0705       3.2350       2.7830       8.7540    -275.5000
   2366.0103       6.0547       0.0331      53.7475      38.3892    -999.2500    -999.2500     272.1103     194.9505     281.4648       0.0711       3.2234       2.7885       8.6473    -274.9966
   2366.1626       6.0840       0.0490      53.3910      37.2660    -999.2500    -999.2500     229.5990     166.4650     179.4690       0.0692       3.2120       2.7940       8.5420    -274.5000
   2366.3152       6.0291       0.0450      53.8597      35.8655    -999.2500    -999.2500     235.7180     170.7430     198.6143       0.0654       3.3142       2.7854       8.6764    -274.6259
   2366.4675       5.9750       0.0410      54.3220      34.4840    -999.2500    -999.2500     241.7540     174.9630     217.5000       0.0621       3.4150       2.7770       8.8090    -274.7500
   2366.6199       5.9795       0.0319      55.2215      35.0553    -999.2500    -999.2500     262.2431     184.3022     199.4553       0.0617       3.4009       2.7569       9.0491    -274.1208
   2366.7722       5.9840       0.0230      56.1090      35.6190    -999.2500    -999.2500     282.4570     193.5160     181.6530       0.0646       3.3870       2.7370       9.2860    -273.5000
   2366.9246       5.9991       0.0154      55.7083      37.8478    -999.2500    -999.2500     266.7675     183.3136     141.5958       0.0712       3.2164       2.7164       9.2145    -273.9480
   2367.0771       6.0140       0.0080      55.3130      40.0470    -999.2500    -999.2500     251.2870     173.2470     102.0720       0.0774       3.0480       2.6960       9.1440    -274.3900
   2367.2295       6.1595       0.0211      56.6971      39.3786    -999.2500    -999.2500     251.5835     173.5711      68.7459       0.0792       3.0908       2.7186       8.9412    -275.3554
