#------------------------------------------------------------------------------
#
#   Created by  : [OpenWorks] Log Export Utility (LEXP)
#   Created on  : 2016-05-23 17:52:13
#   Project     : CANT971
#   User        : R5K
#   Interpreter : PEP
#
#------------------------------------------------------------------------------
~VERSION INFORMATION
VERS. 2.0 : CWLS Log ASCII Standard - version 2.0
WRAP.  NO : One line per depth step
~WELL INFORMATION
#MNEMONIC   .UNIT                                           VALUE :DESCRIPTION
#------------------------------------------------------------------------------
STRT        .M                                           632.7651 :START DEPTH
STOP        .M                                          2429.8660 :STOP DEPTH
STEP        .M                                             0.1524 :STEP
NULL        .                                           -999.2500 :NULL VALUE
COMP        .                                   PEMEX EXPL & PROD :COMPANY
WELL        .                                                  72 :WELL
FLD         .                                           CANTARELL :FIELD
LOC         .                                             UNKNOWN :LOCATION
CNTY        .                                      CD. DEL CARMEN :COUNTY
STAT        .                                            CAMPECHE :STATE
CTRY        .                                              MEXICO :COUNTRY
SRVC        .                                             UNKNOWN :SERVICE COMPANY
DATE        .                                             UNKNOWN :LOG DATE
UWI         .                                          3060000469 :UNIQUE WELL ID
XCOORD      .                                       598503.510000 :SURFACE X
YCOORD      .                                      2149271.040000 :SURFACE Y
LAT         .                                           19.436542 :LATITUDE
LON         .                                          -92.061672 :LONGITUDE
ELEV        .M                                            27.6000 :SURFACE ELEV
ELEV_TYPE   .                                                  KB :ELEV TYPE
~CURVE INFORMATION
#MNEMONIC.UNIT        API CODE       : CURVE DESCRIPTION
#------------------------------------------------------------------------------
DEPTH    .M                          : Measured Depth
CALI     .inches      UNKNOWN        : CALI:registros:rC:NONE:v0 (auto-composite)
DRHO     .g/cm3       UNKNOWN        : DRHO:registros:rC:NONE:v0 (auto-composite)
DT       .us/ft       UNKNOWN        : DT:registros:rC:NONE:v0 (auto-composite)
GR       .API         UNKNOWN        : GR:registros:rC:NONE:v0 (auto-composite)
ILD      .ohm.m       UNKNOWN        : ILD:registros:rC:NONE:v0 (auto-composite)
ILM      .ohm.m       UNKNOWN        : ILM:registros:rC:NONE:v0 (auto-composite)
LLD      .ohm.m       UNKNOWN        : LLD:registros:rC:NONE:v0 (auto-composite)
LLS      .ohm.m       UNKNOWN        : LLS:registros:rC:NONE:v0 (auto-composite)
MSFL     .ohm.m       UNKNOWN        : MSFL:registros:rC:NONE:v0 (auto-composite)
NPHI     .UNKNOWN     UNKNOWN        : NPHI:registros:rC:NONE:v0 (auto-composite)
PEF      .UNKNOWN     UNKNOWN        : PEF:registros:rC:NONE:v0 (auto-composite)
RHOB     .g/cm3       UNKNOWN        : RHOB:registros:rC:NONE:v0 (auto-composite)
SIGM     .UNKNOWN     UNKNOWN        : SIGM:registros:rC:NONE:v0 (auto-composite)
SP       .mV          UNKNOWN        : SP:registros:rC:NONE:v0 (auto-composite)
~A     DEPTH         CALI         DRHO           DT           GR          ILD          ILM          LLD          LLS         MSFL         NPHI          PEF         RHOB         SIGM           SP
# ...
   1957.7307       6.5590       0.0500    -999.2500      28.0130    -999.2500    -999.2500     345.4980     138.9070      85.3130       0.0411       3.2210       2.7640       7.0000    -255.3750
   1957.8831       6.5700       0.0575    -999.2500      32.8473    -999.2500    -999.2500     308.0187     120.0316      86.0984       0.0454       3.2300       2.7520       7.0000    -255.5098
   1958.0355       6.5810       0.0650    -999.2500      37.6270    -999.2500    -999.2500     270.9620     101.3690      86.8750       0.0509       3.2390       2.7400       7.0000    -255.6430
   1958.1879       6.6131       0.0544    -999.2500      45.1333    -999.2500    -999.2500     283.2198     104.0494      82.7093       0.0571       3.2782       2.7264       6.9602    -255.9135
   1958.3403       6.6450       0.0440    -999.2500      52.5560    -999.2500    -999.2500     295.3410     106.7000      78.5900       0.0629       3.3170       2.7130       6.9210    -256.1810
   1958.4927       6.6164       0.0319    -999.2500      54.4132    -999.2500    -999.2500     285.4485     104.2042      75.3931       0.0675       3.2086       2.6949       6.8435    -256.6370
   1958.6450       6.5880       0.0200    -999.2500      56.2500    -999.2500    -999.2500     275.6650     101.7360      72.2340       0.0714       3.1010       2.6770       6.7670    -257.0880
   1958.7975       6.6086       0.0245    -999.2500      55.4996    -999.2500    -999.2500     262.6948      97.3471      60.5053       0.0751       3.1351       2.6564       6.7207    -258.6149
   1958.9498       6.6290       0.0290    -999.2500      54.7580    -999.2500    -999.2500     249.8660      93.0060      48.9230       0.0777       3.1690       2.6360       6.6750    -260.1240
   1959.1023       6.5653       0.0345    -999.2500      50.1943    -999.2500    -999.2500     239.0090      88.5384      36.2034       0.0776       3.0782       2.6084       6.6574    -261.7631
   1959.2546       6.5020       0.0400    -999.2500      45.6870    -999.2500    -999.2500     228.2690      84.1190      23.6410       0.0772       2.9880       2.5810       6.6400    -263.3820
   1959.4071       6.5316       0.0480    -999.2500      45.8198    -999.2500    -999.2500     220.9651      81.2708      24.3448       0.0782       2.8164       2.5830       6.5188    -264.3826
   1959.5594       6.5610       0.0560    -999.2500      45.9510    -999.2500    -999.2500     213.7390      78.4530      25.0400       0.0792       2.6460       2.5850       6.3990    -265.3710
   1959.7119       6.5058       0.0495    -999.2500      46.6829    -999.2500    -999.2500     215.1856      77.5814      27.6423       0.0786       2.6540       2.5925       6.4116    -266.5677
   1959.8643       6.4510       0.0430    -999.2500      47.4060    -999.2500    -999.2500     216.6170      76.7190      30.2130       0.0771       2.6620       2.6000       6.4240    -267.7500
   1960.0167       6.4555       0.0269    -999.2500      46.7636    -999.2500    -999.2500     220.2765      75.8510      33.3096       0.0745       2.7062       2.6125       6.4728    -267.2948
   1960.1691       6.4600       0.0110    -999.2500      46.1290    -999.2500    -999.2500     223.8980      74.9920      36.3690       0.0712       2.7500       2.6250       6.5210    -266.8450
   1960.3215       6.4771       0.0175    -999.2500      43.7977    -999.2500    -999.2500     227.8293      75.7442      56.0513       0.0670       2.9357       2.6541       6.6519    -265.1625
   1960.4739       6.4940       0.0240    -999.2500      41.4940    -999.2500    -999.2500     231.7170      76.4880      75.5000       0.0616       3.1200       2.6830       6.7810    -263.5000
   1960.6262       6.5176       0.0205    -999.2500      39.9343    -999.2500    -999.2500     241.5719      82.5174      54.5762       0.0541       3.0352       2.6705       7.0694    -264.2167
   1960.7787       6.5410       0.0170    -999.2500      38.3930    -999.2500    -999.2500     251.3110      88.4760      33.8980       0.0475       2.9510       2.6580       7.3540    -264.9250
   1960.9310       6.5340       0.0125    -999.2500      37.1784    -999.2500    -999.2500     241.0494      85.5857      46.5616       0.0459       3.0448       2.6731       7.6530    -266.0777
   1961.0835       6.5270       0.0080    -999.2500      35.9780    -999.2500    -999.2500     230.9070      82.7290      59.0780       0.0464       3.1380       2.6880       7.9480    -267.2170
   1961.2358       6.5656       0.0085    -999.2500      35.2976    -999.2500    -999.2500     207.5815      75.9033      58.2492       0.0480       3.1315       2.7016       7.7960    -268.3651
   1961.3883       6.6040       0.0090    -999.2500      34.6250    -999.2500    -999.2500     184.5240      69.1560      57.4300       0.0501       3.1250       2.7150       7.6460    -269.5000
   1961.5406       6.5538       0.0165    -999.2500      31.4233    -999.2500    -999.2500     161.6786      62.0255      41.1656       0.0528       2.9724       2.6959       7.1604    -270.4821
   1961.6931       6.5040       0.0240    -999.2500      28.2580    -999.2500    -999.2500     139.0930      54.9760      25.0860       0.0553       2.8210       2.6770       6.6810    -271.4530
   1961.8455       6.5166       0.0376    -999.2500      29.1027    -999.2500    -999.2500     142.3805      55.9862      25.3007       0.0569       2.8401       2.6840       6.7630    -272.2334
   1961.9979       6.5290       0.0510    -999.2500      29.9380    -999.2500    -999.2500     145.6310      56.9850      25.5130       0.0591       2.8590       2.6910       6.8440    -273.0050
   1962.1503       6.5561       0.0595    -999.2500      35.2344    -999.2500    -999.2500     152.8577      60.0289      32.6990       0.0640       2.9107       2.6860       6.8103    -274.5405
   1962.3027       6.5830       0.0680    -999.2500      40.4720    -999.2500    -999.2500     160.0040      63.0390      39.8050       0.0717       2.9620       2.6810       6.7770    -276.0590
   1962.4551       6.5971       0.0494    -999.2500      55.5061    -999.2500    -999.2500     163.1046      62.7670      28.9143       0.0853       3.0047       2.6398       6.6583    -278.6769
   1962.6074       6.6110       0.0310    -999.2500      70.3750    -999.2500    -999.2500     166.1710      62.4980      18.1520       0.0970       3.0470       2.5990       6.5410    -281.2660
   1962.7599       6.6215       0.0350    -999.2500      68.6695    -999.2500    -999.2500     179.1249      65.3259      28.1855       0.0968       3.0053       2.6166       6.2728    -284.0854
   1962.9122       6.6320       0.0390    -999.2500      66.9840    -999.2500    -999.2500     191.9380      68.1230      38.0940       0.0905       2.9640       2.6340       6.0080    -286.8720
   1963.0647       6.6450       0.0335    -999.2500      68.8057    -999.2500    -999.2500     220.5573      77.1792      36.8478       0.0776       3.0754       2.6315       6.1448    -290.1583
   1963.2170       6.6580       0.0280    -999.2500      70.6050    -999.2500    -999.2500     248.8690      86.1380      35.6170       0.0660       3.1860       2.6290       6.2800    -293.4040
   1963.3695       6.6761       0.0245    -999.2500      83.6320    -999.2500    -999.2500     257.6647      84.7732      41.9803       0.0649       3.3019       2.6426       6.4445    -294.5822
   1963.5219       6.6940       0.0210    -999.2500      96.5000    -999.2500    -999.2500     266.3670      83.4230      48.2660       0.0698       3.4170       2.6560       6.6070    -295.7460
   1963.6743       6.7241       0.0280    -999.2500      86.7104    -999.2500    -999.2500     245.9418      72.1875      38.1303       0.0826       3.3417       2.6525       6.7177    -299.7094
   1963.8267       6.7540       0.0350    -999.2500      77.0390    -999.2500    -999.2500     225.7310      61.0700      28.1170       0.0944       3.2670       2.6490       6.8270    -303.6250
   1963.9791       6.7490       0.0506    -999.2500      57.1425    -999.2500    -999.2500     227.1615      61.7588      17.1660       0.0957       3.1777       2.6214       6.7968    -303.3755
