#------------------------------------------------------------------------------
#
#   Created by  : [OpenWorks] Log Export Utility (LEXP)
#   Created on  : 2016-05-23 17:52:13
#   Project     : CANT971
#   User        : R5K
#   Interpreter : PEP
#
#------------------------------------------------------------------------------
~VERSION INFORMATION
VERS. 2.0 : CWLS Log ASCII Standard - version 2.0
WRAP.  NO : One line per depth step
~WELL INFORMATION
#MNEMONIC   .UNIT                                           VALUE :DESCRIPTION
#------------------------------------------------------------------------------
STRT        .M                                           632.7651 :START DEPTH
STOP        .M                                          2429.8660 :STOP DEPTH
STEP        .M                                             0.1524 :STEP
NULL        .                                           -999.2500 :NULL VALUE
COMP        .                                   PEMEX EXPL & PROD :COMPANY
WELL        .                                                  72 :WELL
FLD         .                                           CANTARELL :FIELD
LOC         .                                             UNKNOWN :LOCATION
CNTY        .                                      CD. DEL CARMEN :COUNTY
STAT        .                                            CAMPECHE :STATE
CTRY        .                                              MEXICO :COUNTRY
SRVC        .                                             UNKNOWN :SERVICE COMPANY
DATE        .                                             UNKNOWN :LOG DATE
UWI         .                                          3060000469 :UNIQUE WELL ID
XCOORD      .                                       598503.510000 :SURFACE X
YCOORD      .                                      2149271.040000 :SURFACE Y
LAT         .                                           19.436542 :LATITUDE
LON         .                                          -92.061672 :LONGITUDE
ELEV        .M                                            27.6000 :SURFACE ELEV
ELEV_TYPE   .                                                  KB :ELEV TYPE
~CURVE INFORMATION
#MNEMONIC.UNIT        API CODE       : CURVE DESCRIPTION
#------------------------------------------------------------------------------
DEPTH    .M                          : Measured Depth
CALI     .inches      UNKNOWN        : CALI:registros:rC:NONE:v0 (auto-composite)
DRHO     .g/cm3       UNKNOWN        : DRHO:registros:rC:NONE:v0 (auto-composite)
DT       .us/ft       UNKNOWN        : DT:registros:rC:NONE:v0 (auto-composite)
GR       .API         UNKNOWN        : GR:registros:rC:NONE:v0 (auto-composite)
ILD      .ohm.m       UNKNOWN        : ILD:registros:rC:NONE:v0 (auto-composite)
ILM      .ohm.m       UNKNOWN        : ILM:registros:rC:NONE:v0 (auto-composite)
LLD      .ohm.m       UNKNOWN        : LLD:registros:rC:NONE:v0 (auto-composite)
LLS      .ohm.m       UNKNOWN        : LLS:registros:rC:NONE:v0 (auto-composite)
MSFL     .ohm.m       UNKNOWN        : MSFL:registros:rC:NONE:v0 (auto-composite)
NPHI     .UNKNOWN     UNKNOWN        : NPHI:registros:rC:NONE:v0 (auto-composite)
PEF      .UNKNOWN     UNKNOWN        : PEF:registros:rC:NONE:v0 (auto-composite)
RHOB     .g/cm3       UNKNOWN        : RHOB:registros:rC:NONE:v0 (auto-composite)
SIGM     .UNKNOWN     UNKNOWN        : SIGM:registros:rC:NONE:v0 (auto-composite)
SP       .mV          UNKNOWN        : SP:registros:rC:NONE:v0 (auto-composite)
~A     DEPTH         CALI         DRHO           DT           GR          ILD          ILM          LLD          LLS         MSFL         NPHI          PEF         RHOB         SIGM           SP
# ...
   2226.5642       6.3790       0.0810      93.0170      49.6090    -999.2500    -999.2500     140.7880      67.7370      62.4840       0.0863       3.3420       2.8090      10.3870    -237.3210
   2226.7168       6.3805       0.0730     133.7493      48.5846    -999.2500    -999.2500     142.4265      64.6654      66.4561       0.0854       3.2329       2.7919      10.5682    -238.7013
   2226.8691       6.3820       0.0650     174.0000      47.5740    -999.2500    -999.2500     144.0430      61.6350      70.3750       0.0817       3.1250       2.7750      10.7470    -240.0630
   2227.0215       7.1128       0.0278     142.4085      44.1709    -999.2500    -999.2500     157.3197      64.1210      66.8360       0.0725       2.8484       2.6764      11.0072    -239.8581
   2227.1738       7.8350      -0.0090     111.1870      40.8130    -999.2500    -999.2500     170.4200      66.5740      63.3440       0.0615       2.5750       2.5790      11.2640    -239.6560
   2227.3262       9.7219      -0.0020     133.2030      41.5458    -999.2500    -999.2500     166.1358      66.2826      68.5815       0.0445       2.3683       2.2149      11.5650    -239.4376
   2227.4788      11.5870       0.0050     154.9290      42.2690    -999.2500    -999.2500     161.9080      65.9950      73.7500       0.0293       2.1640       1.8550      11.8620    -239.2220
   2227.6311      13.0549       0.0312     246.5617      46.7180    -999.2500    -999.2500     136.0696      58.6703      49.5181       0.0305       2.1323       1.8600      12.0985    -239.1933
   2227.7834      14.5060       0.0570     337.0000      51.1090    -999.2500    -999.2500     110.5680      51.4410      25.6020       0.0344       2.1010       1.8650      12.3320    -239.1650
   2227.9358      14.5145       0.0952     323.1606      50.4502    -999.2500    -999.2500      80.1424      39.5527      26.8048       0.0406       2.1095       1.8801      12.3245    -238.5158
   2228.0884      14.5230       0.1330     309.5000      49.8000    -999.2500    -999.2500      50.1100      27.8180      27.9920       0.0469       2.1180       1.8950      12.3170    -237.8750
   2228.2407      14.5250       0.1320     327.8191      47.5536    -999.2500    -999.2500      30.9898      17.8035      20.2123       0.0525       2.1079       1.8940      12.2642    -237.8971
   2228.3931      14.5270       0.1310     345.9040      45.3360    -999.2500    -999.2500      12.1140       7.9170      12.5320       0.0618       2.0980       1.8930      12.2120    -237.9190
   2228.5454      13.9242       0.1179     548.2341      41.3201    -999.2500    -999.2500      12.6907       8.3190       6.3438       0.0984       1.9844       1.8689      11.9539    -238.3331
   2228.6978      13.3280       0.1050     748.0000      37.3550    -999.2500    -999.2500      13.2600       8.7160       0.2340       0.1447       1.8720       1.8450      11.6990    -238.7420
   2228.8503      11.1837       0.1125     722.3281      34.1680    -999.2500    -999.2500      16.4897      10.7487       0.2355       0.2345       1.7202       1.7857      11.1204    -239.4379
   2229.0027       9.0630       0.1200     696.9780      31.0210    -999.2500    -999.2500      19.6790      12.7560       0.2370       0.3175       1.5700       1.7270      10.5500    -240.1250
   2229.1550       9.1042       0.1507     603.3463      29.6621    -999.2500    -999.2500      26.6206      17.1176       0.4569       0.3146       1.6313       1.7572       9.9876    -240.0370
   2229.3074       9.1450       0.1810     510.8780      28.3200    -999.2500    -999.2500      33.4760      21.4250       0.6740       0.2981       1.6920       1.7870       9.4330    -239.9500
   2229.4600       9.0244       0.1755     428.6995      29.9138    -999.2500    -999.2500      41.3600      26.5409       0.6423       0.2702       1.9428       1.8559       9.4587    -239.3146
   2229.6123       8.9050       0.1700     347.5310      31.4880    -999.2500    -999.2500      49.1470      31.5940       0.6110       0.2401       2.1910       1.9240       9.4840    -238.6870
   2229.7646       8.4189       0.1957     268.8178      35.1332    -999.2500    -999.2500      52.6549      33.2672       0.7644       0.2045       2.8631       2.0899       9.6783    -238.7816
   2229.9170       7.9380       0.2210     191.0630      38.7340    -999.2500    -999.2500      56.1200      34.9200       0.9160       0.1680       3.5280       2.2540       9.8700    -238.8750
   2230.0696       7.4494       0.2190     204.2675      37.9778    -999.2500    -999.2500      60.6729      36.2646       1.6918       0.1275       3.5270       2.4892      10.1731    -238.6324
   2230.2219       6.9660       0.2170     217.3130      37.2320    -999.2500    -999.2500      65.1710      37.5930       2.4570       0.0913       3.5260       2.7220      10.4720    -238.3930
   2230.3743       6.7562       0.2009     200.9554      34.4960    -999.2500    -999.2500      64.6197      37.5895       7.0681       0.0886       3.5008       2.7180      10.3794    -237.7612
   2230.5266       6.5490       0.1850     184.7930      31.7970    -999.2500    -999.2500      64.0750      37.5860      11.6170       0.0914       3.4760       2.7140      10.2880    -237.1380
   2230.6790       6.5576       0.1513     145.3801      33.3871    -999.2500    -999.2500      57.4945      34.6327      45.0322       0.1020       3.2482       2.6924       9.8511    -236.3744
   2230.8315       6.5660       0.1180     106.4320      34.9560    -999.2500    -999.2500      51.0020      31.7190      78.0000       0.1119       3.0230       2.6710       9.4200    -235.6210
   2230.9839       6.5414       0.0939      83.9753      47.0345    -999.2500    -999.2500      52.1355      32.4604      40.7819       0.1100       3.0381       2.6811       9.4205    -233.5468
   2231.1362       6.5170       0.0700      61.7810      58.9530    -999.2500    -999.2500      53.2540      33.1920       4.0570       0.1055       3.0530       2.6910       9.4210    -231.5000
   2231.2886       6.4582       0.0398      71.8315      55.9473    -999.2500    -999.2500      68.7433      43.7292       7.7216       0.0922       3.1662       2.7182       9.4542    -232.0979
   2231.4412       6.4000       0.0100      81.7500      52.9810    -999.2500    -999.2500      84.0290      54.1280      11.3380       0.0783       3.2780       2.7450       9.4870    -232.6880
   2231.5935       6.3643       0.0145      80.7480      47.1164    -999.2500    -999.2500      99.4825      65.4154      17.6294       0.0686       3.2312       2.7556       9.4488    -233.5436
   2231.7458       6.3290       0.0190      79.7590      41.3280    -999.2500    -999.2500     114.7350      76.5560      23.8390       0.0607       3.1850       2.7660       9.4110    -234.3880
   2231.8982       6.2998       0.0346      77.0163      42.7602    -999.2500    -999.2500     122.5901      83.3367      35.0004       0.0623       3.0714       2.7690       9.1961    -235.2626
   2232.0508       6.2710       0.0500      74.3090      44.1740    -999.2500    -999.2500     130.3440      90.0300      46.0180       0.0651       2.9590       2.7720       8.9840    -236.1260
   2232.2031       6.2604       0.0500      71.2923      48.4110    -999.2500    -999.2500     118.8597      81.3416     125.1387       0.0688       3.0083       2.7821       8.5568    -237.1526
   2232.3555       6.2500       0.0500      68.3140      52.5940    -999.2500    -999.2500     107.5220      72.7640     203.2500       0.0724       3.0570       2.7920       8.1350    -238.1660
   2232.5078       6.2510       0.0394      64.3489      51.5937    -999.2500    -999.2500      85.6507      56.8308     128.1583       0.0743       3.1822       2.7855       8.1823    -239.0184
   2232.6602       6.2520       0.0290      60.4340      50.6060    -999.2500    -999.2500      64.0560      41.0990      54.0160       0.0755       3.3060       2.7790       8.2290    -239.8600
   2232.8127       6.2786       0.0335      55.4830      47.7074    -999.2500    -999.2500      65.7048      42.3081      92.9233       0.0727       3.4548       2.7629       8.5971    -240.2137
