#------------------------------------------------------------------------------
#
#   Created by  : [OpenWorks] Log Export Utility (LEXP)
#   Created on  : 2016-05-23 17:52:13
#   Project     : CANT971
#   User        : R5K
#   Interpreter : PEP
#
#------------------------------------------------------------------------------
~VERSION INFORMATION
VERS. 2.0 : CWLS Log ASCII Standard - version 2.0
WRAP.  NO : One line per depth step
~WELL INFORMATION
#MNEMONIC   .UNIT                                           VALUE :DESCRIPTION
#------------------------------------------------------------------------------
STRT        .M                                           632.7651 :START DEPTH
STOP        .M                                          2429.8660 :STOP DEPTH
STEP        .M                                             0.1524 :STEP
NULL        .                                           -999.2500 :NULL VALUE
COMP        .                                   PEMEX EXPL & PROD :COMPANY
WELL        .                                                  72 :WELL
FLD         .                                           CANTARELL :FIELD
LOC         .                                             UNKNOWN :LOCATION
CNTY        .                                      CD. DEL CARMEN :COUNTY
STAT        .                                            CAMPECHE :STATE
CTRY        .                                              MEXICO :COUNTRY
SRVC        .                                             UNKNOWN :SERVICE COMPANY
DATE        .                                             UNKNOWN :LOG DATE
UWI         .                                          3060000469 :UNIQUE WELL ID
XCOORD      .                                       598503.510000 :SURFACE X
YCOORD      .                                      2149271.040000 :SURFACE Y
LAT         .                                           19.436542 :LATITUDE
LON         .                                          -92.061672 :LONGITUDE
ELEV        .M                                            27.6000 :SURFACE ELEV
ELEV_TYPE   .                                                  KB :ELEV TYPE
~CURVE INFORMATION
#MNEMONIC.UNIT        API CODE       : CURVE DESCRIPTION
#------------------------------------------------------------------------------
DEPTH    .M                          : Measured Depth
CALI     .inches      UNKNOWN        : CALI:registros:rC:NONE:v0 (auto-composite)
DRHO     .g/cm3       UNKNOWN        : DRHO:registros:rC:NONE:v0 (auto-composite)
DT       .us/ft       UNKNOWN        : DT:registros:rC:NONE:v0 (auto-composite)
GR       .API         UNKNOWN        : GR:registros:rC:NONE:v0 (auto-composite)
ILD      .ohm.m       UNKNOWN        : ILD:registros:rC:NONE:v0 (auto-composite)
ILM      .ohm.m       UNKNOWN        : ILM:registros:rC:NONE:v0 (auto-composite)
LLD      .ohm.m       UNKNOWN        : LLD:registros:rC:NONE:v0 (auto-composite)
LLS      .ohm.m       UNKNOWN        : LLS:registros:rC:NONE:v0 (auto-composite)
MSFL     .ohm.m       UNKNOWN        : MSFL:registros:rC:NONE:v0 (auto-composite)
NPHI     .UNKNOWN     UNKNOWN        : NPHI:registros:rC:NONE:v0 (auto-composite)
PEF      .UNKNOWN     UNKNOWN        : PEF:registros:rC:NONE:v0 (auto-composite)
RHOB     .g/cm3       UNKNOWN        : RHOB:registros:rC:NONE:v0 (auto-composite)
SIGM     .UNKNOWN     UNKNOWN        : SIGM:registros:rC:NONE:v0 (auto-composite)
SP       .mV          UNKNOWN        : SP:registros:rC:NONE:v0 (auto-composite)
~A     DEPTH         CALI         DRHO           DT           GR          ILD          ILM          LLD          LLS         MSFL         NPHI          PEF         RHOB         SIGM           SP
# ...
   1759.3059       8.3450       0.0660    -999.2500     104.5310    -999.2500    -999.2500       8.0110       6.9920    -999.2500       0.1713       3.3200       2.4620      14.2430      49.0860
   1759.4583       8.3144       0.0575    -999.2500      98.1433    -999.2500    -999.2500       9.3540       8.0346    -999.2500       0.1492       3.5566       2.4896      13.8937      48.5434
   1759.6107       8.2840       0.0490    -999.2500      91.8280    -999.2500    -999.2500      10.6840       9.0670    -999.2500       0.1255       3.7920       2.5170      13.5490      48.0070
   1759.7631       8.2670       0.0420    -999.2500      82.4303    -999.2500    -999.2500      18.7498      15.0066    -999.2500       0.1074       4.3494       2.5611      13.4463      47.6264
   1759.9155       8.2500       0.0350    -999.2500      73.1380    -999.2500    -999.2500      26.7380      20.8890    -999.2500       0.0936       4.9040       2.6050      13.3450      47.2500
   1760.0679       8.2525       0.0234    -999.2500      66.4107    -999.2500    -999.2500      26.5084      20.7724    -999.2500       0.0990       4.8073       2.5804      12.8801      47.6728
   1760.2202       8.2550       0.0120    -999.2500      59.7580    -999.2500    -999.2500      26.2810      20.6570    -999.2500       0.1071       4.7110       2.5560      12.4210      48.0910
   1760.3727       8.2665       0.0140    -999.2500      53.3358    -999.2500    -999.2500      24.6699      18.8591    -999.2500       0.1129       4.5461       2.5405      12.4275      48.5993
   1760.5250       8.2780       0.0160    -999.2500      46.9840    -999.2500    -999.2500      23.0740      17.0780    -999.2500       0.1169       4.3820       2.5250      12.4340      49.1020
   1760.6775       8.3086       0.0210    -999.2500      48.8928    -999.2500    -999.2500      22.2226      17.2759    -999.2500       0.1136       4.3159       2.5295      12.9406      49.4343
   1760.8298       8.3390       0.0260    -999.2500      50.7810    -999.2500    -999.2500      21.3790      17.4720    -999.2500       0.1100       4.2500       2.5340      13.4410      49.7630
   1760.9823       8.3530       0.0360    -999.2500      50.5819    -999.2500    -999.2500      20.8227      17.0685    -999.2500       0.1124       4.2305       2.5465      14.0779      49.9530
   1761.1346       8.3670       0.0460    -999.2500      50.3850    -999.2500    -999.2500      20.2720      16.6690    -999.2500       0.1170       4.2110       2.5590      14.7070      50.1410
   1761.2871       8.3670       0.0581    -999.2500      49.3274    -999.2500    -999.2500      18.2282      14.9821    -999.2500       0.1292       4.0011       2.5565      15.5245      49.5991
   1761.4395       8.3670       0.0700    -999.2500      48.2810    -999.2500    -999.2500      16.2060      13.3130    -999.2500       0.1400       3.7920       2.5540      16.3320      49.0630
   1761.5919       8.3670       0.0670    -999.2500      48.3690    -999.2500    -999.2500      16.5387      13.5166    -999.2500       0.1341       3.8953       2.5550      15.9784      49.0831
   1761.7443       8.3670       0.0640    -999.2500      48.4560    -999.2500    -999.2500      16.8680      13.7180    -999.2500       0.1269       3.9980       2.5560      15.6290      49.1030
   1761.8967       8.3670       0.0504    -999.2500      49.4959    -999.2500    -999.2500      20.7812      16.5959    -999.2500       0.1274       3.9539       2.5665      14.2890      49.2945
   1762.0491       8.3670       0.0370    -999.2500      50.5250    -999.2500    -999.2500      24.6540      19.4440    -999.2500       0.1304       3.9100       2.5770      12.9650      49.4840
   1762.2014       8.3670       0.0375    -999.2500      55.8613    -999.2500    -999.2500      24.1022      19.0872    -999.2500       0.1428       3.5475       2.5309      12.1849      49.0131
   1762.3539       8.3670       0.0380    -999.2500      61.1430    -999.2500    -999.2500      23.5560      18.7340    -999.2500       0.1584       3.1870       2.4850      11.4140      48.5470
   1762.5062       8.3670       0.0410    -999.2500      70.9178    -999.2500    -999.2500      21.5514      17.2937    -999.2500       0.1860       3.2131       2.4875      11.5392      48.5581
   1762.6587       8.3670       0.0440    -999.2500      80.5940    -999.2500    -999.2500      19.5670      15.8680    -999.2500       0.2128       3.2390       2.4900      11.6630      48.5690
   1762.8110       8.3670       0.0525    -999.2500      72.4954    -999.2500    -999.2500      18.1359      14.7228    -999.2500       0.2227       3.2074       2.4895      11.6529      48.6429
   1762.9635       8.3670       0.0610    -999.2500      64.4840    -999.2500    -999.2500      16.7190      13.5890    -999.2500       0.2290       3.1760       2.4890      11.6430      48.7160
   1763.1158       8.3670       0.0510    -999.2500      66.0017    -999.2500    -999.2500      17.0320      13.8508    -999.2500       0.2287       3.0898       2.4725      11.4885      48.8598
   1763.2683       8.3670       0.0410    -999.2500      67.5020    -999.2500    -999.2500      17.3420      14.1100    -999.2500       0.2267       3.0040       2.4560      11.3360      49.0020
   1763.4207       8.3670       0.0475    -999.2500      71.1622    -999.2500    -999.2500      16.4316      13.3538    -999.2500       0.2194       2.8642       2.4906      10.8312      49.1609
   1763.5731       8.3670       0.0540    -999.2500      74.7810    -999.2500    -999.2500      15.5300      12.6050    -999.2500       0.2146       2.7250       2.5250      10.3330      49.3180
   1763.7255       8.3855       0.0334    -999.2500      71.3870    -999.2500    -999.2500      11.3339       9.1534    -999.2500       0.2323       2.7551       2.4102      10.3390      49.7157
   1763.8779       8.4040       0.0130    -999.2500      68.0310    -999.2500    -999.2500       7.1780       5.7350    -999.2500       0.2497       2.7850       2.2960      10.3450      50.1090
   1764.0303       8.4451       0.0276    -999.2500      75.1328    -999.2500    -999.2500       7.2518       5.8586    -999.2500       0.2440       2.9258       2.3050      10.5956      49.7204
   1764.1826       8.4860       0.0420    -999.2500      82.1560    -999.2500    -999.2500       7.3250       5.9810    -999.2500       0.2331       3.0660       2.3140      10.8430      49.3360
   1764.3351       8.5672       0.0395    -999.2500      81.7789    -999.2500    -999.2500       8.8190       7.2102    -999.2500       0.2089       3.2830       2.3401      11.2787      48.6040
   1764.4874       8.6480       0.0370    -999.2500      81.4060    -999.2500    -999.2500      10.2990       8.4280    -999.2500       0.1836       3.4990       2.3660      11.7090      47.8800
   1764.6399       8.6059       0.0305    -999.2500      82.4094    -999.2500    -999.2500      15.2473      11.9667    -999.2500       0.1627       3.7220       2.3981      11.9042      47.6291
   1764.7922       8.5640       0.0240    -999.2500      83.4020    -999.2500    -999.2500      20.1460      15.4700    -999.2500       0.1461       3.9440       2.4300      12.0970      47.3810
   1764.9447       8.5004       0.0285    -999.2500      90.8845    -999.2500    -999.2500      19.0401      14.2902    -999.2500       0.1546       3.8398       2.4566      12.5372      47.1503
   1765.0970       8.4370       0.0330    -999.2500      98.2870    -999.2500    -999.2500      17.9460      13.1230    -999.2500       0.1688       3.7360       2.4830      12.9720      46.9220
   1765.2495       8.4626       0.0430    -999.2500     104.5043    -999.2500    -999.2500      15.6851      11.3511    -999.2500       0.2004       3.3727       2.4469      12.5353      47.4206
   1765.4019       8.4880       0.0530    -999.2500     110.6560    -999.2500    -999.2500      13.4480       9.5980    -999.2500       0.2298       3.0110       2.4110      12.1040      47.9140
   1765.5543       8.4860       0.0515    -999.2500     101.8792    -999.2500    -999.2500      12.1930       8.8737    -999.2500       0.2271       3.0245       2.4130      12.4491      49.1118
