#------------------------------------------------------------------------------
#
#   Created by  : [OpenWorks] Log Export Utility (LEXP)
#   Created on  : 2016-05-23 17:52:13
#   Project     : CANT971
#   User        : R5K
#   Interpreter : PEP
#
#------------------------------------------------------------------------------
~VERSION INFORMATION
VERS. 2.0 : CWLS Log ASCII Standard - version 2.0
WRAP.  NO : One line per depth step
~WELL INFORMATION
#MNEMONIC   .UNIT                                           VALUE :DESCRIPTION
#------------------------------------------------------------------------------
STRT        .M                                           632.7651 :START DEPTH
STOP        .M                                          2429.8660 :STOP DEPTH
STEP        .M                                             0.1524 :STEP
NULL        .                                           -999.2500 :NULL VALUE
COMP        .                                   PEMEX EXPL & PROD :COMPANY
WELL        .                                                  72 :WELL
FLD         .                                           CANTARELL :FIELD
LOC         .                                             UNKNOWN :LOCATION
CNTY        .                                      CD. DEL CARMEN :COUNTY
STAT        .                                            CAMPECHE :STATE
CTRY        .                                              MEXICO :COUNTRY
SRVC        .                                             UNKNOWN :SERVICE COMPANY
DATE        .                                             UNKNOWN :LOG DATE
UWI         .                                          3060000469 :UNIQUE WELL ID
XCOORD      .                                       598503.510000 :SURFACE X
YCOORD      .                                      2149271.040000 :SURFACE Y
LAT         .                                           19.436542 :LATITUDE
LON         .                                          -92.061672 :LONGITUDE
ELEV        .M                                            27.6000 :SURFACE ELEV
ELEV_TYPE   .                                                  KB :ELEV TYPE
~CURVE INFORMATION
#MNEMONIC.UNIT        API CODE       : CURVE DESCRIPTION
#------------------------------------------------------------------------------
DEPTH    .M                          : Measured Depth
CALI     .inches      UNKNOWN        : CALI:registros:rC:NONE:v0 (auto-composite)
DRHO     .g/cm3       UNKNOWN        : DRHO:registros:rC:NONE:v0 (auto-composite)
DT       .us/ft       UNKNOWN        : DT:registros:rC:NONE:v0 (auto-composite)
GR       .API         UNKNOWN        : GR:registros:rC:NONE:v0 (auto-composite)
ILD      .ohm.m       UNKNOWN        : ILD:registros:rC:NONE:v0 (auto-composite)
ILM      .ohm.m       UNKNOWN        : ILM:registros:rC:NONE:v0 (auto-composite)
LLD      .ohm.m       UNKNOWN        : LLD:registros:rC:NONE:v0 (auto-composite)
LLS      .ohm.m       UNKNOWN        : LLS:registros:rC:NONE:v0 (auto-composite)
MSFL     .ohm.m       UNKNOWN        : MSFL:registros:rC:NONE:v0 (auto-composite)
NPHI     .UNKNOWN     UNKNOWN        : NPHI:registros:rC:NONE:v0 (auto-composite)
PEF      .UNKNOWN     UNKNOWN        : PEF:registros:rC:NONE:v0 (auto-composite)
RHOB     .g/cm3       UNKNOWN        : RHOB:registros:rC:NONE:v0 (auto-composite)
SIGM     .UNKNOWN     UNKNOWN        : SIGM:registros:rC:NONE:v0 (auto-composite)
SP       .mV          UNKNOWN        : SP:registros:rC:NONE:v0 (auto-composite)
~A     DEPTH         CALI         DRHO           DT           GR          ILD          ILM          LLD          LLS         MSFL         NPHI          PEF         RHOB         SIGM           SP
# ...
   2424.9890       6.2190       0.1590      93.2980    -999.2500    -999.2500    -999.2500      31.2970    -999.2500    -999.2500       0.0708       1.8970       1.9370    -999.2500    -999.2500
   2425.1414       6.2190       0.1615      93.4153    -999.2500    -999.2500    -999.2500      31.2970    -999.2500    -999.2500       0.0708       1.9166       1.9385    -999.2500    -999.2500
   2425.2939       6.2190       0.1640      93.5310    -999.2500    -999.2500    -999.2500      31.2970    -999.2500    -999.2500       0.0709       1.9360       1.9400    -999.2500    -999.2500
   2425.4463       6.2200       0.1791      93.5109    -999.2500    -999.2500    -999.2500      31.2970    -999.2500    -999.2500       0.0709       1.9295       1.9450    -999.2500    -999.2500
   2425.5986       6.2210       0.1940      93.4910    -999.2500    -999.2500    -999.2500      31.2970    -999.2500    -999.2500       0.0709       1.9230       1.9500    -999.2500    -999.2500
   2425.7510       6.2180       0.1940      93.3541    -999.2500    -999.2500    -999.2500      31.2970    -999.2500    -999.2500       0.0709       1.8953       1.9565    -999.2500    -999.2500
   2425.9036       6.2150       0.1940      93.2190    -999.2500    -999.2500    -999.2500      31.2970    -999.2500    -999.2500       0.0709       1.8680       1.9630    -999.2500    -999.2500
   2426.0559       6.2155       0.1925      93.2190    -999.2500    -999.2500    -999.2500      31.2970    -999.2500    -999.2500       0.0709       1.8715       1.9635    -999.2500    -999.2500
   2426.2083       6.2160       0.1910      93.2190    -999.2500    -999.2500    -999.2500      31.2970    -999.2500    -999.2500       0.0709       1.8750       1.9640    -999.2500    -999.2500
   2426.3606       6.2175       0.1870      93.1989    -999.2500    -999.2500    -999.2500      31.2970    -999.2500    -999.2500       0.0709       1.8871       1.9615    -999.2500    -999.2500
   2426.5132       6.2190       0.1830      93.1790    -999.2500    -999.2500    -999.2500      31.2970    -999.2500    -999.2500       0.0709       1.8990       1.9590    -999.2500    -999.2500
   2426.6655       6.2190       0.1679      93.1236    -999.2500    -999.2500    -999.2500      31.2970    -999.2500    -999.2500       0.0709       1.9121       1.9409    -999.2500    -999.2500
   2426.8179       6.2190       0.1530      93.0690    -999.2500    -999.2500    -999.2500      31.2970    -999.2500    -999.2500       0.0709       1.9250       1.9230    -999.2500    -999.2500
   2426.9702       6.2190       0.1570      66.3450    -999.2500    -999.2500    -999.2500      31.2970    -999.2500    -999.2500       0.0709       1.9482       1.9301    -999.2500    -999.2500
   2427.1226       6.2190       0.1610      40.0000    -999.2500    -999.2500    -999.2500      31.2970    -999.2500    -999.2500       0.0709       1.9710       1.9370    -999.2500    -999.2500
   2427.2751       6.2170       0.1655      40.0000    -999.2500    -999.2500    -999.2500      31.2970    -999.2500    -999.2500       0.0709       1.9655       1.9355    -999.2500    -999.2500
   2427.4275       6.2150       0.1700      40.0000    -999.2500    -999.2500    -999.2500      31.2970    -999.2500    -999.2500       0.0709       1.9600       1.9340    -999.2500    -999.2500
   2427.5798       6.2155       0.1745      40.0000    -999.2500    -999.2500    -999.2500      31.2970    -999.2500    -999.2500       0.0709       1.8920       1.9385    -999.2500    -999.2500
   2427.7322       6.2160       0.1790      40.0000    -999.2500    -999.2500    -999.2500      31.2970    -999.2500    -999.2500       0.0709       1.8250       1.9430    -999.2500    -999.2500
   2427.8848       6.2165       0.1860      40.0000    -999.2500    -999.2500    -999.2500      31.2970    -999.2500    -999.2500       0.0709       1.8336       1.9536    -999.2500    -999.2500
   2428.0371       6.2170       0.1930      40.0000    -999.2500    -999.2500    -999.2500      31.2970    -999.2500    -999.2500       0.0709       1.8420       1.9640    -999.2500    -999.2500
   2428.1895       6.2165       0.1995      40.0000    -999.2500    -999.2500    -999.2500      31.2970    -999.2500    -999.2500       0.0709       1.8621       1.9716    -999.2500    -999.2500
   2428.3418       6.2160       0.2060      40.0000    -999.2500    -999.2500    -999.2500      31.2970    -999.2500    -999.2500       0.0709       1.8820       1.9790    -999.2500    -999.2500
   2428.4944       6.2150       0.2005      40.0000    -999.2500    -999.2500    -999.2500      31.2970    -999.2500    -999.2500       0.0709       1.9102       1.9735    -999.2500    -999.2500
   2428.6467       6.2140       0.1950      40.0000    -999.2500    -999.2500    -999.2500      31.2970    -999.2500    -999.2500       0.0713       1.9380       1.9680    -999.2500    -999.2500
   2428.7991       6.0116       0.1829      40.0000    -999.2500    -999.2500    -999.2500      31.2970    -999.2500    -999.2500       0.0727       1.8655       1.9448    -999.2500    -999.2500
   2428.9514       5.8120       0.1710      40.0000    -999.2500    -999.2500    -999.2500      31.2970    -999.2500    -999.2500       0.0764       1.7940       1.9220    -999.2500    -999.2500
   2429.1038       4.5566       0.1509      40.0000    -999.2500    -999.2500    -999.2500      31.2970    -999.2500    -999.2500       0.0857       1.6787       1.8430    -999.2500    -999.2500
   2429.2563       3.3180       0.1310      40.0000    -999.2500    -999.2500    -999.2500      31.2970    -999.2500    -999.2500       0.0946       1.5650       1.7650    -999.2500    -999.2500
   2429.4087       3.3180       0.0902      40.0000       0.0000       0.2000       0.0000      31.2970       0.2000       0.2000       0.0968       1.5650       1.6578    -499.6250       0.0000
   2429.5610       3.3180       0.0500      40.0000       0.0000       0.2000       0.0000      31.2970       0.2000       0.2000       0.0968       1.5650       1.5520    -499.6250       0.0000
   2429.7134       3.3180       0.0238      40.0000       0.0000       0.2000       0.0000      31.2970       0.2000       0.2000       0.0968       1.5650       1.5017    -248.1682       0.0000
   2429.8660       3.3180      -0.0020      40.0000       0.0000       0.2000       0.0000      31.2970       0.2000       0.2000    -999.2500       1.5650       1.4520       0.0000       0.0000
