#------------------------------------------------------------------------------
#
#   Created by  : [OpenWorks] Log Export Utility (LEXP)
#   Created on  : 2016-05-23 17:52:13
#   Project     : CANT971
#   User        : R5K
#   Interpreter : PEP
#
#------------------------------------------------------------------------------
~VERSION INFORMATION
VERS. 2.0 : CWLS Log ASCII Standard - version 2.0
WRAP.  NO : One line per depth step
~WELL INFORMATION
#MNEMONIC   .UNIT                                           VALUE :DESCRIPTION
#------------------------------------------------------------------------------
STRT        .M                                           632.7651 :START DEPTH
STOP        .M                                          2429.8660 :STOP DEPTH
STEP        .M                                             0.1524 :STEP
NULL        .                                           -999.2500 :NULL VALUE
COMP        .                                   PEMEX EXPL & PROD :COMPANY
WELL        .                                                  72 :WELL
FLD         .                                           CANTARELL :FIELD
LOC         .                                             UNKNOWN :LOCATION
CNTY        .                                      CD. DEL CARMEN :COUNTY
STAT        .                                            CAMPECHE :STATE
CTRY        .                                              MEXICO :COUNTRY
SRVC        .                                             UNKNOWN :SERVICE COMPANY
DATE        .                                             UNKNOWN :LOG DATE
UWI         .                                          3060000469 :UNIQUE WELL ID
XCOORD      .                                       598503.510000 :SURFACE X
YCOORD      .                                      2149271.040000 :SURFACE Y
LAT         .                                           19.436542 :LATITUDE
LON         .                                          -92.061672 :LONGITUDE
ELEV        .M                                            27.6000 :SURFACE ELEV
ELEV_TYPE   .                                                  KB :ELEV TYPE
~CURVE INFORMATION
#MNEMONIC.UNIT        API CODE       : CURVE DESCRIPTION
#------------------------------------------------------------------------------
DEPTH    .M                          : Measured Depth
CALI     .inches      UNKNOWN        : CALI:registros:rC:NONE:v0 (auto-composite)
DRHO     .g/cm3       UNKNOWN        : DRHO:registros:rC:NONE:v0 (auto-composite)
DT       .us/ft       UNKNOWN        : DT:registros:rC:NONE:v0 (auto-composite)
GR       .API         UNKNOWN        : GR:registros:rC:NONE:v0 (auto-composite)
ILD      .ohm.m       UNKNOWN        : ILD:registros:rC:NONE:v0 (auto-composite)
ILM      .ohm.m       UNKNOWN        : ILM:registros:rC:NONE:v0 (auto-composite)
LLD      .ohm.m       UNKNOWN        : LLD:registros:rC:NONE:v0 (auto-composite)
LLS      .ohm.m       UNKNOWN        : LLS:registros:rC:NONE:v0 (auto-composite)
MSFL     .ohm.m       UNKNOWN        : MSFL:registros:rC:NONE:v0 (auto-composite)
NPHI     .UNKNOWN     UNKNOWN        : NPHI:registros:rC:NONE:v0 (auto-composite)
PEF      .UNKNOWN     UNKNOWN        : PEF:registros:rC:NONE:v0 (auto-composite)
RHOB     .g/cm3       UNKNOWN        : RHOB:registros:rC:NONE:v0 (auto-composite)
SIGM     .UNKNOWN     UNKNOWN        : SIGM:registros:rC:NONE:v0 (auto-composite)
SP       .mV          UNKNOWN        : SP:registros:rC:NONE:v0 (auto-composite)
~A     DEPTH         CALI         DRHO           DT           GR          ILD          ILM          LLD          LLS         MSFL         NPHI          PEF         RHOB         SIGM           SP
# ...
   2156.1555       6.5700       0.0340    -999.2500      63.2260    -999.2500    -999.2500      46.6250      35.4690      20.7110       0.1076       3.2340       2.7010      11.1170    -186.0630
   2156.3079       6.5112       0.0300    -999.2500      62.2989    -999.2500    -999.2500      47.5918      36.1672      28.2523       0.1091       3.2928       2.6904      10.3609    -186.0942
   2156.4602       6.4530       0.0260    -999.2500      61.3830    -999.2500    -999.2500      48.5470      36.8570      35.7030       0.1082       3.3510       2.6800       9.6150    -186.1250
   2156.6128       6.4631       0.0205    -999.2500      57.1946    -999.2500    -999.2500      50.6253      38.5651      33.5440       0.1065       3.2339       2.6810       9.6397    -186.2256
   2156.7651       6.4730       0.0150    -999.2500      53.0560    -999.2500    -999.2500      52.6790      40.2530      31.4140       0.1037       3.1180       2.6820       9.6640    -186.3250
   2156.9175       6.4464       0.0165    -999.2500      42.8781    -999.2500    -999.2500      56.2530      43.3225      42.2009       0.0994       3.1507       2.6910       9.8533    -186.6665
   2157.0698       6.4200       0.0180    -999.2500      32.8200    -999.2500    -999.2500      59.7850      46.3560      52.8440       0.0924       3.1830       2.7000      10.0400    -187.0040
   2157.2222       6.4552       0.0341    -999.2500      33.2695    -999.2500    -999.2500      66.7264      52.3322      38.4992       0.0811       3.3061       2.7322      10.6893    -187.5370
   2157.3748       6.4900       0.0500    -999.2500      33.7130    -999.2500    -999.2500      73.5870      58.2390      24.3440       0.0714       3.4280       2.7640      11.3300    -188.0630
   2157.5271       6.4825       0.0420    -999.2500      36.3130    -999.2500    -999.2500      71.9360      56.7710      26.7583       0.0692       3.4215       2.7585      11.2057    -187.9684
   2157.6794       6.4750       0.0340    -999.2500      38.8790    -999.2500    -999.2500      70.3040      55.3200      29.1410       0.0727       3.4150       2.7530      11.0830    -187.8750
   2157.8318       6.4775       0.0380    -999.2500      46.7334    -999.2500    -999.2500      58.2554      45.3815      28.7011       0.0806       3.3788       2.7173      10.4710    -187.9062
   2157.9844       6.4800       0.0420    -999.2500      54.4860    -999.2500    -999.2500      46.3630      35.5720      28.2670       0.0906       3.3430       2.6820       9.8670    -187.9370
   2158.1367       6.4916       0.0792    -999.2500      58.5169    -999.2500    -999.2500      46.9015      36.1688      25.9300       0.1004       3.2772       2.6931       9.3602    -187.6854
   2158.2891       6.5030       0.1160    -999.2500      62.4960    -999.2500    -999.2500      47.4330      36.7580      23.6230       0.1070       3.2120       2.7040       8.8600    -187.4370
   2158.4414       6.5181       0.1064    -999.2500      64.1490    -999.2500    -999.2500      52.3865      40.3629      21.7526       0.1070       3.4371       2.7181       8.8811    -187.7359
   2158.5940       6.5330       0.0970    -999.2500      65.7810    -999.2500    -999.2500      57.2770      43.9220      19.9060       0.1047       3.6600       2.7320       8.9020    -188.0310
   2158.7463       6.5018       0.0859    -999.2500      63.2813    -999.2500    -999.2500      66.1987      50.2730      37.6980       0.1041       3.5876       2.7265       9.0952    -188.7545
   2158.8987       6.4710       0.0750    -999.2500      60.8130    -999.2500    -999.2500      75.0080      56.5440      55.2660       0.1031       3.5160       2.7210       9.2860    -189.4690
   2159.0510       6.5002       0.0564    -999.2500      49.6338    -999.2500    -999.2500      74.0329      56.4439      48.2185       0.0994       3.3898       2.6949       9.7529    -190.1764
   2159.2034       6.5290       0.0380    -999.2500      38.5940    -999.2500    -999.2500      73.0700      56.3450      41.2590       0.0936       3.2650       2.6690      10.2140    -190.8750
   2159.3560       6.5184       0.0556    -999.2500      38.8219    -999.2500    -999.2500      73.8101      56.8546      31.6799       0.0859       3.2881       2.6806      10.0222    -190.7492
   2159.5083       6.5080       0.0730    -999.2500      39.0470    -999.2500    -999.2500      74.5410      57.3580      22.2190       0.0800       3.3110       2.6920       9.8330    -190.6250
   2159.6606       6.5186       0.0720    -999.2500      47.0097    -999.2500    -999.2500      74.2241      57.1553      32.9330       0.0801       3.3799       2.7146       9.3351    -190.7573
   2159.8130       6.5290       0.0710    -999.2500      54.8750    -999.2500    -999.2500      73.9110      56.9550      43.5160       0.0843       3.4480       2.7370       8.8440    -190.8880
   2159.9656       6.4928       0.0675    -999.2500      54.3201    -999.2500    -999.2500      71.9235      55.4253      36.6817       0.0914       3.4390       2.7169       8.4503    -191.3775
   2160.1179       6.4570       0.0640    -999.2500      53.7720    -999.2500    -999.2500      69.9600      53.9140      29.9300       0.0970       3.4300       2.6970       8.0620    -191.8610
   2160.2703       6.4610       0.0554    -999.2500      50.6830    -999.2500    -999.2500      72.4398      55.4819      31.1755       0.0966       3.3425       2.7005       8.3434    -192.6226
   2160.4226       6.4650       0.0470    -999.2500      47.6310    -999.2500    -999.2500      74.8900      57.0310      32.4060       0.0920       3.2560       2.7040       8.6210    -193.3750
   2160.5752       6.4333       0.0319    -999.2500      42.6218    -999.2500    -999.2500      98.8273      73.3421      28.5758       0.0846       3.2711       2.7166       8.6064    -192.9978
   2160.7275       6.4020       0.0170    -999.2500      37.6720    -999.2500    -999.2500     122.4810      89.4600      24.7970       0.0757       3.2860       2.7290       8.5920    -192.6250
   2160.8799       6.4075       0.0235    -999.2500      38.1639    -999.2500    -999.2500     121.3227      88.5859      31.0254       0.0669       3.3242       2.7396       8.3957    -193.3794
   2161.0322       6.4130       0.0300    -999.2500      38.6500    -999.2500    -999.2500     120.1780      87.7220      37.1710       0.0611       3.3620       2.7500       8.2020    -194.1250
   2161.1846       6.4225       0.0582    -999.2500      40.1600    -999.2500    -999.2500     104.3261      76.7710      44.2965       0.0619       3.3133       2.7666       8.2246    -194.0465
   2161.3372       6.4320       0.0860    -999.2500      41.6500    -999.2500    -999.2500      88.6580      65.9470      51.3280       0.0678       3.2650       2.7830       8.2470    -193.9690
   2161.4895       6.4034       0.0820    -999.2500      44.1362    -999.2500    -999.2500      89.5738      66.4977      52.0125       0.0777       3.2700       2.7523       8.4689    -193.7934
   2161.6418       6.3750       0.0780    -999.2500      46.5900    -999.2500    -999.2500      90.4790      67.0420      52.6880       0.0854       3.2750       2.7220       8.6880    -193.6200
   2161.7942       6.4192       0.0679    -999.2500      50.1777    -999.2500    -999.2500     104.1882      75.5938      70.1133       0.0846       3.2720       2.7230       9.0478    -193.4967
   2161.9468       6.4630       0.0580    -999.2500      53.7190    -999.2500    -999.2500     117.7200      84.0350      87.3130       0.0810       3.2690       2.7240       9.4030    -193.3750
   2162.0991       6.4148       0.0650    -999.2500      48.3642    -999.2500    -999.2500     115.2774      82.2526      79.5966       0.0802       3.1886       2.7320       9.6954    -193.4767
   2162.2515       6.3670       0.0720    -999.2500      43.0780    -999.2500    -999.2500     112.8660      80.4930      71.9790       0.0809       3.1090       2.7400       9.9840    -193.5770
   2162.4038       6.4248       0.0675    -999.2500      43.9983    -999.2500    -999.2500     106.4005      76.1041      54.0945       0.0819       3.2090       2.7365      10.2170    -193.8704
