#------------------------------------------------------------------------------
#
#   Created by  : [OpenWorks] Log Export Utility (LEXP)
#   Created on  : 2016-05-23 17:52:13
#   Project     : CANT971
#   User        : R5K
#   Interpreter : PEP
#
#------------------------------------------------------------------------------
~VERSION INFORMATION
VERS. 2.0 : CWLS Log ASCII Standard - version 2.0
WRAP.  NO : One line per depth step
~WELL INFORMATION
#MNEMONIC   .UNIT                                           VALUE :DESCRIPTION
#------------------------------------------------------------------------------
STRT        .M                                           632.7651 :START DEPTH
STOP        .M                                          2429.8660 :STOP DEPTH
STEP        .M                                             0.1524 :STEP
NULL        .                                           -999.2500 :NULL VALUE
COMP        .                                   PEMEX EXPL & PROD :COMPANY
WELL        .                                                  72 :WELL
FLD         .                                           CANTARELL :FIELD
LOC         .                                             UNKNOWN :LOCATION
CNTY        .                                      CD. DEL CARMEN :COUNTY
STAT        .                                            CAMPECHE :STATE
CTRY        .                                              MEXICO :COUNTRY
SRVC        .                                             UNKNOWN :SERVICE COMPANY
DATE        .                                             UNKNOWN :LOG DATE
UWI         .                                          3060000469 :UNIQUE WELL ID
XCOORD      .                                       598503.510000 :SURFACE X
YCOORD      .                                      2149271.040000 :SURFACE Y
LAT         .                                           19.436542 :LATITUDE
LON         .                                          -92.061672 :LONGITUDE
ELEV        .M                                            27.6000 :SURFACE ELEV
ELEV_TYPE   .                                                  KB :ELEV TYPE
~CURVE INFORMATION
#MNEMONIC.UNIT        API CODE       : CURVE DESCRIPTION
#------------------------------------------------------------------------------
DEPTH    .M                          : Measured Depth
CALI     .inches      UNKNOWN        : CALI:registros:rC:NONE:v0 (auto-composite)
DRHO     .g/cm3       UNKNOWN        : DRHO:registros:rC:NONE:v0 (auto-composite)
DT       .us/ft       UNKNOWN        : DT:registros:rC:NONE:v0 (auto-composite)
GR       .API         UNKNOWN        : GR:registros:rC:NONE:v0 (auto-composite)
ILD      .ohm.m       UNKNOWN        : ILD:registros:rC:NONE:v0 (auto-composite)
ILM      .ohm.m       UNKNOWN        : ILM:registros:rC:NONE:v0 (auto-composite)
LLD      .ohm.m       UNKNOWN        : LLD:registros:rC:NONE:v0 (auto-composite)
LLS      .ohm.m       UNKNOWN        : LLS:registros:rC:NONE:v0 (auto-composite)
MSFL     .ohm.m       UNKNOWN        : MSFL:registros:rC:NONE:v0 (auto-composite)
NPHI     .UNKNOWN     UNKNOWN        : NPHI:registros:rC:NONE:v0 (auto-composite)
PEF      .UNKNOWN     UNKNOWN        : PEF:registros:rC:NONE:v0 (auto-composite)
RHOB     .g/cm3       UNKNOWN        : RHOB:registros:rC:NONE:v0 (auto-composite)
SIGM     .UNKNOWN     UNKNOWN        : SIGM:registros:rC:NONE:v0 (auto-composite)
SP       .mV          UNKNOWN        : SP:registros:rC:NONE:v0 (auto-composite)
~A     DEPTH         CALI         DRHO           DT           GR          ILD          ILM          LLD          LLS         MSFL         NPHI          PEF         RHOB         SIGM           SP
# ...
   1624.8890       9.0550       0.1010    -999.2500      18.4530    -999.2500    -999.2500     263.5510      74.6250    -999.2500       0.0063       3.2810       2.7390       8.0500      28.5230
   1625.0415       9.0195       0.1085    -999.2500      18.6651    -999.2500    -999.2500     256.2956      66.3258    -999.2500       0.0046       3.0917       2.6804       7.8533      28.5577
   1625.1938       8.9840       0.1160    -999.2500      18.8750    -999.2500    -999.2500     249.1060      58.1020    -999.2500       0.0050       2.9030       2.6220       7.6590      28.5920
   1625.3463       9.0000       0.1301    -999.2500      18.7257    -999.2500    -999.2500     267.9187      59.1587    -999.2500       0.0049       2.9831       2.6400       7.4004      29.0373
   1625.4987       9.0160       0.1440    -999.2500      18.5780    -999.2500    -999.2500     286.5630      60.2060    -999.2500       0.0045       3.0630       2.6580       7.1450      29.4780
   1625.6511       9.0430       0.1395    -999.2500      18.9635    -999.2500    -999.2500     394.7454      64.2544    -999.2500       0.0039       2.9043       2.7431       6.9046      30.5335
   1625.8035       9.0700       0.1350    -999.2500      19.3450    -999.2500    -999.2500     501.9730      68.2670    -999.2500       0.0033       2.7460       2.8280       6.6670      31.5780
   1625.9559       9.0700       0.0953    -999.2500      22.8626    -999.2500    -999.2500     473.1009      63.9055    -999.2500       0.0030       2.7680       2.7955       6.7877      30.0351
   1626.1083       9.0700       0.0560    -999.2500      26.3440    -999.2500    -999.2500     444.4800      59.5820    -999.2500       0.0028       2.7900       2.7630       6.9070      28.5080
   1626.2606       9.0700       0.0570    -999.2500      25.8731    -999.2500    -999.2500     461.4468      60.3056    -999.2500       0.0027       2.8516       2.7860       7.1555      29.7835
   1626.4131       9.0700       0.0580    -999.2500      25.4070    -999.2500    -999.2500     478.2680      61.0230    -999.2500       0.0028       2.9130       2.8090       7.4010      31.0460
   1626.5654       9.0700       0.0675    -999.2500      24.6547    -999.2500    -999.2500     505.0730      65.4525    -999.2500       0.0031       3.1219       2.7990       7.6067      34.1255
   1626.7179       9.0700       0.0770    -999.2500      23.9100    -999.2500    -999.2500     531.6300      69.8410    -999.2500       0.0036       3.3300       2.7890       7.8100      37.1740
   1626.8702       9.0700       0.0906    -999.2500      21.0342    -999.2500    -999.2500     553.7728      78.8311    -999.2500       0.0042       3.2313       2.7494       8.0584      39.6146
   1627.0227       9.0700       0.1040    -999.2500      18.1870    -999.2500    -999.2500     575.6960      87.7320    -999.2500       0.0051       3.1330       2.7100       8.3040      42.0310
   1627.1750       9.0710       0.1246    -999.2500      18.7528    -999.2500    -999.2500     511.2063      78.8189    -999.2500       0.0063       2.9472       2.6609       8.4865      40.8532
   1627.3275       9.0720       0.1450    -999.2500      19.3130    -999.2500    -999.2500     447.3480      69.9930    -999.2500       0.0077       2.7620       2.6120       8.6670      39.6870
   1627.4799       9.0730       0.1656    -999.2500      22.3100    -999.2500    -999.2500     346.4011      53.4993    -999.2500       0.0089       2.7860       2.5284       8.6117      37.5723
   1627.6323       9.0740       0.1860    -999.2500      25.2780    -999.2500    -999.2500     246.4300      37.1650    -999.2500       0.0091       2.8100       2.4450       8.5570      35.4780
   1627.7847       9.0730       0.1679    -999.2500      29.7619    -999.2500    -999.2500     294.5129      43.1521    -999.2500       0.0068       2.8651       2.4535       8.3054      32.9103
   1627.9371       9.0720       0.1500    -999.2500      34.2030    -999.2500    -999.2500     342.1370      49.0820    -999.2500       0.0063       2.9200       2.4620       8.0570      30.3670
   1628.0895       8.9959       0.1249    -999.2500      32.3925    -999.2500    -999.2500     645.1533      88.7588    -999.2500       0.0136       2.9776       2.5516       7.3742      26.6736
   1628.2418       8.9200       0.1000    -999.2500      30.5990    -999.2500    -999.2500     945.3160     128.0620    -999.2500       0.0311       3.0350       2.6410       6.7000      23.0150
   1628.3943       8.8624       0.0684    -999.2500      28.7924    -999.2500    -999.2500    1531.2032     182.1835    -999.2500       0.0696       3.0620       2.7016       6.7151      20.2003
   1628.5466       8.8050       0.0370    -999.2500      27.0040    -999.2500    -999.2500    2111.6460     235.8020    -999.2500       0.1226       3.0890       2.7620       6.7300      17.4140
   1628.6991       8.7895       0.0375    -999.2500      26.2550    -999.2500    -999.2500    2055.7493     231.6746    -999.2500       0.1959       3.0444       2.7730       6.8653      18.3043
   1628.8514       8.7740       0.0380    -999.2500      25.5140    -999.2500    -999.2500    2000.3650     227.5850    -999.2500       0.2671       3.0000       2.7840       6.9990      19.1850
   1629.0039       8.7349       0.0465    -999.2500      24.1638    -999.2500    -999.2500    1935.1611     242.9319    -999.2500       0.3129       3.1041       2.7970       7.2772      20.9569
   1629.1562       8.6960       0.0550    -999.2500      22.8280    -999.2500    -999.2500    1870.5470     258.1400    -999.2500       0.3421       3.2080       2.8100       7.5520      22.7100
   1629.3087       8.6720       0.0670    -999.2500      23.7840    -999.2500    -999.2500    1745.4797     254.4501    -999.2500       0.3494       3.3527       2.8165       7.4449      23.6449
   1629.4611       8.6480       0.0790    -999.2500      24.7300    -999.2500    -999.2500    1621.5280     250.7930    -999.2500       0.3539       3.4970       2.8230       7.3390      24.5700
   1629.6135       8.6480       0.0916    -999.2500      26.0634    -999.2500    -999.2500    1498.2444     240.9487    -999.2500       0.3724       3.3964       2.8240       6.8395      25.1671
   1629.7659       8.6480       0.1040    -999.2500      27.3830    -999.2500    -999.2500    1376.0450     231.1910    -999.2500       0.4319       3.2960       2.8250       6.3460      25.7580
   1629.9183       8.6480       0.1246    -999.2500      27.1478    -999.2500    -999.2500    1317.2159     231.9422    -999.2500       0.5923       3.3125       2.8295       6.3832      25.1137
   1630.0707       8.6480       0.1450    -999.2500      26.9150    -999.2500    -999.2500    1258.8970     232.6870    -999.2500       0.7368       3.3290       2.8340       6.4200      24.4760
   1630.2230       8.6455       0.1440    -999.2500      26.0506    -999.2500    -999.2500     994.1015     200.5577    -999.2500       0.7387       3.2639       2.8550       6.9662      21.7959
   1630.3755       8.6430       0.1430    -999.2500      25.1950    -999.2500    -999.2500     731.5690     168.7030    -999.2500       0.6618       3.1990       2.8760       7.5060      19.1430
   1630.5278       8.6205       0.1380    -999.2500      25.3528    -999.2500    -999.2500     735.5950     168.7583    -999.2500       0.5077       3.2471       2.8615       7.4356      16.8485
   1630.6803       8.5980       0.1330    -999.2500      25.5090    -999.2500    -999.2500     739.5840     168.8130    -999.2500       0.3662       3.2950       2.8470       7.3660      14.5770
   1630.8326       8.6195       0.1250    -999.2500      26.2366    -999.2500    -999.2500     869.3106     206.9123    -999.2500       0.3346       3.2109       2.8470       6.8505      10.9817
   1630.9851       8.6410       0.1170    -999.2500      26.9570    -999.2500    -999.2500     997.7550     244.6350    -999.2500       0.3736       3.1270       2.8470       6.3410       7.4220
   1631.1375       8.6375       0.1150    -999.2500      27.7624    -999.2500    -999.2500     997.5520     244.4471    -999.2500       0.4977       3.1350       2.8525       6.3847       7.9717
