#------------------------------------------------------------------------------
#
#   Created by  : [OpenWorks] Log Export Utility (LEXP)
#   Created on  : 2016-05-23 17:52:13
#   Project     : CANT971
#   User        : R5K
#   Interpreter : PEP
#
#------------------------------------------------------------------------------
~VERSION INFORMATION
VERS. 2.0 : CWLS Log ASCII Standard - version 2.0
WRAP.  NO : One line per depth step
~WELL INFORMATION
#MNEMONIC   .UNIT                                           VALUE :DESCRIPTION
#------------------------------------------------------------------------------
STRT        .M                                           632.7651 :START DEPTH
STOP        .M                                          2429.8660 :STOP DEPTH
STEP        .M                                             0.1524 :STEP
NULL        .                                           -999.2500 :NULL VALUE
COMP        .                                   PEMEX EXPL & PROD :COMPANY
WELL        .                                                  72 :WELL
FLD         .                                           CANTARELL :FIELD
LOC         .                                             UNKNOWN :LOCATION
CNTY        .                                      CD. DEL CARMEN :COUNTY
STAT        .                                            CAMPECHE :STATE
CTRY        .                                              MEXICO :COUNTRY
SRVC        .                                             UNKNOWN :SERVICE COMPANY
DATE        .                                             UNKNOWN :LOG DATE
UWI         .                                          3060000469 :UNIQUE WELL ID
XCOORD      .                                       598503.510000 :SURFACE X
YCOORD      .                                      2149271.040000 :SURFACE Y
LAT         .                                           19.436542 :LATITUDE
LON         .                                          -92.061672 :LONGITUDE
ELEV        .M                                            27.6000 :SURFACE ELEV
ELEV_TYPE   .                                                  KB :ELEV TYPE
~CURVE INFORMATION
#MNEMONIC.UNIT        API CODE       : CURVE DESCRIPTION
#------------------------------------------------------------------------------
DEPTH    .M                          : Measured Depth
CALI     .inches      UNKNOWN        : CALI:registros:rC:NONE:v0 (auto-composite)
DRHO     .g/cm3       UNKNOWN        : DRHO:registros:rC:NONE:v0 (auto-composite)
DT       .us/ft       UNKNOWN        : DT:registros:rC:NONE:v0 (auto-composite)
GR       .API         UNKNOWN        : GR:registros:rC:NONE:v0 (auto-composite)
ILD      .ohm.m       UNKNOWN        : ILD:registros:rC:NONE:v0 (auto-composite)
ILM      .ohm.m       UNKNOWN        : ILM:registros:rC:NONE:v0 (auto-composite)
LLD      .ohm.m       UNKNOWN        : LLD:registros:rC:NONE:v0 (auto-composite)
LLS      .ohm.m       UNKNOWN        : LLS:registros:rC:NONE:v0 (auto-composite)
MSFL     .ohm.m       UNKNOWN        : MSFL:registros:rC:NONE:v0 (auto-composite)
NPHI     .UNKNOWN     UNKNOWN        : NPHI:registros:rC:NONE:v0 (auto-composite)
PEF      .UNKNOWN     UNKNOWN        : PEF:registros:rC:NONE:v0 (auto-composite)
RHOB     .g/cm3       UNKNOWN        : RHOB:registros:rC:NONE:v0 (auto-composite)
SIGM     .UNKNOWN     UNKNOWN        : SIGM:registros:rC:NONE:v0 (auto-composite)
SP       .mV          UNKNOWN        : SP:registros:rC:NONE:v0 (auto-composite)
~A     DEPTH         CALI         DRHO           DT           GR          ILD          ILM          LLD          LLS         MSFL         NPHI          PEF         RHOB         SIGM           SP
# ...
   2290.5723       6.3150       0.0410      84.2500      37.3440    -999.2500    -999.2500      38.8730      28.8690      22.1630       0.1090       3.5170       2.6790      10.1590    -217.1250
   2290.7246       6.3190       0.0390      80.0670      36.9903    -999.2500    -999.2500      40.8546      30.2457      27.0344       0.1050       3.5140       2.6961       9.9995    -216.8734
   2290.8772       6.3230       0.0370      75.9370      36.6410    -999.2500    -999.2500      42.8110      31.6050      31.8440       0.1010       3.5110       2.7130       9.8420    -216.6250
   2291.0295       6.3597       0.0229      82.3055      36.9670    -999.2500    -999.2500      48.1324      35.2413      26.4270       0.0975       3.4431       2.7100      10.0213    -216.4635
   2291.1819       6.3960       0.0090      88.5940      37.2890    -999.2500    -999.2500      53.3870      38.8320      21.0780       0.0938       3.3760       2.7070      10.1980    -216.3040
   2291.3342       6.3869       0.0125      85.2135      39.1169    -999.2500    -999.2500      59.9906      43.3063      21.2088       0.0874       3.2583       2.7156      10.5928    -215.3647
   2291.4866       6.3780       0.0160      81.8750      40.9220    -999.2500    -999.2500      66.5120      47.7250      21.3380       0.0815       3.1420       2.7240      10.9820    -214.4370
   2291.6392       6.3302       0.0246      82.7695      39.2308    -999.2500    -999.2500      83.6187      59.2806      62.4546       0.0807       3.0927       2.7562      11.2045    -214.5629
   2291.7915       6.2830       0.0330      83.6530      37.5630    -999.2500    -999.2500     100.5150      70.6940     103.0000       0.0815       3.0440       2.7880      11.4240    -214.6870
   2291.9438       6.3625       0.0375      99.9257      38.4461    -999.2500    -999.2500      89.6000      62.7018      96.2576       0.0873       3.0732       2.7794      11.3968    -214.5526
   2292.0962       6.4410       0.0420     116.0000      39.3170    -999.2500    -999.2500      78.8180      54.8070      89.6080       0.0953       3.1020       2.7710      11.3700    -214.4200
   2292.2488       6.4294       0.0687     107.1652      43.8529    -999.2500    -999.2500      62.9054      42.2972      50.7695       0.1127       3.0844       2.7524      11.2064    -214.0092
   2292.4011       6.4180       0.0950      98.4510      48.3270    -999.2500    -999.2500      47.2100      29.9580      12.4610       0.1309       3.0670       2.7340      11.0450    -213.6040
   2292.5535       6.4019       0.0789      90.0054      53.5216    -999.2500    -999.2500      45.2115      30.4624      13.3878       0.1454       3.0881       2.7154      10.8663    -213.4359
   2292.7058       6.3860       0.0630      81.6740      58.6460    -999.2500    -999.2500      43.2400      30.9600      14.3020       0.1574       3.1090       2.6970      10.6900    -213.2700
   2292.8582       6.3603       0.0283      73.5481      63.6847    -999.2500    -999.2500      45.7433      33.4175      27.4838       0.1592       3.1497       2.6734      10.5264    -213.0868
   2293.0107       6.3350      -0.0060      65.5310      68.6560    -999.2500    -999.2500      48.2130      35.8420      40.4890       0.1582       3.1900       2.6500      10.3650    -212.9060
   2293.1631       6.3114      -0.0025      65.6493      66.3950    -999.2500    -999.2500      52.1647      39.4605      72.6372       0.1519       3.2770       2.6334      10.4168    -212.6674
   2293.3154       6.2880       0.0010      65.7660      64.1640    -999.2500    -999.2500      56.0640      43.0310     104.3590       0.1439       3.3630       2.6170      10.4680    -212.4320
   2293.4678       6.2739       0.0186      65.9844      57.5863    -999.2500    -999.2500      51.5080      39.3719      89.0136       0.1310       3.2951       2.6266      10.3125    -212.2166
   2293.6204       6.2600       0.0360      66.2000      51.0950    -999.2500    -999.2500      47.0120      35.7610      73.8700       0.1178       3.2280       2.6360      10.1590    -212.0040
   2293.7727       6.2716       0.0325      69.8422      43.7734    -999.2500    -999.2500      47.4911      36.0111      43.7490       0.1066       3.3235       2.6551       9.7690    -211.6819
   2293.9250       6.2830       0.0290      73.4370      36.5470    -999.2500    -999.2500      47.9640      36.2580      14.0200       0.0973       3.4180       2.6740       9.3840    -211.3640
   2294.0774       6.2488       0.0209      71.6756      38.8901    -999.2500    -999.2500      51.2130      38.3460      14.4442       0.0963       3.3612       2.6810       8.7001    -210.3942
   2294.2300       6.2150       0.0130      69.9370      41.2030    -999.2500    -999.2500      54.4200      40.4070      14.8630       0.0965       3.3050       2.6880       8.0250    -209.4370
   2294.3823       6.2190       0.0170      71.9594      40.6837    -999.2500    -999.2500      70.0543      51.5748      17.2216       0.0946       3.3839       2.6981       8.0658    -210.0977
   2294.5347       6.2230       0.0210      73.9560      40.1710    -999.2500    -999.2500      85.4890      62.6000      19.5500       0.0915       3.4620       2.7080       8.1060    -210.7500
   2294.6870       6.1943       0.0411      77.8305      37.2546    -999.2500    -999.2500      82.5041      60.7775      31.8015       0.0843       3.4575       2.7306       8.2016    -210.6901
   2294.8394       6.1660       0.0610      81.6560      34.3750    -999.2500    -999.2500      79.5570      58.9780      43.8980       0.0764       3.4530       2.7530       8.2960    -210.6310
   2294.9919       6.1917       0.0444      77.5206      34.6578    -999.2500    -999.2500      82.4229      61.2331      37.5774       0.0679       3.3468       2.7621       8.3831    -210.5264
   2295.1443       6.2170       0.0280      73.4370      34.9370    -999.2500    -999.2500      85.2530      63.4600      31.3360       0.0608       3.2420       2.7710       8.4690    -210.4230
   2295.2966       6.1964       0.0295      73.8933      34.3755    -999.2500    -999.2500      95.2908      71.3630      36.3813       0.0609       3.2858       2.7720       8.8950    -210.0844
   2295.4490       6.1760       0.0310      74.3440      33.8210    -999.2500    -999.2500     105.2040      79.1680      41.3640       0.0629       3.3290       2.7730       9.3150    -209.7500
   2295.6016       6.1775       0.0355      74.0874      32.8226    -999.2500    -999.2500     114.5463      87.1100      56.1122       0.0688       3.3778       2.7725       9.2747    -209.8054
   2295.7539       6.1790       0.0400      73.8340      31.8380    -999.2500    -999.2500     123.7590      94.9420      70.6560       0.0743       3.4260       2.7720       9.2350    -209.8600
   2295.9062       6.1901       0.0445      71.2694      31.2117    -999.2500    -999.2500     113.9139      87.9767      70.4279       0.0747       3.4185       2.7700       9.1167    -210.1727
   2296.0586       6.2010       0.0490      68.7360      30.5940    -999.2500    -999.2500     104.2040      81.1070      70.2030       0.0740       3.4110       2.7680       9.0000    -210.4810
   2296.2112       6.2000       0.0515      63.7717      31.4669    -999.2500    -999.2500     105.6866      82.3933     138.2205       0.0729       3.3441       2.7610       9.0000    -210.9623
   2296.3635       6.1990       0.0540      58.8750      32.3280    -999.2500    -999.2500     107.1490      83.6620     205.3120       0.0717       3.2780       2.7540       9.0000    -211.4370
   2296.5159       6.2186       0.0535      59.0638      31.3882    -999.2500    -999.2500     116.1159      91.0875     176.2501       0.0705       3.2926       2.7605       9.0000    -211.2759
   2296.6682       6.2380       0.0530      59.2500      30.4610    -999.2500    -999.2500     124.9620      98.4130     147.5800       0.0689       3.3070       2.7670       9.0000    -211.1170
   2296.8206       6.2244       0.0374      56.9063      31.2004    -999.2500    -999.2500     123.9935      97.5875      94.8753       0.0650       3.2995       2.7610       9.0050    -210.1823
