#------------------------------------------------------------------------------
#
#   Created by  : [OpenWorks] Log Export Utility (LEXP)
#   Created on  : 2016-05-19 10:02:19
#   Project     : CANT971
#   User        : R5K
#   Interpreter : PEP
#
#------------------------------------------------------------------------------
~VERSION INFORMATION
VERS. 2.0 : CWLS Log ASCII Standard - version 2.0
WRAP.  NO : One line per depth step
~WELL INFORMATION
#MNEMONIC   .UNIT                                           VALUE :DESCRIPTION
#------------------------------------------------------------------------------
STRT        .M                                          2664.8665 :START DEPTH
STOP        .M                                          3997.6045 :STOP DEPTH
STEP        .M                                             0.1524 :STEP
NULL        .                                           -999.2500 :NULL VALUE
COMP        .                                   PEMEX EXPL & PROD :COMPANY
WELL        .                                                 88H :WELL
FLD         .                                           CANTARELL :FIELD
LOC         .                                             UNKNOWN :LOCATION
CNTY        .                                      CD. DEL CARMEN :COUNTY
STAT        .                                            CAMPECHE :STATE
CTRY        .                                              MEXICO :COUNTRY
SRVC        .                                             UNKNOWN :SERVICE COMPANY
DATE        .                                             UNKNOWN :LOG DATE
UWI         .                                          3060000603 :UNIQUE WELL ID
XCOORD      .                                       597712.770000 :SURFACE X
YCOORD      .                                      2140960.400000 :SURFACE Y
LAT         .                                           19.361481 :LATITUDE
LON         .                                          -92.069630 :LONGITUDE
ELEV        .M                                            23.0000 :SURFACE ELEV
ELEV_TYPE   .                                                  KB :ELEV TYPE
~CURVE INFORMATION
#MNEMONIC.UNIT        API CODE       : CURVE DESCRIPTION
#------------------------------------------------------------------------------
DEPTH    .M                          : Measured Depth
CALI     .UNKNOWN     UNKNOWN        : CALI:registros:rC:NONE:v0 (auto-composite)
CGR      .API         UNKNOWN        : CGR:registros:rC:NONE:v0 (auto-composite)
DRHO     .UNKNOWN     UNKNOWN        : DRHO:registros:rC:NONE:v0 (auto-composite)
DT       .us/ft       UNKNOWN        : DT:registros:rC:NONE:v0 (auto-composite)
GR       .UNKNOWN     UNKNOWN        : GR:registros:rC:NONE:v0 (auto-composite)
ILD      .UNKNOWN     UNKNOWN        : ILD:registros:rC:NONE:v0 (auto-composite)
ILM      .UNKNOWN     UNKNOWN        : ILM:registros:rC:NONE:v0 (auto-composite)
LLD      .UNKNOWN     UNKNOWN        : LLD:registros:rC:NONE:v0 (auto-composite)
LLS      .UNKNOWN     UNKNOWN        : LLS:registros:rC:NONE:v0 (auto-composite)
MSFL     .UNKNOWN     UNKNOWN        : MSFL:registros:rC:NONE:v0 (auto-composite)
NPHI     .v/v_decimal UNKNOWN        : NPHI:registros:rC:NONE:v0 (auto-composite)
PEF      .UNKNOWN     UNKNOWN        : PEF:registros:rC:NONE:v0 (auto-composite)
POTA     .wtpercent   UNKNOWN        : POTA:registros:rC:NONE:v0 (auto-composite)
RHOB     .UNKNOWN     UNKNOWN        : RHOB:registros:rC:NONE:v0 (auto-composite)
THOR     .UNKNOWN     UNKNOWN        : THOR:registros:rC:NONE:v0 (auto-composite)
URAN     .ppm         UNKNOWN        : URAN:registros:rC:NONE:v0 (auto-composite)
~A     DEPTH         CALI          CGR         DRHO           DT           GR          ILD          ILM          LLD          LLS         MSFL         NPHI          PEF         POTA         RHOB         THOR         URAN
# ...
   3646.0176       8.8928    -999.2500       0.0075    -999.2500      26.8048    -999.2500    -999.2500    2385.1975     643.0728     164.2907       0.0455       3.0240    -999.2500       2.7955    -999.2500    -999.2500
   3646.1702       8.7460    -999.2500       0.0050    -999.2500      20.1220    -999.2500    -999.2500    2242.9031     564.2180      57.3800       0.0540       3.0040    -999.2500       2.7860    -999.2500    -999.2500
   3646.3225       8.7505    -999.2500       0.0105    -999.2500      26.5926    -999.2500    -999.2500    2250.5637     528.8137     167.5161       0.0490       3.1435    -999.2500       2.7790    -999.2500    -999.2500
   3646.4749       8.7550    -999.2500       0.0160    -999.2500      33.0630    -999.2500    -999.2500    2258.2241     493.4100     277.6500       0.0440       3.2830    -999.2500       2.7720    -999.2500    -999.2500
   3646.6272       8.9287    -999.2500       0.0175    -999.2500      35.9377    -999.2500    -999.2500    2677.1262     599.0465     307.5460       0.0465       3.2730    -999.2500       2.7620    -999.2500    -999.2500
   3646.7795       9.1030    -999.2500       0.0190    -999.2500      38.8220    -999.2500    -999.2500    3097.4160     705.0330     337.5410       0.0490       3.2630    -999.2500       2.7520    -999.2500    -999.2500
   3646.9321       9.0067    -999.2500       0.0170    -999.2500      34.0201    -999.2500    -999.2500    3553.0068     704.1323     296.9579       0.0565       3.2201    -999.2500       2.7495    -999.2500    -999.2500
   3647.0845       8.9100    -999.2500       0.0150    -999.2500      29.1940    -999.2500    -999.2500    4010.8970     703.2270     256.1700       0.0640       3.1770    -999.2500       2.7470    -999.2500    -999.2500
   3647.2368       8.9315    -999.2500       0.0105    -999.2500      27.2618    -999.2500    -999.2500    3793.5913     677.8660     191.7320       0.0705       3.1420    -999.2500       2.7440    -999.2500    -999.2500
   3647.3892       8.9530    -999.2500       0.0060    -999.2500      25.3290    -999.2500    -999.2500    3576.2080     652.4960     127.2710       0.0770       3.1070    -999.2500       2.7410    -999.2500    -999.2500
   3647.5417       9.1217    -999.2500       0.0055    -999.2500      25.5303    -999.2500    -999.2500    3447.3567     623.1367     185.0620       0.0815       3.0534    -999.2500       2.7350    -999.2500    -999.2500
   3647.6941       9.2900    -999.2500       0.0050    -999.2500      25.7310    -999.2500    -999.2500    3318.8550     593.8570     242.6960       0.0860       3.0000    -999.2500       2.7290    -999.2500    -999.2500
   3647.8464       9.0571    -999.2500       0.0085    -999.2500      36.3123    -999.2500    -999.2500    3043.9575     531.2540     150.7664       0.0695       2.9585    -999.2500       2.7445    -999.2500    -999.2500
   3647.9988       8.8240    -999.2500       0.0120    -999.2500      46.9000    -999.2500    -999.2500    2768.8931     468.6130      58.7810       0.0530       2.9170    -999.2500       2.7600    -999.2500    -999.2500
   3648.1514       8.7711    -999.2500       0.0075    -999.2500      45.2479    -999.2500    -999.2500    2802.5222     472.9205     132.8105       0.0535       3.0314    -999.2500       2.7500    -999.2500    -999.2500
   3648.3037       8.7180    -999.2500       0.0030    -999.2500      43.5920    -999.2500    -999.2500    2836.2300     477.2380     207.0130       0.0540       3.1460    -999.2500       2.7400    -999.2500    -999.2500
   3648.4561       8.8672    -999.2500       0.0050    -999.2500      36.5643    -999.2500    -999.2500    3249.7986     519.2784     159.4762       0.0600       3.2149    -999.2500       2.7535    -999.2500    -999.2500
   3648.6084       9.0170    -999.2500       0.0070    -999.2500      29.5080    -999.2500    -999.2500    3665.0500     561.4900     111.7460       0.0660       3.2840    -999.2500       2.7670    -999.2500    -999.2500
   3648.7607       8.9537    -999.2500       0.0095    -999.2500      26.3303    -999.2500    -999.2500    5008.6699     723.7303     202.1236       0.0620       3.0459    -999.2500       2.7416    -999.2500    -999.2500
   3648.9133       8.8900    -999.2500       0.0120    -999.2500      23.1290    -999.2500    -999.2500    6362.2461     887.1730     293.1710       0.0580       2.8060    -999.2500       2.7160    -999.2500    -999.2500
   3649.0657       9.0916    -999.2500       0.0260    -999.2500      21.1134    -999.2500    -999.2500    7425.3613     974.8929     193.5310       0.0590       2.8888    -999.2500       2.7549    -999.2500    -999.2500
   3649.2180       9.2940    -999.2500       0.0400    -999.2500      19.0890    -999.2500    -999.2500    8493.0850    1062.9930      93.4590       0.0600       2.9720    -999.2500       2.7940    -999.2500    -999.2500
   3649.3704       9.1060    -999.2500       0.0300    -999.2500      19.4201    -999.2500    -999.2500    9565.4873    1050.8673      90.3094       0.0560       3.1365    -999.2500       2.7885    -999.2500    -999.2500
   3649.5229       8.9180    -999.2500       0.0200    -999.2500      19.7510    -999.2500    -999.2500   10637.4971    1038.7460      87.1610       0.0520       3.3010    -999.2500       2.7830    -999.2500    -999.2500
   3649.6753       9.0059    -999.2500       0.0100    -999.2500      19.1714    -999.2500    -999.2500   12052.8193    1095.1550     173.3154       0.0535       3.2475    -999.2500       2.7635    -999.2500    -999.2500
   3649.8276       9.0940    -999.2500       0.0000    -999.2500      18.5910    -999.2500    -999.2500   13470.0693    1151.6410     259.5870       0.0550       3.1940    -999.2500       2.7440    -999.2500    -999.2500
   3649.9800       8.9698    -999.2500       0.0005    -999.2500      18.9975    -999.2500    -999.2500   16689.1426    1328.6055     169.4985       0.0595       3.0718    -999.2500       2.7565    -999.2500    -999.2500
   3650.1326       8.8450    -999.2500       0.0010    -999.2500      19.4060    -999.2500    -999.2500   19923.3320    1506.4010      78.9870       0.0640       2.9490    -999.2500       2.7690    -999.2500    -999.2500
   3650.2849       8.7842    -999.2500       0.0035    -999.2500      25.8889    -999.2500    -999.2500   21835.4121    1567.3473     213.6889       0.0665       3.0177    -999.2500       2.7819    -999.2500    -999.2500
   3650.4373       8.7230    -999.2500       0.0060    -999.2500      32.4240    -999.2500    -999.2500   23762.8809    1628.7841     349.4750       0.0690       3.0870    -999.2500       2.7950    -999.2500    -999.2500
   3650.5896       8.8802    -999.2500       0.0035    -999.2500      38.6535    -999.2500    -999.2500   24950.9277    1572.3936     274.5382       0.0640       3.2323    -999.2500       2.7915    -999.2500    -999.2500
   3650.7419       9.0380    -999.2500       0.0010    -999.2500      44.9040    -999.2500    -999.2500   26142.9609    1515.8140     199.3500       0.0590       3.3780    -999.2500       2.7880    -999.2500    -999.2500
   3650.8945       8.9975    -999.2500       0.0025    -999.2500      56.4730    -999.2500    -999.2500   27663.7832    1393.1689     366.8281       0.0550       3.1715    -999.2500       2.7780    -999.2500    -999.2500
   3651.0469       8.9570    -999.2500       0.0040    -999.2500      68.0450    -999.2500    -999.2500   29185.0020    1270.4919     534.3500       0.0510       2.9650    -999.2500       2.7680    -999.2500    -999.2500
   3651.1992       8.8811    -999.2500       0.0055    -999.2500      57.4336    -999.2500    -999.2500   28502.8594    1279.3835     380.0274       0.0565       3.0169    -999.2500       2.7720    -999.2500    -999.2500
   3651.3516       8.8050    -999.2500       0.0070    -999.2500      46.7840    -999.2500    -999.2500   27818.2637    1288.3070     225.1500       0.0620       3.0690    -999.2500       2.7760    -999.2500    -999.2500
   3651.5042       8.9661    -999.2500       0.0205    -999.2500      36.4451    -999.2500    -999.2500   28154.0859    1316.7443     190.9217       0.0805       2.8785    -999.2500       2.7316    -999.2500    -999.2500
