#------------------------------------------------------------------------------
#
#   Created by  : [OpenWorks] Log Export Utility (LEXP)
#   Created on  : 2016-05-19 10:02:19
#   Project     : CANT971
#   User        : R5K
#   Interpreter : PEP
#
#------------------------------------------------------------------------------
~VERSION INFORMATION
VERS. 2.0 : CWLS Log ASCII Standard - version 2.0
WRAP.  NO : One line per depth step
~WELL INFORMATION
#MNEMONIC   .UNIT                                           VALUE :DESCRIPTION
#------------------------------------------------------------------------------
STRT        .M                                          2664.8665 :START DEPTH
STOP        .M                                          3997.6045 :STOP DEPTH
STEP        .M                                             0.1524 :STEP
NULL        .                                           -999.2500 :NULL VALUE
COMP        .                                   PEMEX EXPL & PROD :COMPANY
WELL        .                                                 88H :WELL
FLD         .                                           CANTARELL :FIELD
LOC         .                                             UNKNOWN :LOCATION
CNTY        .                                      CD. DEL CARMEN :COUNTY
STAT        .                                            CAMPECHE :STATE
CTRY        .                                              MEXICO :COUNTRY
SRVC        .                                             UNKNOWN :SERVICE COMPANY
DATE        .                                             UNKNOWN :LOG DATE
UWI         .                                          3060000603 :UNIQUE WELL ID
XCOORD      .                                       597712.770000 :SURFACE X
YCOORD      .                                      2140960.400000 :SURFACE Y
LAT         .                                           19.361481 :LATITUDE
LON         .                                          -92.069630 :LONGITUDE
ELEV        .M                                            23.0000 :SURFACE ELEV
ELEV_TYPE   .                                                  KB :ELEV TYPE
~CURVE INFORMATION
#MNEMONIC.UNIT        API CODE       : CURVE DESCRIPTION
#------------------------------------------------------------------------------
DEPTH    .M                          : Measured Depth
CALI     .UNKNOWN     UNKNOWN        : CALI:registros:rC:NONE:v0 (auto-composite)
CGR      .API         UNKNOWN        : CGR:registros:rC:NONE:v0 (auto-composite)
DRHO     .UNKNOWN     UNKNOWN        : DRHO:registros:rC:NONE:v0 (auto-composite)
DT       .us/ft       UNKNOWN        : DT:registros:rC:NONE:v0 (auto-composite)
GR       .UNKNOWN     UNKNOWN        : GR:registros:rC:NONE:v0 (auto-composite)
ILD      .UNKNOWN     UNKNOWN        : ILD:registros:rC:NONE:v0 (auto-composite)
ILM      .UNKNOWN     UNKNOWN        : ILM:registros:rC:NONE:v0 (auto-composite)
LLD      .UNKNOWN     UNKNOWN        : LLD:registros:rC:NONE:v0 (auto-composite)
LLS      .UNKNOWN     UNKNOWN        : LLS:registros:rC:NONE:v0 (auto-composite)
MSFL     .UNKNOWN     UNKNOWN        : MSFL:registros:rC:NONE:v0 (auto-composite)
NPHI     .v/v_decimal UNKNOWN        : NPHI:registros:rC:NONE:v0 (auto-composite)
PEF      .UNKNOWN     UNKNOWN        : PEF:registros:rC:NONE:v0 (auto-composite)
POTA     .wtpercent   UNKNOWN        : POTA:registros:rC:NONE:v0 (auto-composite)
RHOB     .UNKNOWN     UNKNOWN        : RHOB:registros:rC:NONE:v0 (auto-composite)
THOR     .UNKNOWN     UNKNOWN        : THOR:registros:rC:NONE:v0 (auto-composite)
URAN     .ppm         UNKNOWN        : URAN:registros:rC:NONE:v0 (auto-composite)
~A     DEPTH         CALI          CGR         DRHO           DT           GR          ILD          ILM          LLD          LLS         MSFL         NPHI          PEF         POTA         RHOB         THOR         URAN
# ...
   3369.7166      10.4610       5.4760       0.0010    -999.2500      28.2510    -999.2500    -999.2500     171.6890     120.0470    1001.2780       0.1170       3.3410       0.0000       2.6130       1.6690       4.2390
   3369.8689      10.2866       6.1538       0.0045    -999.2500      28.3239    -999.2500    -999.2500     160.7137     112.3979     633.8449       0.1220       3.4274       0.0000       2.5720       1.8884       4.1145
   3370.0212      10.1120       6.8320       0.0080    -999.2500      28.3970    -999.2500    -999.2500     149.7230     104.7380     265.8930       0.1270       3.5140       0.0000       2.5310       2.1080       3.9900
   3370.1736      10.1461       6.2724       0.0095    -999.2500      30.7458    -999.2500    -999.2500     134.3694      93.3584     151.8512       0.1475       3.4549       0.0000       2.5360       1.9286       3.9359
   3370.3262      10.1800       5.7150       0.0110    -999.2500      33.0870    -999.2500    -999.2500     119.0660      82.0160      38.1820       0.1680       3.3960       0.0000       2.5410       1.7500       3.8820
   3370.4785      10.3825       6.2497       0.0085    -999.2500      31.5880    -999.2500    -999.2500     131.2217      89.4833      34.8466       0.1650       3.4195       0.0000       2.5645       1.9231       3.6874
   3370.6309      10.5850       6.7840       0.0060    -999.2500      30.0890    -999.2500    -999.2500     143.3780      96.9510      31.5110       0.1620       3.4430       0.0000       2.5880       2.0960       3.4930
   3370.7832      10.5431       5.5791       0.0005    -999.2500      27.9282    -999.2500    -999.2500     167.1762     114.4468      78.9990       0.1475       3.4894       0.0000       2.5715       1.7105       3.4645
   3370.9355      10.5010       4.3710      -0.0050    -999.2500      25.7600    -999.2500    -999.2500     191.0550     132.0020     126.6480       0.1330       3.5360       0.0000       2.5550       1.3240       3.4360
   3371.0881      10.3464       6.8745      -0.0075    -999.2500      25.2443    -999.2500    -999.2500     177.0848     123.5237     167.9078       0.1260       3.4772       0.0000       2.5640       2.1372       3.1985
   3371.2405      10.1910       9.3890      -0.0100    -999.2500      24.7260    -999.2500    -999.2500     163.0430     115.0020     209.3790       0.1190       3.4180       0.0000       2.5730       2.9540       2.9600
   3371.3928      10.3185       7.7182      -0.0030    -999.2500      24.1866    -999.2500    -999.2500     141.6561     102.3822     112.5445       0.1250       3.4515       0.0000       2.6595       2.4149       3.1735
   3371.5452      10.4460       6.0480       0.0040    -999.2500      23.6470    -999.2500    -999.2500     120.2600      89.7570      15.6680       0.1310       3.4850       0.0000       2.7460       1.8760       3.3870
   3371.6978      10.4876       5.3784       0.0050    -999.2500      23.5148    -999.2500    -999.2500     129.5773      91.4302     261.6920       0.1200       3.3603       0.0000       2.7335       1.6566       3.4972
   3371.8501      10.5290       4.7110       0.0060    -999.2500      23.3830    -999.2500    -999.2500     138.8700      93.0990     507.0670       0.1090       3.2360       0.0000       2.7210       1.4380       3.6070
   3372.0024      10.2706       2.9195       0.0035    -999.2500      24.0078    -999.2500    -999.2500     138.0278     100.3185     281.5522       0.1130       3.2635       0.0000       2.6835       0.8595       3.7145
   3372.1548      10.0120       1.1280       0.0010    -999.2500      24.6330    -999.2500    -999.2500     137.1850     107.5430      55.8830       0.1170       3.2910       0.0000       2.6460       0.2810       3.8220
   3372.3074      10.0979       2.8770      -0.0005    -999.2500      24.9951    -999.2500    -999.2500     142.7778     110.6013      86.9560       0.0990       3.3599       0.0000       2.6570       0.8420       3.7356
   3372.4597      10.1840       4.6290      -0.0020    -999.2500      25.3580    -999.2500    -999.2500     148.3840     113.6670     118.1040       0.0810       3.4290       0.0000       2.6680       1.4040       3.6490
   3372.6121      10.2703       4.6065       0.0020    -999.2500      26.9707    -999.2500    -999.2500     151.3084     112.9635     353.1407       0.0835       3.4619       0.0000       2.6850       1.3960       3.6480
   3372.7644      10.3570       4.5840       0.0060    -999.2500      28.5900    -999.2500    -999.2500     154.2450     112.2570     589.1520       0.0860       3.4950       0.0000       2.7020       1.3880       3.6470
   3372.9167      10.3869       4.8606       0.0055    -999.2500      30.3011    -999.2500    -999.2500     162.0413     116.0493     721.7784       0.0950       3.5299       0.0005       2.6631       1.2584       3.5772
   3373.0693      10.4170       5.1390       0.0050    -999.2500      32.0250    -999.2500    -999.2500     169.8960     119.8700     855.3980       0.1040       3.5650       0.0010       2.6240       1.1280       3.5070
   3373.2217      10.2204       3.7905       0.0080    -999.2500      31.2362    -999.2500    -999.2500     205.4999     141.4509     465.5392       0.1010       3.4513       0.0010       2.6270       0.7277       3.7101
   3373.3740      10.0230       2.4370       0.0110    -999.2500      30.4440    -999.2500    -999.2500     241.2610     163.1270      73.9600       0.0980       3.3370       0.0010       2.6300       0.3260       3.9140
   3373.5264      10.1815       4.9798       0.0085    -999.2500      31.7987    -999.2500    -999.2500     330.7059     224.3544     152.7279       0.0960       3.3880       0.0010       2.6530       1.1504       3.8895
   3373.6790      10.3400       7.5200       0.0060    -999.2500      33.1530    -999.2500    -999.2500     420.1250     285.5640     231.4730       0.0940       3.4390       0.0010       2.6760       1.9740       3.8650
   3373.8313      10.1671       6.5433       0.0065    -999.2500      34.6579    -999.2500    -999.2500     392.6313     269.8718     182.1510       0.0890       3.4160       0.0005       2.6725       1.8355       4.0354
   3373.9836       9.9940       5.5660       0.0070    -999.2500      36.1650    -999.2500    -999.2500     365.0980     254.1570     132.7580       0.0840       3.3930       0.0000       2.6690       1.6970       4.2060
   3374.1360      10.0509       5.5690       0.0085    -999.2500      35.3265    -999.2500    -999.2500     331.9905     231.6687     353.6513       0.0910       3.4174       0.0000       2.6371       1.6696       4.2075
   3374.2886      10.1080       5.5720       0.0100    -999.2500      34.4840    -999.2500    -999.2500     298.7250     209.0730     575.5990       0.0980       3.4420       0.0000       2.6050       1.6420       4.2090
   3374.4409      10.3331       5.5720       0.0115    -999.2500      35.5661    -999.2500    -999.2500     218.0244     157.9602     319.5369       0.1030       3.5162       0.0000       2.6135       1.6420       4.2090
   3374.5933      10.5600       5.5720       0.0130    -999.2500      36.6570    -999.2500    -999.2500     136.6680     106.4320      61.3940       0.1080       3.5910       0.0000       2.6220       1.6420       4.2090
   3374.7456      10.4657       2.7897       0.0095    -999.2500      33.4056    -999.2500    -999.2500     100.5675      80.3288      84.1569       0.1065       3.4627       0.0000       2.6405       0.8221       2.1073
   3374.8979      10.3710    -999.2500       0.0060    -999.2500      30.1430    -999.2500    -999.2500      64.3430      54.1360     106.9980       0.1050       3.3340    -999.2500       2.6590    -999.2500    -999.2500
   3375.0505      10.2839    -999.2500       0.0010    -999.2500      27.3943    -999.2500    -999.2500      68.4886      57.8153      90.2219       0.1035       3.4095    -999.2500       2.6675    -999.2500    -999.2500
   3375.2029      10.1970    -999.2500      -0.0040    -999.2500      24.6490    -999.2500    -999.2500      72.6290      61.4900      73.4670       0.1020       3.4850    -999.2500       2.6760    -999.2500    -999.2500
