#------------------------------------------------------------------------------
#
#   Created by  : [OpenWorks] Log Export Utility (LEXP)
#   Created on  : 2016-05-19 10:02:19
#   Project     : CANT971
#   User        : R5K
#   Interpreter : PEP
#
#------------------------------------------------------------------------------
~VERSION INFORMATION
VERS. 2.0 : CWLS Log ASCII Standard - version 2.0
WRAP.  NO : One line per depth step
~WELL INFORMATION
#MNEMONIC   .UNIT                                           VALUE :DESCRIPTION
#------------------------------------------------------------------------------
STRT        .M                                          2664.8665 :START DEPTH
STOP        .M                                          3997.6045 :STOP DEPTH
STEP        .M                                             0.1524 :STEP
NULL        .                                           -999.2500 :NULL VALUE
COMP        .                                   PEMEX EXPL & PROD :COMPANY
WELL        .                                                 88H :WELL
FLD         .                                           CANTARELL :FIELD
LOC         .                                             UNKNOWN :LOCATION
CNTY        .                                      CD. DEL CARMEN :COUNTY
STAT        .                                            CAMPECHE :STATE
CTRY        .                                              MEXICO :COUNTRY
SRVC        .                                             UNKNOWN :SERVICE COMPANY
DATE        .                                             UNKNOWN :LOG DATE
UWI         .                                          3060000603 :UNIQUE WELL ID
XCOORD      .                                       597712.770000 :SURFACE X
YCOORD      .                                      2140960.400000 :SURFACE Y
LAT         .                                           19.361481 :LATITUDE
LON         .                                          -92.069630 :LONGITUDE
ELEV        .M                                            23.0000 :SURFACE ELEV
ELEV_TYPE   .                                                  KB :ELEV TYPE
~CURVE INFORMATION
#MNEMONIC.UNIT        API CODE       : CURVE DESCRIPTION
#------------------------------------------------------------------------------
DEPTH    .M                          : Measured Depth
CALI     .UNKNOWN     UNKNOWN        : CALI:registros:rC:NONE:v0 (auto-composite)
CGR      .API         UNKNOWN        : CGR:registros:rC:NONE:v0 (auto-composite)
DRHO     .UNKNOWN     UNKNOWN        : DRHO:registros:rC:NONE:v0 (auto-composite)
DT       .us/ft       UNKNOWN        : DT:registros:rC:NONE:v0 (auto-composite)
GR       .UNKNOWN     UNKNOWN        : GR:registros:rC:NONE:v0 (auto-composite)
ILD      .UNKNOWN     UNKNOWN        : ILD:registros:rC:NONE:v0 (auto-composite)
ILM      .UNKNOWN     UNKNOWN        : ILM:registros:rC:NONE:v0 (auto-composite)
LLD      .UNKNOWN     UNKNOWN        : LLD:registros:rC:NONE:v0 (auto-composite)
LLS      .UNKNOWN     UNKNOWN        : LLS:registros:rC:NONE:v0 (auto-composite)
MSFL     .UNKNOWN     UNKNOWN        : MSFL:registros:rC:NONE:v0 (auto-composite)
NPHI     .v/v_decimal UNKNOWN        : NPHI:registros:rC:NONE:v0 (auto-composite)
PEF      .UNKNOWN     UNKNOWN        : PEF:registros:rC:NONE:v0 (auto-composite)
POTA     .wtpercent   UNKNOWN        : POTA:registros:rC:NONE:v0 (auto-composite)
RHOB     .UNKNOWN     UNKNOWN        : RHOB:registros:rC:NONE:v0 (auto-composite)
THOR     .UNKNOWN     UNKNOWN        : THOR:registros:rC:NONE:v0 (auto-composite)
URAN     .ppm         UNKNOWN        : URAN:registros:rC:NONE:v0 (auto-composite)
~A     DEPTH         CALI          CGR         DRHO           DT           GR          ILD          ILM          LLD          LLS         MSFL         NPHI          PEF         POTA         RHOB         THOR         URAN
# ...
   3989.9844       0.0000    -999.2500       0.0000    -999.2500      33.3280    -999.2500    -999.2500     184.3780      90.6830      31.0660      -0.0000       0.0000    -999.2500       0.0000    -999.2500    -999.2500
   3990.1370       0.0000    -999.2500       0.0000    -999.2500      33.3280    -999.2500    -999.2500     184.3780      90.6830     305.2972      -0.0000       0.0000    -999.2500       0.0000    -999.2500    -999.2500
   3990.2893       0.0000    -999.2500       0.0000    -999.2500      33.3280    -999.2500    -999.2500     184.3780      90.6830     581.9200      -0.0000       0.0000    -999.2500       0.0000    -999.2500    -999.2500
   3990.4417       0.0000    -999.2500       0.0000    -999.2500      33.3280    -999.2500    -999.2500     184.3780      90.6830     321.3889      -0.0000       0.0000    -999.2500       0.0000    -999.2500    -999.2500
   3990.5940       0.0000    -999.2500       0.0000    -999.2500      33.3280    -999.2500    -999.2500     184.3780      90.6830      59.8090      -0.0000       0.0000    -999.2500       0.0000    -999.2500    -999.2500
   3990.7463       0.0000    -999.2500       0.0000    -999.2500      33.3280    -999.2500    -999.2500     184.3780      90.6830      86.5525      -0.0000       0.0000    -999.2500       0.0000    -999.2500    -999.2500
   3990.8989       0.0000    -999.2500       0.0000    -999.2500      33.3280    -999.2500    -999.2500     184.3780      90.6830     113.2780      -0.0000       0.0000    -999.2500       0.0000    -999.2500    -999.2500
   3991.0513       0.0000    -999.2500       0.0000    -999.2500      33.3280    -999.2500    -999.2500     184.3780      90.6830     230.6157      -0.0000       0.0000    -999.2500       0.0000    -999.2500    -999.2500
   3991.2036       0.0000    -999.2500       0.0000    -999.2500      33.3280    -999.2500    -999.2500     184.3780      90.6830     348.2650      -0.0000       0.0000    -999.2500       0.0000    -999.2500    -999.2500
   3991.3560       0.0000    -999.2500       0.0000    -999.2500      33.3280    -999.2500    -999.2500     184.3780      90.6830     226.9854      -0.0000       0.0000    -999.2500       0.0000    -999.2500    -999.2500
   3991.5085       0.0000    -999.2500       0.0000    -999.2500      33.3280    -999.2500    -999.2500     184.3780      90.6830     104.9780      -0.0000       0.0000    -999.2500       0.0000    -999.2500    -999.2500
   3991.6609       0.0000    -999.2500       0.0000    -999.2500      33.3280    -999.2500    -999.2500     184.3780      90.6830     211.2549      -0.0000       0.0000    -999.2500       0.0000    -999.2500    -999.2500
   3991.8132       0.0000    -999.2500       0.0000    -999.2500      33.3280    -999.2500    -999.2500     184.3780      90.6830     317.6710      -0.0000       0.0000    -999.2500       0.0000    -999.2500    -999.2500
   3991.9656       0.0000    -999.2500       0.0000    -999.2500      33.3280    -999.2500    -999.2500     184.3780      90.6830     161.2686      -0.0000       0.0000    -999.2500       0.0000    -999.2500    -999.2500
   3992.1182       0.0000    -999.2500       0.0000    -999.2500      33.3280    -999.2500    -999.2500     184.3780      90.6830       5.3930      -0.0000       0.0000    -999.2500       0.0000    -999.2500    -999.2500
   3992.2705       0.0000    -999.2500       0.0000    -999.2500      33.3280    -999.2500    -999.2500     184.3780      90.6830      69.7325      -0.0000       0.0000    -999.2500       0.0000    -999.2500    -999.2500
   3992.4229       0.0000    -999.2500       0.0000    -999.2500      33.3280    -999.2500    -999.2500     184.3780      90.6830     134.0690      -0.0000       0.0000    -999.2500       0.0000    -999.2500    -999.2500
   3992.5752       0.0000    -999.2500       0.0000    -999.2500      33.3280    -999.2500    -999.2500     184.3780      90.6830      71.6835      -0.0000       0.0000    -999.2500       0.0000    -999.2500    -999.2500
   3992.7275       0.0000    -999.2500       0.0000    -999.2500      33.3280    -999.2500    -999.2500     184.3780      90.6830       9.0930      -0.0000       0.0000    -999.2500       0.0000    -999.2500    -999.2500
   3992.8801       0.0000    -999.2500       0.0000    -999.2500      33.3280    -999.2500    -999.2500     184.3780      90.6830      79.4184      -0.0000       0.0000    -999.2500       0.0000    -999.2500    -999.2500
   3993.0325       0.0000    -999.2500       0.0000    -999.2500      33.3280    -999.2500    -999.2500     184.3780      90.6830     150.0970      -0.0000       0.0000    -999.2500       0.0000    -999.2500    -999.2500
   3993.1848       0.0000    -999.2500       0.0000    -999.2500      33.3280    -999.2500    -999.2500     184.3780      90.6830      92.6370      -0.0000       0.0000    -999.2500       0.0000    -999.2500    -999.2500
   3993.3372       0.0000    -999.2500       0.0000    -999.2500      33.3280    -999.2500    -999.2500     184.3780      90.6830      35.1580      -0.0000       0.0000    -999.2500       0.0000    -999.2500    -999.2500
   3993.4897       0.0000    -999.2500       0.0000    -999.2500      33.3280    -999.2500    -999.2500     184.3780      90.6830     100.1526      -0.0000       0.0000    -999.2500       0.0000    -999.2500    -999.2500
   3993.6421       0.0000    -999.2500       0.0000    -999.2500      33.3280    -999.2500    -999.2500     184.3780      90.6830     164.9690      -0.0000       0.0000    -999.2500       0.0000    -999.2500    -999.2500
   3993.7944       0.0000    -999.2500       0.0000    -999.2500      33.3280    -999.2500    -999.2500     184.3780      90.6830      99.3956      -0.0000       0.0000    -999.2500       0.0000    -999.2500    -999.2500
   3993.9468       0.0000    -999.2500       0.0000    -999.2500      33.3280    -999.2500    -999.2500     184.3780      90.6830      33.7840      -0.0000       0.0000    -999.2500       0.0000    -999.2500    -999.2500
   3994.0994       0.0000    -999.2500       0.0000    -999.2500      33.3280    -999.2500    -999.2500     184.3780      90.6830      87.4455      -0.0000       0.0000    -999.2500       0.0000    -999.2500    -999.2500
   3994.2517       0.0000    -999.2500       0.0000    -999.2500      33.3280    -999.2500    -999.2500     184.3780      90.6830     141.2310      -0.0000       0.0000    -999.2500       0.0000    -999.2500    -999.2500
   3994.4041       0.0000    -999.2500       0.0000    -999.2500      33.3280    -999.2500    -999.2500     184.3780      90.6830     118.2674      -0.0000       0.0000    -999.2500       0.0000    -999.2500    -999.2500
   3994.5564       0.0000    -999.2500       0.0000    -999.2500      33.3280    -999.2500    -999.2500     184.3780      90.6830      95.2110      -0.0000       0.0000    -999.2500       0.0000    -999.2500    -999.2500
   3994.7087       0.0000    -999.2500       0.0000    -999.2500      33.3280    -999.2500    -999.2500     184.3780      90.6830      84.3685      -0.0000       0.0000    -999.2500       0.0000    -999.2500    -999.2500
   3994.8613       0.0000    -999.2500       0.0000    -999.2500      33.3280    -999.2500    -999.2500     184.3780      90.6830      73.4460      -0.0000       0.0000    -999.2500       0.0000    -999.2500    -999.2500
   3995.0137       0.0000    -999.2500       0.0000    -999.2500      33.3280    -999.2500    -999.2500     184.3780      90.6830      73.5378      -0.0000       0.0000    -999.2500       0.0000    -999.2500    -999.2500
   3995.1660       0.0000    -999.2500       0.0000    -999.2500      33.3280    -999.2500    -999.2500     184.3780      90.6830      73.6300      -0.0000       0.0000    -999.2500       0.0000    -999.2500    -999.2500
   3995.3184       0.0000    -999.2500       0.0000    -999.2500      33.3280    -999.2500    -999.2500     184.3780      90.6830      73.9276      -0.0000       0.0000    -999.2500       0.0000    -999.2500    -999.2500
   3995.4709       0.0000    -999.2500       0.0000    -999.2500      33.3280    -999.2500    -999.2500     184.3780      90.6830      74.2250      -0.0000       0.0000    -999.2500       0.0000    -999.2500    -999.2500
