#------------------------------------------------------------------------------
#
#   Created by  : [OpenWorks] Log Export Utility (LEXP)
#   Created on  : 2016-05-19 10:02:19
#   Project     : CANT971
#   User        : R5K
#   Interpreter : PEP
#
#------------------------------------------------------------------------------
~VERSION INFORMATION
VERS. 2.0 : CWLS Log ASCII Standard - version 2.0
WRAP.  NO : One line per depth step
~WELL INFORMATION
#MNEMONIC   .UNIT                                           VALUE :DESCRIPTION
#------------------------------------------------------------------------------
STRT        .M                                          2664.8665 :START DEPTH
STOP        .M                                          3997.6045 :STOP DEPTH
STEP        .M                                             0.1524 :STEP
NULL        .                                           -999.2500 :NULL VALUE
COMP        .                                   PEMEX EXPL & PROD :COMPANY
WELL        .                                                 88H :WELL
FLD         .                                           CANTARELL :FIELD
LOC         .                                             UNKNOWN :LOCATION
CNTY        .                                      CD. DEL CARMEN :COUNTY
STAT        .                                            CAMPECHE :STATE
CTRY        .                                              MEXICO :COUNTRY
SRVC        .                                             UNKNOWN :SERVICE COMPANY
DATE        .                                             UNKNOWN :LOG DATE
UWI         .                                          3060000603 :UNIQUE WELL ID
XCOORD      .                                       597712.770000 :SURFACE X
YCOORD      .                                      2140960.400000 :SURFACE Y
LAT         .                                           19.361481 :LATITUDE
LON         .                                          -92.069630 :LONGITUDE
ELEV        .M                                            23.0000 :SURFACE ELEV
ELEV_TYPE   .                                                  KB :ELEV TYPE
~CURVE INFORMATION
#MNEMONIC.UNIT        API CODE       : CURVE DESCRIPTION
#------------------------------------------------------------------------------
DEPTH    .M                          : Measured Depth
CALI     .UNKNOWN     UNKNOWN        : CALI:registros:rC:NONE:v0 (auto-composite)
CGR      .API         UNKNOWN        : CGR:registros:rC:NONE:v0 (auto-composite)
DRHO     .UNKNOWN     UNKNOWN        : DRHO:registros:rC:NONE:v0 (auto-composite)
DT       .us/ft       UNKNOWN        : DT:registros:rC:NONE:v0 (auto-composite)
GR       .UNKNOWN     UNKNOWN        : GR:registros:rC:NONE:v0 (auto-composite)
ILD      .UNKNOWN     UNKNOWN        : ILD:registros:rC:NONE:v0 (auto-composite)
ILM      .UNKNOWN     UNKNOWN        : ILM:registros:rC:NONE:v0 (auto-composite)
LLD      .UNKNOWN     UNKNOWN        : LLD:registros:rC:NONE:v0 (auto-composite)
LLS      .UNKNOWN     UNKNOWN        : LLS:registros:rC:NONE:v0 (auto-composite)
MSFL     .UNKNOWN     UNKNOWN        : MSFL:registros:rC:NONE:v0 (auto-composite)
NPHI     .v/v_decimal UNKNOWN        : NPHI:registros:rC:NONE:v0 (auto-composite)
PEF      .UNKNOWN     UNKNOWN        : PEF:registros:rC:NONE:v0 (auto-composite)
POTA     .wtpercent   UNKNOWN        : POTA:registros:rC:NONE:v0 (auto-composite)
RHOB     .UNKNOWN     UNKNOWN        : RHOB:registros:rC:NONE:v0 (auto-composite)
THOR     .UNKNOWN     UNKNOWN        : THOR:registros:rC:NONE:v0 (auto-composite)
URAN     .ppm         UNKNOWN        : URAN:registros:rC:NONE:v0 (auto-composite)
~A     DEPTH         CALI          CGR         DRHO           DT           GR          ILD          ILM          LLD          LLS         MSFL         NPHI          PEF         POTA         RHOB         THOR         URAN
# ...
   2952.4453       8.9869    -999.2500       0.0414      60.1858      38.8167       2.3652       2.5073    -999.2500    -999.2500    -999.2500       0.2392    -999.2500    -999.2500       2.7841    -999.2500    -999.2500
   2952.5977       8.9768    -999.2500       0.0274      61.0302      37.7312       2.3933       2.4572    -999.2500    -999.2500    -999.2500       0.2441    -999.2500    -999.2500       2.7826    -999.2500    -999.2500
   2952.7500       8.9829    -999.2500       0.0396      60.4060      37.5718       2.4592       2.4411    -999.2500    -999.2500    -999.2500       0.2501    -999.2500    -999.2500       2.7789    -999.2500    -999.2500
   2952.9023       8.9989    -999.2500       0.0681      58.8726      37.9862       2.5487       2.4461    -999.2500    -999.2500    -999.2500       0.2567    -999.2500    -999.2500       2.7739    -999.2500    -999.2500
   2953.0549       8.9976    -999.2500       0.0667      57.6138      38.0609       2.5510       2.4258    -999.2500    -999.2500    -999.2500       0.2550    -999.2500    -999.2500       2.7695    -999.2500    -999.2500
   2953.2073       8.9856    -999.2500       0.0467      56.5257      37.9246       2.4990       2.3899    -999.2500    -999.2500    -999.2500       0.2482    -999.2500    -999.2500       2.7655    -999.2500    -999.2500
   2953.3596       8.9739    -999.2500       0.0325      56.4448      38.4383       2.4263       2.3504    -999.2500    -999.2500    -999.2500       0.2416    -999.2500    -999.2500       2.7600    -999.2500    -999.2500
   2953.5120       8.9624    -999.2500       0.0220      56.9963      39.3603       2.3406       2.3088    -999.2500    -999.2500    -999.2500       0.2352    -999.2500    -999.2500       2.7535    -999.2500    -999.2500
   2953.6646       8.9592    -999.2500       0.0158      57.5446      39.1430       2.3377       2.3407    -999.2500    -999.2500    -999.2500       0.2313    -999.2500    -999.2500       2.7479    -999.2500    -999.2500
   2953.8169       8.9612    -999.2500       0.0123      58.0909      38.2264       2.3857       2.4177    -999.2500    -999.2500    -999.2500       0.2290    -999.2500    -999.2500       2.7429    -999.2500    -999.2500
   2953.9692       8.9728    -999.2500       0.0095      58.7550      37.5955       2.4281       2.5321    -999.2500    -999.2500    -999.2500       0.2314    -999.2500    -999.2500       2.7351    -999.2500    -999.2500
   2954.1216       8.9903    -999.2500       0.0070      59.4917      37.1407       2.4671       2.6695    -999.2500    -999.2500    -999.2500       0.2369    -999.2500    -999.2500       2.7256    -999.2500    -999.2500
   2954.2742       8.9945    -999.2500       0.0085      60.3110      37.5470       2.4615       2.6396    -999.2500    -999.2500    -999.2500       0.2438    -999.2500    -999.2500       2.7071    -999.2500    -999.2500
   2954.4265       8.9905    -999.2500       0.0125      61.1814      38.4856       2.4285       2.5062    -999.2500    -999.2500    -999.2500       0.2516    -999.2500    -999.2500       2.6831    -999.2500    -999.2500
   2954.5789       8.9865    -999.2500       0.0180      62.3786      39.5234       2.3817       2.3691    -999.2500    -999.2500    -999.2500       0.2659    -999.2500    -999.2500       2.6665    -999.2500    -999.2500
   2954.7312       8.9825    -999.2500       0.0245      63.7729      40.6211       2.3268       2.2298    -999.2500    -999.2500    -999.2500       0.2841    -999.2500    -999.2500       2.6545    -999.2500    -999.2500
   2954.8835       8.9822    -999.2500       0.0282      63.7096      41.2127       2.2383       2.1190    -999.2500    -999.2500    -999.2500       0.2850    -999.2500    -999.2500       2.6562    -999.2500    -999.2500
   2955.0361       8.9842    -999.2500       0.0302      62.7575      41.4956       2.1294       2.0255    -999.2500    -999.2500    -999.2500       0.2754    -999.2500    -999.2500       2.6662    -999.2500    -999.2500
   2955.1885       8.9813    -999.2500       0.0288      60.7404      41.5041       2.0522       1.9657    -999.2500    -999.2500    -999.2500       0.2662    -999.2500    -999.2500       2.6803    -999.2500    -999.2500
   2955.3408       8.9753    -999.2500       0.0253      58.0715      41.3447       1.9946       1.9266    -999.2500    -999.2500    -999.2500       0.2573    -999.2500    -999.2500       2.6968    -999.2500    -999.2500
   2955.4932       8.9721    -999.2500       0.0221      56.7671      41.3566       2.0687       1.9508    -999.2500    -999.2500    -999.2500       0.2581    -999.2500    -999.2500       2.7114    -999.2500    -999.2500
   2955.6458       8.9706    -999.2500       0.0191      56.2783      41.4711       2.2216       2.0128    -999.2500    -999.2500    -999.2500       0.2648    -999.2500    -999.2500       2.7249    -999.2500    -999.2500
   2955.7981       8.9747    -999.2500       0.0199      56.3057      41.0859       2.3061       2.1034    -999.2500    -999.2500    -999.2500       0.2578    -999.2500    -999.2500       2.7359    -999.2500    -999.2500
   2955.9504       8.9822    -999.2500       0.0229      56.6428      40.4007       2.3496       2.2113    -999.2500    -999.2500    -999.2500       0.2426    -999.2500    -999.2500       2.7454    -999.2500    -999.2500
   2956.1028       8.9825    -999.2500       0.0334      56.8618      40.3579       2.3429       2.3425    -999.2500    -999.2500    -999.2500       0.2372    -999.2500    -999.2500       2.7449    -999.2500    -999.2500
   2956.2554       8.9785    -999.2500       0.0484      57.0092      40.7049       2.3058       2.4879    -999.2500    -999.2500    -999.2500       0.2377    -999.2500    -999.2500       2.7384    -999.2500    -999.2500
   2956.4077       8.9710    -999.2500       0.0681      56.9896      41.2753       2.4157       2.6434    -999.2500    -999.2500    -999.2500       0.2409    -999.2500    -999.2500       2.7300    -999.2500    -999.2500
   2956.5601       8.9615    -999.2500       0.0906      56.8712      41.9780       2.6126       2.8048    -999.2500    -999.2500    -999.2500       0.2457    -999.2500    -999.2500       2.7205    -999.2500    -999.2500
   2956.7124       8.9702    -999.2500       0.0780      56.5996      43.1832       2.7655       2.9367    -999.2500    -999.2500    -999.2500       0.2476    -999.2500    -999.2500       2.7255    -999.2500    -999.2500
   2956.8647       8.9897    -999.2500       0.0446      56.2370      44.6874       2.8924       3.0511    -999.2500    -999.2500    -999.2500       0.2479    -999.2500    -999.2500       2.7389    -999.2500    -999.2500
   2957.0173       8.9836    -999.2500       0.0370      55.8481      45.0747       3.6614       3.6166    -999.2500    -999.2500    -999.2500       0.2457    -999.2500    -999.2500       2.7540    -999.2500    -999.2500
   2957.1697       8.9621    -999.2500       0.0450      55.4433      44.7908       4.8164       4.4532    -999.2500    -999.2500    -999.2500       0.2420    -999.2500    -999.2500       2.7700    -999.2500    -999.2500
   2957.3220       8.9712    -999.2500       0.0483      55.1393      44.3863       5.5118       4.8969    -999.2500    -999.2500    -999.2500       0.2411    -999.2500    -999.2500       2.7776    -999.2500    -999.2500
   2957.4744       8.9988    -999.2500       0.0488      54.8961      43.9089       5.9300       5.1034    -999.2500    -999.2500    -999.2500       0.2419    -999.2500    -999.2500       2.7801    -999.2500    -999.2500
   2957.6270       9.0103    -999.2500       0.0484      53.9569      44.0088       5.5355       4.8237    -999.2500    -999.2500    -999.2500       0.2419    -999.2500    -999.2500       2.7775    -999.2500    -999.2500
   2957.7793       9.0123    -999.2500       0.0474      52.6080      44.4486       4.6624       4.2574    -999.2500    -999.2500    -999.2500       0.2414    -999.2500    -999.2500       2.7720    -999.2500    -999.2500
   2957.9316       9.0030    -999.2500       0.0432      51.7620      45.1986       3.9369       3.7956    -999.2500    -999.2500    -999.2500       0.2394    -999.2500    -999.2500       2.7788    -999.2500    -999.2500
