#------------------------------------------------------------------------------
#
#   Created by  : [OpenWorks] Log Export Utility (LEXP)
#   Created on  : 2016-05-19 10:02:19
#   Project     : CANT971
#   User        : R5K
#   Interpreter : PEP
#
#------------------------------------------------------------------------------
~VERSION INFORMATION
VERS. 2.0 : CWLS Log ASCII Standard - version 2.0
WRAP.  NO : One line per depth step
~WELL INFORMATION
#MNEMONIC   .UNIT                                           VALUE :DESCRIPTION
#------------------------------------------------------------------------------
STRT        .M                                          2664.8665 :START DEPTH
STOP        .M                                          3997.6045 :STOP DEPTH
STEP        .M                                             0.1524 :STEP
NULL        .                                           -999.2500 :NULL VALUE
COMP        .                                   PEMEX EXPL & PROD :COMPANY
WELL        .                                                 88H :WELL
FLD         .                                           CANTARELL :FIELD
LOC         .                                             UNKNOWN :LOCATION
CNTY        .                                      CD. DEL CARMEN :COUNTY
STAT        .                                            CAMPECHE :STATE
CTRY        .                                              MEXICO :COUNTRY
SRVC        .                                             UNKNOWN :SERVICE COMPANY
DATE        .                                             UNKNOWN :LOG DATE
UWI         .                                          3060000603 :UNIQUE WELL ID
XCOORD      .                                       597712.770000 :SURFACE X
YCOORD      .                                      2140960.400000 :SURFACE Y
LAT         .                                           19.361481 :LATITUDE
LON         .                                          -92.069630 :LONGITUDE
ELEV        .M                                            23.0000 :SURFACE ELEV
ELEV_TYPE   .                                                  KB :ELEV TYPE
~CURVE INFORMATION
#MNEMONIC.UNIT        API CODE       : CURVE DESCRIPTION
#------------------------------------------------------------------------------
DEPTH    .M                          : Measured Depth
CALI     .UNKNOWN     UNKNOWN        : CALI:registros:rC:NONE:v0 (auto-composite)
CGR      .API         UNKNOWN        : CGR:registros:rC:NONE:v0 (auto-composite)
DRHO     .UNKNOWN     UNKNOWN        : DRHO:registros:rC:NONE:v0 (auto-composite)
DT       .us/ft       UNKNOWN        : DT:registros:rC:NONE:v0 (auto-composite)
GR       .UNKNOWN     UNKNOWN        : GR:registros:rC:NONE:v0 (auto-composite)
ILD      .UNKNOWN     UNKNOWN        : ILD:registros:rC:NONE:v0 (auto-composite)
ILM      .UNKNOWN     UNKNOWN        : ILM:registros:rC:NONE:v0 (auto-composite)
LLD      .UNKNOWN     UNKNOWN        : LLD:registros:rC:NONE:v0 (auto-composite)
LLS      .UNKNOWN     UNKNOWN        : LLS:registros:rC:NONE:v0 (auto-composite)
MSFL     .UNKNOWN     UNKNOWN        : MSFL:registros:rC:NONE:v0 (auto-composite)
NPHI     .v/v_decimal UNKNOWN        : NPHI:registros:rC:NONE:v0 (auto-composite)
PEF      .UNKNOWN     UNKNOWN        : PEF:registros:rC:NONE:v0 (auto-composite)
POTA     .wtpercent   UNKNOWN        : POTA:registros:rC:NONE:v0 (auto-composite)
RHOB     .UNKNOWN     UNKNOWN        : RHOB:registros:rC:NONE:v0 (auto-composite)
THOR     .UNKNOWN     UNKNOWN        : THOR:registros:rC:NONE:v0 (auto-composite)
URAN     .ppm         UNKNOWN        : URAN:registros:rC:NONE:v0 (auto-composite)
~A     DEPTH         CALI          CGR         DRHO           DT           GR          ILD          ILM          LLD          LLS         MSFL         NPHI          PEF         POTA         RHOB         THOR         URAN
# ...
   3228.7463       8.9697       3.4288       0.0264      65.3909      44.0456    -999.2500    -999.2500     180.2008      81.2701      67.7512       0.0522       3.3461       0.0000       2.7408       0.9471       4.4993
   3228.8989       8.9595       3.6522       0.0331      66.1381      44.1087    -999.2500    -999.2500     169.6505      71.7248      71.3025       0.0491       3.3271       0.0000       2.7560       1.0197       4.4815
   3229.0513       8.9475       3.8658       0.0401      66.8817      44.1829    -999.2500    -999.2500     154.4499      58.1151      72.4703       0.0461       3.3101       0.0000       2.7676       1.0894       4.4659
   3229.2036       8.9407       4.0297       0.0414      66.7266      43.1169    -999.2500    -999.2500     133.7881      43.1937      51.9688       0.0516       3.2909       0.0000       2.7598       1.1458       4.3298
   3229.3560       8.9347       4.1866       0.0419      66.4457      41.8909    -999.2500    -999.2500     112.3598      28.0882      28.4259       0.0584       3.2714       0.0000       2.7493       1.2003       4.1769
   3229.5085       8.9099       4.0172       0.0429      66.4649      40.6698    -999.2500    -999.2500      95.1139      20.9335      23.7488       0.0643       3.2795       0.0000       2.7318       1.1479       4.0603
   3229.6609       8.8824       3.8018       0.0439      66.5263      39.4493    -999.2500    -999.2500      78.4595      14.9036      21.7406       0.0701       3.2915       0.0000       2.7133       1.0804       3.9489
   3229.8132       8.8913       3.6464       0.0361      67.1797      38.4979    -999.2500    -999.2500      72.7213      13.2624      16.4770       0.0809       3.3101       0.0000       2.6939       1.0312       3.8608
   3229.9656       8.9053       3.4995       0.0271      67.9173      37.5849    -999.2500    -999.2500      68.5397      12.2471      10.7491       0.0925       3.3297       0.0000       2.6743       0.9845       3.7761
   3230.1182       8.9294       3.3122       0.0278      67.8629      37.0494    -999.2500    -999.2500      71.1378      13.1781      17.9398       0.0898       3.4899       0.0000       2.6786       0.9244       3.7374
   3230.2705       8.9549       3.1194       0.0298      67.7016      36.5650    -999.2500    -999.2500      74.6540      14.3726      26.8798       0.0853       3.6692       0.0000       2.6861       0.8625       3.7049
   3230.4229       8.9374       3.0117       0.0340      67.9854      36.0052    -999.2500    -999.2500      82.5393      16.9076      23.2212       0.0728       3.7050       0.0000       2.7028       0.8278       3.6549
   3230.5752       8.9139       2.9157       0.0384      68.3308      35.4349    -999.2500    -999.2500      91.0301      19.6285      17.8166       0.0592       3.7210       0.0000       2.7208       0.7968       3.6024
   3230.7275       8.9246       2.9520       0.0434      69.2879      34.4429    -999.2500    -999.2500      95.1289      20.4147      21.7305       0.0578       3.7076       0.0000       2.7274       0.8119       3.4886
   3230.8801       8.9402       3.0066       0.0484      70.3303      33.3920    -999.2500    -999.2500      98.6141      20.9306      26.9465       0.0581       3.6901       0.0000       2.7324       0.8335       3.3663
   3231.0325       8.9835       3.5030       0.0411      67.7703      32.2651    -999.2500    -999.2500      97.6809      19.6605      19.6231       0.0583       3.5446       0.0000       2.7096       0.9936       3.1865
   3231.1848       9.0305       4.0578       0.0321      64.7341      31.1281    -999.2500    -999.2500      96.1621      18.1537      10.6375       0.0584       3.3822       0.0000       2.6831       1.1720       2.9990
   3231.3372       8.9858       3.9824       0.0222      62.0773      31.1059    -999.2500    -999.2500     102.1055      19.4728      17.5106       0.0611       3.3317       0.0000       2.6646       1.1476       3.0048
   3231.4897       8.9289       3.8231       0.0122      59.4710      31.2327    -999.2500    -999.2500     109.0465      21.1697      26.5035       0.0642       3.2963       0.0000       2.6471       1.0962       3.0362
   3231.6421       8.9705       3.6434       0.0123      59.7029      31.4888    -999.2500    -999.2500     112.4722      22.2772      23.0733       0.0638       3.2519       0.0000       2.6384       1.0384       3.0846
   3231.7944       9.0257       3.4609       0.0138      60.3221      31.7626    -999.2500    -999.2500     115.4169      23.3041      17.9431       0.0629       3.2062       0.0000       2.6309       0.9797       3.1352
   3231.9468       9.0948       3.1621       0.0330      61.8454      31.9395    -999.2500    -999.2500     104.3669      20.0864      12.1541       0.0775       3.1683       0.0000       2.5300       0.8832       3.1879
   3232.0994       9.1658       2.8482       0.0545      63.4857      32.1040    -999.2500    -999.2500      91.5015      16.3180       6.2797       0.0942       3.1313       0.0000       2.4171       0.7817       3.2409
   3232.2517       9.5595       2.7236       0.0658      62.3758      32.1619    -999.2500    -999.2500      83.2789      13.6285       3.6945       0.1245       3.1681       0.0000       2.3678       0.7413       3.2611
   3232.4041       9.9955       2.6238       0.0758      60.9071      32.2058    -999.2500    -999.2500      75.6638      11.0801       1.5396       0.1565       3.2145       0.0000       2.3268       0.7088       3.2771
   3232.5564      10.3590       2.9272       0.1012      60.5360      32.2299    -999.2500    -999.2500      74.9473      10.7693       0.8566       0.1913       3.3624       0.0000       2.4154       0.8099       3.2459
   3232.7087      10.7129       3.2846       0.1287      60.3116      32.2514    -999.2500    -999.2500      75.1553      10.7583       0.3708       0.2264       3.5238       0.0000       2.5214       0.9289       3.2085
   3232.8613      10.3659       3.2210       0.1152      60.0857      32.1542    -999.2500    -999.2500      82.5482      13.2765       1.9853       0.1760       3.5386       0.0000       2.6206       0.9174       3.2049
   3233.0137       9.9241       3.1006       0.0962      59.8596      32.0409    -999.2500    -999.2500      90.9119      16.1365       3.8836       0.1141       3.5336       0.0000       2.7188       0.8883       3.2059
   3233.1660       9.6773       3.0879       0.0887      57.9069      31.8867    -999.2500    -999.2500      90.5504      16.9426       6.7189       0.0979       3.5122       0.0000       2.7256       0.8788       3.1900
   3233.3184       9.4554       3.0889       0.0827      55.7338      31.7272    -999.2500    -999.2500      89.0720      17.4859       9.6741       0.0875       3.4887       0.0000       2.7206       0.8718       3.1721
   3233.4709       9.3813       3.1580       0.0869      56.6850      31.5299    -999.2500    -999.2500      81.2312      15.3123       6.9633       0.0927       3.5696       0.0000       2.7041       0.8878       3.1426
   3233.6233       9.3264       3.2359       0.0924      58.0383      31.3276    -999.2500    -999.2500      72.5688      12.7879       3.5211       0.1000       3.6640       0.0000       2.6861       0.9068       3.1116
   3233.7756       9.9276       3.7150       0.0912      60.9508      31.5564    -999.2500    -999.2500      68.3155      11.3682       2.0018       0.1162       3.7658       0.0000       2.6588       1.0609       3.0841
   3233.9280      10.6155       4.2470       0.0892      64.0690      31.8422    -999.2500    -999.2500      64.6454      10.0947       0.7368       0.1336       3.8686       0.0000       2.6302       1.2329       3.0570
   3234.0806      10.6360       4.3544       0.0641      65.7484      31.8145    -999.2500    -999.2500      66.6613      10.4185       1.2010       0.1560       3.8498       0.0000       2.5826       1.2600       3.0420
   3234.2329      10.5731       4.4089       0.0361      67.2483      31.7475    -999.2500    -999.2500      69.3891      10.9423       1.8817       0.1789       3.8158       0.0000       2.5326       1.2690       3.0285
