#------------------------------------------------------------------------------
#
#   Created by  : [OpenWorks] Log Export Utility (LEXP)
#   Created on  : 2016-05-19 10:02:19
#   Project     : CANT971
#   User        : R5K
#   Interpreter : PEP
#
#------------------------------------------------------------------------------
~VERSION INFORMATION
VERS. 2.0 : CWLS Log ASCII Standard - version 2.0
WRAP.  NO : One line per depth step
~WELL INFORMATION
#MNEMONIC   .UNIT                                           VALUE :DESCRIPTION
#------------------------------------------------------------------------------
STRT        .M                                          2664.8665 :START DEPTH
STOP        .M                                          3997.6045 :STOP DEPTH
STEP        .M                                             0.1524 :STEP
NULL        .                                           -999.2500 :NULL VALUE
COMP        .                                   PEMEX EXPL & PROD :COMPANY
WELL        .                                                 88H :WELL
FLD         .                                           CANTARELL :FIELD
LOC         .                                             UNKNOWN :LOCATION
CNTY        .                                      CD. DEL CARMEN :COUNTY
STAT        .                                            CAMPECHE :STATE
CTRY        .                                              MEXICO :COUNTRY
SRVC        .                                             UNKNOWN :SERVICE COMPANY
DATE        .                                             UNKNOWN :LOG DATE
UWI         .                                          3060000603 :UNIQUE WELL ID
XCOORD      .                                       597712.770000 :SURFACE X
YCOORD      .                                      2140960.400000 :SURFACE Y
LAT         .                                           19.361481 :LATITUDE
LON         .                                          -92.069630 :LONGITUDE
ELEV        .M                                            23.0000 :SURFACE ELEV
ELEV_TYPE   .                                                  KB :ELEV TYPE
~CURVE INFORMATION
#MNEMONIC.UNIT        API CODE       : CURVE DESCRIPTION
#------------------------------------------------------------------------------
DEPTH    .M                          : Measured Depth
CALI     .UNKNOWN     UNKNOWN        : CALI:registros:rC:NONE:v0 (auto-composite)
CGR      .API         UNKNOWN        : CGR:registros:rC:NONE:v0 (auto-composite)
DRHO     .UNKNOWN     UNKNOWN        : DRHO:registros:rC:NONE:v0 (auto-composite)
DT       .us/ft       UNKNOWN        : DT:registros:rC:NONE:v0 (auto-composite)
GR       .UNKNOWN     UNKNOWN        : GR:registros:rC:NONE:v0 (auto-composite)
ILD      .UNKNOWN     UNKNOWN        : ILD:registros:rC:NONE:v0 (auto-composite)
ILM      .UNKNOWN     UNKNOWN        : ILM:registros:rC:NONE:v0 (auto-composite)
LLD      .UNKNOWN     UNKNOWN        : LLD:registros:rC:NONE:v0 (auto-composite)
LLS      .UNKNOWN     UNKNOWN        : LLS:registros:rC:NONE:v0 (auto-composite)
MSFL     .UNKNOWN     UNKNOWN        : MSFL:registros:rC:NONE:v0 (auto-composite)
NPHI     .v/v_decimal UNKNOWN        : NPHI:registros:rC:NONE:v0 (auto-composite)
PEF      .UNKNOWN     UNKNOWN        : PEF:registros:rC:NONE:v0 (auto-composite)
POTA     .wtpercent   UNKNOWN        : POTA:registros:rC:NONE:v0 (auto-composite)
RHOB     .UNKNOWN     UNKNOWN        : RHOB:registros:rC:NONE:v0 (auto-composite)
THOR     .UNKNOWN     UNKNOWN        : THOR:registros:rC:NONE:v0 (auto-composite)
URAN     .ppm         UNKNOWN        : URAN:registros:rC:NONE:v0 (auto-composite)
~A     DEPTH         CALI          CGR         DRHO           DT           GR          ILD          ILM          LLD          LLS         MSFL         NPHI          PEF         POTA         RHOB         THOR         URAN
# ...
   3505.0476       9.1360    -999.2500      -0.0020    -999.2500      65.4770    -999.2500    -999.2500    1400.0140     896.5110    1633.4680       0.0510       3.1840    -999.2500       2.7820    -999.2500    -999.2500
   3505.2000       9.1335    -999.2500       0.0040    -999.2500      64.5772    -999.2500    -999.2500    1384.1290     880.9940    1038.0981       0.0475       3.2064    -999.2500       2.7835    -999.2500    -999.2500
   3505.3525       9.1310    -999.2500       0.0100    -999.2500      63.6720    -999.2500    -999.2500    1368.1500     865.3850     439.2020       0.0440       3.2290    -999.2500       2.7850    -999.2500    -999.2500
   3505.5049       9.1260    -999.2500       0.0105    -999.2500      59.6540    -999.2500    -999.2500    1528.5623     916.1588     713.0578       0.0465       3.3025    -999.2500       2.7710    -999.2500    -999.2500
   3505.6572       9.1210    -999.2500       0.0110    -999.2500      55.6310    -999.2500    -999.2500    1689.1720     966.9950     987.2510       0.0490       3.3760    -999.2500       2.7570    -999.2500    -999.2500
   3505.8096       9.1310    -999.2500       0.0085    -999.2500      50.1531    -999.2500    -999.2500    2478.9414    1332.3489    1399.5182       0.0560       3.3149    -999.2500       2.7269    -999.2500    -999.2500
   3505.9622       9.1410    -999.2500       0.0060    -999.2500      44.6940    -999.2500    -999.2500    3265.9900    1696.4440    1810.3650       0.0630       3.2540    -999.2500       2.6970    -999.2500    -999.2500
   3506.1145       9.1750    -999.2500       0.0010    -999.2500      41.5748    -999.2500    -999.2500    6494.5103    3325.1570    1778.5050       0.1050       3.2845    -999.2500       2.6555    -999.2500    -999.2500
   3506.2668       9.2090    -999.2500      -0.0040    -999.2500      38.4560    -999.2500    -999.2500    9722.6338    4953.6699    1746.6490       0.1470       3.3150    -999.2500       2.6140    -999.2500    -999.2500
   3506.4192       9.1820    -999.2500      -0.0010    -999.2500      38.2838    -999.2500    -999.2500    8628.2197    4767.7700    1718.3585       0.1455       3.2811    -999.2500       2.6420    -999.2500    -999.2500
   3506.5715       9.1550    -999.2500       0.0020    -999.2500      38.1110    -999.2500    -999.2500    7530.2920    4581.2729    1689.9771       0.1439       3.2470    -999.2500       2.6700    -999.2500    -999.2500
   3506.7241       9.1675    -999.2500       0.0000    -999.2500      43.9795    -999.2500    -999.2500    3977.4543    2460.6294     909.1693       0.1185       3.1542    -999.2500       2.6670    -999.2500    -999.2500
   3506.8765       9.1800    -999.2500      -0.0020    -999.2500      49.8770    -999.2500    -999.2500     407.0510     329.5010     124.5010       0.0930       3.0610    -999.2500       2.6640    -999.2500    -999.2500
   3507.0288       9.1795    -999.2500       0.0025    -999.2500      66.8902    -999.2500    -999.2500     366.2732     331.3807    1012.1538       0.1099       3.1088    -999.2500       2.6819    -999.2500    -999.2500
   3507.1812       9.1790    -999.2500       0.0070    -999.2500      84.0170    -999.2500    -999.2500     325.2230     333.2730    1905.7371       0.1270       3.1570    -999.2500       2.7000    -999.2500    -999.2500
   3507.3337       9.1525    -999.2500       0.0050    -999.2500      73.3532    -999.2500    -999.2500     562.4993     580.4185    1842.9928       0.1230       3.1071    -999.2500       2.7230    -999.2500    -999.2500
   3507.4861       9.1260    -999.2500       0.0030    -999.2500      62.6510    -999.2500    -999.2500     800.6290     828.4530    1780.0229       0.1190       3.0570    -999.2500       2.7460    -999.2500    -999.2500
   3507.6384       9.1615    -999.2500       0.0015    -999.2500      68.4560    -999.2500    -999.2500     725.1391     760.0773     958.4728       0.0920       3.0735    -999.2500       2.7740    -999.2500    -999.2500
   3507.7908       9.1970    -999.2500       0.0000    -999.2500      74.2640    -999.2500    -999.2500     649.6110     691.6670     136.5080       0.0650       3.0900    -999.2500       2.8020    -999.2500    -999.2500
   3507.9434       9.1660    -999.2500       0.0010    -999.2500      73.1313    -999.2500    -999.2500     503.2834     532.5787     158.1843       0.0485       3.2323    -999.2500       2.7990    -999.2500    -999.2500
   3508.0957       9.1350    -999.2500       0.0020    -999.2500      71.9960    -999.2500    -999.2500     356.6290     373.1350     179.9090       0.0320       3.3750    -999.2500       2.7960    -999.2500    -999.2500
   3508.2480       9.1525    -999.2500       0.0125    -999.2500      62.2034    -999.2500    -999.2500     399.6627     406.4534    1028.0192       0.0335       3.2687    -999.2500       2.6912    -999.2500    -999.2500
   3508.4004       9.1700    -999.2500       0.0230    -999.2500      52.3720    -999.2500    -999.2500     442.8670     439.9040    1879.4930       0.0350       3.1620    -999.2500       2.5860    -999.2500    -999.2500
   3508.5527       9.2387    -999.2500       0.0355    -999.2500      40.8770    -999.2500    -999.2500    1666.4370    1421.8878    1862.5161       0.0664       3.1735    -999.2500       2.6139    -999.2500    -999.2500
   3508.7053       9.3080    -999.2500       0.0480    -999.2500      29.2980    -999.2500    -999.2500    2898.9480    2411.0471    1845.4150       0.0980       3.1850    -999.2500       2.6420    -999.2500    -999.2500
   3508.8577       9.2476    -999.2500       0.0385    -999.2500      34.4716    -999.2500    -999.2500   12985.5850    8955.7129    1734.2197       0.0915       3.1805    -999.2500       2.7183    -999.2500    -999.2500
   3509.0100       9.1870    -999.2500       0.0290    -999.2500      39.6670    -999.2500    -999.2500   23114.9082   15528.0742    1622.5540       0.0849       3.1760    -999.2500       2.7950    -999.2500    -999.2500
   3509.1624       9.1935    -999.2500       0.0160    -999.2500      70.4832    -999.2500    -999.2500   17894.5098   11593.7480     859.8067       0.0645       3.1225    -999.2500       2.7765    -999.2500    -999.2500
   3509.3149       9.2000    -999.2500       0.0030    -999.2500     101.2850    -999.2500    -999.2500   12676.5586    7661.2661      97.4170       0.0440       3.0690    -999.2500       2.7580    -999.2500    -999.2500
   3509.4673       9.1945    -999.2500       0.0070    -999.2500      80.7124    -999.2500    -999.2500   13653.5518   10175.7266    1005.7526       0.0585       3.0785    -999.2500       2.7295    -999.2500    -999.2500
   3509.6196       9.1890    -999.2500       0.0110    -999.2500      60.0810    -999.2500    -999.2500   14633.3398   12697.3809    1916.6870       0.0730       3.0880    -999.2500       2.7010    -999.2500    -999.2500
   3509.7720       9.2264    -999.2500       0.0095    -999.2500      48.8264    -999.2500    -999.2500    8769.3945    7828.5459    1831.9500       0.0850       3.0711    -999.2500       2.6905    -999.2500    -999.2500
   3509.9246       9.2640    -999.2500       0.0080    -999.2500      37.5020    -999.2500    -999.2500    2869.0540    2929.4919    1746.6870       0.0970       3.0540    -999.2500       2.6800    -999.2500    -999.2500
   3510.0769       9.2385    -999.2500       0.0090    -999.2500      38.5962    -999.2500    -999.2500    1733.1580    1783.7959    1176.6748       0.0840       3.1180    -999.2500       2.7020    -999.2500    -999.2500
   3510.2292       9.2130    -999.2500       0.0100    -999.2500      39.6920    -999.2500    -999.2500     595.5410     636.3640     605.7990       0.0710       3.1820    -999.2500       2.7240    -999.2500    -999.2500
   3510.3816       9.2000    -999.2500       0.0050    -999.2500      42.7769    -999.2500    -999.2500    1514.5435    1555.8228     337.1024       0.0710       3.1419    -999.2500       2.7110    -999.2500    -999.2500
   3510.5339       9.1870    -999.2500       0.0000    -999.2500      45.8520    -999.2500    -999.2500    2430.6379    2472.3721      69.2560       0.0710       3.1020    -999.2500       2.6980    -999.2500    -999.2500
