#------------------------------------------------------------------------------
#
#   Created by  : [OpenWorks] Log Export Utility (LEXP)
#   Created on  : 2016-05-19 10:02:19
#   Project     : CANT971
#   User        : R5K
#   Interpreter : PEP
#
#------------------------------------------------------------------------------
~VERSION INFORMATION
VERS. 2.0 : CWLS Log ASCII Standard - version 2.0
WRAP.  NO : One line per depth step
~WELL INFORMATION
#MNEMONIC   .UNIT                                           VALUE :DESCRIPTION
#------------------------------------------------------------------------------
STRT        .M                                          2664.8665 :START DEPTH
STOP        .M                                          3997.6045 :STOP DEPTH
STEP        .M                                             0.1524 :STEP
NULL        .                                           -999.2500 :NULL VALUE
COMP        .                                   PEMEX EXPL & PROD :COMPANY
WELL        .                                                 88H :WELL
FLD         .                                           CANTARELL :FIELD
LOC         .                                             UNKNOWN :LOCATION
CNTY        .                                      CD. DEL CARMEN :COUNTY
STAT        .                                            CAMPECHE :STATE
CTRY        .                                              MEXICO :COUNTRY
SRVC        .                                             UNKNOWN :SERVICE COMPANY
DATE        .                                             UNKNOWN :LOG DATE
UWI         .                                          3060000603 :UNIQUE WELL ID
XCOORD      .                                       597712.770000 :SURFACE X
YCOORD      .                                      2140960.400000 :SURFACE Y
LAT         .                                           19.361481 :LATITUDE
LON         .                                          -92.069630 :LONGITUDE
ELEV        .M                                            23.0000 :SURFACE ELEV
ELEV_TYPE   .                                                  KB :ELEV TYPE
~CURVE INFORMATION
#MNEMONIC.UNIT        API CODE       : CURVE DESCRIPTION
#------------------------------------------------------------------------------
DEPTH    .M                          : Measured Depth
CALI     .UNKNOWN     UNKNOWN        : CALI:registros:rC:NONE:v0 (auto-composite)
CGR      .API         UNKNOWN        : CGR:registros:rC:NONE:v0 (auto-composite)
DRHO     .UNKNOWN     UNKNOWN        : DRHO:registros:rC:NONE:v0 (auto-composite)
DT       .us/ft       UNKNOWN        : DT:registros:rC:NONE:v0 (auto-composite)
GR       .UNKNOWN     UNKNOWN        : GR:registros:rC:NONE:v0 (auto-composite)
ILD      .UNKNOWN     UNKNOWN        : ILD:registros:rC:NONE:v0 (auto-composite)
ILM      .UNKNOWN     UNKNOWN        : ILM:registros:rC:NONE:v0 (auto-composite)
LLD      .UNKNOWN     UNKNOWN        : LLD:registros:rC:NONE:v0 (auto-composite)
LLS      .UNKNOWN     UNKNOWN        : LLS:registros:rC:NONE:v0 (auto-composite)
MSFL     .UNKNOWN     UNKNOWN        : MSFL:registros:rC:NONE:v0 (auto-composite)
NPHI     .v/v_decimal UNKNOWN        : NPHI:registros:rC:NONE:v0 (auto-composite)
PEF      .UNKNOWN     UNKNOWN        : PEF:registros:rC:NONE:v0 (auto-composite)
POTA     .wtpercent   UNKNOWN        : POTA:registros:rC:NONE:v0 (auto-composite)
RHOB     .UNKNOWN     UNKNOWN        : RHOB:registros:rC:NONE:v0 (auto-composite)
THOR     .UNKNOWN     UNKNOWN        : THOR:registros:rC:NONE:v0 (auto-composite)
URAN     .ppm         UNKNOWN        : URAN:registros:rC:NONE:v0 (auto-composite)
~A     DEPTH         CALI          CGR         DRHO           DT           GR          ILD          ILM          LLD          LLS         MSFL         NPHI          PEF         POTA         RHOB         THOR         URAN
# ...
   3437.3821      10.1860    -999.2500      -0.0010    -999.2500      13.2670    -999.2500    -999.2500    1230.5150     870.1530    1006.2730       0.0600       3.0910    -999.2500       2.7520    -999.2500    -999.2500
   3437.5344      10.2170    -999.2500      -0.0040    -999.2500      12.3507    -999.2500    -999.2500    2495.0903    1647.6786     831.3162       0.0615       3.0505    -999.2500       2.7500    -999.2500    -999.2500
   3437.6868      10.2480    -999.2500      -0.0070    -999.2500      11.4340    -999.2500    -999.2500    3760.2390    2425.5569     656.2800       0.0630       3.0100    -999.2500       2.7480    -999.2500    -999.2500
   3437.8394      10.2125    -999.2500      -0.0075    -999.2500      11.8585    -999.2500    -999.2500    4788.7485    3065.4111     792.4109       0.0615       3.0165    -999.2500       2.7340    -999.2500    -999.2500
   3437.9917      10.1770    -999.2500      -0.0080    -999.2500      12.2840    -999.2500    -999.2500    5819.5029    3706.6621     928.8390       0.0600       3.0230    -999.2500       2.7200    -999.2500    -999.2500
   3438.1440      10.1680    -999.2500      -0.0025    -999.2500      12.6679    -999.2500    -999.2500    5696.2720    3519.2637     692.1472       0.0630       3.1058    -999.2500       2.7265    -999.2500    -999.2500
   3438.2964      10.1590    -999.2500       0.0030    -999.2500      13.0540    -999.2500    -999.2500    5572.3608    3330.8311     454.1490       0.0660       3.1890    -999.2500       2.7330    -999.2500    -999.2500
   3438.4490      10.0918    -999.2500       0.0025    -999.2500      20.4581    -999.2500    -999.2500    3724.6169    2237.4358     306.4276       0.0715       3.1148    -999.2500       2.7300    -999.2500    -999.2500
   3438.6013      10.0240    -999.2500       0.0020    -999.2500      27.9280    -999.2500    -999.2500    1860.4730    1134.3361     157.3950       0.0770       3.0400    -999.2500       2.7270    -999.2500    -999.2500
   3438.7537       9.9791    -999.2500      -0.0010    -999.2500      37.6991    -999.2500    -999.2500    1734.0193    1041.7131     234.4899       0.0750       3.0585    -999.2500       2.7345    -999.2500    -999.2500
   3438.9060       9.9340    -999.2500      -0.0040    -999.2500      47.5110    -999.2500    -999.2500    1607.0370     948.7030     311.9070       0.0730       3.0770    -999.2500       2.7420    -999.2500    -999.2500
   3439.0583       9.8740    -999.2500      -0.0030    -999.2500      36.7842    -999.2500    -999.2500    2129.9790    1229.5641     310.8457       0.0635       3.2695    -999.2500       2.7615    -999.2500    -999.2500
   3439.2109       9.8140    -999.2500      -0.0020    -999.2500      26.0630    -999.2500    -999.2500    2652.6489    1510.2791     309.7850       0.0540       3.4620    -999.2500       2.7810    -999.2500    -999.2500
   3439.3633       9.8490    -999.2500      -0.0010    -999.2500      22.8001    -999.2500    -999.2500    3484.4561    1958.5558     233.6764       0.0500       3.3586    -999.2500       2.7945    -999.2500    -999.2500
   3439.5156       9.8840    -999.2500       0.0000    -999.2500      19.5280    -999.2500    -999.2500    4318.6001    2408.0920     157.3540       0.0460       3.2550    -999.2500       2.8080    -999.2500    -999.2500
   3439.6680       9.8705    -999.2500       0.0015    -999.2500      20.2388    -999.2500    -999.2500    5768.8633    3403.9473     627.8875       0.0460       3.1792    -999.2500       2.7935    -999.2500    -999.2500
   3439.8206       9.8570    -999.2500       0.0030    -999.2500      20.9540    -999.2500    -999.2500    7228.0532    4405.9321    1101.3170       0.0460       3.1030    -999.2500       2.7790    -999.2500    -999.2500
   3439.9729       9.8455    -999.2500       0.0035    -999.2500      22.0292    -999.2500    -999.2500    7052.7983    4328.2339     706.8602       0.0530       3.1954    -999.2500       2.7605    -999.2500    -999.2500
   3440.1252       9.8340    -999.2500       0.0040    -999.2500      23.1060    -999.2500    -999.2500    6877.2871    4250.4219     311.8260       0.0600       3.2880    -999.2500       2.7420    -999.2500    -999.2500
   3440.2776       9.8971    -999.2500       0.0005    -999.2500      23.1651    -999.2500    -999.2500    5458.9634    3502.7449     494.9925       0.0675       3.1858    -999.2500       2.7190    -999.2500    -999.2500
   3440.4302       9.9600    -999.2500      -0.0030    -999.2500      23.2240    -999.2500    -999.2500    4045.2000    2757.4719     677.5700       0.0750       3.0840    -999.2500       2.6960    -999.2500    -999.2500
   3440.5825       9.8970    -999.2500      -0.0025    -999.2500      23.8600    -999.2500    -999.2500    3246.4434    2214.4556     378.5786       0.0740       3.1965    -999.2500       2.7010    -999.2500    -999.2500
   3440.7349       9.8340    -999.2500      -0.0020    -999.2500      24.4960    -999.2500    -999.2500    2447.6011    1671.3810      79.5550       0.0730       3.3090    -999.2500       2.7060    -999.2500    -999.2500
   3440.8872       9.8155    -999.2500      -0.0055    -999.2500      24.7770    -999.2500    -999.2500    2765.6716    1923.5190     305.6255       0.0780       3.2541    -999.2500       2.6965    -999.2500    -999.2500
   3441.0396       9.7970    -999.2500      -0.0090    -999.2500      25.0590    -999.2500    -999.2500    3084.8369    2176.5249     532.4740       0.0830       3.1990    -999.2500       2.6870    -999.2500    -999.2500
   3441.1921       9.8623    -999.2500      -0.0075    -999.2500      28.5136    -999.2500    -999.2500    2791.4434    2002.7003     394.8641       0.0815       3.2643    -999.2500       2.6920    -999.2500    -999.2500
   3441.3445       9.9280    -999.2500      -0.0060    -999.2500      31.9860    -999.2500    -999.2500    2496.5310    1827.9760     256.5420       0.0800       3.3300    -999.2500       2.6970    -999.2500    -999.2500
   3441.4968       9.8975    -999.2500      -0.0080    -999.2500      31.7321    -999.2500    -999.2500    2241.5154    1673.2311     171.3582       0.0755       3.3045    -999.2500       2.6805    -999.2500    -999.2500
   3441.6492       9.8670    -999.2500      -0.0100    -999.2500      31.4780    -999.2500    -999.2500    1986.3760    1518.4110      86.1330       0.0710       3.2790    -999.2500       2.6640    -999.2500    -999.2500
   3441.8018       9.8465    -999.2500      -0.0075    -999.2500      25.6635    -999.2500    -999.2500    1461.4729    1175.6931     131.4276       0.0730       3.1944    -999.2500       2.6680    -999.2500    -999.2500
   3441.9541       9.8260    -999.2500      -0.0050    -999.2500      19.8640    -999.2500    -999.2500     937.9280     833.8620     176.6050       0.0750       3.1100    -999.2500       2.6720    -999.2500    -999.2500
   3442.1064       9.9075    -999.2500      -0.0070    -999.2500      21.4329    -999.2500    -999.2500     802.7947     786.0821     206.7684       0.0815       3.4069    -999.2500       2.6590    -999.2500    -999.2500
   3442.2588       9.9890    -999.2500      -0.0090    -999.2500      23.0030    -999.2500    -999.2500     667.5620     738.2670     236.9540       0.0880       3.7040    -999.2500       2.6460    -999.2500    -999.2500
   3442.4114       9.9166    -999.2500      -0.0070    -999.2500      26.2011    -999.2500    -999.2500     455.8170     522.0446     133.6658       0.0840       3.6156    -999.2500       2.6770    -999.2500    -999.2500
   3442.5637       9.8440    -999.2500      -0.0050    -999.2500      29.4070    -999.2500    -999.2500     243.5500     305.2890      30.1230       0.0800       3.5270    -999.2500       2.7080    -999.2500    -999.2500
   3442.7161       9.9268    -999.2500      -0.0065    -999.2500      33.5927    -999.2500    -999.2500     154.3497     195.4146      56.5585       0.0820       3.3409    -999.2500       2.7260    -999.2500    -999.2500
   3442.8684      10.0100    -999.2500      -0.0080    -999.2500      37.7960    -999.2500    -999.2500      64.7750      85.0790      83.1050       0.0840       3.1540    -999.2500       2.7440    -999.2500    -999.2500
