#------------------------------------------------------------------------------
#
#   Created by  : [OpenWorks] Log Export Utility (LEXP)
#   Created on  : 2016-05-19 10:02:19
#   Project     : CANT971
#   User        : R5K
#   Interpreter : PEP
#
#------------------------------------------------------------------------------
~VERSION INFORMATION
VERS. 2.0 : CWLS Log ASCII Standard - version 2.0
WRAP.  NO : One line per depth step
~WELL INFORMATION
#MNEMONIC   .UNIT                                           VALUE :DESCRIPTION
#------------------------------------------------------------------------------
STRT        .M                                          2664.8665 :START DEPTH
STOP        .M                                          3997.6045 :STOP DEPTH
STEP        .M                                             0.1524 :STEP
NULL        .                                           -999.2500 :NULL VALUE
COMP        .                                   PEMEX EXPL & PROD :COMPANY
WELL        .                                                 88H :WELL
FLD         .                                           CANTARELL :FIELD
LOC         .                                             UNKNOWN :LOCATION
CNTY        .                                      CD. DEL CARMEN :COUNTY
STAT        .                                            CAMPECHE :STATE
CTRY        .                                              MEXICO :COUNTRY
SRVC        .                                             UNKNOWN :SERVICE COMPANY
DATE        .                                             UNKNOWN :LOG DATE
UWI         .                                          3060000603 :UNIQUE WELL ID
XCOORD      .                                       597712.770000 :SURFACE X
YCOORD      .                                      2140960.400000 :SURFACE Y
LAT         .                                           19.361481 :LATITUDE
LON         .                                          -92.069630 :LONGITUDE
ELEV        .M                                            23.0000 :SURFACE ELEV
ELEV_TYPE   .                                                  KB :ELEV TYPE
~CURVE INFORMATION
#MNEMONIC.UNIT        API CODE       : CURVE DESCRIPTION
#------------------------------------------------------------------------------
DEPTH    .M                          : Measured Depth
CALI     .UNKNOWN     UNKNOWN        : CALI:registros:rC:NONE:v0 (auto-composite)
CGR      .API         UNKNOWN        : CGR:registros:rC:NONE:v0 (auto-composite)
DRHO     .UNKNOWN     UNKNOWN        : DRHO:registros:rC:NONE:v0 (auto-composite)
DT       .us/ft       UNKNOWN        : DT:registros:rC:NONE:v0 (auto-composite)
GR       .UNKNOWN     UNKNOWN        : GR:registros:rC:NONE:v0 (auto-composite)
ILD      .UNKNOWN     UNKNOWN        : ILD:registros:rC:NONE:v0 (auto-composite)
ILM      .UNKNOWN     UNKNOWN        : ILM:registros:rC:NONE:v0 (auto-composite)
LLD      .UNKNOWN     UNKNOWN        : LLD:registros:rC:NONE:v0 (auto-composite)
LLS      .UNKNOWN     UNKNOWN        : LLS:registros:rC:NONE:v0 (auto-composite)
MSFL     .UNKNOWN     UNKNOWN        : MSFL:registros:rC:NONE:v0 (auto-composite)
NPHI     .v/v_decimal UNKNOWN        : NPHI:registros:rC:NONE:v0 (auto-composite)
PEF      .UNKNOWN     UNKNOWN        : PEF:registros:rC:NONE:v0 (auto-composite)
POTA     .wtpercent   UNKNOWN        : POTA:registros:rC:NONE:v0 (auto-composite)
RHOB     .UNKNOWN     UNKNOWN        : RHOB:registros:rC:NONE:v0 (auto-composite)
THOR     .UNKNOWN     UNKNOWN        : THOR:registros:rC:NONE:v0 (auto-composite)
URAN     .ppm         UNKNOWN        : URAN:registros:rC:NONE:v0 (auto-composite)
~A     DEPTH         CALI          CGR         DRHO           DT           GR          ILD          ILM          LLD          LLS         MSFL         NPHI          PEF         POTA         RHOB         THOR         URAN
# ...
   3922.3188       9.0520    -999.2500       0.0300    -999.2500      13.7330    -999.2500    -999.2500    1108.2040     372.2360     726.7670       0.1450       3.2820    -999.2500       2.4970    -999.2500    -999.2500
   3922.4712       9.0141    -999.2500       0.0130    -999.2500      13.5094    -999.2500    -999.2500    1371.1086     451.9416     380.5342       0.1245       3.3878    -999.2500       2.5669    -999.2500    -999.2500
   3922.6235       8.9760    -999.2500      -0.0040    -999.2500      13.2850    -999.2500    -999.2500    1634.8640     531.9050      33.1810       0.1039       3.4940    -999.2500       2.6370    -999.2500    -999.2500
   3922.7761       8.7630    -999.2500      -0.0005    -999.2500      12.0411    -999.2500    -999.2500    1837.7224     590.9298      49.4022       0.0795       3.4197    -999.2500       2.7113    -999.2500    -999.2500
   3922.9285       8.5490    -999.2500       0.0030    -999.2500      10.7910    -999.2500    -999.2500    2041.5890     650.2480      65.7040       0.0550       3.3450    -999.2500       2.7860    -999.2500    -999.2500
   3923.0808       8.7663    -999.2500       0.0020    -999.2500      12.0822    -999.2500    -999.2500    2090.6296     642.0594     435.5742       0.0550       3.3580    -999.2500       2.7800    -999.2500    -999.2500
   3923.2332       8.9850    -999.2500       0.0010    -999.2500      13.3820    -999.2500    -999.2500    2139.9990     633.8160     807.9250       0.0550       3.3710    -999.2500       2.7740    -999.2500    -999.2500
   3923.3857       8.8253    -999.2500       0.0065    -999.2500      13.3610    -999.2500    -999.2500    1962.3738     603.9960     461.7390       0.0595       3.4593    -999.2500       2.7740    -999.2500    -999.2500
   3923.5381       8.6650    -999.2500       0.0120    -999.2500      13.3400    -999.2500    -999.2500    1784.1050     574.0680     114.2990       0.0640       3.5480    -999.2500       2.7740    -999.2500    -999.2500
   3923.6904       8.8130    -999.2500       0.0105    -999.2500      15.9113    -999.2500    -999.2500    1388.8849     466.5935     125.2876       0.0635       3.6235    -999.2500       2.7665    -999.2500    -999.2500
   3923.8428       8.9610    -999.2500       0.0090    -999.2500      18.4840    -999.2500    -999.2500     993.4550     359.0620     136.2820       0.0630       3.6990    -999.2500       2.7590    -999.2500    -999.2500
   3923.9954       8.9380    -999.2500       0.0165    -999.2500      18.1848    -999.2500    -999.2500     840.2496     314.8809     281.2592       0.0705       3.3923    -999.2500       2.7340    -999.2500    -999.2500
   3924.1477       8.9150    -999.2500       0.0240    -999.2500      17.8850    -999.2500    -999.2500     686.6980     270.6000     426.5640       0.0780       3.0850    -999.2500       2.7090    -999.2500    -999.2500
   3924.3000       8.8297    -999.2500       0.0190    -999.2500      18.5716    -999.2500    -999.2500     615.2416     249.6169     237.4031       0.0760       3.1394    -999.2500       2.6826    -999.2500    -999.2500
   3924.4524       8.7440    -999.2500       0.0140    -999.2500      19.2610    -999.2500    -999.2500     543.5000     228.5500      47.4870       0.0740       3.1940    -999.2500       2.6560    -999.2500    -999.2500
   3924.6047       8.9816    -999.2500       0.0115    -999.2500      18.5984    -999.2500    -999.2500     501.8667     218.7778      53.8048       0.0795       3.2657    -999.2500       2.6670    -999.2500    -999.2500
   3924.7573       9.2210    -999.2500       0.0090    -999.2500      17.9310    -999.2500    -999.2500     459.9280     208.9340      60.1690       0.0850       3.3380    -999.2500       2.6780    -999.2500    -999.2500
   3924.9097       9.0030    -999.2500       0.0215    -999.2500      19.5426    -999.2500    -999.2500     475.7054     216.6396      80.3665       0.0985       3.2297    -999.2500       2.6486    -999.2500    -999.2500
   3925.0620       8.7840    -999.2500       0.0340    -999.2500      21.1610    -999.2500    -999.2500     491.5500     224.3780     100.6500       0.1120       3.1210    -999.2500       2.6190    -999.2500    -999.2500
   3925.2144       8.5855    -999.2500       0.0245    -999.2500      21.7651    -999.2500    -999.2500     528.8978     224.2235      79.3398       0.1110       3.0420    -999.2500       2.6095    -999.2500    -999.2500
   3925.3669       8.3870    -999.2500       0.0150    -999.2500      22.3690    -999.2500    -999.2500     566.2290     224.0690      58.0390       0.1100       2.9630    -999.2500       2.6000    -999.2500    -999.2500
   3925.5193       8.4854    -999.2500       0.0150    -999.2500      22.1913    -999.2500    -999.2500     558.5770     204.7669      50.1124       0.1130       3.0798    -999.2500       2.6115    -999.2500    -999.2500
   3925.6716       8.5840    -999.2500       0.0150    -999.2500      22.0130    -999.2500    -999.2500     550.9030     185.4090      42.1630       0.1160       3.1970    -999.2500       2.6230    -999.2500    -999.2500
   3925.8240       8.7998    -999.2500       0.0085    -999.2500      19.6409    -999.2500    -999.2500     578.7467     191.1586     115.5762       0.1235       3.3206    -999.2500       2.6808    -999.2500    -999.2500
   3925.9766       9.0170    -999.2500       0.0020    -999.2500      17.2540    -999.2500    -999.2500     606.7640     196.9440     189.4470       0.1310       3.4450    -999.2500       2.7390    -999.2500    -999.2500
   3926.1289       8.8331    -999.2500       0.0075    -999.2500      17.5693    -999.2500    -999.2500     666.2087     210.7054     377.6295       0.1200       3.3835    -999.2500       2.7325    -999.2500    -999.2500
   3926.2812       8.6490    -999.2500       0.0130    -999.2500      17.8850    -999.2500    -999.2500     725.7450     224.4880     566.1020       0.1089       3.3220    -999.2500       2.7260    -999.2500    -999.2500
   3926.4336       8.5243    -999.2500       0.0185    -999.2500      15.7692    -999.2500    -999.2500     786.5895     245.6392     468.6000       0.0859       3.2088    -999.2500       2.6945    -999.2500    -999.2500
   3926.5859       8.4000    -999.2500       0.0240    -999.2500      13.6600    -999.2500    -999.2500     847.2430     266.7240     371.4040       0.0630       3.0960    -999.2500       2.6630    -999.2500    -999.2500
   3926.7385       8.4340    -999.2500       0.0165    -999.2500      12.2126    -999.2500    -999.2500     826.4909     265.6001     326.4881       0.0795       3.3630    -999.2500       2.6945    -999.2500    -999.2500
   3926.8909       8.4680    -999.2500       0.0090    -999.2500      10.7650    -999.2500    -999.2500     805.7350     264.4760     281.5640       0.0960       3.6300    -999.2500       2.7260    -999.2500    -999.2500
   3927.0432       8.6247    -999.2500      -0.0020    -999.2500      10.2215    -999.2500    -999.2500     708.3728     237.5714     152.2670       0.0930       3.4244    -999.2500       2.7235    -999.2500    -999.2500
   3927.1956       8.7820    -999.2500      -0.0130    -999.2500       9.6760    -999.2500    -999.2500     610.6680     210.5720      22.5150       0.0900       3.2180    -999.2500       2.7210    -999.2500    -999.2500
   3927.3481       8.7157    -999.2500      -0.0035    -999.2500      10.3717    -999.2500    -999.2500     556.3128     197.1926      88.4134       0.0785       3.2305    -999.2500       2.7365    -999.2500    -999.2500
   3927.5005       8.6490    -999.2500       0.0060    -999.2500      11.0710    -999.2500    -999.2500     501.6720     183.7430     154.6580       0.0670       3.2430    -999.2500       2.7520    -999.2500    -999.2500
   3927.6528       8.5140    -999.2500       0.0045    -999.2500      12.2777    -999.2500    -999.2500     492.8575     179.6836     105.7793       0.0625       3.3285    -999.2500       2.7450    -999.2500    -999.2500
   3927.8052       8.3790    -999.2500       0.0030    -999.2500      13.4850    -999.2500    -999.2500     484.0380     175.6220      56.8730       0.0580       3.4140    -999.2500       2.7380    -999.2500    -999.2500
