#------------------------------------------------------------------------------
#
#   Created by  : [OpenWorks] Log Export Utility (LEXP)
#   Created on  : 2016-05-19 10:02:19
#   Project     : CANT971
#   User        : R5K
#   Interpreter : PEP
#
#------------------------------------------------------------------------------
~VERSION INFORMATION
VERS. 2.0 : CWLS Log ASCII Standard - version 2.0
WRAP.  NO : One line per depth step
~WELL INFORMATION
#MNEMONIC   .UNIT                                           VALUE :DESCRIPTION
#------------------------------------------------------------------------------
STRT        .M                                          2664.8665 :START DEPTH
STOP        .M                                          3997.6045 :STOP DEPTH
STEP        .M                                             0.1524 :STEP
NULL        .                                           -999.2500 :NULL VALUE
COMP        .                                   PEMEX EXPL & PROD :COMPANY
WELL        .                                                 88H :WELL
FLD         .                                           CANTARELL :FIELD
LOC         .                                             UNKNOWN :LOCATION
CNTY        .                                      CD. DEL CARMEN :COUNTY
STAT        .                                            CAMPECHE :STATE
CTRY        .                                              MEXICO :COUNTRY
SRVC        .                                             UNKNOWN :SERVICE COMPANY
DATE        .                                             UNKNOWN :LOG DATE
UWI         .                                          3060000603 :UNIQUE WELL ID
XCOORD      .                                       597712.770000 :SURFACE X
YCOORD      .                                      2140960.400000 :SURFACE Y
LAT         .                                           19.361481 :LATITUDE
LON         .                                          -92.069630 :LONGITUDE
ELEV        .M                                            23.0000 :SURFACE ELEV
ELEV_TYPE   .                                                  KB :ELEV TYPE
~CURVE INFORMATION
#MNEMONIC.UNIT        API CODE       : CURVE DESCRIPTION
#------------------------------------------------------------------------------
DEPTH    .M                          : Measured Depth
CALI     .UNKNOWN     UNKNOWN        : CALI:registros:rC:NONE:v0 (auto-composite)
CGR      .API         UNKNOWN        : CGR:registros:rC:NONE:v0 (auto-composite)
DRHO     .UNKNOWN     UNKNOWN        : DRHO:registros:rC:NONE:v0 (auto-composite)
DT       .us/ft       UNKNOWN        : DT:registros:rC:NONE:v0 (auto-composite)
GR       .UNKNOWN     UNKNOWN        : GR:registros:rC:NONE:v0 (auto-composite)
ILD      .UNKNOWN     UNKNOWN        : ILD:registros:rC:NONE:v0 (auto-composite)
ILM      .UNKNOWN     UNKNOWN        : ILM:registros:rC:NONE:v0 (auto-composite)
LLD      .UNKNOWN     UNKNOWN        : LLD:registros:rC:NONE:v0 (auto-composite)
LLS      .UNKNOWN     UNKNOWN        : LLS:registros:rC:NONE:v0 (auto-composite)
MSFL     .UNKNOWN     UNKNOWN        : MSFL:registros:rC:NONE:v0 (auto-composite)
NPHI     .v/v_decimal UNKNOWN        : NPHI:registros:rC:NONE:v0 (auto-composite)
PEF      .UNKNOWN     UNKNOWN        : PEF:registros:rC:NONE:v0 (auto-composite)
POTA     .wtpercent   UNKNOWN        : POTA:registros:rC:NONE:v0 (auto-composite)
RHOB     .UNKNOWN     UNKNOWN        : RHOB:registros:rC:NONE:v0 (auto-composite)
THOR     .UNKNOWN     UNKNOWN        : THOR:registros:rC:NONE:v0 (auto-composite)
URAN     .ppm         UNKNOWN        : URAN:registros:rC:NONE:v0 (auto-composite)
~A     DEPTH         CALI          CGR         DRHO           DT           GR          ILD          ILM          LLD          LLS         MSFL         NPHI          PEF         POTA         RHOB         THOR         URAN
# ...
   3020.1108      11.9463      11.1014       0.0481      48.2844      38.6007    -999.2500    -999.2500      11.2469      12.8405     589.8143       0.0918       4.3384       0.0038       2.6187       1.6090       3.0460
   3020.2632      12.0506       9.3039       0.0456      50.8921      35.1832    -999.2500    -999.2500      15.6898      19.2914    1051.2454       0.0879       4.3695       0.0033       2.6287       1.1818       2.8665
   3020.4158      12.1072       8.0684       0.0425      53.0449      32.7888    -999.2500    -999.2500      19.7947      24.6529    1313.6256       0.0799       4.4167       0.0030       2.6380       0.8807       2.7382
   3020.5681      12.0838       7.7772       0.0385      54.4332      32.1151    -999.2500    -999.2500      23.3313      28.1820    1241.2148       0.0652       4.4912       0.0030       2.6460       0.7913       2.6957
   3020.7205      12.0623       6.7309       0.0341      55.4224      30.4126    -999.2500    -999.2500      25.4330      29.8436    1164.8666       0.0554       4.5411       0.0028       2.6503       0.6176       2.6231
   3020.8728      12.0443       4.4019       0.0292      55.7338      26.9611    -999.2500    -999.2500      25.0957      28.3308    1081.8254       0.0540       4.5496       0.0023       2.6483       0.3007       2.4991
   3021.0251      12.0432       2.8374       0.0243      55.6073      24.4784    -999.2500    -999.2500      26.6637      30.2161     879.2401       0.0518       4.5513       0.0018       2.6468       0.0988       2.3976
   3021.1777      12.0708       2.5762       0.0198      54.7343      23.6486    -999.2500    -999.2500      31.4826      37.8989     472.7002       0.0481       4.5413       0.0013       2.6463       0.0928       2.3345
   3021.3301      12.1081       2.4936       0.0151      54.2038      22.8306    -999.2500    -999.2500      37.9950      47.4058     297.3181       0.0417       4.5316       0.0010       2.6477       0.1567       2.2528
   3021.4824      12.1615       2.7086       0.0101      54.2433      22.0325    -999.2500    -999.2500      47.3289      59.9519     507.0685       0.0309       4.5226       0.0010       2.6522       0.3371       2.1403
   3021.6348      12.1868       2.9307       0.0070      54.4892      21.5076    -999.2500    -999.2500      54.4694      69.4341     579.2418       0.0226       4.5334       0.0010       2.6563       0.4773       2.0575
   3021.7874      12.1648       3.1649       0.0070      55.0800      21.4397    -999.2500    -999.2500      57.9416      73.7927     421.3510       0.0185       4.5774       0.0010       2.6598       0.5502       2.0240
   3021.9397      12.1490       3.4308       0.0081      55.1274      21.3844    -999.2500    -999.2500      59.2682      75.8278     326.7178       0.0161       4.6018       0.0010       2.6637       0.6298       1.9885
   3022.0920      12.1435       3.7501       0.0111      54.2572      21.3504    -999.2500    -999.2500      56.9687      73.9361     338.9890       0.0166       4.5933       0.0010       2.6682       0.7208       1.9495
   3022.2444      12.1311       3.8135       0.0137      53.3744      21.5079    -999.2500    -999.2500      51.6992      67.0144     575.0037       0.0195       4.5889       0.0010       2.6678       0.7332       1.9602
   3022.3970      12.1070       3.4430       0.0157      52.4699      21.9902    -999.2500    -999.2500      41.3922      51.5605    1190.5420       0.0266       4.5914       0.0010       2.6593       0.6123       2.0549
   3022.5493      11.8555       3.4168       0.0166      51.5880      23.0416    -999.2500    -999.2500      33.0222      38.7031    1283.6265       0.0354       4.5719       0.0012       2.6485       0.4612       2.1744
   3022.7017      11.2273       3.9606       0.0156      50.7435      25.0357    -999.2500    -999.2500      27.8611      30.1466     511.2482       0.0471       4.5160       0.0017       2.6341       0.2600       2.3347
   3022.8540      10.7267       3.8324       0.0150      49.9500      26.3231    -999.2500    -999.2500      24.8743      25.1920      25.3643       0.0554       4.4819       0.0018       2.6250       0.1611       2.4913
   3023.0063      10.4398       2.5799       0.0150      49.2418      26.4275    -999.2500    -999.2500      25.5275      26.2671      19.0865       0.0576       4.4844       0.0013       2.6250       0.2336       2.6417
   3023.1589      10.2179       1.9895       0.0144      48.5554      26.0227    -999.2500    -999.2500      27.7087      29.1479      15.6402       0.0563       4.4888       0.0008       2.6280       0.3643       2.6623
   3023.3113      10.1051       2.5104       0.0129      47.9056      24.7622    -999.2500    -999.2500      32.4574      35.0627      16.9513       0.0489       4.4963       0.0003       2.6360       0.5930       2.4647
   3023.4636      10.0573       2.8531       0.0109      46.9819      23.3030    -999.2500    -999.2500      37.8598      42.4676      20.6080       0.0414       4.5156       0.0000       2.6404       0.7460       2.2651
   3023.6160      10.1163       2.9036       0.0079      45.6090      21.5178    -999.2500    -999.2500      44.3350      52.3173      28.1138       0.0339       4.5541       0.0000       2.6389       0.7750       2.0622
   3023.7686      10.1702       2.8446       0.0051      45.0245      20.2517    -999.2500    -999.2500      50.4681      60.9687      50.9391       0.0287       4.5952       0.0000       2.6384       0.7556       1.9286
   3023.9209      10.2156       2.6054       0.0026      45.7377      19.8407    -999.2500    -999.2500      56.0377      67.6465      98.9964       0.0272       4.6406       0.0000       2.6394       0.6567       1.9092
   3024.0732      10.2047       2.3344       0.0018      46.5490      19.8029    -999.2500    -999.2500      61.3160      75.2683     134.2360       0.0257       4.6703       0.0000       2.6428       0.5662       1.9348
   3024.2256      10.0999       2.0105       0.0038      47.5237      20.3860    -999.2500    -999.2500      66.1093      84.4613     148.1415       0.0243       4.6738       0.0000       2.6503       0.4895       2.0356
   3024.3782      10.0380       1.8283       0.0069      48.2211      20.8254    -999.2500    -999.2500      67.9956      87.0871     140.2483       0.0229       4.6859       0.0000       2.6542       0.4327       2.1047
   3024.5305      10.0460       1.8763       0.0119      48.4680      21.0313    -999.2500    -999.2500      65.1564      79.0370      96.9180       0.0215       4.7119       0.0000       2.6522       0.4082       2.1222
   3024.6829      10.0548       2.0806       0.0156      48.1585      21.2010    -999.2500    -999.2500      61.1003      70.5270      71.7900       0.0219       4.7158       0.0002       2.6464       0.3936       2.1182
   3024.8352      10.0648       2.5399       0.0171      46.9420      21.3114    -999.2500    -999.2500      55.0589      61.2665      76.3610       0.0250       4.6839       0.0007       2.6344       0.3951       2.0792
   3024.9875      10.0440       2.9252       0.0210      46.8597      21.3920    -999.2500    -999.2500      49.2318      55.3244      79.0042       0.0288       4.6630       0.0010       2.6295       0.3827       2.0453
   3025.1401       9.9728       3.1895       0.0291      48.6331      21.4236    -999.2500    -999.2500      43.7556      54.8165      78.4902       0.0335       4.6605       0.0010       2.6360       0.3476       2.0197
   3025.2925       9.8942       3.7497       0.0340      50.3571      21.5189    -999.2500    -999.2500      40.3305      53.9258      74.4540       0.0357       4.6473       0.0014       2.6431       0.3181       1.9684
   3025.4448       9.8038       4.7829       0.0340      52.0021      21.7161    -999.2500    -999.2500      40.1862      52.4226      64.7834       0.0337       4.6168       0.0024       2.6511       0.2976       1.8761
   3025.5972       9.7767       6.4182       0.0338      53.3563      22.8630    -999.2500    -999.2500      36.3331      50.7171      54.7226       0.0329       4.6009       0.0030       2.6564       0.5474       1.8221
