#------------------------------------------------------------------------------
#
#   Created by  : [OpenWorks] Log Export Utility (LEXP)
#   Created on  : 2016-05-19 10:02:19
#   Project     : CANT971
#   User        : R5K
#   Interpreter : PEP
#
#------------------------------------------------------------------------------
~VERSION INFORMATION
VERS. 2.0 : CWLS Log ASCII Standard - version 2.0
WRAP.  NO : One line per depth step
~WELL INFORMATION
#MNEMONIC   .UNIT                                           VALUE :DESCRIPTION
#------------------------------------------------------------------------------
STRT        .M                                          2664.8665 :START DEPTH
STOP        .M                                          3997.6045 :STOP DEPTH
STEP        .M                                             0.1524 :STEP
NULL        .                                           -999.2500 :NULL VALUE
COMP        .                                   PEMEX EXPL & PROD :COMPANY
WELL        .                                                 88H :WELL
FLD         .                                           CANTARELL :FIELD
LOC         .                                             UNKNOWN :LOCATION
CNTY        .                                      CD. DEL CARMEN :COUNTY
STAT        .                                            CAMPECHE :STATE
CTRY        .                                              MEXICO :COUNTRY
SRVC        .                                             UNKNOWN :SERVICE COMPANY
DATE        .                                             UNKNOWN :LOG DATE
UWI         .                                          3060000603 :UNIQUE WELL ID
XCOORD      .                                       597712.770000 :SURFACE X
YCOORD      .                                      2140960.400000 :SURFACE Y
LAT         .                                           19.361481 :LATITUDE
LON         .                                          -92.069630 :LONGITUDE
ELEV        .M                                            23.0000 :SURFACE ELEV
ELEV_TYPE   .                                                  KB :ELEV TYPE
~CURVE INFORMATION
#MNEMONIC.UNIT        API CODE       : CURVE DESCRIPTION
#------------------------------------------------------------------------------
DEPTH    .M                          : Measured Depth
CALI     .UNKNOWN     UNKNOWN        : CALI:registros:rC:NONE:v0 (auto-composite)
CGR      .API         UNKNOWN        : CGR:registros:rC:NONE:v0 (auto-composite)
DRHO     .UNKNOWN     UNKNOWN        : DRHO:registros:rC:NONE:v0 (auto-composite)
DT       .us/ft       UNKNOWN        : DT:registros:rC:NONE:v0 (auto-composite)
GR       .UNKNOWN     UNKNOWN        : GR:registros:rC:NONE:v0 (auto-composite)
ILD      .UNKNOWN     UNKNOWN        : ILD:registros:rC:NONE:v0 (auto-composite)
ILM      .UNKNOWN     UNKNOWN        : ILM:registros:rC:NONE:v0 (auto-composite)
LLD      .UNKNOWN     UNKNOWN        : LLD:registros:rC:NONE:v0 (auto-composite)
LLS      .UNKNOWN     UNKNOWN        : LLS:registros:rC:NONE:v0 (auto-composite)
MSFL     .UNKNOWN     UNKNOWN        : MSFL:registros:rC:NONE:v0 (auto-composite)
NPHI     .v/v_decimal UNKNOWN        : NPHI:registros:rC:NONE:v0 (auto-composite)
PEF      .UNKNOWN     UNKNOWN        : PEF:registros:rC:NONE:v0 (auto-composite)
POTA     .wtpercent   UNKNOWN        : POTA:registros:rC:NONE:v0 (auto-composite)
RHOB     .UNKNOWN     UNKNOWN        : RHOB:registros:rC:NONE:v0 (auto-composite)
THOR     .UNKNOWN     UNKNOWN        : THOR:registros:rC:NONE:v0 (auto-composite)
URAN     .ppm         UNKNOWN        : URAN:registros:rC:NONE:v0 (auto-composite)
~A     DEPTH         CALI          CGR         DRHO           DT           GR          ILD          ILM          LLD          LLS         MSFL         NPHI          PEF         POTA         RHOB         THOR         URAN
# ...
   3093.4153       9.3470       1.3614       0.0265      47.5742      45.5918    -999.2500    -999.2500      51.5641      56.2489      48.2194       0.0985       4.0270       0.0000       2.5675       0.2542       4.8994
   3093.5676       9.3442       1.4775       0.0273      47.8307      44.8750    -999.2500    -999.2500      57.8634      66.2035      53.5773       0.0998       4.0104       0.0000       2.5780       0.2958       4.8071
   3093.7200       9.3682       1.6982       0.0333      48.9878      43.2095    -999.2500    -999.2500      64.2565      76.9747      55.4959       0.1001       4.0383       0.0000       2.5980       0.3683       4.5984
   3093.8726       9.4036       1.8796       0.0349      52.2583      42.2163    -999.2500    -999.2500      68.8274      83.4960      56.4499       0.0995       4.0288       0.0000       2.6092       0.4276       4.4684
   3094.0249       9.4486       2.0285       0.0329      57.2737      41.7785    -999.2500    -999.2500      71.8926      86.5057      56.6069       0.0982       3.9884       0.0000       2.6132       0.4760       4.4034
   3094.1772       9.4323       1.9504       0.0334      60.0119      41.9583    -999.2500    -999.2500      72.7201      86.1138      54.6551       0.0997       3.9505       0.0000       2.6175       0.4511       4.4321
   3094.3296       9.3651       1.6842       0.0359      60.8638      42.6502    -999.2500    -999.2500      71.6922      82.9014      50.9548       0.1036       3.9149       0.0000       2.6220       0.3654       4.5384
   3094.4819       9.3339       1.5426       0.0348      60.5368      43.5548    -999.2500    -999.2500      70.7711      80.5583      51.9349       0.1060       3.8786       0.0000       2.6182       0.3187       4.6542
   3094.6345       9.3319       1.5022       0.0308      59.2548      44.6318    -999.2500    -999.2500      69.9364      78.9200      56.7099       0.1070       3.8416       0.0000       2.6077       0.3037       4.7776
   3094.7869       9.3343       2.6082       0.0334      58.9863      45.2053    -999.2500    -999.2500      69.9194      78.7431      57.1988       0.1068       3.8528       0.0000       2.6058       0.6557       4.7187
   3094.9392       9.3403       4.6461       0.0414      59.5416      45.3691    -999.2500    -999.2500      70.5676      79.7554      54.2005       0.1055       3.9032       0.0000       2.6107       1.3059       4.5114
   3095.0916       9.3441       5.3874       0.0519      59.0464      46.1214    -999.2500    -999.2500      70.8476      80.6757      52.0124       0.1034       3.9343       0.0000       2.6160       1.5398       4.5127
   3095.2441       9.3461       5.0640       0.0644      57.6886      47.3573    -999.2500    -999.2500      70.8251      81.5206      50.4902       0.1007       3.9493       0.0000       2.6215       1.4320       4.6852
   3095.3965       9.2924       5.4370       0.0755      55.6796      48.4234    -999.2500    -999.2500      68.3714      77.8121      39.7224       0.0994       3.9502       0.0000       2.6160       1.5456       4.7620
   3095.5488       9.1940       6.3691       0.0855      53.1477      49.3530    -999.2500    -999.2500      63.9643      70.4448      21.5253       0.0993       3.9397       0.0000       2.6015       1.8370       4.7620
   3095.7012       9.1492       6.6760       0.0911      51.4469      49.6491    -999.2500    -999.2500      60.0225      64.0677      13.9040       0.1043       3.8916       0.0000       2.5839       1.9319       4.7609
   3095.8538       9.1477       6.4793       0.0931      50.4157      49.4344    -999.2500    -999.2500      56.4559      58.4891      14.8109       0.1136       3.8132       0.0000       2.5640       1.8685       4.7589
   3096.0061       9.1404       5.9592       0.0921      50.4625      49.3322    -999.2500    -999.2500      53.5144      56.0792      22.7313       0.1205       3.7700       0.0000       2.5544       1.7064       4.8051
   3096.1584       9.1284       5.1760       0.0886      51.3866      49.3217    -999.2500    -999.2500      51.0820      56.2501      36.3640       0.1256       3.7555       0.0000       2.5534       1.4640       4.8906
   3096.3108       9.1774       4.6907       0.0862      52.6604      48.9724    -999.2500    -999.2500      48.8946      54.7213      38.7563       0.1300       3.7308       0.0000       2.5563       1.3111       4.9055
   3096.4631       9.2761       4.4485       0.0847      54.2197      48.3462    -999.2500    -999.2500      46.9076      51.8032      31.9620       0.1338       3.6977       0.0000       2.5623       1.2314       4.8629
   3096.6157       9.3286       3.7243       0.0771      55.9433      47.1835    -999.2500    -999.2500      44.1980      47.7489      28.6851       0.1408       3.6433       0.0000       2.5550       0.9967       4.8143
   3096.7681       9.3441       2.6153       0.0646      57.7980      45.5922    -999.2500    -999.2500      40.9109      42.7865      28.2193       0.1505       3.5718       0.0000       2.5370       0.6384       4.7608
   3096.9204       9.3629       1.7702       0.0607      58.2216      42.5857    -999.2500    -999.2500      38.6640      39.5523      28.3568       0.1581       3.5677       0.0000       2.5351       0.3748       4.5213
   3097.0728       9.3844       1.1365       0.0637      57.4984      38.4444    -999.2500    -999.2500      37.2512      37.7041      28.9780       0.1642       3.6177       0.0000       2.5461       0.1870       4.1328
   3097.2253       9.4062       0.8483       0.0650      56.9874      36.0619    -999.2500    -999.2500      37.0503      37.4116      28.7205       0.1544       3.7015       0.0000       2.5615       0.1030       3.9008
   3097.3777       9.4282       0.8398       0.0650      56.6479      35.1043    -999.2500    -999.2500      37.8310      38.3793      27.7514       0.1317       3.8128       0.0000       2.5806       0.1030       3.7955
   3097.5300       9.4478       0.8513       0.0653      56.0058      34.5767    -999.2500    -999.2500      38.8166      39.5120      27.5483       0.1138       3.9164       0.0000       2.5943       0.1050       3.7359
   3097.6824       9.4653       0.8788       0.0658      55.1242      34.3898    -999.2500    -999.2500      39.9646      40.7755      27.9522       0.0998       4.0138       0.0000       2.6038       0.1085       3.7124
   3097.8350       9.4775       0.9169       0.0663      54.0941      34.3170    -999.2500    -999.2500      40.8500      41.6057      29.2426       0.0898       4.0679       0.0000       2.6147       0.1209       3.7003
   3097.9873       9.4855       0.9634       0.0668      52.9461      34.3350    -999.2500    -999.2500      41.5267      42.0915      31.2378       0.0829       4.0874       0.0000       2.6267       0.1404       3.6973
   3098.1396       9.4988       1.1765       0.0723      54.1670      34.5184    -999.2500    -999.2500      41.5392      41.8680      31.8887       0.0776       4.0952       0.0000       2.6440       0.2062       3.6940
   3098.2920       9.5163       1.5225       0.0818      57.2756      34.8338    -999.2500    -999.2500      41.0217      41.0788      31.4675       0.0735       4.0937       0.0000       2.6656       0.3090       3.6905
   3098.4443       9.5119       1.4500       0.0882      60.7323      35.2245    -999.2500    -999.2500      40.0481      39.6048      31.9269       0.0717       4.1267       0.0000       2.6685       0.2810       3.7418
   3098.5969       9.4905       1.0515       0.0922      64.4602      35.6740    -999.2500    -999.2500      38.7188      37.5968      33.0730       0.0716       4.1866       0.0000       2.6571       0.1512       3.8357
   3098.7493       9.4721       1.3926       0.0976      65.7468      34.0459    -999.2500    -999.2500      37.3868      35.3273      31.1332       0.0710       4.2496       0.0003       2.6456       0.0934       3.6175
   3098.9016       9.4561       2.3157       0.1041      65.1121      30.7813    -999.2500    -999.2500      36.0529      32.8519      26.7626       0.0701       4.3151       0.0008       2.6341       0.0924       3.1537
