#------------------------------------------------------------------------------
#
#   Created by  : [OpenWorks] Log Export Utility (LEXP)
#   Created on  : 2016-05-19 10:02:19
#   Project     : CANT971
#   User        : R5K
#   Interpreter : PEP
#
#------------------------------------------------------------------------------
~VERSION INFORMATION
VERS. 2.0 : CWLS Log ASCII Standard - version 2.0
WRAP.  NO : One line per depth step
~WELL INFORMATION
#MNEMONIC   .UNIT                                           VALUE :DESCRIPTION
#------------------------------------------------------------------------------
STRT        .M                                          2664.8665 :START DEPTH
STOP        .M                                          3997.6045 :STOP DEPTH
STEP        .M                                             0.1524 :STEP
NULL        .                                           -999.2500 :NULL VALUE
COMP        .                                   PEMEX EXPL & PROD :COMPANY
WELL        .                                                 88H :WELL
FLD         .                                           CANTARELL :FIELD
LOC         .                                             UNKNOWN :LOCATION
CNTY        .                                      CD. DEL CARMEN :COUNTY
STAT        .                                            CAMPECHE :STATE
CTRY        .                                              MEXICO :COUNTRY
SRVC        .                                             UNKNOWN :SERVICE COMPANY
DATE        .                                             UNKNOWN :LOG DATE
UWI         .                                          3060000603 :UNIQUE WELL ID
XCOORD      .                                       597712.770000 :SURFACE X
YCOORD      .                                      2140960.400000 :SURFACE Y
LAT         .                                           19.361481 :LATITUDE
LON         .                                          -92.069630 :LONGITUDE
ELEV        .M                                            23.0000 :SURFACE ELEV
ELEV_TYPE   .                                                  KB :ELEV TYPE
~CURVE INFORMATION
#MNEMONIC.UNIT        API CODE       : CURVE DESCRIPTION
#------------------------------------------------------------------------------
DEPTH    .M                          : Measured Depth
CALI     .UNKNOWN     UNKNOWN        : CALI:registros:rC:NONE:v0 (auto-composite)
CGR      .API         UNKNOWN        : CGR:registros:rC:NONE:v0 (auto-composite)
DRHO     .UNKNOWN     UNKNOWN        : DRHO:registros:rC:NONE:v0 (auto-composite)
DT       .us/ft       UNKNOWN        : DT:registros:rC:NONE:v0 (auto-composite)
GR       .UNKNOWN     UNKNOWN        : GR:registros:rC:NONE:v0 (auto-composite)
ILD      .UNKNOWN     UNKNOWN        : ILD:registros:rC:NONE:v0 (auto-composite)
ILM      .UNKNOWN     UNKNOWN        : ILM:registros:rC:NONE:v0 (auto-composite)
LLD      .UNKNOWN     UNKNOWN        : LLD:registros:rC:NONE:v0 (auto-composite)
LLS      .UNKNOWN     UNKNOWN        : LLS:registros:rC:NONE:v0 (auto-composite)
MSFL     .UNKNOWN     UNKNOWN        : MSFL:registros:rC:NONE:v0 (auto-composite)
NPHI     .v/v_decimal UNKNOWN        : NPHI:registros:rC:NONE:v0 (auto-composite)
PEF      .UNKNOWN     UNKNOWN        : PEF:registros:rC:NONE:v0 (auto-composite)
POTA     .wtpercent   UNKNOWN        : POTA:registros:rC:NONE:v0 (auto-composite)
RHOB     .UNKNOWN     UNKNOWN        : RHOB:registros:rC:NONE:v0 (auto-composite)
THOR     .UNKNOWN     UNKNOWN        : THOR:registros:rC:NONE:v0 (auto-composite)
URAN     .ppm         UNKNOWN        : URAN:registros:rC:NONE:v0 (auto-composite)
~A     DEPTH         CALI          CGR         DRHO           DT           GR          ILD          ILM          LLD          LLS         MSFL         NPHI          PEF         POTA         RHOB         THOR         URAN
# ...
   3161.0808       9.5275       2.4377       0.0363      68.6176      47.7013    -999.2500    -999.2500     103.3358      38.6684      23.1833       0.0820       3.4303       0.0000       2.6794       0.5786       5.0142
   3161.2332       9.4903       3.0152       0.0342      68.0456      45.8918    -999.2500    -999.2500     108.2574      43.2292      25.3266       0.0817       3.4178       0.0000       2.6828       0.7671       4.7499
   3161.3857       9.3978       3.5569       0.0317      67.2645      44.0821    -999.2500    -999.2500     115.3973      50.5320      40.5870       0.0807       3.4203       0.0000       2.6868       0.9446       4.4895
   3161.5381       9.3596       3.4801       0.0306      68.3991      43.4545    -999.2500    -999.2500     121.9492      58.4729      41.2121       0.0804       3.4317       0.0000       2.6848       0.9294       4.4286
   3161.6904       9.3436       3.1507       0.0301      70.3159      43.3101    -999.2500    -999.2500     128.2607      66.6747      35.8548       0.0804       3.4467       0.0000       2.6803       0.8357       4.4492
   3161.8428       9.3490       2.7250       0.0268      70.4929      43.3665    -999.2500    -999.2500     125.8321      65.3261      36.5846       0.0866       3.4431       0.0000       2.6686       0.6993       4.5025
   3161.9954       9.3630       2.2611       0.0223      69.9785      43.5029    -999.2500    -999.2500     119.9264      60.1779      39.7362       0.0953       3.4322       0.0000       2.6542       0.5460       4.5689
   3162.1477       9.3446       2.0339       0.0217      68.8226      43.4319    -999.2500    -999.2500     118.2784      58.9540      49.0427       0.0988       3.4440       0.0000       2.6475       0.4810       4.5862
   3162.3000       9.3131       1.9020       0.0227      67.4088      43.2775    -999.2500    -999.2500     118.3449      59.3104      60.8276       0.1003       3.4650       0.0000       2.6440       0.4515       4.5837
   3162.4524       9.2662       1.7204       0.0259      66.5699      44.7999    -999.2500    -999.2500     122.3665      64.8757      80.0715       0.1019       3.4631       0.0000       2.6494       0.3984       4.7726
   3162.6047       9.2130       1.5189       0.0299      65.9632      47.0005    -999.2500    -999.2500     127.9876      72.5475     102.3317       0.1036       3.4521       0.0000       2.6585       0.3357       5.0389
   3162.7573       9.1851       1.2216       0.0418      66.4163      47.8002    -999.2500    -999.2500     136.1619      84.5387      97.5868       0.0987       3.4300       0.0000       2.6621       0.2405       5.1603
   3162.9097       9.1671       0.8868       0.0568      67.2859      48.0486    -999.2500    -999.2500     145.3409      98.2298      82.2144       0.0911       3.4035       0.0000       2.6636       0.1326       5.2248
   3163.0620       9.2325       1.0534       0.0553      68.1070      51.9374    -999.2500    -999.2500     147.0204      98.8312      63.0429       0.0865       3.3638       0.0000       2.6511       0.1783       5.6372
   3163.2144       9.3309       1.4179       0.0473      68.9090      57.2648    -999.2500    -999.2500     145.7360      94.2593      42.3699       0.0831       3.3188       0.0000       2.6331       0.2846       6.1870
   3163.3669       9.2999       1.8824       0.0518      68.9825      58.3007    -999.2500    -999.2500     143.9981      89.0021      56.0486       0.0829       3.3164       0.0000       2.6438       0.4311       6.2501
   3163.5193       9.2172       2.3868       0.0613      68.7649      57.6198    -999.2500    -999.2500     142.0788      83.4708      83.4691       0.0840       3.3309       0.0000       2.6658       0.5935       6.1188
   3163.6716       9.2008       2.3826       0.0554      68.9235      56.8041    -999.2500    -999.2500     144.6971      87.7385      75.6773       0.0860       3.3659       0.0000       2.6616       0.6027       6.0287
   3163.8240       9.2103       2.1807       0.0434      69.2284      55.9360    -999.2500    -999.2500     149.0817      95.8205      54.1791       0.0885       3.4089       0.0000       2.6471       0.5522       5.9548
   3163.9766       9.2317       2.2001       0.0465      69.6692      53.3008    -999.2500    -999.2500     155.5185     107.9762      55.8260       0.0908       3.4390       0.0000       2.6538       0.5660       5.6607
   3164.1289       9.2576       2.3060       0.0555      70.1631      49.9749    -999.2500    -999.2500     162.7576     121.7242      66.5209       0.0929       3.4639       0.0000       2.6688       0.6050       5.2806
   3164.2812       9.2804       2.6430       0.0612      69.4139      48.4866    -999.2500    -999.2500     168.8156     137.3701      70.9331       0.0890       3.4875       0.0000       2.6855       0.7124       5.0784
   3164.4336       9.3019       3.0713       0.0657      68.1734      47.7255    -999.2500    -999.2500     174.4062     153.7670      72.8592       0.0826       3.5105       0.0000       2.7030       0.8468       4.9465
   3164.5859       9.2671       3.1492       0.0602      67.5942      47.7508    -999.2500    -999.2500     177.5816     161.9832     194.2273       0.0821       3.5059       0.0000       2.7026       0.8706       4.9406
   3164.7385       9.2099       3.0880       0.0507      67.2773      48.0888    -999.2500    -999.2500     179.7972     166.9485     363.0604       0.0840       3.4903       0.0000       2.6951       0.8506       4.9847
   3164.8909       9.1699       3.2365       0.0462      66.3648      48.7795    -999.2500    -999.2500     177.6988     162.1182     322.5771       0.0826       3.4885       0.0000       2.7024       0.8962       5.0450
   3165.0432       9.1364       3.4659       0.0437      65.2223      49.6067    -999.2500    -999.2500     173.9324     153.5004     201.1626       0.0801       3.4920       0.0000       2.7154       0.9672       5.1114
   3165.1956       9.1989       3.5753       0.0390      64.6846      48.8315    -999.2500    -999.2500     168.6535     137.5945     154.5258       0.0760       3.4786       0.0000       2.7147       0.9960       5.0134
   3165.3481       9.2988       3.6383       0.0335      64.3815      47.4343    -999.2500    -999.2500     162.7873     118.8586     136.9261       0.0712       3.4586       0.0000       2.7087       1.0085       4.8516
   3165.5005       9.3004       3.3615       0.0266      64.1646      47.5428    -999.2500    -999.2500     162.2117     115.4414     124.9888       0.0762       3.4541       0.0000       2.6822       0.9187       4.8942
   3165.6528       9.2633       2.9513       0.0191      63.9816      48.2432    -999.2500    -999.2500     163.7159     118.0456     115.2774       0.0849       3.4556       0.0000       2.6476       0.7889       5.0171
   3165.8052       9.2074       3.1074       0.0148      63.3259      47.9634    -999.2500    -999.2500     167.1823     127.1843      98.3267       0.0913       3.4347       0.0000       2.6246       0.8409       4.9689
   3165.9578       9.1445       3.4798       0.0118      62.4898      47.3087    -999.2500    -999.2500     171.3989     138.8218      78.6077       0.0968       3.4052       0.0000       2.6061       0.9623       4.8555
   3166.1101       9.1866       3.2825       0.0124      61.5074      45.8891    -999.2500    -999.2500     171.2286     139.7670      71.9317       0.0934       3.3984       0.0000       2.6136       0.8963       4.7200
   3166.2625       9.2690       2.8666       0.0144      60.4688      44.1759    -999.2500    -999.2500     169.3734     136.6059      70.2649       0.0865       3.4004       0.0000       2.6311       0.7584       4.5760
   3166.4148       9.2891       2.6920       0.0172      60.8949      44.0974    -999.2500    -999.2500     165.0980     127.0063      92.5673       0.0808       3.3927       0.0000       2.6563       0.7008       4.5867
   3166.5671       9.2851       2.6103       0.0202      61.8851      44.6494    -999.2500    -999.2500     159.8890     114.9233     124.1147       0.0755       3.3811       0.0000       2.6843       0.6742       4.6569
