#------------------------------------------------------------------------------
#
#   Created by  : [OpenWorks] Log Export Utility (LEXP)
#   Created on  : 2016-05-19 10:02:19
#   Project     : CANT971
#   User        : R5K
#   Interpreter : PEP
#
#------------------------------------------------------------------------------
~VERSION INFORMATION
VERS. 2.0 : CWLS Log ASCII Standard - version 2.0
WRAP.  NO : One line per depth step
~WELL INFORMATION
#MNEMONIC   .UNIT                                           VALUE :DESCRIPTION
#------------------------------------------------------------------------------
STRT        .M                                          2664.8665 :START DEPTH
STOP        .M                                          3997.6045 :STOP DEPTH
STEP        .M                                             0.1524 :STEP
NULL        .                                           -999.2500 :NULL VALUE
COMP        .                                   PEMEX EXPL & PROD :COMPANY
WELL        .                                                 88H :WELL
FLD         .                                           CANTARELL :FIELD
LOC         .                                             UNKNOWN :LOCATION
CNTY        .                                      CD. DEL CARMEN :COUNTY
STAT        .                                            CAMPECHE :STATE
CTRY        .                                              MEXICO :COUNTRY
SRVC        .                                             UNKNOWN :SERVICE COMPANY
DATE        .                                             UNKNOWN :LOG DATE
UWI         .                                          3060000603 :UNIQUE WELL ID
XCOORD      .                                       597712.770000 :SURFACE X
YCOORD      .                                      2140960.400000 :SURFACE Y
LAT         .                                           19.361481 :LATITUDE
LON         .                                          -92.069630 :LONGITUDE
ELEV        .M                                            23.0000 :SURFACE ELEV
ELEV_TYPE   .                                                  KB :ELEV TYPE
~CURVE INFORMATION
#MNEMONIC.UNIT        API CODE       : CURVE DESCRIPTION
#------------------------------------------------------------------------------
DEPTH    .M                          : Measured Depth
CALI     .UNKNOWN     UNKNOWN        : CALI:registros:rC:NONE:v0 (auto-composite)
CGR      .API         UNKNOWN        : CGR:registros:rC:NONE:v0 (auto-composite)
DRHO     .UNKNOWN     UNKNOWN        : DRHO:registros:rC:NONE:v0 (auto-composite)
DT       .us/ft       UNKNOWN        : DT:registros:rC:NONE:v0 (auto-composite)
GR       .UNKNOWN     UNKNOWN        : GR:registros:rC:NONE:v0 (auto-composite)
ILD      .UNKNOWN     UNKNOWN        : ILD:registros:rC:NONE:v0 (auto-composite)
ILM      .UNKNOWN     UNKNOWN        : ILM:registros:rC:NONE:v0 (auto-composite)
LLD      .UNKNOWN     UNKNOWN        : LLD:registros:rC:NONE:v0 (auto-composite)
LLS      .UNKNOWN     UNKNOWN        : LLS:registros:rC:NONE:v0 (auto-composite)
MSFL     .UNKNOWN     UNKNOWN        : MSFL:registros:rC:NONE:v0 (auto-composite)
NPHI     .v/v_decimal UNKNOWN        : NPHI:registros:rC:NONE:v0 (auto-composite)
PEF      .UNKNOWN     UNKNOWN        : PEF:registros:rC:NONE:v0 (auto-composite)
POTA     .wtpercent   UNKNOWN        : POTA:registros:rC:NONE:v0 (auto-composite)
RHOB     .UNKNOWN     UNKNOWN        : RHOB:registros:rC:NONE:v0 (auto-composite)
THOR     .UNKNOWN     UNKNOWN        : THOR:registros:rC:NONE:v0 (auto-composite)
URAN     .ppm         UNKNOWN        : URAN:registros:rC:NONE:v0 (auto-composite)
~A     DEPTH         CALI          CGR         DRHO           DT           GR          ILD          ILM          LLD          LLS         MSFL         NPHI          PEF         POTA         RHOB         THOR         URAN
# ...
   3781.3489       8.8895    -999.2500       0.0540    -999.2500      19.5843    -999.2500    -999.2500   16522.4824    1677.4065    1510.4785       0.0365       3.1306    -999.2500       2.7355    -999.2500    -999.2500
   3781.5012       8.8560    -999.2500       0.0470    -999.2500      19.0120    -999.2500    -999.2500   10998.6377    1116.4050    1709.8210       0.0430       2.9870    -999.2500       2.7040    -999.2500    -999.2500
   3781.6536       8.9081    -999.2500       0.0500    -999.2500      19.4463    -999.2500    -999.2500    9291.7969     974.0839     872.6489       0.0585       3.0481    -999.2500       2.7501    -999.2500    -999.2500
   3781.8062       8.9600    -999.2500       0.0530    -999.2500      19.8790    -999.2500    -999.2500    7590.9668     832.2640      38.4250       0.0740       3.1090    -999.2500       2.7960    -999.2500    -999.2500
   3781.9585       8.9090    -999.2500       0.0325    -999.2500      19.8060    -999.2500    -999.2500   10097.9688    1195.3507     252.2563       0.0615       3.1445    -999.2500       2.7680    -999.2500    -999.2500
   3782.1108       8.8580    -999.2500       0.0120    -999.2500      19.7330    -999.2500    -999.2500   12604.4697    1558.3650     466.0450       0.0490       3.1800    -999.2500       2.7400    -999.2500    -999.2500
   3782.2632       8.8730    -999.2500       0.0265    -999.2500      28.3016    -999.2500    -999.2500   16163.6338    2069.3914    1107.1482       0.0500       3.1995    -999.2500       2.7565    -999.2500    -999.2500
   3782.4158       8.8880    -999.2500       0.0410    -999.2500      36.8970    -999.2500    -999.2500   19733.9492    2582.0190    1750.2600       0.0510       3.2190    -999.2500       2.7730    -999.2500    -999.2500
   3782.5681       8.9952    -999.2500       0.0784    -999.2500      34.2579    -999.2500    -999.2500   29388.9434    3407.5278    1545.8489       0.0520       3.0260    -999.2500       2.7286    -999.2500    -999.2500
   3782.7205       9.1030    -999.2500       0.1160    -999.2500      31.6060    -999.2500    -999.2500   39090.9258    4237.0542    1340.4430       0.0530       2.8320    -999.2500       2.6840    -999.2500    -999.2500
   3782.8728       9.2969    -999.2500       0.1001    -999.2500      24.4890    -999.2500    -999.2500   28938.4512    3013.8374     949.5302       0.1143       2.5579    -999.2500       2.4727    -999.2500    -999.2500
   3783.0251       9.4920    -999.2500       0.0840    -999.2500      17.3250    -999.2500    -999.2500   18718.9336    1782.5430     556.0360       0.1760       2.2820    -999.2500       2.2600    -999.2500    -999.2500
   3783.1777       9.4860    -999.2500       0.1045    -999.2500      19.8670    -999.2500    -999.2500   14090.5732    1322.2928     281.7697       0.1480       2.6913    -999.2500       2.4497    -999.2500    -999.2500
   3783.3301       9.4800    -999.2500       0.1250    -999.2500      22.4180    -999.2500    -999.2500    9445.9229     860.4230       6.5380       0.1200       3.1020    -999.2500       2.6400    -999.2500    -999.2500
   3783.4824       9.3090    -999.2500       0.0965    -999.2500      25.7418    -999.2500    -999.2500    9013.5322     788.7423     290.5517       0.1225       3.1355    -999.2500       2.6260    -999.2500    -999.2500
   3783.6348       9.1380    -999.2500       0.0680    -999.2500      29.0670    -999.2500    -999.2500    8580.9561     717.0310     574.6870       0.1250       3.1690    -999.2500       2.6120    -999.2500    -999.2500
   3783.7874       9.3153    -999.2500       0.0715    -999.2500      26.5927    -999.2500    -999.2500   11963.6777     955.2496     308.0925       0.1095       3.1460    -999.2500       2.6410    -999.2500    -999.2500
   3783.9397       9.4930    -999.2500       0.0750    -999.2500      24.1130    -999.2500    -999.2500   15353.6963    1193.9821      40.9230       0.0940       3.1230    -999.2500       2.6700    -999.2500    -999.2500
   3784.0920       9.4601    -999.2500       0.0575    -999.2500      20.7273    -999.2500    -999.2500   17504.7070    1392.3481     192.1551       0.0790       3.0467    -999.2500       2.7333    -999.2500    -999.2500
   3784.2444       9.4270    -999.2500       0.0400    -999.2500      17.3230    -999.2500    -999.2500   19667.5332    1591.8040     344.2180       0.0640       2.9700    -999.2500       2.7970    -999.2500    -999.2500
   3784.3970       9.2080    -999.2500       0.0266    -999.2500      16.4693    -999.2500    -999.2500   25370.8125    2005.4452    1008.1461       0.0590       3.1144    -999.2500       2.8189    -999.2500    -999.2500
   3784.5493       8.9870    -999.2500       0.0130    -999.2500      15.6080    -999.2500    -999.2500   31124.5664    2422.7471    1677.9500       0.0540       3.2600    -999.2500       2.8410    -999.2500    -999.2500
   3784.7017       9.0299    -999.2500       0.0140    -999.2500      15.1090    -999.2500    -999.2500   24430.3828    1796.8397    1214.1195       0.0540       3.2455    -999.2500       2.8355    -999.2500    -999.2500
   3784.8540       9.0730    -999.2500       0.0150    -999.2500      14.6080    -999.2500    -999.2500   17708.3867    1168.3320     748.3620       0.0540       3.2310    -999.2500       2.8300    -999.2500    -999.2500
   3785.0063       9.0120    -999.2500       0.0100    -999.2500      15.4832    -999.2500    -999.2500   19791.8496    1228.0894    1277.3173       0.0505       3.2160    -999.2500       2.8130    -999.2500    -999.2500
   3785.1589       8.9510    -999.2500       0.0050    -999.2500      16.3580    -999.2500    -999.2500   21874.1758    1287.8140    1805.9840       0.0470       3.2010    -999.2500       2.7960    -999.2500    -999.2500
   3785.3113       8.8292    -999.2500       0.0005    -999.2500      17.9113    -999.2500    -999.2500   24626.9043    1453.8214    1778.5787       0.0410       3.0757    -999.2500       2.7850    -999.2500    -999.2500
   3785.4636       8.7070    -999.2500      -0.0040    -999.2500      19.4690    -999.2500    -999.2500   27387.2949    1620.2910    1751.0970       0.0350       2.9500    -999.2500       2.7740    -999.2500    -999.2500
   3785.6160       8.8072    -999.2500      -0.0030    -999.2500      21.7904    -999.2500    -999.2500   33875.2578    3125.3760    1312.4941       0.0375       2.9794    -999.2500       2.7566    -999.2500    -999.2500
   3785.7686       8.9080    -999.2500      -0.0020    -999.2500      24.1260    -999.2500    -999.2500   40402.9844    4639.6860     871.2030       0.0400       3.0090    -999.2500       2.7390    -999.2500    -999.2500
   3785.9209       8.8595    -999.2500       0.0035    -999.2500      23.5409    -999.2500    -999.2500   40347.9023    4417.6978    1293.6313       0.0395       3.2188    -999.2500       2.7625    -999.2500    -999.2500
   3786.0732       8.8110    -999.2500       0.0090    -999.2500      22.9550    -999.2500    -999.2500   40292.7422    4195.3901    1716.6670       0.0390       3.4290    -999.2500       2.7860    -999.2500    -999.2500
   3786.2256       8.7489    -999.2500       0.0125    -999.2500      21.2162    -999.2500    -999.2500   40222.7578    3792.3000    1021.1184       0.0405       3.3584    -999.2500       2.7810    -999.2500    -999.2500
   3786.3782       8.6870    -999.2500       0.0160    -999.2500      19.4830    -999.2500    -999.2500   40153.0000    3390.5161     327.8240       0.0420       3.2880    -999.2500       2.7760    -999.2500    -999.2500
   3786.5305       8.7810    -999.2500       0.0180    -999.2500      16.4731    -999.2500    -999.2500   35827.3750    3030.0862     332.2998       0.0505       3.2065    -999.2500       2.7535    -999.2500    -999.2500
   3786.6829       8.8750    -999.2500       0.0200    -999.2500      13.4630    -999.2500    -999.2500   31501.3965    2669.6270     336.7760       0.0590       3.1250    -999.2500       2.7310    -999.2500    -999.2500
   3786.8352       8.7827    -999.2500       0.0340    -999.2500      15.0233    -999.2500    -999.2500   29269.1074    2667.1401     486.1015       0.0520       3.1490    -999.2500       2.7435    -999.2500    -999.2500
