#------------------------------------------------------------------------------
#
#   Created by  : [OpenWorks] Log Export Utility (LEXP)
#   Created on  : 2016-05-19 10:02:19
#   Project     : CANT971
#   User        : R5K
#   Interpreter : PEP
#
#------------------------------------------------------------------------------
~VERSION INFORMATION
VERS. 2.0 : CWLS Log ASCII Standard - version 2.0
WRAP.  NO : One line per depth step
~WELL INFORMATION
#MNEMONIC   .UNIT                                           VALUE :DESCRIPTION
#------------------------------------------------------------------------------
STRT        .M                                          2664.8665 :START DEPTH
STOP        .M                                          3997.6045 :STOP DEPTH
STEP        .M                                             0.1524 :STEP
NULL        .                                           -999.2500 :NULL VALUE
COMP        .                                   PEMEX EXPL & PROD :COMPANY
WELL        .                                                 88H :WELL
FLD         .                                           CANTARELL :FIELD
LOC         .                                             UNKNOWN :LOCATION
CNTY        .                                      CD. DEL CARMEN :COUNTY
STAT        .                                            CAMPECHE :STATE
CTRY        .                                              MEXICO :COUNTRY
SRVC        .                                             UNKNOWN :SERVICE COMPANY
DATE        .                                             UNKNOWN :LOG DATE
UWI         .                                          3060000603 :UNIQUE WELL ID
XCOORD      .                                       597712.770000 :SURFACE X
YCOORD      .                                      2140960.400000 :SURFACE Y
LAT         .                                           19.361481 :LATITUDE
LON         .                                          -92.069630 :LONGITUDE
ELEV        .M                                            23.0000 :SURFACE ELEV
ELEV_TYPE   .                                                  KB :ELEV TYPE
~CURVE INFORMATION
#MNEMONIC.UNIT        API CODE       : CURVE DESCRIPTION
#------------------------------------------------------------------------------
DEPTH    .M                          : Measured Depth
CALI     .UNKNOWN     UNKNOWN        : CALI:registros:rC:NONE:v0 (auto-composite)
CGR      .API         UNKNOWN        : CGR:registros:rC:NONE:v0 (auto-composite)
DRHO     .UNKNOWN     UNKNOWN        : DRHO:registros:rC:NONE:v0 (auto-composite)
DT       .us/ft       UNKNOWN        : DT:registros:rC:NONE:v0 (auto-composite)
GR       .UNKNOWN     UNKNOWN        : GR:registros:rC:NONE:v0 (auto-composite)
ILD      .UNKNOWN     UNKNOWN        : ILD:registros:rC:NONE:v0 (auto-composite)
ILM      .UNKNOWN     UNKNOWN        : ILM:registros:rC:NONE:v0 (auto-composite)
LLD      .UNKNOWN     UNKNOWN        : LLD:registros:rC:NONE:v0 (auto-composite)
LLS      .UNKNOWN     UNKNOWN        : LLS:registros:rC:NONE:v0 (auto-composite)
MSFL     .UNKNOWN     UNKNOWN        : MSFL:registros:rC:NONE:v0 (auto-composite)
NPHI     .v/v_decimal UNKNOWN        : NPHI:registros:rC:NONE:v0 (auto-composite)
PEF      .UNKNOWN     UNKNOWN        : PEF:registros:rC:NONE:v0 (auto-composite)
POTA     .wtpercent   UNKNOWN        : POTA:registros:rC:NONE:v0 (auto-composite)
RHOB     .UNKNOWN     UNKNOWN        : RHOB:registros:rC:NONE:v0 (auto-composite)
THOR     .UNKNOWN     UNKNOWN        : THOR:registros:rC:NONE:v0 (auto-composite)
URAN     .ppm         UNKNOWN        : URAN:registros:rC:NONE:v0 (auto-composite)
~A     DEPTH         CALI          CGR         DRHO           DT           GR          ILD          ILM          LLD          LLS         MSFL         NPHI          PEF         POTA         RHOB         THOR         URAN
# ...
   3296.4121       8.8235       7.4669       0.0530      60.6893      29.1178    -999.2500    -999.2500     166.0084      54.9483      24.5016       0.0723       3.4432       0.0000       2.7302       2.2791       2.3984
   3296.5645       8.9099       7.0920       0.0530      61.0921      29.2872    -999.2500    -999.2500     172.8085      63.3166      19.7486       0.0684       3.4472       0.0000       2.7357       2.1582       2.4589
   3296.7168       8.9927       6.6424       0.0531      61.5965      29.8658    -999.2500    -999.2500     179.3917      71.3618      15.5702       0.0647       3.4524       0.0000       2.7412       2.0126       2.5734
   3296.8691       8.9847       4.3747       0.0546      64.5704      40.4727    -999.2500    -999.2500     180.6602      71.4852      25.4745       0.0651       3.4889       0.0000       2.7452       1.2675       3.9996
   3297.0217       8.9748       2.1737       0.0563      67.4750      50.6492    -999.2500    -999.2500     181.8980      71.8767      35.4173       0.0655       3.5238       0.0000       2.7492       0.5445       5.3703
   3297.1741       8.9157       1.7069       0.0643      68.5821      49.5381    -999.2500    -999.2500     182.3327      79.3008      46.3686       0.0674       3.5178       0.0000       2.7547       0.3961       5.2986
   3297.3264       8.8598       1.2465       0.0720      69.7172      48.2628    -999.2500    -999.2500     182.5712      86.4386      57.2848       0.0692       3.5102       0.0000       2.7600       0.2499       5.2079
   3297.4788       8.8778       0.9302       0.0710      71.4824      43.2675    -999.2500    -999.2500     178.3655      87.0913      67.4045       0.0684       3.4677       0.0000       2.7610       0.1540       4.6896
   3297.6313       8.8990       0.6490       0.0698      73.1694      38.3758    -999.2500    -999.2500     173.4753      86.6616      75.5597       0.0678       3.4247       0.0000       2.7616       0.0688       4.1790
   3297.7837       8.9955       1.1758       0.0653      73.0595      35.8834    -999.2500    -999.2500     152.7408      61.1756      38.2458       0.0725       3.3697       0.0000       2.7521       0.2328       3.8447
   3297.9360       9.0866       1.6911       0.0606      72.9240      33.4554    -999.2500    -999.2500     132.5158      36.5044       2.5124       0.0771       3.3152       0.0000       2.7422       0.3931       3.5188
   3298.0884       9.0530       1.9388       0.0511      72.1910      32.5529    -999.2500    -999.2500     124.3471      31.1145       4.1740       0.0781       3.2711       0.0000       2.7221       0.4683       3.3914
   3298.2410       9.0185       2.1784       0.0420      71.4815      31.6775    -999.2500    -999.2500     116.7416      26.1259       6.3156       0.0791       3.2315       0.0000       2.7033       0.5411       3.2680
   3298.3933       8.9651       2.2508       0.0420      71.2563      31.3618    -999.2500    -999.2500     120.7891      29.4423      18.3917       0.0783       3.2849       0.0000       2.7098       0.5656       3.2251
   3298.5457       8.9155       2.3286       0.0422      70.9369      31.0366    -999.2500    -999.2500     124.7504      32.7059      29.4867       0.0773       3.3367       0.0000       2.7169       0.5917       3.1804
   3298.6980       8.9489       2.5250       0.0467      68.5695      30.4998    -999.2500    -999.2500     126.8225      34.8135      19.0727       0.0704       3.3522       0.0000       2.7384       0.6532       3.0990
   3298.8503       8.9852       2.7314       0.0513      66.1656      30.0028    -999.2500    -999.2500     128.6790      36.7954       9.0164       0.0638       3.3699       0.0000       2.7590       0.7175       3.0208
   3299.0029       9.0840       3.1581       0.0583      62.9547      30.3959    -999.2500    -999.2500     125.7093      35.9631       6.9677       0.0619       3.4381       0.0000       2.7590       0.8448       3.0173
   3299.1553       9.1669       3.5611       0.0650      59.9475      30.7932    -999.2500    -999.2500     122.6051      35.0086       5.2521       0.0603       3.5036       0.0000       2.7584       0.9655       3.0169
   3299.3076       8.9370       3.5006       0.0655      60.9236      31.2730    -999.2500    -999.2500     116.8526      31.6460      10.0975       0.0654       3.5161       0.0000       2.7464       0.9545       3.0769
   3299.4600       8.7210       3.4378       0.0661      61.9167      31.7214    -999.2500    -999.2500     111.1591      28.3664      14.7796       0.0705       3.5289       0.0000       2.7353       0.9424       3.1336
   3299.6125       8.7839       3.3295       0.0681      63.2490      31.5396    -999.2500    -999.2500     106.6512      26.7514      16.1828       0.0767       3.5479       0.0000       2.7408       0.9100       3.1251
   3299.7649       8.8491       3.2237       0.0696      64.5289      31.3525    -999.2500    -999.2500     102.0579      25.1751      17.7415       0.0827       3.5625       0.0000       2.7453       0.8778       3.1158
   3299.9172       8.9635       3.1720       0.0606      64.7039      31.0522    -999.2500    -999.2500      95.6526      24.4220      22.6005       0.0866       3.4843       0.0000       2.7287       0.8512       3.0882
   3300.0696       9.1028       3.1081       0.0541      65.0376      30.4255    -999.2500    -999.2500      95.8620      26.0960      31.9578       0.0910       3.4054       0.0000       2.7073       0.8223       3.0564
   3300.2222       9.7120       2.8160       0.0950      68.3290      23.6740    -999.2500    -999.2500     220.2280      73.3230     125.7370       0.1050       3.3150       0.0000       2.5950       0.7500       2.9460
   3300.3745       9.8460       2.7235       0.0720      70.1971      22.7380    -999.2500    -999.2500     203.8765      70.1785      63.6532       0.1045       3.3395       0.0000       2.5755       0.7235       2.9115
   3300.5269       9.9800       2.6310       0.0490      72.0640      21.8020    -999.2500    -999.2500     187.5250      67.0340       1.5690       0.1040       3.3640       0.0000       2.5560       0.6970       2.8770
   3300.6792       9.9630       2.5646       0.0510      72.2947      21.9383    -999.2500    -999.2500     180.5072      64.7269     999.1192       0.1130       3.3086       0.0000       2.5630       0.6695       2.7856
   3300.8315       9.9460       2.4980       0.0530      72.5260      22.0750    -999.2500    -999.2500     173.4660      62.4120    2000.0000       0.1220       3.2530       0.0000       2.5700       0.6420       2.6940
   3300.9841      10.0672       2.3129       0.0380      71.9104      21.1718    -999.2500    -999.2500     155.8043      57.4296    1016.2577       0.1365       3.3513       0.0000       2.5580       0.5906       2.6296
   3301.1365      10.1890       2.1270       0.0230      71.2920      20.2640    -999.2500    -999.2500     138.0530      52.4220      27.5250       0.1510       3.4500       0.0000       2.5460       0.5390       2.5650
   3301.2888      10.1615       2.1480       0.0275      70.6239      22.9150    -999.2500    -999.2500     139.2748      49.7390      23.8392       0.1580       3.3385       0.0000       2.5665       0.5435       2.5240
   3301.4412      10.1340       2.1690       0.0320      69.9560      25.5670    -999.2500    -999.2500     140.4970      47.0550      20.1520       0.1650       3.2270       0.0000       2.5870       0.5480       2.4830
   3301.5938      10.0138       1.9571       0.0205      69.8027      24.7374    -999.2500    -999.2500     169.3969      55.8043      27.5039       0.1700       3.2560       0.0000       2.6145       0.4553       2.4990
   3301.7461       9.8940       1.7460       0.0090      69.6500      23.9100    -999.2500    -999.2500     198.2190      64.5300      34.8360       0.1750       3.2850       0.0000       2.6420       0.3630       2.5150
   3301.8984       9.8615       3.0300       0.0050      69.1780      24.7107    -999.2500    -999.2500     381.7339     118.1600    1017.1071       0.1480       3.2505       0.0010       2.6795       0.3975       2.3285
