#------------------------------------------------------------------------------
#
#   Created by  : [OpenWorks] Log Export Utility (LEXP)
#   Created on  : 2016-05-19 10:02:19
#   Project     : CANT971
#   User        : R5K
#   Interpreter : PEP
#
#------------------------------------------------------------------------------
~VERSION INFORMATION
VERS. 2.0 : CWLS Log ASCII Standard - version 2.0
WRAP.  NO : One line per depth step
~WELL INFORMATION
#MNEMONIC   .UNIT                                           VALUE :DESCRIPTION
#------------------------------------------------------------------------------
STRT        .M                                          2664.8665 :START DEPTH
STOP        .M                                          3997.6045 :STOP DEPTH
STEP        .M                                             0.1524 :STEP
NULL        .                                           -999.2500 :NULL VALUE
COMP        .                                   PEMEX EXPL & PROD :COMPANY
WELL        .                                                 88H :WELL
FLD         .                                           CANTARELL :FIELD
LOC         .                                             UNKNOWN :LOCATION
CNTY        .                                      CD. DEL CARMEN :COUNTY
STAT        .                                            CAMPECHE :STATE
CTRY        .                                              MEXICO :COUNTRY
SRVC        .                                             UNKNOWN :SERVICE COMPANY
DATE        .                                             UNKNOWN :LOG DATE
UWI         .                                          3060000603 :UNIQUE WELL ID
XCOORD      .                                       597712.770000 :SURFACE X
YCOORD      .                                      2140960.400000 :SURFACE Y
LAT         .                                           19.361481 :LATITUDE
LON         .                                          -92.069630 :LONGITUDE
ELEV        .M                                            23.0000 :SURFACE ELEV
ELEV_TYPE   .                                                  KB :ELEV TYPE
~CURVE INFORMATION
#MNEMONIC.UNIT        API CODE       : CURVE DESCRIPTION
#------------------------------------------------------------------------------
DEPTH    .M                          : Measured Depth
CALI     .UNKNOWN     UNKNOWN        : CALI:registros:rC:NONE:v0 (auto-composite)
CGR      .API         UNKNOWN        : CGR:registros:rC:NONE:v0 (auto-composite)
DRHO     .UNKNOWN     UNKNOWN        : DRHO:registros:rC:NONE:v0 (auto-composite)
DT       .us/ft       UNKNOWN        : DT:registros:rC:NONE:v0 (auto-composite)
GR       .UNKNOWN     UNKNOWN        : GR:registros:rC:NONE:v0 (auto-composite)
ILD      .UNKNOWN     UNKNOWN        : ILD:registros:rC:NONE:v0 (auto-composite)
ILM      .UNKNOWN     UNKNOWN        : ILM:registros:rC:NONE:v0 (auto-composite)
LLD      .UNKNOWN     UNKNOWN        : LLD:registros:rC:NONE:v0 (auto-composite)
LLS      .UNKNOWN     UNKNOWN        : LLS:registros:rC:NONE:v0 (auto-composite)
MSFL     .UNKNOWN     UNKNOWN        : MSFL:registros:rC:NONE:v0 (auto-composite)
NPHI     .v/v_decimal UNKNOWN        : NPHI:registros:rC:NONE:v0 (auto-composite)
PEF      .UNKNOWN     UNKNOWN        : PEF:registros:rC:NONE:v0 (auto-composite)
POTA     .wtpercent   UNKNOWN        : POTA:registros:rC:NONE:v0 (auto-composite)
RHOB     .UNKNOWN     UNKNOWN        : RHOB:registros:rC:NONE:v0 (auto-composite)
THOR     .UNKNOWN     UNKNOWN        : THOR:registros:rC:NONE:v0 (auto-composite)
URAN     .ppm         UNKNOWN        : URAN:registros:rC:NONE:v0 (auto-composite)
~A     DEPTH         CALI          CGR         DRHO           DT           GR          ILD          ILM          LLD          LLS         MSFL         NPHI          PEF         POTA         RHOB         THOR         URAN
# ...
   3713.6833       8.7580    -999.2500       0.0460    -999.2500      17.6648    -999.2500    -999.2500    3244.3267    1803.4592     527.4650       0.0460       3.3666    -999.2500       2.7535    -999.2500    -999.2500
   3713.8357       8.7190    -999.2500       0.0340    -999.2500      17.8400    -999.2500    -999.2500    2749.6499    1622.4460      36.3500       0.0490       3.2720    -999.2500       2.7190    -999.2500    -999.2500
   3713.9880       8.6866    -999.2500       0.0415    -999.2500      18.3461    -999.2500    -999.2500    2194.2703    1341.4391     380.1700       0.0610       3.1424    -999.2500       2.6851    -999.2500    -999.2500
   3714.1404       8.6540    -999.2500       0.0490    -999.2500      18.8550    -999.2500    -999.2500    1635.8680    1058.9030     725.8610       0.0730       3.0120    -999.2500       2.6510    -999.2500    -999.2500
   3714.2930       8.9731    -999.2500       0.0420    -999.2500      19.6928    -999.2500    -999.2500    1291.6333     851.8359     393.3587       0.0825       3.1320    -999.2500       2.6968    -999.2500    -999.2500
   3714.4453       9.2950    -999.2500       0.0350    -999.2500      20.5380    -999.2500    -999.2500     944.3700     642.9470      57.9310       0.0920       3.2530    -999.2500       2.7430    -999.2500    -999.2500
   3714.5977       9.2536    -999.2500       0.0195    -999.2500      22.0888    -999.2500    -999.2500     803.4067     557.0397      63.2656       0.0725       3.2016    -999.2500       2.7719    -999.2500    -999.2500
   3714.7500       9.2120    -999.2500       0.0040    -999.2500      23.6460    -999.2500    -999.2500     661.8650     470.7800      68.6220       0.0530       3.1500    -999.2500       2.8010    -999.2500    -999.2500
   3714.9023       8.9184    -999.2500       0.0040    -999.2500      23.4379    -999.2500    -999.2500     709.5947     504.0234     115.5575       0.0435       3.2385    -999.2500       2.8165    -999.2500    -999.2500
   3715.0549       8.6250    -999.2500       0.0040    -999.2500      23.2300    -999.2500    -999.2500     757.2960     537.2470     162.4650       0.0340       3.3270    -999.2500       2.8320    -999.2500    -999.2500
   3715.2073       8.6485    -999.2500       0.0070    -999.2500      20.2651    -999.2500    -999.2500    1099.9099     853.0660     796.4503       0.0275       3.2466    -999.2500       2.8085    -999.2500    -999.2500
   3715.3596       8.6720    -999.2500       0.0100    -999.2500      17.2920    -999.2500    -999.2500    1443.4600    1169.7480    1432.1680       0.0210       3.1660    -999.2500       2.7850    -999.2500    -999.2500
   3715.5120       8.6650    -999.2500       0.0240    -999.2500      14.8395    -999.2500    -999.2500    1596.5906    1157.2983    1255.2057       0.0215       3.0120    -999.2500       2.7880    -999.2500    -999.2500
   3715.6646       8.6580    -999.2500       0.0380    -999.2500      12.3720    -999.2500    -999.2500    1750.6520    1144.7729    1077.1680       0.0220       2.8570    -999.2500       2.7910    -999.2500    -999.2500
   3715.8169       8.9533    -999.2500       0.0370    -999.2500      16.4522    -999.2500    -999.2500    1900.2513    1213.0731     560.5351       0.0265       3.1493    -999.2500       2.8170    -999.2500    -999.2500
   3715.9692       9.2490    -999.2500       0.0360    -999.2500      20.5380    -999.2500    -999.2500    2050.0581    1281.4680      43.1860       0.0310       3.4420    -999.2500       2.8430    -999.2500    -999.2500
   3716.1216       8.9400    -999.2500       0.0190    -999.2500      16.5099    -999.2500    -999.2500    2478.9946    1422.5468      96.4171       0.0340       3.4811    -999.2500       2.8295    -999.2500    -999.2500
   3716.2742       8.6320    -999.2500       0.0020    -999.2500      12.4950    -999.2500    -999.2500    2906.5190    1563.1610     149.4730       0.0370       3.5200    -999.2500       2.8160    -999.2500    -999.2500
   3716.4265       8.7440    -999.2500       0.0030    -999.2500      12.9315    -999.2500    -999.2500    2801.8032    1522.5001     681.5468       0.0350       3.5050    -999.2500       2.8030    -999.2500    -999.2500
   3716.5789       8.8560    -999.2500       0.0040    -999.2500      13.3680    -999.2500    -999.2500    2697.0840    1481.8380    1213.6370       0.0330       3.4900    -999.2500       2.7900    -999.2500    -999.2500
   3716.7312       8.8420    -999.2500       0.0030    -999.2500      17.7516    -999.2500    -999.2500    2727.5107    1411.2607    1304.4447       0.0345       3.3218    -999.2500       2.7755    -999.2500    -999.2500
   3716.8835       8.8280    -999.2500       0.0020    -999.2500      22.1500    -999.2500    -999.2500    2758.0400    1340.4460    1395.5580       0.0360       3.1530    -999.2500       2.7610    -999.2500    -999.2500
   3717.0361       8.7711    -999.2500       0.0065    -999.2500      23.1978    -999.2500    -999.2500    3114.9512    1522.4604     734.7476       0.0410       3.2218    -999.2500       2.7580    -999.2500    -999.2500
   3717.1885       8.7140    -999.2500       0.0110    -999.2500      24.2510    -999.2500    -999.2500    3473.6819    1705.4030      70.5680       0.0460       3.2910    -999.2500       2.7550    -999.2500    -999.2500
   3717.3408       8.7495    -999.2500       0.0205    -999.2500      23.5536    -999.2500    -999.2500    2997.9797    1544.7723     465.4883       0.0495       3.3095    -999.2500       2.7300    -999.2500    -999.2500
   3717.4932       8.7850    -999.2500       0.0300    -999.2500      22.8560    -999.2500    -999.2500    2522.0830    1384.0760     860.5700       0.0530       3.3280    -999.2500       2.7050    -999.2500    -999.2500
   3717.6458       8.8997    -999.2500       0.0330    -999.2500      21.9378    -999.2500    -999.2500    2065.8013    1176.6031     451.4080       0.0615       3.3615    -999.2500       2.7085    -999.2500    -999.2500
   3717.7981       9.0140    -999.2500       0.0360    -999.2500      21.0220    -999.2500    -999.2500    1610.7350     969.6830      43.3360       0.0700       3.3950    -999.2500       2.7120    -999.2500    -999.2500
   3717.9504       8.8925    -999.2500       0.0330    -999.2500      22.7474    -999.2500    -999.2500    1352.8875     823.9805      39.4343       0.0635       3.2291    -999.2500       2.7550    -999.2500    -999.2500
   3718.1028       8.7710    -999.2500       0.0300    -999.2500      24.4740    -999.2500    -999.2500    1094.8700     678.1820      35.5300       0.0570       3.0630    -999.2500       2.7980    -999.2500    -999.2500
   3718.2554       8.7635    -999.2500       0.0210    -999.2500      22.8879    -999.2500    -999.2500    1307.2484     788.4638     244.5829       0.0480       3.1804    -999.2500       2.7960    -999.2500    -999.2500
   3718.4077       8.7560    -999.2500       0.0120    -999.2500      21.2980    -999.2500    -999.2500    1520.1340     899.0090     454.1350       0.0390       3.2980    -999.2500       2.7940    -999.2500    -999.2500
   3718.5601       8.8358    -999.2500       0.0110    -999.2500      19.6993    -999.2500    -999.2500    1946.9517    1163.5085     343.0314       0.0410       3.2890    -999.2500       2.7975    -999.2500    -999.2500
   3718.7124       8.9160    -999.2500       0.0100    -999.2500      18.0940    -999.2500    -999.2500    2375.5281    1429.0980     231.4700       0.0430       3.2800    -999.2500       2.8010    -999.2500    -999.2500
   3718.8647       8.8986    -999.2500       0.0160    -999.2500      16.8178    -999.2500    -999.2500    2977.1787    1410.3112     411.4475       0.0455       3.1335    -999.2500       2.7726    -999.2500    -999.2500
   3719.0173       8.8810    -999.2500       0.0220    -999.2500      15.5320    -999.2500    -999.2500    3583.3191    1391.3840     592.7680       0.0480       2.9860    -999.2500       2.7440    -999.2500    -999.2500
   3719.1697       8.8516    -999.2500       0.0265    -999.2500      16.4101    -999.2500    -999.2500    3522.1572    1457.0056     346.5301       0.0585       3.0648    -999.2500       2.7450    -999.2500    -999.2500
