#------------------------------------------------------------------------------
#
#   Created by  : [OpenWorks] Log Export Utility (LEXP)
#   Created on  : 2016-05-19 10:02:19
#   Project     : CANT971
#   User        : R5K
#   Interpreter : PEP
#
#------------------------------------------------------------------------------
~VERSION INFORMATION
VERS. 2.0 : CWLS Log ASCII Standard - version 2.0
WRAP.  NO : One line per depth step
~WELL INFORMATION
#MNEMONIC   .UNIT                                           VALUE :DESCRIPTION
#------------------------------------------------------------------------------
STRT        .M                                          2664.8665 :START DEPTH
STOP        .M                                          3997.6045 :STOP DEPTH
STEP        .M                                             0.1524 :STEP
NULL        .                                           -999.2500 :NULL VALUE
COMP        .                                   PEMEX EXPL & PROD :COMPANY
WELL        .                                                 88H :WELL
FLD         .                                           CANTARELL :FIELD
LOC         .                                             UNKNOWN :LOCATION
CNTY        .                                      CD. DEL CARMEN :COUNTY
STAT        .                                            CAMPECHE :STATE
CTRY        .                                              MEXICO :COUNTRY
SRVC        .                                             UNKNOWN :SERVICE COMPANY
DATE        .                                             UNKNOWN :LOG DATE
UWI         .                                          3060000603 :UNIQUE WELL ID
XCOORD      .                                       597712.770000 :SURFACE X
YCOORD      .                                      2140960.400000 :SURFACE Y
LAT         .                                           19.361481 :LATITUDE
LON         .                                          -92.069630 :LONGITUDE
ELEV        .M                                            23.0000 :SURFACE ELEV
ELEV_TYPE   .                                                  KB :ELEV TYPE
~CURVE INFORMATION
#MNEMONIC.UNIT        API CODE       : CURVE DESCRIPTION
#------------------------------------------------------------------------------
DEPTH    .M                          : Measured Depth
CALI     .UNKNOWN     UNKNOWN        : CALI:registros:rC:NONE:v0 (auto-composite)
CGR      .API         UNKNOWN        : CGR:registros:rC:NONE:v0 (auto-composite)
DRHO     .UNKNOWN     UNKNOWN        : DRHO:registros:rC:NONE:v0 (auto-composite)
DT       .us/ft       UNKNOWN        : DT:registros:rC:NONE:v0 (auto-composite)
GR       .UNKNOWN     UNKNOWN        : GR:registros:rC:NONE:v0 (auto-composite)
ILD      .UNKNOWN     UNKNOWN        : ILD:registros:rC:NONE:v0 (auto-composite)
ILM      .UNKNOWN     UNKNOWN        : ILM:registros:rC:NONE:v0 (auto-composite)
LLD      .UNKNOWN     UNKNOWN        : LLD:registros:rC:NONE:v0 (auto-composite)
LLS      .UNKNOWN     UNKNOWN        : LLS:registros:rC:NONE:v0 (auto-composite)
MSFL     .UNKNOWN     UNKNOWN        : MSFL:registros:rC:NONE:v0 (auto-composite)
NPHI     .v/v_decimal UNKNOWN        : NPHI:registros:rC:NONE:v0 (auto-composite)
PEF      .UNKNOWN     UNKNOWN        : PEF:registros:rC:NONE:v0 (auto-composite)
POTA     .wtpercent   UNKNOWN        : POTA:registros:rC:NONE:v0 (auto-composite)
RHOB     .UNKNOWN     UNKNOWN        : RHOB:registros:rC:NONE:v0 (auto-composite)
THOR     .UNKNOWN     UNKNOWN        : THOR:registros:rC:NONE:v0 (auto-composite)
URAN     .ppm         UNKNOWN        : URAN:registros:rC:NONE:v0 (auto-composite)
~A     DEPTH         CALI          CGR         DRHO           DT           GR          ILD          ILM          LLD          LLS         MSFL         NPHI          PEF         POTA         RHOB         THOR         URAN
# ...
   3849.0144       8.6260    -999.2500       0.0095    -999.2500      17.1618    -999.2500    -999.2500    1323.7865     910.1996     638.0613       0.0285       3.2075    -999.2500       2.8330    -999.2500    -999.2500
   3849.1667       8.5540    -999.2500       0.0110    -999.2500      19.3960    -999.2500    -999.2500    1349.4449     954.1670     604.2550       0.0300       2.8950    -999.2500       2.8200    -999.2500    -999.2500
   3849.3193       8.5590    -999.2500       0.0125    -999.2500      19.9994    -999.2500    -999.2500    1567.4200    1128.4791     693.8662       0.0410       2.9295    -999.2500       2.8200    -999.2500    -999.2500
   3849.4717       8.5640    -999.2500       0.0140    -999.2500      20.6040    -999.2500    -999.2500    1785.8149    1303.1270     783.6500       0.0520       2.9640    -999.2500       2.8200    -999.2500    -999.2500
   3849.6240       8.6129    -999.2500       0.0170    -999.2500      20.2011    -999.2500    -999.2500    1646.1549    1226.7644     454.3284       0.0610       2.9640    -999.2500       2.7941    -999.2500    -999.2500
   3849.7764       8.6620    -999.2500       0.0200    -999.2500      19.7960    -999.2500    -999.2500    1505.7600    1150.0000     123.2740       0.0700       2.9640    -999.2500       2.7680    -999.2500    -999.2500
   3849.9290       8.6446    -999.2500       0.0125    -999.2500      18.9885    -999.2500    -999.2500    1283.9921     946.4590     391.2320       0.0526       3.1900    -999.2500       2.7341    -999.2500    -999.2500
   3850.0813       8.6270    -999.2500       0.0050    -999.2500      18.1740    -999.2500    -999.2500    1060.3130     741.1640     661.4990       0.0350       3.4180    -999.2500       2.7000    -999.2500    -999.2500
   3850.2336       8.6290    -999.2500       0.0085    -999.2500      18.4390    -999.2500    -999.2500    1227.5455     858.7209     807.5900       0.0370       3.2179    -999.2500       2.7504    -999.2500    -999.2500
   3850.3860       8.6310    -999.2500       0.0120    -999.2500      18.7050    -999.2500    -999.2500    1395.4340     976.7390     954.2540       0.0390       3.0170    -999.2500       2.8010    -999.2500    -999.2500
   3850.5386       8.6720    -999.2500       0.0085    -999.2500      17.1319    -999.2500    -999.2500    2541.5171    1686.4324     800.1647       0.0345       3.0745    -999.2500       2.7985    -999.2500    -999.2500
   3850.6909       8.7130    -999.2500       0.0050    -999.2500      15.5600    -999.2500    -999.2500    3686.7109    2395.5750     646.1950       0.0300       3.1320    -999.2500       2.7960    -999.2500    -999.2500
   3850.8433       8.6566    -999.2500       0.0065    -999.2500      16.8908    -999.2500    -999.2500    3606.0415    2367.6001     640.0634       0.0300       3.1035    -999.2500       2.8005    -999.2500    -999.2500
   3850.9956       8.6000    -999.2500       0.0080    -999.2500      18.2250    -999.2500    -999.2500    3525.1660    2339.5540     633.9160       0.0300       3.0750    -999.2500       2.8050    -999.2500    -999.2500
   3851.1479       8.6608    -999.2500       0.0085    -999.2500      19.2659    -999.2500    -999.2500    3412.6458    2233.3806     691.6144       0.0325       3.1747    -999.2500       2.8155    -999.2500    -999.2500
   3851.3005       8.7220    -999.2500       0.0090    -999.2500      20.3130    -999.2500    -999.2500    3299.4619    2126.5811     749.6530       0.0350       3.2750    -999.2500       2.8260    -999.2500    -999.2500
   3851.4529       8.6765    -999.2500       0.0050    -999.2500      19.3966    -999.2500    -999.2500    3054.9644    1888.5281     783.4276       0.0340       3.3400    -999.2500       2.8165    -999.2500    -999.2500
   3851.6052       8.6310    -999.2500       0.0010    -999.2500      18.4790    -999.2500    -999.2500    2810.1721    1650.1880     817.2430       0.0330       3.4050    -999.2500       2.8070    -999.2500    -999.2500
   3851.7576       8.6360    -999.2500      -0.0040    -999.2500      17.5619    -999.2500    -999.2500    2691.9934    1667.4114    1241.5188       0.0385       3.1766    -999.2500       2.7709    -999.2500    -999.2500
   3851.9102       8.6410    -999.2500      -0.0090    -999.2500      16.6480    -999.2500    -999.2500    2574.2251    1684.5750    1664.3220       0.0440       2.9490    -999.2500       2.7350    -999.2500    -999.2500
   3852.0625       8.7180    -999.2500      -0.0085    -999.2500      17.4156    -999.2500    -999.2500    2770.3057    1861.6111    1437.1361       0.0680       3.0525    -999.2500       2.7450    -999.2500    -999.2500
   3852.2148       8.7950    -999.2500      -0.0080    -999.2500      18.1830    -999.2500    -999.2500    2966.3569    2038.6210    1209.9840       0.0920       3.1560    -999.2500       2.7550    -999.2500    -999.2500
   3852.3672       8.7476    -999.2500      -0.0030    -999.2500      18.4970    -999.2500    -999.2500    3200.2290    2223.1147    1256.7211       0.0885       3.1026    -999.2500       2.7765    -999.2500    -999.2500
   3852.5198       8.7000    -999.2500       0.0020    -999.2500      18.8120    -999.2500    -999.2500    3434.8459    2408.1960    1303.6071       0.0849       3.0490    -999.2500       2.7980    -999.2500    -999.2500
   3852.6721       8.6496    -999.2500       0.0000    -999.2500      21.7213    -999.2500    -999.2500    2410.8132    1700.3976     772.9211       0.0620       2.9607    -999.2500       2.7970    -999.2500    -999.2500
   3852.8245       8.5990    -999.2500      -0.0020    -999.2500      24.6450    -999.2500    -999.2500    1381.7440     989.1180     239.6250       0.0390       2.8720    -999.2500       2.7960    -999.2500    -999.2500
   3852.9768       8.6568    -999.2500      -0.0065    -999.2500      25.4020    -999.2500    -999.2500    1145.5863     824.0044     317.1645       0.0395       2.9587    -999.2500       2.7686    -999.2500    -999.2500
   3853.1292       8.7150    -999.2500      -0.0110    -999.2500      26.1640    -999.2500    -999.2500     907.8570     657.7920     395.2200       0.0400       3.0460    -999.2500       2.7410    -999.2500    -999.2500
   3853.2817       8.7295    -999.2500      -0.0080    -999.2500      24.7640    -999.2500    -999.2500     953.7406     689.7579    1063.8221       0.0395       2.8938    -999.2500       2.7660    -999.2500    -999.2500
   3853.4341       8.7440    -999.2500      -0.0050    -999.2500      23.3590    -999.2500    -999.2500     999.7880     721.8380    1734.8120       0.0390       2.7410    -999.2500       2.7910    -999.2500    -999.2500
   3853.5864       8.6735    -999.2500      -0.0010    -999.2500      23.9724    -999.2500    -999.2500    1444.0570    1053.9955    1415.1500       0.0330       2.7885    -999.2500       2.8120    -999.2500    -999.2500
   3853.7388       8.6030    -999.2500       0.0030    -999.2500      24.5860    -999.2500    -999.2500    1888.5389    1386.3120    1095.3350       0.0270       2.8360    -999.2500       2.8330    -999.2500    -999.2500
   3853.8914       8.6075    -999.2500       0.0020    -999.2500      22.5288    -999.2500    -999.2500    2894.9263    1995.4124    1407.2760       0.0255       2.9938    -999.2500       2.8435    -999.2500    -999.2500
   3854.0437       8.6120    -999.2500       0.0010    -999.2500      20.4670    -999.2500    -999.2500    3903.5359    2605.8579    1719.9060       0.0240       3.1520    -999.2500       2.8540    -999.2500    -999.2500
   3854.1960       8.6624    -999.2500       0.0015    -999.2500      22.6948    -999.2500    -999.2500    4847.8940    2990.6880    1424.3180       0.0270       3.1460    -999.2500       2.8380    -999.2500    -999.2500
   3854.3484       8.7130    -999.2500       0.0020    -999.2500      24.9350    -999.2500    -999.2500    5797.4888    3377.6521    1127.0909       0.0300       3.1400    -999.2500       2.8220    -999.2500    -999.2500
   3854.5010       8.7369    -999.2500       0.0000    -999.2500      24.7852    -999.2500    -999.2500    5679.5093    3207.4287    1450.9237       0.0340       3.1958    -999.2500       2.8110    -999.2500    -999.2500
