#------------------------------------------------------------------------------
#
#   Created by  : [OpenWorks] Log Export Utility (LEXP)
#   Created on  : 2016-05-19 10:02:19
#   Project     : CANT971
#   User        : R5K
#   Interpreter : PEP
#
#------------------------------------------------------------------------------
~VERSION INFORMATION
VERS. 2.0 : CWLS Log ASCII Standard - version 2.0
WRAP.  NO : One line per depth step
~WELL INFORMATION
#MNEMONIC   .UNIT                                           VALUE :DESCRIPTION
#------------------------------------------------------------------------------
STRT        .M                                          2664.8665 :START DEPTH
STOP        .M                                          3997.6045 :STOP DEPTH
STEP        .M                                             0.1524 :STEP
NULL        .                                           -999.2500 :NULL VALUE
COMP        .                                   PEMEX EXPL & PROD :COMPANY
WELL        .                                                 88H :WELL
FLD         .                                           CANTARELL :FIELD
LOC         .                                             UNKNOWN :LOCATION
CNTY        .                                      CD. DEL CARMEN :COUNTY
STAT        .                                            CAMPECHE :STATE
CTRY        .                                              MEXICO :COUNTRY
SRVC        .                                             UNKNOWN :SERVICE COMPANY
DATE        .                                             UNKNOWN :LOG DATE
UWI         .                                          3060000603 :UNIQUE WELL ID
XCOORD      .                                       597712.770000 :SURFACE X
YCOORD      .                                      2140960.400000 :SURFACE Y
LAT         .                                           19.361481 :LATITUDE
LON         .                                          -92.069630 :LONGITUDE
ELEV        .M                                            23.0000 :SURFACE ELEV
ELEV_TYPE   .                                                  KB :ELEV TYPE
~CURVE INFORMATION
#MNEMONIC.UNIT        API CODE       : CURVE DESCRIPTION
#------------------------------------------------------------------------------
DEPTH    .M                          : Measured Depth
CALI     .UNKNOWN     UNKNOWN        : CALI:registros:rC:NONE:v0 (auto-composite)
CGR      .API         UNKNOWN        : CGR:registros:rC:NONE:v0 (auto-composite)
DRHO     .UNKNOWN     UNKNOWN        : DRHO:registros:rC:NONE:v0 (auto-composite)
DT       .us/ft       UNKNOWN        : DT:registros:rC:NONE:v0 (auto-composite)
GR       .UNKNOWN     UNKNOWN        : GR:registros:rC:NONE:v0 (auto-composite)
ILD      .UNKNOWN     UNKNOWN        : ILD:registros:rC:NONE:v0 (auto-composite)
ILM      .UNKNOWN     UNKNOWN        : ILM:registros:rC:NONE:v0 (auto-composite)
LLD      .UNKNOWN     UNKNOWN        : LLD:registros:rC:NONE:v0 (auto-composite)
LLS      .UNKNOWN     UNKNOWN        : LLS:registros:rC:NONE:v0 (auto-composite)
MSFL     .UNKNOWN     UNKNOWN        : MSFL:registros:rC:NONE:v0 (auto-composite)
NPHI     .v/v_decimal UNKNOWN        : NPHI:registros:rC:NONE:v0 (auto-composite)
PEF      .UNKNOWN     UNKNOWN        : PEF:registros:rC:NONE:v0 (auto-composite)
POTA     .wtpercent   UNKNOWN        : POTA:registros:rC:NONE:v0 (auto-composite)
RHOB     .UNKNOWN     UNKNOWN        : RHOB:registros:rC:NONE:v0 (auto-composite)
THOR     .UNKNOWN     UNKNOWN        : THOR:registros:rC:NONE:v0 (auto-composite)
URAN     .ppm         UNKNOWN        : URAN:registros:rC:NONE:v0 (auto-composite)
~A     DEPTH         CALI          CGR         DRHO           DT           GR          ILD          ILM          LLD          LLS         MSFL         NPHI          PEF         POTA         RHOB         THOR         URAN
# ...
   3572.7131       9.0650    -999.2500      -0.0020    -999.2500      33.6150    -999.2500    -999.2500   41165.8906   34648.4961     739.2950       0.0740       3.0700    -999.2500       2.6510    -999.2500    -999.2500
   3572.8657       9.2096    -999.2500      -0.0010    -999.2500      30.2788    -999.2500    -999.2500   40278.0938   49325.1836    1296.3832       0.0870       3.1109    -999.2500       2.6161    -999.2500    -999.2500
   3573.0181       9.3550    -999.2500       0.0000    -999.2500      26.9260    -999.2500    -999.2500   39385.8711   64074.9727    1856.2460       0.1000       3.1520    -999.2500       2.5810    -999.2500    -999.2500
   3573.1704       9.2460    -999.2500      -0.0010    -999.2500      29.5396    -999.2500    -999.2500   39725.7656   58697.8359    1039.0995       0.1175       3.0375    -999.2500       2.5700    -999.2500    -999.2500
   3573.3228       9.1370    -999.2500      -0.0020    -999.2500      32.1540    -999.2500    -999.2500   40065.7500   53319.2266     221.7290       0.1350       2.9230    -999.2500       2.5590    -999.2500    -999.2500
   3573.4753       9.1535    -999.2500       0.0025    -999.2500      36.3643    -999.2500    -999.2500   40143.3320   56929.8711     531.5083       0.1325       2.9370    -999.2500       2.5825    -999.2500    -999.2500
   3573.6277       9.1700    -999.2500       0.0070    -999.2500      40.5830    -999.2500    -999.2500   40221.0664   60547.7461     841.9080       0.1300       2.9510    -999.2500       2.6060    -999.2500    -999.2500
   3573.7800       9.1396    -999.2500       0.0135    -999.2500      45.2336    -999.2500    -999.2500   40102.7070   50385.9062    1334.1929       0.1230       3.1574    -999.2500       2.6160    -999.2500    -999.2500
   3573.9324       9.1090    -999.2500       0.0200    -999.2500      49.9090    -999.2500    -999.2500   39983.7188   40169.8125    1829.1060       0.1160       3.3650    -999.2500       2.6260    -999.2500    -999.2500
   3574.0850       9.0702    -999.2500       0.0150    -999.2500      44.0759    -999.2500    -999.2500   38366.9102   27186.4121    1469.1823       0.1075       3.2331    -999.2500       2.6330    -999.2500    -999.2500
   3574.2373       9.0310    -999.2500       0.0100    -999.2500      38.1920    -999.2500    -999.2500   36736.0469   14090.1230    1106.1290       0.0990       3.1000    -999.2500       2.6400    -999.2500    -999.2500
   3574.3896       9.0360    -999.2500       0.0090    -999.2500      33.9425    -999.2500    -999.2500   31161.9824   14211.3008     574.0984       0.0955       3.0142    -999.2500       2.6844    -999.2500    -999.2500
   3574.5420       9.0410    -999.2500       0.0080    -999.2500      29.6760    -999.2500    -999.2500   25565.6250   14332.9629      39.9400       0.0920       2.9280    -999.2500       2.7290    -999.2500    -999.2500
   3574.6943       9.0055    -999.2500       0.0055    -999.2500      30.7529    -999.2500    -999.2500   32811.6680   17013.4785     154.8197       0.0875       2.9410    -999.2500       2.7145    -999.2500    -999.2500
   3574.8469       8.9700    -999.2500       0.0030    -999.2500      31.8290    -999.2500    -999.2500   40052.6445   19692.1191     269.6190       0.0830       2.9540    -999.2500       2.7000    -999.2500    -999.2500
   3574.9993       8.9241    -999.2500       0.0015    -999.2500      31.1584    -999.2500    -999.2500   40022.0742   29467.3320     978.9622       0.0730       2.9885    -999.2500       2.7050    -999.2500    -999.2500
   3575.1516       8.8780    -999.2500       0.0000    -999.2500      30.4860    -999.2500    -999.2500   39991.4219   39268.2539    1690.1710       0.0630       3.0230    -999.2500       2.7100    -999.2500    -999.2500
   3575.3040       8.9054    -999.2500       0.0020    -999.2500      32.0309    -999.2500    -999.2500   40404.3945   37566.1914    1802.1735       0.0495       3.1731    -999.2500       2.7394    -999.2500    -999.2500
   3575.4565       8.9330    -999.2500       0.0040    -999.2500      33.5850    -999.2500    -999.2500   40819.8320   35853.9609    1914.8450       0.0360       3.3240    -999.2500       2.7690    -999.2500    -999.2500
   3575.6089       8.8900    -999.2500       0.0025    -999.2500      32.0525    -999.2500    -999.2500   39815.8320   31667.1074    1906.6488       0.0365       3.2151    -999.2500       2.7725    -999.2500    -999.2500
   3575.7612       8.8470    -999.2500       0.0010    -999.2500      30.5180    -999.2500    -999.2500   38810.5430   27474.8789    1898.4420       0.0370       3.1060    -999.2500       2.7760    -999.2500    -999.2500
   3575.9136       8.8966    -999.2500       0.0030    -999.2500      28.2612    -999.2500    -999.2500   39472.0586   24419.6230    1480.1521       0.0355       3.1947    -999.2500       2.7825    -999.2500    -999.2500
   3576.0662       8.9460    -999.2500       0.0050    -999.2500      26.0120    -999.2500    -999.2500   40131.3320   21374.7363    1063.2820       0.0340       3.2830    -999.2500       2.7890    -999.2500    -999.2500
   3576.2185       8.8750    -999.2500       0.0080    -999.2500      23.6209    -999.2500    -999.2500   40037.6484   15601.9512    1371.0370       0.0370       3.2105    -999.2500       2.7960    -999.2500    -999.2500
   3576.3708       8.8040    -999.2500       0.0110    -999.2500      21.2300    -999.2500    -999.2500   39943.9688    9829.5801    1678.7700       0.0400       3.1380    -999.2500       2.8030    -999.2500    -999.2500
   3576.5232       8.8130    -999.2500       0.0125    -999.2500      20.6155    -999.2500    -999.2500   40052.5977   10722.1221    1095.6484       0.0360       3.2618    -999.2500       2.7945    -999.2500    -999.2500
   3576.6755       8.8220    -999.2500       0.0140    -999.2500      19.9990    -999.2500    -999.2500   40161.5781   11617.5752     510.6250       0.0320       3.3860    -999.2500       2.7860    -999.2500    -999.2500
   3576.8281       8.9796    -999.2500       0.0160    -999.2500      21.6439    -999.2500    -999.2500   39965.3672   18294.7988     912.7346       0.0320       3.3770    -999.2500       2.7970    -999.2500    -999.2500
   3576.9805       9.1380    -999.2500       0.0180    -999.2500      23.2970    -999.2500    -999.2500   39768.1758   25005.3809    1316.8530       0.0320       3.3680    -999.2500       2.8080    -999.2500    -999.2500
   3577.1328       8.9302    -999.2500       0.0165    -999.2500      22.4812    -999.2500    -999.2500   39921.1289   34503.3086     984.7510       0.0345       3.2399    -999.2500       2.8035    -999.2500    -999.2500
   3577.2852       8.7210    -999.2500       0.0150    -999.2500      21.6600    -999.2500    -999.2500   40075.1094   44065.1797     650.4130       0.0370       3.1110    -999.2500       2.7990    -999.2500    -999.2500
   3577.4377       8.7360    -999.2500       0.0115    -999.2500      23.1398    -999.2500    -999.2500   40093.8125   36873.6758    1196.5168       0.0375       3.2632    -999.2500       2.7955    -999.2500    -999.2500
   3577.5901       8.7510    -999.2500       0.0080    -999.2500      24.6250    -999.2500    -999.2500   40112.5820   29655.9375    1744.6130       0.0380       3.4160    -999.2500       2.7920    -999.2500    -999.2500
   3577.7424       8.7850    -999.2500       0.0095    -999.2500      24.2771    -999.2500    -999.2500   39964.6328   21753.0586    1404.2437       0.0410       3.2675    -999.2500       2.7765    -999.2500    -999.2500
   3577.8948       8.8190    -999.2500       0.0110    -999.2500      23.9290    -999.2500    -999.2500   39816.5977   13845.7842    1063.6851       0.0440       3.1190    -999.2500       2.7610    -999.2500    -999.2500
   3578.0474       8.7795    -999.2500       0.0185    -999.2500      22.7583    -999.2500    -999.2500   39877.4336   11634.8369     993.4073       0.0445       3.0820    -999.2500       2.7625    -999.2500    -999.2500
   3578.1997       8.7400    -999.2500       0.0260    -999.2500      21.5850    -999.2500    -999.2500   39938.4062    9418.8369     922.9690       0.0450       3.0450    -999.2500       2.7640    -999.2500    -999.2500
