#------------------------------------------------------------------------------
#
#   Created by  : [OpenWorks] Log Export Utility (LEXP)
#   Created on  : 2016-05-23 17:52:14
#   Project     : CANT971
#   User        : R5K
#   Interpreter : PEP
#
#------------------------------------------------------------------------------
~VERSION INFORMATION
VERS. 2.0 : CWLS Log ASCII Standard - version 2.0
WRAP.  NO : One line per depth step
~WELL INFORMATION
#MNEMONIC   .UNIT                                           VALUE :DESCRIPTION
#------------------------------------------------------------------------------
STRT        .M                                           542.2390 :START DEPTH
STOP        .M                                          2489.9111 :STOP DEPTH
STEP        .M                                             0.1524 :STEP
NULL        .                                           -999.2500 :NULL VALUE
COMP        .                                   PEMEX EXPL & PROD :COMPANY
WELL        .                                                  92 :WELL
FLD         .                                           CANTARELL :FIELD
LOC         .                                             UNKNOWN :LOCATION
CNTY        .                                      CD. DEL CARMEN :COUNTY
STAT        .                                            CAMPECHE :STATE
CTRY        .                                              MEXICO :COUNTRY
SRVC        .                                             UNKNOWN :SERVICE COMPANY
DATE        .                                             UNKNOWN :LOG DATE
UWI         .                                          3060000189 :UNIQUE WELL ID
XCOORD      .                                       598503.540000 :SURFACE X
YCOORD      .                                      2149267.700000 :SURFACE Y
LAT         .                                           19.436511 :LATITUDE
LON         .                                          -92.061671 :LONGITUDE
ELEV        .M                                            27.6000 :SURFACE ELEV
ELEV_TYPE   .                                                  KB :ELEV TYPE
~CURVE INFORMATION
#MNEMONIC.UNIT        API CODE       : CURVE DESCRIPTION
#------------------------------------------------------------------------------
DEPTH    .M                          : Measured Depth
CALI     .inches      UNKNOWN        : CALI:registros:rC:NONE:v0 (auto-composite)
DT       .us/ft       UNKNOWN        : DT:registros:rC:NONE:v0 (auto-composite)
GR       .API         UNKNOWN        : GR:registros:rC:NONE:v0 (auto-composite)
ILD      .ohm.m       UNKNOWN        : ILD:registros:rC:NONE:v0 (auto-composite)
LLD      .ohm.m       UNKNOWN        : LLD:registros:rC:NONE:v0 (auto-composite)
LLS      .ohm.m       UNKNOWN        : LLS:registros:rC:NONE:v0 (auto-composite)
NPHI     .UNKNOWN     UNKNOWN        : NPHI:registros:rC:NONE:v0 (auto-composite)
RHOB     .g/cm3       UNKNOWN        : RHOB:registros:rC:NONE:v0 (auto-composite)
SIGM     .UNKNOWN     UNKNOWN        : SIGM:registros:rC:NONE:v0 (auto-composite)
SP       .UNKNOWN     UNKNOWN        : SP:UNKNOWN:rC:NONE:v0 (auto-composite)
TAU      .UNKNOWN     UNKNOWN        : TAU:registros:rC:NONE:v0 (auto-composite)
~A     DEPTH         CALI           DT           GR          ILD          LLD          LLS         NPHI         RHOB         SIGM           SP          TAU
# ...
   2420.4165       6.0500    -999.2500      41.6640    -999.2500      69.3970      60.7300       0.0475       2.8800    -999.2500     -73.0300    -999.2500
   2420.5691       6.0540    -999.2500      32.6772    -999.2500      75.4886      65.4637       0.0440       2.8600    -999.2500     -72.9680    -999.2500
   2420.7214       6.0580    -999.2500      23.7100    -999.2500      81.5670      70.1870       0.0404       2.8400    -999.2500     -72.9060    -999.2500
   2420.8738       6.0740    -999.2500      24.0393    -999.2500     107.9355      92.4013       0.0359       2.8400    -999.2500     -72.6689    -999.2500
   2421.0261       6.0900    -999.2500      24.3680    -999.2500     134.2500     114.5700       0.0323       2.8400    -999.2500     -72.4330    -999.2500
   2421.1787       6.0400    -999.2500      26.9165    -999.2500     131.6285     112.4409       0.0316       2.8500    -999.2500     -72.1312    -999.2500
   2421.3311       5.9900    -999.2500      29.4600    -999.2500     129.0120     110.3160       0.0326       2.8600    -999.2500     -71.8300    -999.2500
   2421.4834       5.9965    -999.2500      29.4270    -999.2500     118.0817     101.2989       0.0345       2.8300    -999.2500     -71.3324    -999.2500
   2421.6357       6.0030    -999.2500      29.3940    -999.2500     107.1710      92.2980       0.0367       2.8000    -999.2500     -70.8340    -999.2500
   2421.7883       6.0515    -999.2500      29.0777    -999.2500      92.8485      80.1538       0.0387       2.8015    -999.2500     -70.1551    -999.2500
   2421.9407       6.1000    -999.2500      28.7620    -999.2500      78.5500      68.0300       0.0404       2.8030    -999.2500     -69.4740    -999.2500
   2422.0930       6.0970    -999.2500      27.8553    -999.2500      79.4607      70.4369       0.0417       2.8265    -999.2500     -68.7965    -999.2500
   2422.2454       6.0940    -999.2500      26.9500    -999.2500      80.3700      72.8400       0.0445       2.8500    -999.2500     -68.1190    -999.2500
   2422.3977       6.0570    -999.2500      25.8342    -999.2500      79.9102      72.5463       0.0505       2.8150    -999.2500     -67.3468    -999.2500
   2422.5503       6.0200    -999.2500      24.7200    -999.2500      79.4510      72.2530       0.0561       2.7800    -999.2500     -66.5770    -999.2500
   2422.7026       6.0600    -999.2500      27.9021    -999.2500      75.4774      69.1400       0.0574       2.7825    -999.2500     -65.9026    -999.2500
   2422.8550       6.1000    -999.2500      31.0800    -999.2500      71.5090      66.0310       0.0558       2.7850    -999.2500     -65.2290    -999.2500
   2423.0073       6.0700    -999.2500      30.6988    -999.2500      59.9927      55.4593       0.0525       2.7975    -999.2500     -64.6631    -999.2500
   2423.1599       6.0400    -999.2500      30.3180    -999.2500      48.4900      44.9000       0.0496       2.8100    -999.2500     -64.0970    -999.2500
   2423.3123       6.0425    -999.2500      27.4775    -999.2500      49.4485      45.7304       0.0494       2.8085    -999.2500     -63.5031    -999.2500
   2423.4646       6.0450    -999.2500      24.6400    -999.2500      50.4060      46.5600       0.0514       2.8070    -999.2500     -62.9070    -999.2500
   2423.6169       6.0925    -999.2500      24.6915    -999.2500      55.6054      50.9970       0.0551       2.7935    -999.2500     -61.7227    -999.2500
   2423.7695       6.1400    -999.2500      24.7430    -999.2500      60.8000      55.4300       0.0599       2.7800    -999.2500     -60.5300    -999.2500
   2423.9219       6.0949    -999.2500      25.1870    -999.2500      53.6021      48.4672       0.0651       2.7800    -999.2500     -60.5719    -999.2500
   2424.0742       6.0500    -999.2500      25.6300    -999.2500      46.4100      41.5100       0.0700       2.7800    -999.2500     -60.6140    -999.2500
   2424.2266       6.0630    -999.2500      27.9326    -999.2500      46.5651      41.8641       0.0737       2.8000    -999.2500     -61.0225    -999.2500
   2424.3789       6.0760    -999.2500      30.2300    -999.2500      46.7200      42.2180       0.0762       2.8200    -999.2500     -61.4300    -999.2500
   2424.5315       6.1185    -999.2500      29.6694    -999.2500      50.3439      47.1893       0.0770       2.8105    -999.2500     -61.2531    -999.2500
   2424.6838       6.1610    -999.2500      29.1100    -999.2500      53.9600      52.1500       0.0771       2.8010    -999.2500     -61.0760    -999.2500
   2424.8362       6.1955    -999.2500      31.5910    -999.2500      53.2127      51.4893       0.0773       2.7740    -999.2500     -59.9305    -999.2500
   2424.9885       6.2300    -999.2500      34.0670    -999.2500      52.4670      50.8300       0.0789       2.7470    -999.2500     -58.7800    -999.2500
   2425.1411       6.2260    -999.2500      54.0524    -999.2500      42.1787      40.7504       0.0837       2.7385    -999.2500     -58.9105    -999.2500
   2425.2935       6.2220    -999.2500      74.0000    -999.2500      31.9100      30.6900       0.0883       2.7300    -999.2500     -59.0410    -999.2500
   2425.4458       6.1509    -999.2500      73.5676    -999.2500      33.4524      32.0177       0.0892       2.7300    -999.2500     -59.4415    -999.2500
   2425.5981       6.0800    -999.2500      73.1360    -999.2500      34.9920      33.3430       0.0873       2.7300    -999.2500     -59.8400    -999.2500
   2425.7507       6.1050    -999.2500      70.0675    -999.2500      41.7180      39.0397       0.0830       2.7380    -999.2500     -59.2946    -999.2500
   2425.9031       6.1300    -999.2500      67.0040    -999.2500      48.4330      44.7270       0.0765       2.7460    -999.2500     -58.7500    -999.2500
   2426.0554       6.1210    -999.2500      58.8508    -999.2500      54.8884      50.2272       0.0674       2.8080    -999.2500     -58.8889    -999.2500
   2426.2078       6.1120    -999.2500      50.7100    -999.2500      61.3340      55.7190       0.0577       2.8700    -999.2500     -59.0280    -999.2500
   2426.3601       6.0560    -999.2500      37.7660    -999.2500      69.2415      62.3656       0.0495       2.8660    -999.2500     -60.6363    -999.2500
   2426.5127       6.0000    -999.2500      24.8400    -999.2500      77.1380      69.0030       0.0439       2.8620    -999.2500     -62.2500    -999.2500
   2426.6650       6.0250    -999.2500      26.5811    -999.2500      84.0609      73.9651       0.0424       2.8260    -999.2500     -62.2050    -999.2500
   2426.8174       6.0500    -999.2500      28.3200    -999.2500      90.9750      78.9210       0.0418       2.7900    -999.2500     -62.1600    -999.2500
   2426.9697       6.0250    -999.2500      27.9798    -999.2500      97.5863      83.3280       0.0390       2.7915    -999.2500     -61.9044    -999.2500
   2427.1223       6.0000    -999.2500      27.6400    -999.2500     104.1900      87.7300       0.0361       2.7930    -999.2500     -61.6500    -999.2500
   2427.2747       6.0025    -999.2500      27.8466    -999.2500     103.4671      87.2993       0.0354       2.7965    -999.2500     -61.8786    -999.2500
   2427.4270       6.0050    -999.2500      28.0530    -999.2500     102.7450      86.8690       0.0363       2.8000    -999.2500     -62.1070    -999.2500
   2427.5793       6.0325    -999.2500      30.1074    -999.2500      94.6944      80.7508       0.0384       2.8025    -999.2500     -63.2831    -999.2500
   2427.7319       6.0600    -999.2500      32.1600    -999.2500      86.6510      74.6380       0.0419       2.8050    -999.2500     -64.4600    -999.2500
   2427.8843       6.0585    -999.2500      29.8322    -999.2500      70.9355      61.3784       0.0471       2.8165    -999.2500     -64.3527    -999.2500
   2428.0366       6.0570    -999.2500      27.5100    -999.2500      55.2320      48.1290       0.0531       2.8280    -999.2500     -64.2450    -999.2500
   2428.1890       6.0385    -999.2500      28.2513    -999.2500      48.8089      41.9125       0.0590       2.8440    -999.2500     -63.7627    -999.2500
