#------------------------------------------------------------------------------
#
#   Created by  : [OpenWorks] Log Export Utility (LEXP)
#   Created on  : 2016-05-23 17:52:14
#   Project     : CANT971
#   User        : R5K
#   Interpreter : PEP
#
#------------------------------------------------------------------------------
~VERSION INFORMATION
VERS. 2.0 : CWLS Log ASCII Standard - version 2.0
WRAP.  NO : One line per depth step
~WELL INFORMATION
#MNEMONIC   .UNIT                                           VALUE :DESCRIPTION
#------------------------------------------------------------------------------
STRT        .M                                           542.2390 :START DEPTH
STOP        .M                                          2489.9111 :STOP DEPTH
STEP        .M                                             0.1524 :STEP
NULL        .                                           -999.2500 :NULL VALUE
COMP        .                                   PEMEX EXPL & PROD :COMPANY
WELL        .                                                  92 :WELL
FLD         .                                           CANTARELL :FIELD
LOC         .                                             UNKNOWN :LOCATION
CNTY        .                                      CD. DEL CARMEN :COUNTY
STAT        .                                            CAMPECHE :STATE
CTRY        .                                              MEXICO :COUNTRY
SRVC        .                                             UNKNOWN :SERVICE COMPANY
DATE        .                                             UNKNOWN :LOG DATE
UWI         .                                          3060000189 :UNIQUE WELL ID
XCOORD      .                                       598503.540000 :SURFACE X
YCOORD      .                                      2149267.700000 :SURFACE Y
LAT         .                                           19.436511 :LATITUDE
LON         .                                          -92.061671 :LONGITUDE
ELEV        .M                                            27.6000 :SURFACE ELEV
ELEV_TYPE   .                                                  KB :ELEV TYPE
~CURVE INFORMATION
#MNEMONIC.UNIT        API CODE       : CURVE DESCRIPTION
#------------------------------------------------------------------------------
DEPTH    .M                          : Measured Depth
CALI     .inches      UNKNOWN        : CALI:registros:rC:NONE:v0 (auto-composite)
DT       .us/ft       UNKNOWN        : DT:registros:rC:NONE:v0 (auto-composite)
GR       .API         UNKNOWN        : GR:registros:rC:NONE:v0 (auto-composite)
ILD      .ohm.m       UNKNOWN        : ILD:registros:rC:NONE:v0 (auto-composite)
LLD      .ohm.m       UNKNOWN        : LLD:registros:rC:NONE:v0 (auto-composite)
LLS      .ohm.m       UNKNOWN        : LLS:registros:rC:NONE:v0 (auto-composite)
NPHI     .UNKNOWN     UNKNOWN        : NPHI:registros:rC:NONE:v0 (auto-composite)
RHOB     .g/cm3       UNKNOWN        : RHOB:registros:rC:NONE:v0 (auto-composite)
SIGM     .UNKNOWN     UNKNOWN        : SIGM:registros:rC:NONE:v0 (auto-composite)
SP       .UNKNOWN     UNKNOWN        : SP:UNKNOWN:rC:NONE:v0 (auto-composite)
TAU      .UNKNOWN     UNKNOWN        : TAU:registros:rC:NONE:v0 (auto-composite)
~A     DEPTH         CALI           DT           GR          ILD          LLD          LLS         NPHI         RHOB         SIGM           SP          TAU
# ...
   1485.2902      15.4120    -999.2500      28.3950    -999.2500   57671.4609   62622.6211       0.5941    -999.2500      21.0660    -999.2500     215.9150
   1485.4426      17.8668    -999.2500      30.8983    -999.2500   32868.9766   38949.4727       0.5915    -999.2500      21.2039    -999.2500     214.4967
   1485.5950      20.3200    -999.2500      33.4000    -999.2500    8002.4878   15215.2363       0.5901    -999.2500      21.3420    -999.2500     213.0770
   1485.7474      19.2947    -999.2500      33.3470    -999.2500   40083.6094   18938.1465       0.5935    -999.2500      21.4969    -999.2500     211.5538
   1485.8998      18.2700    -999.2500      33.2940    -999.2500   72251.5547   22671.1328       0.5976    -999.2500      21.6520    -999.2500     210.0290
   1486.0522      18.2810    -999.2500      32.4103    -999.2500   68778.7578   49434.1523       0.5987    -999.2500      22.4078    -999.2500     203.2035
   1486.2046      18.2920    -999.2500      31.5270    -999.2500   65296.1289   76272.9766       0.5977    -999.2500      23.1640    -999.2500     196.3750
   1486.3571      18.7046    -999.2500      28.9942    -999.2500   57267.8203   76018.3906       0.5949    -999.2500      22.9905    -999.2500     197.9542
   1486.5094      19.1170    -999.2500      26.4620    -999.2500   49222.1992   75763.2578       0.5853    -999.2500      22.8170    -999.2500     199.5330
   1486.6619      20.3631    -999.2500      24.5809    -999.2500   40949.3555   74732.8828       0.5624    -999.2500      21.7104    -999.2500     211.7933
   1486.8142      21.6090    -999.2500      22.7000    -999.2500   32664.2754   73700.9766       0.5254    -999.2500      20.6040    -999.2500     224.0520
   1486.9666      22.0897    -999.2500      23.1217    -999.2500   43296.6289   70453.4922       0.4710    -999.2500      18.5300    -999.2500     252.2610
   1487.1190      22.5700    -999.2500      23.5430    -999.2500   53946.0391   67200.7969       0.4191    -999.2500      16.4560    -999.2500     280.4700
   1487.2714      22.1557    -999.2500      25.6731    -999.2500   42513.0820   48957.0195       0.3899    -999.2500      15.2556    -999.2500     302.1676
   1487.4238      21.7420    -999.2500      27.8000    -999.2500   31060.3398   30681.6758       0.3692    -999.2500      14.0550    -999.2500     323.8680
   1487.5762      18.3987    -999.2500      25.8487    -999.2500   15750.6729   15684.2510       0.3446    -999.2500      13.7470    -999.2500     331.2686
   1487.7286      15.0600    -999.2500      23.9000    -999.2500     412.5900     658.9900       0.3131    -999.2500      13.4390    -999.2500     338.6710
   1487.8810      15.4903    -999.2500      24.4253    -999.2500     522.7509    1050.4821       0.2706    -999.2500      13.1081    -999.2500     347.2714
   1488.0334      15.9200    -999.2500      24.9500    -999.2500     633.1300    1442.7500       0.2291    -999.2500      12.7770    -999.2500     355.8750
   1488.1858      14.5993    -999.2500      26.4148    -999.2500     324.5652     734.1918       0.2010    -999.2500      12.9295    -999.2500     351.7510
   1488.3383      13.2800    -999.2500      27.8780    -999.2500      15.3500      24.1400       0.1860    -999.2500      13.0820    -999.2500     347.6250
   1488.4906      13.3255    -999.2500      28.1766    -999.2500      16.4782      25.0964       0.1860    -999.2500      13.0795    -999.2500     347.6920
   1488.6431      13.3710    -999.2500      28.4750    -999.2500      17.6090      26.0550       0.1911    -999.2500      13.0770    -999.2500     347.7590
   1488.7954      13.5696    -999.2500      29.2728    -999.2500      22.4643      29.8246       0.1921    -999.2500      13.0105    -999.2500     349.5933
   1488.9478      13.7680    -999.2500      30.0700    -999.2500      27.3310      33.6030       0.1903    -999.2500      12.9440    -999.2500     351.4290
   1489.1002      14.0691    -999.2500      31.1354    -999.2500      45.1733      48.2143       0.1866    -999.2500      12.6536    -999.2500     359.5859
   1489.2526      14.3700    -999.2500      32.2000    -999.2500      63.0600      62.8620       0.1794    -999.2500      12.3630    -999.2500     367.7500
   1489.4050      14.1899    -999.2500      31.9164    -999.2500     642.1619     486.9288       0.1665    -999.2500      12.4215    -999.2500     366.0743
   1489.5574      14.0100    -999.2500      31.6330    -999.2500    1222.7760     912.1030       0.1553    -999.2500      12.4800    -999.2500     364.3970
   1489.7098      14.0535    -999.2500      30.6968    -999.2500   22981.2539   37297.8125       0.1534    -999.2500      12.7289    -999.2500     357.4569
   1489.8622      14.0970    -999.2500      29.7610    -999.2500   44799.2891   73783.1172       0.1581    -999.2500      12.9780    -999.2500     350.5090
   1490.0146      14.3335    -999.2500      29.1739    -999.2500   35212.2500   56668.1836       0.1678    -999.2500      13.3814    -999.2500     340.1944
   1490.1670      14.5700    -999.2500      28.5870    -999.2500   25605.4473   39517.9727       0.1821    -999.2500      13.7850    -999.2500     329.8750
   1490.3195      14.2850    -999.2500      27.1433    -999.2500   34781.6133   43429.2852       0.2015    -999.2500      13.7810    -999.2500     329.9575
   1490.4718      14.0000    -999.2500      25.7000    -999.2500   43970.4766   47346.0078       0.2241    -999.2500      13.7770    -999.2500     330.0400
   1490.6243      14.0550    -999.2500      25.8275    -999.2500   41876.9570   64515.8828       0.2486    -999.2500      13.7470    -999.2500     330.7330
   1490.7766      14.1100    -999.2500      25.9550    -999.2500   39780.2734   81711.6797       0.2629    -999.2500      13.7170    -999.2500     331.4260
   1490.9290      13.8699    -999.2500      26.5507    -999.2500   50188.9805   80489.7891       0.2535    -999.2500      13.6555    -999.2500     332.9725
   1491.0814      13.6300    -999.2500      27.1460    -999.2500   60614.7070   79265.9062       0.2422    -999.2500      13.5940    -999.2500     334.5190
   1491.2338      13.7636    -999.2500      28.8242    -999.2500   55018.1758   55857.6172       0.2505    -999.2500      13.5450    -999.2500     335.7544
   1491.3862      13.8970    -999.2500      30.5000    -999.2500   49411.7891   32408.1016       0.2635    -999.2500      13.4960    -999.2500     336.9900
   1491.5386      14.3838    -999.2500      29.6494    -999.2500   37217.6680   36015.7539       0.2671    -999.2500      13.3585    -999.2500     340.5305
   1491.6910      14.8700    -999.2500      28.8000    -999.2500   25000.5410   39630.2109       0.2644    -999.2500      13.2210    -999.2500     344.0720
   1491.8434      14.7159    -999.2500      28.8000    -999.2500   19596.1055   32474.9082       0.2579    -999.2500      13.0150    -999.2500     349.5949
   1491.9958      14.5620    -999.2500      28.8000    -999.2500   14180.7930   25305.2031       0.2467    -999.2500      12.8090    -999.2500     355.1200
   1492.1482      14.0427    -999.2500      30.4509    -999.2500    7123.5479   12702.7979       0.2293    -999.2500      12.5821    -999.2500     361.5583
   1492.3007      13.5240    -999.2500      32.1000    -999.2500      51.2100      73.4400       0.2088    -999.2500      12.3550    -999.2500     368.0000
   1492.4530      13.3504    -999.2500      31.3997    -999.2500      86.3187     105.2580       0.1880    -999.2500      12.3955    -999.2500     366.8459
   1492.6055      13.1770    -999.2500      30.7000    -999.2500     121.5070     137.1480       0.1724    -999.2500      12.4360    -999.2500     365.6910
   1492.7578      12.9384    -999.2500      30.7800    -999.2500   10578.2236   23666.1172       0.1682    -999.2500      12.5889    -999.2500     361.3732
   1492.9102      12.7000    -999.2500      30.8600    -999.2500   21059.9355   47251.3281       0.1715    -999.2500      12.7420    -999.2500     357.0520
   1493.0626      13.1602    -999.2500      33.2808    -999.2500   19936.9727   45109.9023       0.1792    -999.2500      12.9979    -999.2500     350.0917
