#------------------------------------------------------------------------------
#
#   Created by  : [OpenWorks] Log Export Utility (LEXP)
#   Created on  : 2016-05-23 17:52:14
#   Project     : CANT971
#   User        : R5K
#   Interpreter : PEP
#
#------------------------------------------------------------------------------
~VERSION INFORMATION
VERS. 2.0 : CWLS Log ASCII Standard - version 2.0
WRAP.  NO : One line per depth step
~WELL INFORMATION
#MNEMONIC   .UNIT                                           VALUE :DESCRIPTION
#------------------------------------------------------------------------------
STRT        .M                                           542.2390 :START DEPTH
STOP        .M                                          2489.9111 :STOP DEPTH
STEP        .M                                             0.1524 :STEP
NULL        .                                           -999.2500 :NULL VALUE
COMP        .                                   PEMEX EXPL & PROD :COMPANY
WELL        .                                                  92 :WELL
FLD         .                                           CANTARELL :FIELD
LOC         .                                             UNKNOWN :LOCATION
CNTY        .                                      CD. DEL CARMEN :COUNTY
STAT        .                                            CAMPECHE :STATE
CTRY        .                                              MEXICO :COUNTRY
SRVC        .                                             UNKNOWN :SERVICE COMPANY
DATE        .                                             UNKNOWN :LOG DATE
UWI         .                                          3060000189 :UNIQUE WELL ID
XCOORD      .                                       598503.540000 :SURFACE X
YCOORD      .                                      2149267.700000 :SURFACE Y
LAT         .                                           19.436511 :LATITUDE
LON         .                                          -92.061671 :LONGITUDE
ELEV        .M                                            27.6000 :SURFACE ELEV
ELEV_TYPE   .                                                  KB :ELEV TYPE
~CURVE INFORMATION
#MNEMONIC.UNIT        API CODE       : CURVE DESCRIPTION
#------------------------------------------------------------------------------
DEPTH    .M                          : Measured Depth
CALI     .inches      UNKNOWN        : CALI:registros:rC:NONE:v0 (auto-composite)
DT       .us/ft       UNKNOWN        : DT:registros:rC:NONE:v0 (auto-composite)
GR       .API         UNKNOWN        : GR:registros:rC:NONE:v0 (auto-composite)
ILD      .ohm.m       UNKNOWN        : ILD:registros:rC:NONE:v0 (auto-composite)
LLD      .ohm.m       UNKNOWN        : LLD:registros:rC:NONE:v0 (auto-composite)
LLS      .ohm.m       UNKNOWN        : LLS:registros:rC:NONE:v0 (auto-composite)
NPHI     .UNKNOWN     UNKNOWN        : NPHI:registros:rC:NONE:v0 (auto-composite)
RHOB     .g/cm3       UNKNOWN        : RHOB:registros:rC:NONE:v0 (auto-composite)
SIGM     .UNKNOWN     UNKNOWN        : SIGM:registros:rC:NONE:v0 (auto-composite)
SP       .UNKNOWN     UNKNOWN        : SP:UNKNOWN:rC:NONE:v0 (auto-composite)
TAU      .UNKNOWN     UNKNOWN        : TAU:registros:rC:NONE:v0 (auto-composite)
~A     DEPTH         CALI           DT           GR          ILD          LLD          LLS         NPHI         RHOB         SIGM           SP          TAU
# ...
   1746.8086       9.3040    -999.2500      21.5000    -999.2500   49047.3711   75858.5469       0.0421    -999.2500      12.2380    -999.2500     371.5000
   1746.9611       9.4371    -999.2500      22.3504    -999.2500   50800.9844   76316.6328       0.0481    -999.2500      12.1970    -999.2500     372.7491
   1747.1134       9.5700    -999.2500      23.2000    -999.2500   52557.0586   76775.3672       0.0559    -999.2500      12.1560    -999.2500     374.0000
   1747.2659       9.4849    -999.2500      22.5995    -999.2500   55177.7227   76709.6875       0.0647    -999.2500      12.1855    -999.2500     373.1257
   1747.4182       9.4000    -999.2500      22.0000    -999.2500   57802.3984   76643.9062       0.0714    -999.2500      12.2150    -999.2500     372.2500
   1747.5706       9.4145    -999.2500      22.4018    -999.2500   52647.0469   76656.7266       0.0727    -999.2500      12.1905    -999.2500     373.0194
   1747.7230       9.4290    -999.2500      22.8030    -999.2500   47483.1562   76669.5625       0.0705    -999.2500      12.1660    -999.2500     373.7900
   1747.8754       9.5646    -999.2500      24.2791    -999.2500   52748.6016   76743.2734       0.0668    -999.2500      12.0526    -999.2500     377.3843
   1748.0278       9.7000    -999.2500      25.7530    -999.2500   58023.4297   76817.1094       0.0639    -999.2500      11.9390    -999.2500     380.9850
   1748.1802       9.6680    -999.2500      26.8272    -999.2500   57452.8164   76934.7344       0.0643    -999.2500      11.7082    -999.2500     388.6102
   1748.3326       9.6360    -999.2500      27.9000    -999.2500   56881.5703   77052.4844       0.0658    -999.2500      11.4770    -999.2500     396.2500
   1748.4850       9.5329    -999.2500      27.4482    -999.2500   54828.0391   76956.9531       0.0662    -999.2500      11.4880    -999.2500     395.8634
   1748.6375       9.4300    -999.2500      26.9970    -999.2500   52773.6289   76861.3750       0.0652    -999.2500      11.4990    -999.2500     395.4760
   1748.7898       9.5601    -999.2500      25.5517    -999.2500   50817.0898   76487.6016       0.0626    -999.2500      11.6274    -999.2500     391.3143
   1748.9423       9.6900    -999.2500      24.1080    -999.2500   48859.4609   76113.6250       0.0604    -999.2500      11.7560    -999.2500     387.1470
   1749.0946       9.6785    -999.2500      23.5537    -999.2500   47117.4297   75785.9375       0.0610    -999.2500      12.2638    -999.2500     372.4275
   1749.2471       9.6670    -999.2500      23.0000    -999.2500   45374.2109   75458.0234       0.0639    -999.2500      12.7720    -999.2500     357.6980
   1749.3994       9.5635    -999.2500      24.1505    -999.2500   41788.2734   76856.7969       0.0687    -999.2500      13.8581    -999.2500     330.9848
   1749.5518       9.4600    -999.2500      25.3000    -999.2500   38199.4414   78256.7031       0.0735    -999.2500      14.9450    -999.2500     304.2500
   1749.7042       9.7201    -999.2500      24.8498    -999.2500   38801.2227   76529.8047       0.0761    -999.2500      14.8785    -999.2500     305.7008
   1749.8566       9.9800    -999.2500      24.4000    -999.2500   39403.5664   74801.2891       0.0789    -999.2500      14.8120    -999.2500     307.1530
   1750.0090       9.9380    -999.2500      24.8201    -999.2500   41782.5039   74958.4766       0.0845    -999.2500      14.3852    -999.2500     317.1447
   1750.1614       9.8960    -999.2500      25.2400    -999.2500   44163.9609   75115.8281       0.0987    -999.2500      13.9580    -999.2500     327.1470
   1750.3138       9.6830    -999.2500      27.2329    -999.2500   46585.8594   74995.1016       0.1273    -999.2500      13.2134    -999.2500     346.1378
   1750.4662       9.4700    -999.2500      29.2250    -999.2500   49010.6211   74874.2344       0.1528    -999.2500      12.4680    -999.2500     365.1510
   1750.6187       9.5100    -999.2500      32.4130    -999.2500   44781.9102   68804.0391       0.1579    -999.2500      12.0937    -999.2500     376.5680
   1750.7710       9.5500    -999.2500      35.6000    -999.2500   40547.6602   62725.9023       0.1491    -999.2500      11.7190    -999.2500     388.0000
   1750.9235       9.5435    -999.2500      34.5495    -999.2500   26654.9492   40764.8203       0.1329    -999.2500      11.7480    -999.2500     387.0632
   1751.0758       9.5370    -999.2500      33.5000    -999.2500   12742.3008   18772.2246       0.1132    -999.2500      11.7770    -999.2500     386.1250
   1751.2283       9.5135    -999.2500      35.9520    -999.2500    6488.4858    9542.0762       0.0942    -999.2500      11.7150    -999.2500     388.2553
   1751.3806       9.4900    -999.2500      38.4000    -999.2500     224.9100     297.5200       0.0785    -999.2500      11.6530    -999.2500     390.3890
   1751.5330       9.5801    -999.2500      37.5173    -999.2500     353.0564     456.8122       0.0688    -999.2500      11.4382    -999.2500     397.8762
   1751.6854       9.6700    -999.2500      36.6360    -999.2500     481.4190     616.3730       0.0645    -999.2500      11.2230    -999.2500     405.3760
   1751.8378       9.6525    -999.2500      33.8215    -999.2500    2674.0364    3997.8555       0.0652    -999.2500      11.0726    -999.2500     410.8610
   1751.9902       9.6350    -999.2500      31.0110    -999.2500    4870.6279    7385.4668       0.0675    -999.2500      10.9220    -999.2500     416.3560
   1752.1426       9.5625    -999.2500      29.4760    -999.2500    8635.1465   22462.9902       0.0680    -999.2500      10.8106    -999.2500     420.6738
   1752.2950       9.4900    -999.2500      27.9430    -999.2500   12403.9443   37557.6484       0.0679    -999.2500      10.6990    -999.2500     425.0000
   1752.4474       9.5045    -999.2500      27.2846    -999.2500   29186.9746   56516.9688       0.0687    -999.2500      10.7290    -999.2500     423.8367
   1752.5999       9.5190    -999.2500      26.6270    -999.2500   45977.7266   75485.0156       0.0692    -999.2500      10.7590    -999.2500     422.6710
   1752.7522       9.5815    -999.2500      25.5129    -999.2500   42596.7773   75477.8203       0.0683    -999.2500      10.9808    -999.2500     414.6505
   1752.9047       9.6440    -999.2500      24.4000    -999.2500   39213.8438   75470.6172       0.0673    -999.2500      11.2030    -999.2500     406.6190
   1753.0570       9.7671    -999.2500      24.4000    -999.2500   40552.3828   75416.8750       0.0676    -999.2500      11.6638    -999.2500     391.0505
   1753.2095       9.8900    -999.2500      24.4000    -999.2500   41891.8711   75363.0938       0.0700    -999.2500      12.1250    -999.2500     375.4710
   1753.3618       9.8150    -999.2500      24.1284    -999.2500   46577.4805   75158.7891       0.0755    -999.2500      12.4349    -999.2500     366.2923
   1753.5142       9.7400    -999.2500      23.8570    -999.2500   51267.0156   74954.3203       0.0852    -999.2500      12.7450    -999.2500     357.1060
   1753.6666       9.7520    -999.2500      22.8387    -999.2500   47731.0312   72287.0234       0.1002    -999.2500      12.9314    -999.2500     351.9695
   1753.8190       9.7640    -999.2500      21.8210    -999.2500   44191.6445   69617.1641       0.1172    -999.2500      13.1180    -999.2500     346.8280
   1753.9714       9.8200    -999.2500      20.9833    -999.2500   52262.1758   70474.0781       0.1330    -999.2500      13.3079    -999.2500     341.9846
   1754.1238       9.8760    -999.2500      20.1460    -999.2500   60341.4961   71331.9297       0.1457    -999.2500      13.4980    -999.2500     337.1360
   1754.2762       9.9405    -999.2500      20.0335    -999.2500   53581.6562   74037.5078       0.1534    -999.2500      13.7508    -999.2500     330.9467
   1754.4286      10.0050    -999.2500      19.9210    -999.2500   46813.6055   76746.3750       0.1584    -999.2500      14.0040    -999.2500     324.7500
   1754.5811      10.0325    -999.2500      19.6604    -999.2500   47576.7969   76443.7812       0.1631    -999.2500      13.8261    -999.2500     328.9972
