#------------------------------------------------------------------------------
#
#   Created by  : [OpenWorks] Log Export Utility (LEXP)
#   Created on  : 2016-05-23 17:52:14
#   Project     : CANT971
#   User        : R5K
#   Interpreter : PEP
#
#------------------------------------------------------------------------------
~VERSION INFORMATION
VERS. 2.0 : CWLS Log ASCII Standard - version 2.0
WRAP.  NO : One line per depth step
~WELL INFORMATION
#MNEMONIC   .UNIT                                           VALUE :DESCRIPTION
#------------------------------------------------------------------------------
STRT        .M                                           542.2390 :START DEPTH
STOP        .M                                          2489.9111 :STOP DEPTH
STEP        .M                                             0.1524 :STEP
NULL        .                                           -999.2500 :NULL VALUE
COMP        .                                   PEMEX EXPL & PROD :COMPANY
WELL        .                                                  92 :WELL
FLD         .                                           CANTARELL :FIELD
LOC         .                                             UNKNOWN :LOCATION
CNTY        .                                      CD. DEL CARMEN :COUNTY
STAT        .                                            CAMPECHE :STATE
CTRY        .                                              MEXICO :COUNTRY
SRVC        .                                             UNKNOWN :SERVICE COMPANY
DATE        .                                             UNKNOWN :LOG DATE
UWI         .                                          3060000189 :UNIQUE WELL ID
XCOORD      .                                       598503.540000 :SURFACE X
YCOORD      .                                      2149267.700000 :SURFACE Y
LAT         .                                           19.436511 :LATITUDE
LON         .                                          -92.061671 :LONGITUDE
ELEV        .M                                            27.6000 :SURFACE ELEV
ELEV_TYPE   .                                                  KB :ELEV TYPE
~CURVE INFORMATION
#MNEMONIC.UNIT        API CODE       : CURVE DESCRIPTION
#------------------------------------------------------------------------------
DEPTH    .M                          : Measured Depth
CALI     .inches      UNKNOWN        : CALI:registros:rC:NONE:v0 (auto-composite)
DT       .us/ft       UNKNOWN        : DT:registros:rC:NONE:v0 (auto-composite)
GR       .API         UNKNOWN        : GR:registros:rC:NONE:v0 (auto-composite)
ILD      .ohm.m       UNKNOWN        : ILD:registros:rC:NONE:v0 (auto-composite)
LLD      .ohm.m       UNKNOWN        : LLD:registros:rC:NONE:v0 (auto-composite)
LLS      .ohm.m       UNKNOWN        : LLS:registros:rC:NONE:v0 (auto-composite)
NPHI     .UNKNOWN     UNKNOWN        : NPHI:registros:rC:NONE:v0 (auto-composite)
RHOB     .g/cm3       UNKNOWN        : RHOB:registros:rC:NONE:v0 (auto-composite)
SIGM     .UNKNOWN     UNKNOWN        : SIGM:registros:rC:NONE:v0 (auto-composite)
SP       .UNKNOWN     UNKNOWN        : SP:UNKNOWN:rC:NONE:v0 (auto-composite)
TAU      .UNKNOWN     UNKNOWN        : TAU:registros:rC:NONE:v0 (auto-composite)
~A     DEPTH         CALI           DT           GR          ILD          LLD          LLS         NPHI         RHOB         SIGM           SP          TAU
# ...
   1881.5303      15.2670    -999.2500      18.9000    -999.2500   28613.1992   76285.4219       0.0863    -999.2500      11.6820    -999.2500     389.5790
   1881.6826      13.1727    -999.2500      19.0781    -999.2500   40723.2344   76207.6172       0.0768    -999.2500      12.1999    -999.2500     373.6840
   1881.8350      11.0800    -999.2500      19.2560    -999.2500   52843.5312   76129.7422       0.0676    -999.2500      12.7190    -999.2500     357.7500
   1881.9874      11.1170    -999.2500      21.2036    -999.2500   51949.9531   76223.7656       0.0677    -999.2500      12.5442    -999.2500     363.2079
   1882.1398      11.1540    -999.2500      23.1500    -999.2500   51055.5078   76317.8750       0.0691    -999.2500      12.3690    -999.2500     368.6800
   1882.2922      11.3045    -999.2500      28.4263    -999.2500   52265.7617   76694.3047       0.0752    -999.2500      11.8550    -999.2500     384.8536
   1882.4446      11.4550    -999.2500      33.7000    -999.2500   53477.3477   77071.1484       0.0825    -999.2500      11.3400    -999.2500     401.0580
   1882.5970      11.6776    -999.2500      33.6470    -999.2500   57964.7500   77593.5156       0.0961    -999.2500      11.1916    -999.2500     406.4632
   1882.7494      11.9000    -999.2500      33.5940    -999.2500   62457.6484   78116.5234       0.1101    -999.2500      11.0430    -999.2500     411.8750
   1882.9019      11.7489    -999.2500      33.0935    -999.2500   68627.0156   81138.9531       0.1207    -999.2500      11.0635    -999.2500     411.1115
   1883.0542      11.5980    -999.2500      32.5940    -999.2500   74804.7188   84165.4609       0.1297    -999.2500      11.0840    -999.2500     410.3470
   1883.2067      10.9534    -999.2500      31.0266    -999.2500   74270.8125   75614.6328       0.1269    -999.2500      11.1510    -999.2500     407.8888
   1883.3590      10.3100    -999.2500      29.4620    -999.2500   73736.5469   67058.0312       0.1219    -999.2500      11.2180    -999.2500     405.4270
   1883.5115      10.3385    -999.2500      27.2292    -999.2500   58131.8594   70415.5078       0.1091    -999.2500      11.2904    -999.2500     402.8411
   1883.6638      10.3670    -999.2500      25.0000    -999.2500   42527.1914   73772.9844       0.0970    -999.2500      11.3630    -999.2500     400.2510
   1883.8162      10.4476    -999.2500      25.2887    -999.2500   53837.7461   73642.7812       0.0988    -999.2500      11.5139    -999.2500     395.0695
   1883.9686      10.5280    -999.2500      25.5770    -999.2500   65149.7070   73512.5625       0.1031    -999.2500      11.6650    -999.2500     389.8790
   1884.1210      10.5485    -999.2500      26.9009    -999.2500   54348.8477   71651.5469       0.1154    -999.2500      11.7774    -999.2500     386.1255
   1884.2734      10.5690    -999.2500      28.2230    -999.2500   43545.2852   69790.0625       0.1285    -999.2500      11.8900    -999.2500     382.3650
   1884.4258      10.6896    -999.2500      30.7631    -999.2500   55980.2617   73015.2812       0.1413    -999.2500      11.9235    -999.2500     381.2870
   1884.5782      10.8100    -999.2500      33.3000    -999.2500   68419.9062   76241.7109       0.1525    -999.2500      11.9570    -999.2500     380.2070
   1884.7306      10.7164    -999.2500      33.1259    -999.2500   60341.6406   75311.1719       0.1512    -999.2500      12.0984    -999.2500     375.9295
   1884.8831      10.6230    -999.2500      32.9520    -999.2500   52259.3242   74380.1719       0.1474    -999.2500      12.2400    -999.2500     371.6430
   1885.0354      10.3364    -999.2500      31.8655    -999.2500   57419.8320   75260.9297       0.1347    -999.2500      12.4732    -999.2500     364.8291
   1885.1879      10.0500    -999.2500      30.7800    -999.2500   62583.5742   76142.2344       0.1224    -999.2500      12.7070    -999.2500     358.0000
   1885.3402      10.0565    -999.2500      28.6391    -999.2500   62044.6016   76095.8750       0.1217    -999.2500      12.6900    -999.2500     358.4819
   1885.4926      10.0630    -999.2500      26.5000    -999.2500   61505.2227   76049.4844       0.1229    -999.2500      12.6730    -999.2500     358.9650
   1885.6450      10.1100    -999.2500      27.1062    -999.2500   58961.5625   76289.8750       0.1287    -999.2500      12.5726    -999.2500     361.8549
   1885.7974      10.1570    -999.2500      27.7120    -999.2500   56415.6680   76530.4766       0.1328    -999.2500      12.4720    -999.2500     364.7520
   1885.9498      10.2530    -999.2500      29.5065    -999.2500   57195.0977   76311.3125       0.1190    -999.2500      12.2193    -999.2500     372.5544
   1886.1022      10.3490    -999.2500      31.3000    -999.2500   57975.3086   76091.9297       0.1048    -999.2500      11.9660    -999.2500     380.3770
   1886.2546      10.4445    -999.2500      30.9919    -999.2500   47105.4570   60545.7500       0.1053    -999.2500      11.6098    -999.2500     392.3759
   1886.4070      10.5400    -999.2500      30.6840    -999.2500   36223.3242   44982.0078       0.1088    -999.2500      11.2530    -999.2500     404.3980
   1886.5594      10.5250    -999.2500      29.6859    -999.2500   37224.0039   48150.6250       0.1213    -999.2500      10.9902    -999.2500     414.1929
   1886.7118      10.5100    -999.2500      28.6890    -999.2500   38225.9375   51323.2227       0.1329    -999.2500      10.7270    -999.2500     424.0000
   1886.8643      10.5651    -999.2500      28.2441    -999.2500   41801.0508   63294.7930       0.1280    -999.2500      10.7660    -999.2500     422.4386
   1887.0166      10.6200    -999.2500      27.8000    -999.2500   45378.2344   75273.3047       0.1221    -999.2500      10.8050    -999.2500     420.8750
   1887.1691      10.6175    -999.2500      27.9972    -999.2500   48847.7695   74573.2031       0.1248    -999.2500      10.7910    -999.2500     421.3122
   1887.3214      10.6150    -999.2500      28.1940    -999.2500   52316.9688   73873.1641       0.1309    -999.2500      10.7770    -999.2500     421.7500
   1887.4738      10.4624    -999.2500      30.1986    -999.2500   44983.0508   75379.0469       0.1543    -999.2500      10.8394    -999.2500     419.4394
   1887.6262      10.3100    -999.2500      32.2000    -999.2500   37648.9141   76884.9766       0.1772    -999.2500      10.9020    -999.2500     417.1250
   1887.7786      10.3140    -999.2500      31.9513    -999.2500   38587.6094   76870.5391       0.1788    -999.2500      10.8645    -999.2500     418.6107
   1887.9310      10.3180    -999.2500      31.7030    -999.2500   39526.4531   76856.0938       0.1769    -999.2500      10.8270    -999.2500     420.0990
   1888.0834      10.5191    -999.2500      30.3006    -999.2500   48782.8828   76805.3750       0.1698    -999.2500      10.6622    -999.2500     426.8206
   1888.2358      10.7200    -999.2500      28.9000    -999.2500   58041.9141   76754.6484       0.1612    -999.2500      10.4970    -999.2500     433.5550
   1888.3882      10.6960    -999.2500      28.9000    -999.2500   49627.8047   76252.8047       0.1475    -999.2500      10.1299    -999.2500     449.6363
   1888.5406      10.6720    -999.2500      28.9000    -999.2500   41210.2773   75750.7578       0.1361    -999.2500       9.7620    -999.2500     465.7500
   1888.6930      10.5519    -999.2500      28.6794    -999.2500   53893.3438   76348.3750       0.1475    -999.2500       9.8984    -999.2500     459.4442
   1888.8455      10.4320    -999.2500      28.4590    -999.2500   66583.1562   76946.3047       0.1602    -999.2500      10.0350    -999.2500     453.1250
   1888.9978      10.2789    -999.2500      27.5846    -999.2500   46583.0156   76682.9766       0.1599    -999.2500      10.0195    -999.2500     453.8602
   1889.1503      10.1260    -999.2500      26.7110    -999.2500   26569.7246   76419.4688       0.1570    -999.2500      10.0040    -999.2500     454.5970
   1889.3026      10.0850    -999.2500      25.7131    -999.2500   29274.4238   76582.8594       0.1486    -999.2500       9.9046    -999.2500     459.2305
