#------------------------------------------------------------------------------
#
#   Created by  : [OpenWorks] Log Export Utility (LEXP)
#   Created on  : 2016-05-23 17:52:14
#   Project     : CANT971
#   User        : R5K
#   Interpreter : PEP
#
#------------------------------------------------------------------------------
~VERSION INFORMATION
VERS. 2.0 : CWLS Log ASCII Standard - version 2.0
WRAP.  NO : One line per depth step
~WELL INFORMATION
#MNEMONIC   .UNIT                                           VALUE :DESCRIPTION
#------------------------------------------------------------------------------
STRT        .M                                           542.2390 :START DEPTH
STOP        .M                                          2489.9111 :STOP DEPTH
STEP        .M                                             0.1524 :STEP
NULL        .                                           -999.2500 :NULL VALUE
COMP        .                                   PEMEX EXPL & PROD :COMPANY
WELL        .                                                  92 :WELL
FLD         .                                           CANTARELL :FIELD
LOC         .                                             UNKNOWN :LOCATION
CNTY        .                                      CD. DEL CARMEN :COUNTY
STAT        .                                            CAMPECHE :STATE
CTRY        .                                              MEXICO :COUNTRY
SRVC        .                                             UNKNOWN :SERVICE COMPANY
DATE        .                                             UNKNOWN :LOG DATE
UWI         .                                          3060000189 :UNIQUE WELL ID
XCOORD      .                                       598503.540000 :SURFACE X
YCOORD      .                                      2149267.700000 :SURFACE Y
LAT         .                                           19.436511 :LATITUDE
LON         .                                          -92.061671 :LONGITUDE
ELEV        .M                                            27.6000 :SURFACE ELEV
ELEV_TYPE   .                                                  KB :ELEV TYPE
~CURVE INFORMATION
#MNEMONIC.UNIT        API CODE       : CURVE DESCRIPTION
#------------------------------------------------------------------------------
DEPTH    .M                          : Measured Depth
CALI     .inches      UNKNOWN        : CALI:registros:rC:NONE:v0 (auto-composite)
DT       .us/ft       UNKNOWN        : DT:registros:rC:NONE:v0 (auto-composite)
GR       .API         UNKNOWN        : GR:registros:rC:NONE:v0 (auto-composite)
ILD      .ohm.m       UNKNOWN        : ILD:registros:rC:NONE:v0 (auto-composite)
LLD      .ohm.m       UNKNOWN        : LLD:registros:rC:NONE:v0 (auto-composite)
LLS      .ohm.m       UNKNOWN        : LLS:registros:rC:NONE:v0 (auto-composite)
NPHI     .UNKNOWN     UNKNOWN        : NPHI:registros:rC:NONE:v0 (auto-composite)
RHOB     .g/cm3       UNKNOWN        : RHOB:registros:rC:NONE:v0 (auto-composite)
SIGM     .UNKNOWN     UNKNOWN        : SIGM:registros:rC:NONE:v0 (auto-composite)
SP       .UNKNOWN     UNKNOWN        : SP:UNKNOWN:rC:NONE:v0 (auto-composite)
TAU      .UNKNOWN     UNKNOWN        : TAU:registros:rC:NONE:v0 (auto-composite)
~A     DEPTH         CALI           DT           GR          ILD          LLD          LLS         NPHI         RHOB         SIGM           SP          TAU
# ...
   2349.0935       6.1000      53.9500      53.7860    -999.2500      30.1800      24.9200       0.0669       2.8040    -999.2500     -55.0900    -999.2500
   2349.2458       6.1065      53.7884      60.2366    -999.2500      33.4268      27.3434       0.0752       2.7570    -999.2500     -55.6284    -999.2500
   2349.3982       6.1130      53.6270      66.6800    -999.2500      36.6700      29.7640       0.0825       2.7100    -999.2500     -56.1680    -999.2500
   2349.5505       6.1330      52.9392      64.1777    -999.2500      63.0633      41.9011       0.0809       2.7115    -999.2500     -58.2868    -999.2500
   2349.7031       6.1530      52.2520      61.6780    -999.2500      89.4300      54.0260       0.0776       2.7130    -999.2500     -60.4000    -999.2500
   2349.8555       6.1605      51.2456      53.2218    -999.2500      89.0328      63.0320       0.0697       2.7205    -999.2500     -60.3480    -999.2500
   2350.0078       6.1680      50.2400      44.7730    -999.2500      88.6360      72.0300       0.0616       2.7280    -999.2500     -60.2960    -999.2500
   2350.1602       6.2090      50.3665      40.0242    -999.2500      80.6030      66.9011       0.0573       2.7415    -999.2500     -59.8680    -999.2500
   2350.3125       6.2500      50.4930      35.2790    -999.2500      72.5760      61.7760       0.0538       2.7550    -999.2500     -59.4410    -999.2500
   2350.4651       6.1699      51.0822      33.5676    -999.2500      53.2139      46.3196       0.0527       2.7665    -999.2500     -58.5629    -999.2500
   2350.6174       6.0900      51.6700      31.8600    -999.2500      33.8640      30.8730       0.0523       2.7780    -999.2500     -57.6910    -999.2500
   2350.7698       6.1300      52.4138      32.8701    -999.2500      21.5689      19.7237       0.0546       2.7940    -999.2500     -55.5916    -999.2500
   2350.9221       6.1700      53.1560      33.8780    -999.2500       9.2800       8.5800       0.0585       2.8100    -999.2500     -53.5000    -999.2500
   2351.0747       6.1450      53.7045      40.9505    -999.2500       9.9437       9.1676       0.0732       2.8025    -999.2500     -53.7005    -999.2500
   2351.2271       6.1200      54.2520      48.0090    -999.2500      10.6060       9.7540       0.0906       2.7950    -999.2500     -53.9010    -999.2500
   2351.3794       6.1240      57.2588      78.1374    -999.2500      21.1377      18.7954       0.1188       2.7325    -999.2500     -55.1347    -999.2500
   2351.5317       6.1280      60.2600     108.2100    -999.2500      31.6500      27.8200       0.1444       2.6700    -999.2500     -56.3700    -999.2500
   2351.6843       6.1941      59.3867     107.1516    -999.2500      28.7775      25.1477       0.1389       2.6775    -999.2500     -56.3226    -999.2500
   2351.8367       6.2600      58.5150     106.0950    -999.2500      25.9100      22.4800       0.1270       2.6850    -999.2500     -56.2750    -999.2500
   2351.9890       6.1599      55.2449      98.5385    -999.2500      26.7327      23.2066       0.0971       2.7115    -999.2500     -55.9200    -999.2500
   2352.1414       6.0600      51.9800      90.9940    -999.2500      27.5540      23.9320       0.0688       2.7380    -999.2500     -55.5650    -999.2500
   2352.2937       6.1200      54.2717      72.3032    -999.2500      52.8106      44.3361       0.0709       2.7505    -999.2500     -54.9310    -999.2500
   2352.4463       6.1800      56.5600      53.6400    -999.2500      78.0300      64.7100       0.0762       2.7630    -999.2500     -54.2990    -999.2500
   2352.5986       6.1300      56.3248      56.7271    -999.2500      75.5563      62.5425       0.0760       2.7690    -999.2500     -53.8892    -999.2500
   2352.7510       6.0800      56.0900      59.8100    -999.2500      73.0860      60.3780       0.0748       2.7750    -999.2500     -53.4800    -999.2500
   2352.9033       6.0895      54.8592      57.9033    -999.2500      60.3052      48.7919       0.0712       2.7825    -999.2500     -52.3537    -999.2500
   2353.0559       6.0990      53.6300      55.9990    -999.2500      47.5400      37.2200       0.0677       2.7900    -999.2500     -51.2270    -999.2500
   2353.2083       6.1345      53.8061      45.5688    -999.2500      49.7332      38.6708       0.0673       2.7845    -999.2500     -50.5907    -999.2500
   2353.3606       6.1700      53.9820      35.1500    -999.2500      51.9240      40.1200       0.0675       2.7790    -999.2500     -49.9520    -999.2500
   2353.5129       6.1660      55.2566      36.7643    -999.2500      63.5672      48.2269       0.0689       2.7615    -999.2500     -49.3058    -999.2500
   2353.6655       6.1620      56.5300      38.3770    -999.2500      75.1990      56.3260       0.0703       2.7440    -999.2500     -48.6550    -999.2500
   2353.8179       6.1445      56.1588      46.6970    -999.2500      92.5018      73.7204       0.0700       2.7270    -999.2500     -47.2796    -999.2500
   2353.9702       6.1270      55.7880      55.0100    -999.2500     109.7900      91.1000       0.0693       2.7100    -999.2500     -45.9010    -999.2500
   2354.1226       6.1035      53.4682      53.4189    -999.2500     109.3623      90.3732       0.0666       2.7170    -999.2500     -43.1778    -999.2500
   2354.2749       6.0800      51.1500      51.8290    -999.2500     108.9350      89.6470       0.0629       2.7240    -999.2500     -40.4610    -999.2500
   2354.4275       6.1050      51.2766      46.8545    -999.2500      99.4952      81.6961       0.0543       2.7460    -999.2500     -39.3376    -999.2500
   2354.5798       6.1300      51.4030      41.8910    -999.2500      90.0610      73.7500       0.0460       2.7680    -999.2500     -38.2130    -999.2500
   2354.7322       6.1260      52.7779      39.7183    -999.2500      66.1799      53.6102       0.0451       2.7840    -999.2500     -37.7071    -999.2500
   2354.8845       6.1220      54.1500      37.5500    -999.2500      42.3100      33.4800       0.0454       2.8000    -999.2500     -37.1990    -999.2500
   2355.0371       6.1010      53.8717      35.0275    -999.2500      42.5768      33.9194       0.0465       2.7985    -999.2500     -35.6662    -999.2500
   2355.1895       6.0800      53.5940      32.5100    -999.2500      42.8430      34.3580       0.0480       2.7970    -999.2500     -34.1340    -999.2500
   2355.3418       6.0920      52.4024      40.0168    -999.2500      45.6270      36.9083       0.0510       2.7895    -999.2500     -32.5716    -999.2500
   2355.4941       6.1040      51.2130      47.5100    -999.2500      48.4060      39.4540       0.0536       2.7820    -999.2500     -31.0170    -999.2500
   2355.6467       6.1871      49.9554      47.3924    -999.2500      82.7671      64.0979       0.0525       2.7610    -999.2500     -29.9426    -999.2500
   2355.7991       6.2700      48.7000      47.2750    -999.2500     117.0700      88.7000       0.0503       2.7400    -999.2500     -28.8700    -999.2500
   2355.9514       6.2485      48.9972      45.1713    -999.2500     114.6846      87.5551       0.0449       2.7495    -999.2500     -28.9649    -999.2500
   2356.1038       6.2270      49.2940      43.0710    -999.2500     112.3030      86.4120       0.0397       2.7590    -999.2500     -29.0600    -999.2500
   2356.2561       6.1484      50.6630      34.1691    -999.2500     103.4201      83.3638       0.0394       2.7935    -999.2500     -28.7251    -999.2500
   2356.4087       6.0700      52.0300      25.2800    -999.2500      94.5500      80.3200       0.0402       2.8280    -999.2500     -28.3890    -999.2500
   2356.5610       6.0860      51.2545      25.7033    -999.2500      96.6764      82.3113       0.0435       2.8540    -999.2500     -25.5326    -999.2500
   2356.7134       6.1020      50.4800      26.1260    -999.2500      98.8000      84.3000       0.0465       2.8800    -999.2500     -22.6800    -999.2500
   2356.8657       6.1660      51.1479      27.6149    -999.2500      93.5274      79.7208       0.0459       2.8785    -999.2500     -22.7547    -999.2500
