#------------------------------------------------------------------------------
#
#   Created by  : [OpenWorks] Log Export Utility (LEXP)
#   Created on  : 2016-05-23 17:52:14
#   Project     : CANT971
#   User        : R5K
#   Interpreter : PEP
#
#------------------------------------------------------------------------------
~VERSION INFORMATION
VERS. 2.0 : CWLS Log ASCII Standard - version 2.0
WRAP.  NO : One line per depth step
~WELL INFORMATION
#MNEMONIC   .UNIT                                           VALUE :DESCRIPTION
#------------------------------------------------------------------------------
STRT        .M                                           542.2390 :START DEPTH
STOP        .M                                          2489.9111 :STOP DEPTH
STEP        .M                                             0.1524 :STEP
NULL        .                                           -999.2500 :NULL VALUE
COMP        .                                   PEMEX EXPL & PROD :COMPANY
WELL        .                                                  92 :WELL
FLD         .                                           CANTARELL :FIELD
LOC         .                                             UNKNOWN :LOCATION
CNTY        .                                      CD. DEL CARMEN :COUNTY
STAT        .                                            CAMPECHE :STATE
CTRY        .                                              MEXICO :COUNTRY
SRVC        .                                             UNKNOWN :SERVICE COMPANY
DATE        .                                             UNKNOWN :LOG DATE
UWI         .                                          3060000189 :UNIQUE WELL ID
XCOORD      .                                       598503.540000 :SURFACE X
YCOORD      .                                      2149267.700000 :SURFACE Y
LAT         .                                           19.436511 :LATITUDE
LON         .                                          -92.061671 :LONGITUDE
ELEV        .M                                            27.6000 :SURFACE ELEV
ELEV_TYPE   .                                                  KB :ELEV TYPE
~CURVE INFORMATION
#MNEMONIC.UNIT        API CODE       : CURVE DESCRIPTION
#------------------------------------------------------------------------------
DEPTH    .M                          : Measured Depth
CALI     .inches      UNKNOWN        : CALI:registros:rC:NONE:v0 (auto-composite)
DT       .us/ft       UNKNOWN        : DT:registros:rC:NONE:v0 (auto-composite)
GR       .API         UNKNOWN        : GR:registros:rC:NONE:v0 (auto-composite)
ILD      .ohm.m       UNKNOWN        : ILD:registros:rC:NONE:v0 (auto-composite)
LLD      .ohm.m       UNKNOWN        : LLD:registros:rC:NONE:v0 (auto-composite)
LLS      .ohm.m       UNKNOWN        : LLS:registros:rC:NONE:v0 (auto-composite)
NPHI     .UNKNOWN     UNKNOWN        : NPHI:registros:rC:NONE:v0 (auto-composite)
RHOB     .g/cm3       UNKNOWN        : RHOB:registros:rC:NONE:v0 (auto-composite)
SIGM     .UNKNOWN     UNKNOWN        : SIGM:registros:rC:NONE:v0 (auto-composite)
SP       .UNKNOWN     UNKNOWN        : SP:UNKNOWN:rC:NONE:v0 (auto-composite)
TAU      .UNKNOWN     UNKNOWN        : TAU:registros:rC:NONE:v0 (auto-composite)
~A     DEPTH         CALI           DT           GR          ILD          LLD          LLS         NPHI         RHOB         SIGM           SP          TAU
# ...
   2285.6951       6.0370      88.3300      27.0700    -999.2500      45.6500      31.8200       0.1481       2.6500    -999.2500     -50.2320    -999.2500
   2285.8474       6.0985      85.6228      27.8541    -999.2500      46.6580      33.2120       0.1519       2.6515    -999.2500     -51.1053    -999.2500
   2285.9998       6.1600      82.9200      28.6370    -999.2500      47.6660      34.6040       0.1497       2.6530    -999.2500     -51.9800    -999.2500
   2286.1521       6.1490      83.0551      32.0360    -999.2500      55.3988      43.6287       0.1440       2.6590    -999.2500     -51.8887    -999.2500
   2286.3047       6.1380      83.1900      35.4300    -999.2500      63.1200      52.6400       0.1376       2.6650    -999.2500     -51.7970    -999.2500
   2286.4570       6.0940      82.2784      42.5949    -999.2500      59.3874      49.5429       0.1306       2.6765    -999.2500     -51.0230    -999.2500
   2286.6094       6.0500      81.3680      49.7500    -999.2500      55.6600      46.4500       0.1236       2.6880    -999.2500     -50.2500    -999.2500
   2286.7617       6.0800      77.7402      49.0266    -999.2500      56.6151      46.5541       0.1175       2.7015    -999.2500     -50.3728    -999.2500
   2286.9143       6.1100      74.1170      48.3040    -999.2500      57.5690      46.6580       0.1110       2.7150    -999.2500     -50.4950    -999.2500
   2287.0667       6.1020      70.3344      45.3053    -999.2500      71.6994      54.3273       0.1017       2.7315    -999.2500     -51.0533    -999.2500
   2287.2190       6.0940      66.5560      42.3100    -999.2500      85.8140      61.9880       0.0893       2.7480    -999.2500     -51.6110    -999.2500
   2287.3713       5.9919      64.0953      37.3325    -999.2500     205.4815     138.1369       0.0630       2.7940    -999.2500     -52.2933    -999.2500
   2287.5239       5.8900      61.6370      32.3600    -999.2500     325.0300     214.2100       0.0382       2.8400    -999.2500     -52.9760    -999.2500
   2287.6763       6.0951      59.4258      26.6425    -999.2500     320.0353     211.3478       0.0355       2.8360    -999.2500     -53.3069    -999.2500
   2287.8286       6.3000      57.2200      20.9300    -999.2500     315.0450     208.4880       0.0373       2.8320    -999.2500     -53.6390    -999.2500
   2287.9810       6.2985      57.4873      21.7423    -999.2500     286.9976     192.3525       0.0410       2.8195    -999.2500     -56.2834    -999.2500
   2288.1333       6.2970      57.7540      22.5540    -999.2500     258.9710     176.2290       0.0447       2.8070    -999.2500     -58.9300    -999.2500
   2288.2859       6.2585      58.7531      26.3712    -999.2500     215.6121     147.2906       0.0465       2.7935    -999.2500     -58.9300    -999.2500
   2288.4382       6.2200      59.7500      30.1800    -999.2500     172.2800     118.3700       0.0485       2.7800    -999.2500     -58.9300    -999.2500
   2288.5906       6.1049      59.2475      36.1412    -999.2500     177.0712     118.9151       0.0527       2.7800    -999.2500     -58.9555    -999.2500
   2288.7429       5.9900      58.7460      42.0900    -999.2500     181.8600     119.4600       0.0573       2.7800    -999.2500     -58.9810    -999.2500
   2288.8955       6.0120      57.0413      35.7137    -999.2500     164.1318     107.0977       0.0620       2.7720    -999.2500     -59.3788    -999.2500
   2289.0479       6.0340      55.3400      29.3500    -999.2500     146.4100      94.7400       0.0677       2.7640    -999.2500     -59.7770    -999.2500
   2289.2002       6.1371      56.5211      29.6443    -999.2500     147.2691      95.9081       0.0791       2.7320    -999.2500     -60.7817    -999.2500
   2289.3525       6.2400      57.7000      29.9380    -999.2500     148.1280      97.0760       0.0898       2.7000    -999.2500     -61.7910    -999.2500
   2289.5051       6.2245      55.1678      32.6663    -999.2500     161.1452     107.7772       0.0909       2.7350    -999.2500     -62.0425    -999.2500
   2289.6575       6.2090      52.6400      35.3900    -999.2500     174.1400     118.4600       0.0900       2.7700    -999.2500     -62.2940    -999.2500
   2289.8098       6.1344      52.7381      35.2999    -999.2500     172.5913     116.8407       0.0876       2.7675    -999.2500     -62.5862    -999.2500
   2289.9622       6.0600      52.8360      35.2100    -999.2500     171.0450     115.2240       0.0849       2.7650    -999.2500     -62.8770    -999.2500
   2290.1145       6.0765      53.7091      34.8477    -999.2500     166.5842     106.7558       0.0824       2.7525    -999.2500     -63.6891    -999.2500
   2290.2671       6.0930      54.5810      34.4860    -999.2500     162.1300      98.3000       0.0789       2.7400    -999.2500     -64.5000    -999.2500
   2290.4194       6.1716      56.6569      33.5304    -999.2500     168.6729     101.6878       0.0699       2.7500    -999.2500     -64.1323    -999.2500
   2290.5718       6.2500      58.7300      32.5760    -999.2500     175.2070     105.0710       0.0613       2.7600    -999.2500     -63.7640    -999.2500
   2290.7241       6.2410      58.3798      29.4361    -999.2500     209.7345     118.8589       0.0601       2.7550    -999.2500     -61.6957    -999.2500
   2290.8767       6.2320      58.0300      26.3000    -999.2500     244.2200     132.6300       0.0608       2.7500    -999.2500     -59.6200    -999.2500
   2291.0291       6.1710      58.4152      30.2271    -999.2500     237.4463     118.4223       0.0648       2.7600    -999.2500     -60.0953    -999.2500
   2291.1814       6.1100      58.8000      34.1500    -999.2500     230.6800     104.2300       0.0683       2.7700    -999.2500     -60.5700    -999.2500
   2291.3337       6.1100      58.7200      33.1780    -999.2500     212.9059     104.6002       0.0643       2.7650    -999.2500     -60.4563    -999.2500
   2291.4863       6.1100      58.6400      32.2070    -999.2500     195.1490     104.9700       0.0597       2.7600    -999.2500     -60.3430    -999.2500
   2291.6387       6.1900      58.1419      27.6416    -999.2500     190.6716     104.5803       0.0593       2.7600    -999.2500     -59.3261    -999.2500
   2291.7910       6.2700      57.6450      23.0800    -999.2500     186.1980     104.1910       0.0600       2.7600    -999.2500     -58.3100    -999.2500
   2291.9434       6.2610      56.8015      23.7903    -999.2500     163.9596      94.5291       0.0637       2.7535    -999.2500     -58.7548    -999.2500
   2292.0957       6.2520      55.9600      24.5000    -999.2500     141.7370      84.8740       0.0703       2.7470    -999.2500     -59.2000    -999.2500
   2292.2483       6.2059      56.4360      30.0776    -999.2500      89.7933      53.2877       0.0925       2.7185    -999.2500     -61.0626    -999.2500
   2292.4006       6.1600      56.9110      35.6430    -999.2500      37.8800      21.7200       0.1136       2.6900    -999.2500     -62.9300    -999.2500
   2292.5530       6.1945      59.9236      52.3037    -999.2500      37.9880      21.9681       0.1131       2.6940    -999.2500     -61.1796    -999.2500
   2292.7053       6.2290      62.9300      68.9300    -999.2500      38.0960      22.2160       0.1065       2.6980    -999.2500     -59.4300    -999.2500
   2292.8579       6.3246      62.2118      66.9206    -999.2500      49.5799      32.7948       0.0838       2.7190    -999.2500     -59.4931    -999.2500
   2293.0103       6.4200      61.4950      64.9150    -999.2500      61.0600      43.3700       0.0624       2.7400    -999.2500     -59.5560    -999.2500
   2293.1626       6.3049      58.9802      52.3511    -999.2500      57.8057      41.1218       0.0661       2.7250    -999.2500     -60.5289    -999.2500
   2293.3149       6.1900      56.4700      39.8100    -999.2500      54.5520      38.8740       0.0789       2.7100    -999.2500     -61.5000    -999.2500
   2293.4675       6.3456      57.2657      41.6215    -999.2500      39.7635      28.6184       0.1249       2.6400    -999.2500     -60.7306    -999.2500
