#------------------------------------------------------------------------------
#
#   Created by  : [OpenWorks] Log Export Utility (LEXP)
#   Created on  : 2016-05-23 17:52:14
#   Project     : CANT971
#   User        : R5K
#   Interpreter : PEP
#
#------------------------------------------------------------------------------
~VERSION INFORMATION
VERS. 2.0 : CWLS Log ASCII Standard - version 2.0
WRAP.  NO : One line per depth step
~WELL INFORMATION
#MNEMONIC   .UNIT                                           VALUE :DESCRIPTION
#------------------------------------------------------------------------------
STRT        .M                                           542.2390 :START DEPTH
STOP        .M                                          2489.9111 :STOP DEPTH
STEP        .M                                             0.1524 :STEP
NULL        .                                           -999.2500 :NULL VALUE
COMP        .                                   PEMEX EXPL & PROD :COMPANY
WELL        .                                                  92 :WELL
FLD         .                                           CANTARELL :FIELD
LOC         .                                             UNKNOWN :LOCATION
CNTY        .                                      CD. DEL CARMEN :COUNTY
STAT        .                                            CAMPECHE :STATE
CTRY        .                                              MEXICO :COUNTRY
SRVC        .                                             UNKNOWN :SERVICE COMPANY
DATE        .                                             UNKNOWN :LOG DATE
UWI         .                                          3060000189 :UNIQUE WELL ID
XCOORD      .                                       598503.540000 :SURFACE X
YCOORD      .                                      2149267.700000 :SURFACE Y
LAT         .                                           19.436511 :LATITUDE
LON         .                                          -92.061671 :LONGITUDE
ELEV        .M                                            27.6000 :SURFACE ELEV
ELEV_TYPE   .                                                  KB :ELEV TYPE
~CURVE INFORMATION
#MNEMONIC.UNIT        API CODE       : CURVE DESCRIPTION
#------------------------------------------------------------------------------
DEPTH    .M                          : Measured Depth
CALI     .inches      UNKNOWN        : CALI:registros:rC:NONE:v0 (auto-composite)
DT       .us/ft       UNKNOWN        : DT:registros:rC:NONE:v0 (auto-composite)
GR       .API         UNKNOWN        : GR:registros:rC:NONE:v0 (auto-composite)
ILD      .ohm.m       UNKNOWN        : ILD:registros:rC:NONE:v0 (auto-composite)
LLD      .ohm.m       UNKNOWN        : LLD:registros:rC:NONE:v0 (auto-composite)
LLS      .ohm.m       UNKNOWN        : LLS:registros:rC:NONE:v0 (auto-composite)
NPHI     .UNKNOWN     UNKNOWN        : NPHI:registros:rC:NONE:v0 (auto-composite)
RHOB     .g/cm3       UNKNOWN        : RHOB:registros:rC:NONE:v0 (auto-composite)
SIGM     .UNKNOWN     UNKNOWN        : SIGM:registros:rC:NONE:v0 (auto-composite)
SP       .UNKNOWN     UNKNOWN        : SP:UNKNOWN:rC:NONE:v0 (auto-composite)
TAU      .UNKNOWN     UNKNOWN        : TAU:registros:rC:NONE:v0 (auto-composite)
~A     DEPTH         CALI           DT           GR          ILD          LLD          LLS         NPHI         RHOB         SIGM           SP          TAU
# ...
   1350.5686       8.7180    -999.2500      23.3000    -999.2500       1.7940       0.1300       0.2921    -999.2500      30.0040    -999.2500     151.6260
   1350.7211       8.7340    -999.2500      23.4750    -999.2500       1.0232       0.1490       0.2919    -999.2500      29.2405    -999.2500     155.6256
   1350.8734       8.7500    -999.2500      23.6500    -999.2500       0.2500       0.1680       0.2874    -999.2500      28.4770    -999.2500     159.6250
   1351.0258       8.7475    -999.2500      24.3595    -999.2500       0.2645       0.3337       0.2764    -999.2500      28.5825    -999.2500     159.0625
   1351.1782       8.7450    -999.2500      25.0690    -999.2500       0.2790       0.5000       0.2634    -999.2500      28.6880    -999.2500     158.5000
   1351.3306       8.7175    -999.2500      26.0963    -999.2500       0.7139       0.4825       0.2480    -999.2500      28.5185    -999.2500     159.4874
   1351.4830       8.6900    -999.2500      27.1230    -999.2500       1.1500       0.4650       0.2316    -999.2500      28.3490    -999.2500     160.4750
   1351.6354       8.6990    -999.2500      28.7095    -999.2500       0.8902       0.3077       0.2129    -999.2500      27.5491    -999.2500     165.4372
   1351.7878       8.7080    -999.2500      30.2940    -999.2500       0.6300       0.1500       0.1927    -999.2500      26.7490    -999.2500     170.4010
   1351.9402       8.8326    -999.2500      32.3982    -999.2500       1.1645       0.1805       0.1679    -999.2500      25.5438    -999.2500     178.8052
   1352.0927       8.9570    -999.2500      34.5000    -999.2500       1.7000       0.2110       0.1431    -999.2500      24.3380    -999.2500     187.2130
   1352.2450       9.2987    -999.2500      35.6396    -999.2500       1.6730       0.5032       0.1232    -999.2500      23.5302    -999.2500     193.7927
   1352.3975       9.6400    -999.2500      36.7780    -999.2500       1.6460       0.7960       0.1047    -999.2500      22.7220    -999.2500     200.3760
   1352.5498       9.8626    -999.2500      37.2077    -999.2500       1.3384       1.7929       0.0879    -999.2500      22.0922    -999.2500     206.3445
   1352.7023      10.0850    -999.2500      37.6370    -999.2500       1.0300       2.7920       0.0692    -999.2500      21.4620    -999.2500     212.3170
   1352.8546      10.5287    -999.2500      38.7369    -999.2500       1.2997       4.6587       0.0393    -999.2500      20.4620    -999.2500     223.4855
   1353.0070      10.9720    -999.2500      39.8360    -999.2500       1.5700       6.5300       0.0119    -999.2500      19.4620    -999.2500     234.6540
   1353.1594      12.3665    -999.2500      41.4685    -999.2500       1.5635       6.1904       0.0073    -999.2500      18.0515    -999.2500     255.4519
   1353.3118      13.7600    -999.2500      43.1000    -999.2500       1.5570       5.8500       0.0087    -999.2500      16.6420    -999.2500     276.2360
   1353.4642      15.1854    -999.2500      42.0497    -999.2500       1.4816       7.4379       0.0154    -999.2500      14.9475    -999.2500     309.7521
   1353.6166      16.6100    -999.2500      41.0000    -999.2500       1.4060       9.0300       0.0221    -999.2500      13.2540    -999.2500     343.2500
   1353.7690      19.5706    -999.2500      41.0790    -999.2500       0.9636       7.9116       0.0230    -999.2500      13.3440    -999.2500     341.0175
   1353.9214      22.5300    -999.2500      41.1580    -999.2500       0.5200       6.7900       0.0224    -999.2500      13.4340    -999.2500     338.7860
   1354.0739      22.5260    -999.2500      41.8236    -999.2500       4.2346       7.0846       0.0206    -999.2500      14.0236    -999.2500     325.0160
   1354.2262      22.5220    -999.2500      42.4890    -999.2500       7.9600       7.3800       0.0181    -999.2500      14.6130    -999.2500     311.2500
   1354.3787      22.4495    -999.2500      44.4447    -999.2500       4.5302       6.0520       0.0138    -999.2500      14.6010    -999.2500     311.5280
   1354.5310      22.3770    -999.2500      46.4000    -999.2500       1.0900       4.7200       0.0099    -999.2500      14.5890    -999.2500     311.8060
   1354.6835      22.1385    -999.2500      46.0085    -999.2500       1.0960       5.7334       0.0093    -999.2500      14.4545    -999.2500     314.8485
   1354.8358      21.9000    -999.2500      45.6170    -999.2500       1.1020       6.7500       0.0096    -999.2500      14.3200    -999.2500     317.8910
   1354.9882      22.2151    -999.2500      43.3577    -999.2500       3.8065       6.0412       0.0110    -999.2500      14.0130    -999.2500     324.8222
   1355.1406      22.5300    -999.2500      41.1000    -999.2500       6.5200       5.3300       0.0122    -999.2500      13.7060    -999.2500     331.7540
   1355.2930      22.4950    -999.2500      41.3757    -999.2500       5.4789       5.4458       0.0113    -999.2500      13.6680    -999.2500     332.6804
   1355.4454      22.4600    -999.2500      41.6510    -999.2500       4.4350       5.5620       0.0102    -999.2500      13.6300    -999.2500     333.6070
   1355.5978      22.4800    -999.2500      42.8763    -999.2500       3.0089       5.9002       0.0100    -999.2500      13.4575    -999.2500     337.8653
   1355.7502      22.5000    -999.2500      44.1000    -999.2500       1.5800       6.2390       0.0100    -999.2500      13.2850    -999.2500     342.1250
   1355.9026      22.4250    -999.2500      43.7293    -999.2500       1.7748       6.7989       0.0100    -999.2500      13.2985    -999.2500     341.7991
   1356.0551      22.3500    -999.2500      43.3590    -999.2500       1.9700       7.3600       0.0100    -999.2500      13.3120    -999.2500     341.4730
   1356.2074      22.3675    -999.2500      42.3125    -999.2500       1.9201       7.1133       0.0100    -999.2500      13.4505    -999.2500     338.1835
   1356.3599      22.3850    -999.2500      41.2670    -999.2500       1.8700       6.8660       0.0102    -999.2500      13.5890    -999.2500     334.8920
   1356.5122      22.4525    -999.2500      40.7143    -999.2500       1.1608       5.6145       0.0112    -999.2500      14.0553    -999.2500     324.3918
   1356.6647      22.5200    -999.2500      40.1620    -999.2500       0.4500       4.3600       0.0121    -999.2500      14.5220    -999.2500     313.8840
   1356.8170      22.5100    -999.2500      38.8235    -999.2500       0.4959       4.3960       0.0121    -999.2500      15.4760    -999.2500     295.3174
   1356.9694      22.5000    -999.2500      37.4860    -999.2500       0.5420       4.4320       0.0120    -999.2500      16.4300    -999.2500     276.7500
   1357.1218      22.5000    -999.2500      35.5424    -999.2500       2.5934       4.9304       0.0127    -999.2500      16.3245    -999.2500     278.5631
   1357.2742      22.5000    -999.2500      33.6000    -999.2500       4.6500       5.4300       0.0139    -999.2500      16.2190    -999.2500     280.3750
   1357.4266      22.4850    -999.2500      33.9816    -999.2500       4.3714       5.2852       0.0166    -999.2500      16.2580    -999.2500     279.7003
   1357.5790      22.4700    -999.2500      34.3630    -999.2500       4.0920       5.1400       0.0197    -999.2500      16.2970    -999.2500     279.0260
   1357.7314      22.4950    -999.2500      36.1343    -999.2500       3.4095       5.2793       0.0236    -999.2500      16.4720    -999.2500     276.1075
   1357.8838      22.5200    -999.2500      37.9050    -999.2500       2.7250       5.4190       0.0284    -999.2500      16.6470    -999.2500     273.1900
   1358.0363      21.6949    -999.2500      40.5028    -999.2500       2.3266       5.9088       0.0370    -999.2500      16.9380    -999.2500     268.6794
   1358.1886      20.8700    -999.2500      43.1000    -999.2500       1.9270       6.4000       0.0486    -999.2500      17.2290    -999.2500     264.1700
   1358.3411      21.0530    -999.2500      42.9250    -999.2500       1.4507       5.6661       0.0720    -999.2500      17.5780    -999.2500     258.9251
