#------------------------------------------------------------------------------
#
#   Created by  : [OpenWorks] Log Export Utility (LEXP)
#   Created on  : 2016-05-23 17:52:14
#   Project     : CANT971
#   User        : R5K
#   Interpreter : PEP
#
#------------------------------------------------------------------------------
~VERSION INFORMATION
VERS. 2.0 : CWLS Log ASCII Standard - version 2.0
WRAP.  NO : One line per depth step
~WELL INFORMATION
#MNEMONIC   .UNIT                                           VALUE :DESCRIPTION
#------------------------------------------------------------------------------
STRT        .M                                           542.2390 :START DEPTH
STOP        .M                                          2489.9111 :STOP DEPTH
STEP        .M                                             0.1524 :STEP
NULL        .                                           -999.2500 :NULL VALUE
COMP        .                                   PEMEX EXPL & PROD :COMPANY
WELL        .                                                  92 :WELL
FLD         .                                           CANTARELL :FIELD
LOC         .                                             UNKNOWN :LOCATION
CNTY        .                                      CD. DEL CARMEN :COUNTY
STAT        .                                            CAMPECHE :STATE
CTRY        .                                              MEXICO :COUNTRY
SRVC        .                                             UNKNOWN :SERVICE COMPANY
DATE        .                                             UNKNOWN :LOG DATE
UWI         .                                          3060000189 :UNIQUE WELL ID
XCOORD      .                                       598503.540000 :SURFACE X
YCOORD      .                                      2149267.700000 :SURFACE Y
LAT         .                                           19.436511 :LATITUDE
LON         .                                          -92.061671 :LONGITUDE
ELEV        .M                                            27.6000 :SURFACE ELEV
ELEV_TYPE   .                                                  KB :ELEV TYPE
~CURVE INFORMATION
#MNEMONIC.UNIT        API CODE       : CURVE DESCRIPTION
#------------------------------------------------------------------------------
DEPTH    .M                          : Measured Depth
CALI     .inches      UNKNOWN        : CALI:registros:rC:NONE:v0 (auto-composite)
DT       .us/ft       UNKNOWN        : DT:registros:rC:NONE:v0 (auto-composite)
GR       .API         UNKNOWN        : GR:registros:rC:NONE:v0 (auto-composite)
ILD      .ohm.m       UNKNOWN        : ILD:registros:rC:NONE:v0 (auto-composite)
LLD      .ohm.m       UNKNOWN        : LLD:registros:rC:NONE:v0 (auto-composite)
LLS      .ohm.m       UNKNOWN        : LLS:registros:rC:NONE:v0 (auto-composite)
NPHI     .UNKNOWN     UNKNOWN        : NPHI:registros:rC:NONE:v0 (auto-composite)
RHOB     .g/cm3       UNKNOWN        : RHOB:registros:rC:NONE:v0 (auto-composite)
SIGM     .UNKNOWN     UNKNOWN        : SIGM:registros:rC:NONE:v0 (auto-composite)
SP       .UNKNOWN     UNKNOWN        : SP:UNKNOWN:rC:NONE:v0 (auto-composite)
TAU      .UNKNOWN     UNKNOWN        : TAU:registros:rC:NONE:v0 (auto-composite)
~A     DEPTH         CALI           DT           GR          ILD          LLD          LLS         NPHI         RHOB         SIGM           SP          TAU
# ...
   1818.1318      10.0600    -999.2500      18.5900    -999.2500    4161.0498    3165.5901       0.1601    -999.2500      11.8390    -999.2500     384.1270
   1818.2842      10.0585    -999.2500      19.2954    -999.2500    4202.1865    3415.9084       0.1615    -999.2500      11.7386    -999.2500     387.5207
   1818.4366      10.0570    -999.2500      20.0000    -999.2500    4243.3379    3666.3159       0.1625    -999.2500      11.6380    -999.2500     390.9210
   1818.5890      10.0235    -999.2500      19.9735    -999.2500    5600.8711    6394.1685       0.1610    -999.2500      11.3693    -999.2500     400.3322
   1818.7415       9.9900    -999.2500      19.9470    -999.2500    6959.0571    9123.3320       0.1593    -999.2500      11.1000    -999.2500     409.7630
   1818.8938      10.0700    -999.2500      19.2231    -999.2500   16046.7256   24424.8516       0.1594    -999.2500      10.7574    -999.2500     423.2416
   1819.0463      10.1500    -999.2500      18.5000    -999.2500   25139.9043   39735.6484       0.1600    -999.2500      10.4140    -999.2500     436.7500
   1819.1986      10.1370    -999.2500      18.5000    -999.2500   35361.2578   53027.5312       0.1619    -999.2500      10.4460    -999.2500     435.4276
   1819.3511      10.1240    -999.2500      18.5000    -999.2500   45590.0898   66329.1406       0.1634    -999.2500      10.4780    -999.2500     434.1020
   1819.5034      10.0370    -999.2500      18.6641    -999.2500   29616.4434   43846.3633       0.1621    -999.2500      10.6219    -999.2500     428.3473
   1819.6558       9.9500    -999.2500      18.8280    -999.2500   13629.0977   21344.3047       0.1596    -999.2500      10.7660    -999.2500     422.5830
   1819.8082       9.9660    -999.2500      19.3642    -999.2500   15574.5752   24246.4746       0.1543    -999.2500      10.9744    -999.2500     414.7284
   1819.9606       9.9820    -999.2500      19.9000    -999.2500   17521.9668   27151.4980       0.1492    -999.2500      11.1830    -999.2500     406.8660
   1820.1130      10.0315    -999.2500      19.2498    -999.2500   32918.2695   47406.4258       0.1475    -999.2500      11.3884    -999.2500     399.6675
   1820.2654      10.0810    -999.2500      18.6000    -999.2500   48331.6523   67683.8203       0.1463    -999.2500      11.5940    -999.2500     392.4610
   1820.4178      10.1130    -999.2500      18.6265    -999.2500   36445.2617   49749.8320       0.1447    -999.2500      11.8084    -999.2500     385.3599
   1820.5702      10.1450    -999.2500      18.6530    -999.2500   24544.1934   31793.7012       0.1435    -999.2500      12.0230    -999.2500     378.2500
   1820.7227      10.3126    -999.2500      19.1107    -999.2500   25058.4238   33294.1367       0.1448    -999.2500      11.9985    -999.2500     379.0205
   1820.8750      10.4800    -999.2500      19.5680    -999.2500   25573.3555   34796.6133       0.1470    -999.2500      11.9740    -999.2500     379.7920
   1821.0275      10.3349    -999.2500      20.9442    -999.2500   33900.8945   50047.0273       0.1518    -999.2500      11.8856    -999.2500     382.6129
   1821.1798      10.1900    -999.2500      22.3180    -999.2500   42240.8125   65320.1094       0.1565    -999.2500      11.7970    -999.2500     385.4380
   1821.3322      10.1925    -999.2500      23.5695    -999.2500   26550.0840   43362.2305       0.1585    -999.2500      11.6726    -999.2500     389.6886
   1821.4846      10.1950    -999.2500      24.8190    -999.2500   10834.0596   21368.9492       0.1598    -999.2500      11.5480    -999.2500     393.9460
   1821.6370      10.3026    -999.2500      26.2255    -999.2500   12332.4766   23703.7891       0.1600    -999.2500      11.3137    -999.2500     402.3422
   1821.7894      10.4100    -999.2500      27.6300    -999.2500   13832.2959   26040.8145       0.1600    -999.2500      11.0790    -999.2500     410.7530
   1821.9418      10.2499    -999.2500      30.7171    -999.2500   25888.8496   38664.1797       0.1600    -999.2500      10.8602    -999.2500     419.0997
   1822.0942      10.0900    -999.2500      33.8000    -999.2500   37948.5391   51290.8320       0.1603    -999.2500      10.6410    -999.2500     427.4620
   1822.2466      10.0900    -999.2500      33.0480    -999.2500   31180.8867   48289.5234       0.1625    -999.2500      10.5826    -999.2500     429.8387
   1822.3990      10.0900    -999.2500      32.2970    -999.2500   24410.6230   45287.0586       0.1646    -999.2500      10.5240    -999.2500     432.2200
   1822.5514      10.0915    -999.2500      29.1013    -999.2500   26944.7676   48674.8008       0.1647    -999.2500      10.4396    -999.2500     435.6898
   1822.7039      10.0930    -999.2500      25.9090    -999.2500   29480.2070   52064.2734       0.1643    -999.2500      10.3550    -999.2500     439.1670
   1822.8562      10.1815    -999.2500      22.2452    -999.2500   44191.0469   64499.7109       0.1632    -999.2500      10.2696    -999.2500     442.9553
   1823.0087      10.2700    -999.2500      18.5850    -999.2500   58911.2617   76943.0703       0.1618    -999.2500      10.1840    -999.2500     446.7520
   1823.1610      10.2100    -999.2500      16.0534    -999.2500   49910.3047   76808.2344       0.1594    -999.2500      10.0537    -999.2500     452.6021
   1823.3134      10.1500    -999.2500      13.5240    -999.2500   40902.4844   76673.2969       0.1559    -999.2500       9.9230    -999.2500     458.4660
   1823.4658      10.1750    -999.2500      11.7614    -999.2500   41807.1484   76256.6719       0.1469    -999.2500       9.7696    -999.2500     465.7238
   1823.6182      10.2000    -999.2500      10.0000    -999.2500   42712.6133   75839.6719       0.1392    -999.2500       9.6160    -999.2500     472.9940
   1823.7706      10.1785    -999.2500      10.0000    -999.2500   46866.5703   75264.8516       0.1440    -999.2500       9.4411    -999.2500     481.9924
   1823.9230      10.1570    -999.2500      10.0000    -999.2500   51024.7422   74689.4531       0.1499    -999.2500       9.2660    -999.2500     491.0000
   1824.0754      10.0885    -999.2500      10.1425    -999.2500   47729.3633   69156.9688       0.1493    -999.2500       9.3135    -999.2500     488.5544
   1824.2278      10.0200    -999.2500      10.2850    -999.2500   44430.2305   63618.1836       0.1469    -999.2500       9.3610    -999.2500     486.1060
   1824.3802      10.0200    -999.2500      10.6927    -999.2500   27009.1367   38920.4297       0.1400    -999.2500       9.5649    -999.2500     475.9399
   1824.5326      10.0200    -999.2500      11.1000    -999.2500    9565.9941   14191.4131       0.1315    -999.2500       9.7690    -999.2500     465.7610
   1824.6851      10.0250    -999.2500      11.1000    -999.2500   11501.1152   16343.0303       0.1177    -999.2500      10.0288    -999.2500     453.8263
   1824.8374      10.0300    -999.2500      11.1000    -999.2500   13438.9287   18497.6406       0.1051    -999.2500      10.2890    -999.2500     441.8750
   1824.9899      10.0260    -999.2500      11.1000    -999.2500   33060.4609   40604.0352       0.1042    -999.2500      10.2635    -999.2500     443.0006
   1825.1422      10.0220    -999.2500      11.1000    -999.2500   52711.7617   62743.9727       0.1072    -999.2500      10.2380    -999.2500     444.1280
   1825.2946       9.9760    -999.2500      11.1000    -999.2500   38887.8281   46035.1680       0.1207    -999.2500      10.0626    -999.2500     452.1199
   1825.4470       9.9300    -999.2500      11.1000    -999.2500   25052.2598   29312.3086       0.1340    -999.2500       9.8870    -999.2500     460.1250
   1825.5994       9.9300    -999.2500      10.9284    -999.2500   42085.8555   50829.0039       0.1356    -999.2500       9.9320    -999.2500     458.0019
   1825.7518       9.9300    -999.2500      10.7570    -999.2500   59122.2656   72349.2578       0.1349    -999.2500       9.9770    -999.2500     455.8750
   1825.9042       9.9650    -999.2500      10.2632    -999.2500   57915.4844   71546.2188       0.1326    -999.2500       9.9510    -999.2500     457.0714
