#------------------------------------------------------------------------------
#
#   Created by  : [OpenWorks] Log Export Utility (LEXP)
#   Created on  : 2016-05-23 17:52:14
#   Project     : CANT971
#   User        : R5K
#   Interpreter : PEP
#
#------------------------------------------------------------------------------
~VERSION INFORMATION
VERS. 2.0 : CWLS Log ASCII Standard - version 2.0
WRAP.  NO : One line per depth step
~WELL INFORMATION
#MNEMONIC   .UNIT                                           VALUE :DESCRIPTION
#------------------------------------------------------------------------------
STRT        .M                                           542.2390 :START DEPTH
STOP        .M                                          2489.9111 :STOP DEPTH
STEP        .M                                             0.1524 :STEP
NULL        .                                           -999.2500 :NULL VALUE
COMP        .                                   PEMEX EXPL & PROD :COMPANY
WELL        .                                                  92 :WELL
FLD         .                                           CANTARELL :FIELD
LOC         .                                             UNKNOWN :LOCATION
CNTY        .                                      CD. DEL CARMEN :COUNTY
STAT        .                                            CAMPECHE :STATE
CTRY        .                                              MEXICO :COUNTRY
SRVC        .                                             UNKNOWN :SERVICE COMPANY
DATE        .                                             UNKNOWN :LOG DATE
UWI         .                                          3060000189 :UNIQUE WELL ID
XCOORD      .                                       598503.540000 :SURFACE X
YCOORD      .                                      2149267.700000 :SURFACE Y
LAT         .                                           19.436511 :LATITUDE
LON         .                                          -92.061671 :LONGITUDE
ELEV        .M                                            27.6000 :SURFACE ELEV
ELEV_TYPE   .                                                  KB :ELEV TYPE
~CURVE INFORMATION
#MNEMONIC.UNIT        API CODE       : CURVE DESCRIPTION
#------------------------------------------------------------------------------
DEPTH    .M                          : Measured Depth
CALI     .inches      UNKNOWN        : CALI:registros:rC:NONE:v0 (auto-composite)
DT       .us/ft       UNKNOWN        : DT:registros:rC:NONE:v0 (auto-composite)
GR       .API         UNKNOWN        : GR:registros:rC:NONE:v0 (auto-composite)
ILD      .ohm.m       UNKNOWN        : ILD:registros:rC:NONE:v0 (auto-composite)
LLD      .ohm.m       UNKNOWN        : LLD:registros:rC:NONE:v0 (auto-composite)
LLS      .ohm.m       UNKNOWN        : LLS:registros:rC:NONE:v0 (auto-composite)
NPHI     .UNKNOWN     UNKNOWN        : NPHI:registros:rC:NONE:v0 (auto-composite)
RHOB     .g/cm3       UNKNOWN        : RHOB:registros:rC:NONE:v0 (auto-composite)
SIGM     .UNKNOWN     UNKNOWN        : SIGM:registros:rC:NONE:v0 (auto-composite)
SP       .UNKNOWN     UNKNOWN        : SP:UNKNOWN:rC:NONE:v0 (auto-composite)
TAU      .UNKNOWN     UNKNOWN        : TAU:registros:rC:NONE:v0 (auto-composite)
~A     DEPTH         CALI           DT           GR          ILD          LLD          LLS         NPHI         RHOB         SIGM           SP          TAU
# ...
   2214.3718       6.0230      55.5600      41.1460    -999.2500      92.0190      78.7970       0.0789       2.7850    -999.2500     -42.1200    -999.2500
   2214.5242       6.0915      53.8982      38.3572    -999.2500      97.9417      82.4791       0.0752       2.8025    -999.2500     -42.3186    -999.2500
   2214.6765       6.1600      52.2400      35.5700    -999.2500     103.8610      86.1590       0.0703       2.8200    -999.2500     -42.5180    -999.2500
   2214.8291       6.0949      52.3321      36.7312    -999.2500     117.5626      96.9659       0.0648       2.8150    -999.2500     -43.2242    -999.2500
   2214.9814       6.0300      52.4240      37.8900    -999.2500     131.2580     107.7680       0.0580       2.8100    -999.2500     -43.9300    -999.2500
   2215.1338       6.0400      53.6732      34.5618    -999.2500     185.0377     149.6958       0.0493       2.8100    -999.2500     -43.8999    -999.2500
   2215.2861       6.0500      54.9200      31.2400    -999.2500     238.8000     191.6100       0.0425       2.8100    -999.2500     -43.8700    -999.2500
   2215.4387       6.0475      54.8439      31.4912    -999.2500     235.0856     188.4097       0.0418       2.8050    -999.2500     -44.7208    -999.2500
   2215.5911       6.0450      54.7680      31.7420    -999.2500     231.3720     185.2100       0.0459       2.8000    -999.2500     -45.5700    -999.2500
   2215.7434       6.0360      54.2736      35.8895    -999.2500     219.3556     175.6062       0.0537       2.7800    -999.2500     -45.4261    -999.2500
   2215.8958       6.0270      53.7800      40.0300    -999.2500     207.3400     166.0030       0.0604       2.7600    -999.2500     -45.2820    -999.2500
   2216.0481       6.0135      51.9536      38.1886    -999.2500     199.6257     161.7796       0.0612       2.7250    -999.2500     -44.5427    -999.2500
   2216.2007       6.0000      50.1300      36.3500    -999.2500     191.9110     157.5560       0.0596       2.6900    -999.2500     -43.8010    -999.2500
   2216.3530       6.0300      50.3522      37.1886    -999.2500     183.3668     152.2485       0.0592       2.6995    -999.2500     -42.9324    -999.2500
   2216.5054       6.0600      50.5740      38.0260    -999.2500     174.8210     146.9400       0.0606       2.7090    -999.2500     -42.0650    -999.2500
   2216.6577       6.0450      51.6112      40.5631    -999.2500     162.6416     138.7682       0.0647       2.7445    -999.2500     -41.7844    -999.2500
   2216.8103       6.0300      52.6470      43.0970    -999.2500     150.4780     130.6070       0.0687       2.7800    -999.2500     -41.5050    -999.2500
   2216.9626       6.0500      53.8892      44.4993    -999.2500     143.1552     124.7190       0.0699       2.7760    -999.2500     -40.5915    -999.2500
   2217.1150       6.0700      55.1300      45.9000    -999.2500     135.8410     118.8380       0.0698       2.7720    -999.2500     -39.6790    -999.2500
   2217.2673       6.0500      54.4847      44.6594    -999.2500     123.8342     108.9388       0.0697       2.7560    -999.2500     -38.9867    -999.2500
   2217.4199       6.0300      53.8400      43.4200    -999.2500     111.8400      99.0500       0.0694       2.7400    -999.2500     -38.2940    -999.2500
   2217.5723       6.0400      54.0252      44.2454    -999.2500     114.1891     100.9434       0.0689       2.7400    -999.2500     -37.9681    -999.2500
   2217.7246       6.0500      54.2100      45.0700    -999.2500     116.5360     102.8350       0.0662       2.7400    -999.2500     -37.6410    -999.2500
   2217.8770       6.0300      54.0849      43.4394    -999.2500     138.7518     121.7400       0.0591       2.7550    -999.2500     -36.9733    -999.2500
   2218.0293       6.0100      53.9600      41.8100    -999.2500     160.9500     140.6300       0.0521       2.7700    -999.2500     -36.3050    -999.2500
   2218.1819       6.0115      54.0401      42.0493    -999.2500     160.2823     140.3844       0.0499       2.7650    -999.2500     -35.0250    -999.2500
   2218.3342       6.0130      54.1200      42.2880    -999.2500     159.6150     140.1390       0.0504       2.7600    -999.2500     -33.7500    -999.2500
   2218.4866       6.0215      53.9799      44.9468    -999.2500     154.4011     136.3270       0.0518       2.7640    -999.2500     -34.0353    -999.2500
   2218.6389       6.0300      53.8400      47.6000    -999.2500     149.1900     132.5170       0.0542       2.7680    -999.2500     -34.3200    -999.2500
   2218.7915       6.0150      54.3455      47.0574    -999.2500     137.8611     122.0823       0.0581       2.7830    -999.2500     -34.3185    -999.2500
   2218.9438       6.0000      54.8500      46.5160    -999.2500     126.5370     111.6520       0.0622       2.7980    -999.2500     -34.3170    -999.2500
   2219.0962       6.0250      54.7084      44.8759    -999.2500     117.7122     103.5848       0.0655       2.8090    -999.2500     -34.2497    -999.2500
   2219.2485       6.0500      54.5670      43.2390    -999.2500     108.8900      95.5200       0.0674       2.8200    -999.2500     -34.1820    -999.2500
   2219.4011       6.0435      53.9680      42.3682    -999.2500     111.7702      97.8287       0.0673       2.8150    -999.2500     -33.7460    -999.2500
   2219.5535       6.0370      53.3700      41.4990    -999.2500     114.6500     100.1370       0.0657       2.8100    -999.2500     -33.3100    -999.2500
   2219.7058       5.9634      53.6602      39.5279    -999.2500     141.7556     124.1540       0.0628       2.8100    -999.2500     -33.3481    -999.2500
   2219.8582       5.8900      53.9500      37.5600    -999.2500     168.8600     148.1700       0.0583       2.8100    -999.2500     -33.3860    -999.2500
   2220.0105       5.9090      53.1394      38.9761    -999.2500     167.9075     147.3690       0.0519       2.8150    -999.2500     -33.6182    -999.2500
   2220.1631       5.9280      52.3300      40.3900    -999.2500     166.9550     146.5680       0.0473       2.8200    -999.2500     -33.8500    -999.2500
   2220.3154       5.9890      52.4571      35.3515    -999.2500     155.9042     136.7700       0.0483       2.8135    -999.2500     -33.8450    -999.2500
   2220.4678       6.0500      52.5840      30.3200    -999.2500     144.8510     126.9700       0.0549       2.8070    -999.2500     -33.8400    -999.2500
   2220.6201       6.0150      53.0633      30.9969    -999.2500     120.9154     106.6221       0.0672       2.6835    -999.2500     -33.9892    -999.2500
   2220.7727       5.9800      53.5420      31.6730    -999.2500      97.0100      86.3000       0.0782       2.5600    -999.2500     -34.1390    -999.2500
   2220.9250       6.0150      54.1664      35.1085    -999.2500      99.7611      88.6328       0.0802       2.5625    -999.2500     -34.6428    -999.2500
   2221.0774       6.0500      54.7900      38.5400    -999.2500     102.5090      90.9630       0.0766       2.5650    -999.2500     -35.1460    -999.2500
   2221.2297       6.0450      54.7105      38.2228    -999.2500     121.3741     105.8841       0.0701       2.5895    -999.2500     -35.4932    -999.2500
   2221.3823       6.0400      54.6310      37.9060    -999.2500     140.2200     120.7900       0.0631       2.6140    -999.2500     -35.8390    -999.2500
   2221.5347       6.0450      53.4340      34.9067    -999.2500     138.7188     119.6290       0.0576       2.6695    -999.2500     -36.1842    -999.2500
   2221.6870       6.0500      52.2400      31.9100    -999.2500     137.2190     118.4690       0.0542       2.7250    -999.2500     -36.5290    -999.2500
   2221.8394       6.0200      52.6955      32.3692    -999.2500     131.3618     113.8417       0.0534       2.7725    -999.2500     -37.1278    -999.2500
   2221.9917       5.9900      53.1500      32.8280    -999.2500     125.5090     109.2180       0.0541       2.8200    -999.2500     -37.7270    -999.2500
   2222.1443       5.9900      52.9498      34.8433    -999.2500     120.8390     105.5073       0.0554       2.8135    -999.2500     -38.4430    -999.2500
