#------------------------------------------------------------------------------
#
#   Created by  : [OpenWorks] Log Export Utility (LEXP)
#   Created on  : 2016-05-23 17:52:14
#   Project     : CANT971
#   User        : R5K
#   Interpreter : PEP
#
#------------------------------------------------------------------------------
~VERSION INFORMATION
VERS. 2.0 : CWLS Log ASCII Standard - version 2.0
WRAP.  NO : One line per depth step
~WELL INFORMATION
#MNEMONIC   .UNIT                                           VALUE :DESCRIPTION
#------------------------------------------------------------------------------
STRT        .M                                           542.2390 :START DEPTH
STOP        .M                                          2489.9111 :STOP DEPTH
STEP        .M                                             0.1524 :STEP
NULL        .                                           -999.2500 :NULL VALUE
COMP        .                                   PEMEX EXPL & PROD :COMPANY
WELL        .                                                  92 :WELL
FLD         .                                           CANTARELL :FIELD
LOC         .                                             UNKNOWN :LOCATION
CNTY        .                                      CD. DEL CARMEN :COUNTY
STAT        .                                            CAMPECHE :STATE
CTRY        .                                              MEXICO :COUNTRY
SRVC        .                                             UNKNOWN :SERVICE COMPANY
DATE        .                                             UNKNOWN :LOG DATE
UWI         .                                          3060000189 :UNIQUE WELL ID
XCOORD      .                                       598503.540000 :SURFACE X
YCOORD      .                                      2149267.700000 :SURFACE Y
LAT         .                                           19.436511 :LATITUDE
LON         .                                          -92.061671 :LONGITUDE
ELEV        .M                                            27.6000 :SURFACE ELEV
ELEV_TYPE   .                                                  KB :ELEV TYPE
~CURVE INFORMATION
#MNEMONIC.UNIT        API CODE       : CURVE DESCRIPTION
#------------------------------------------------------------------------------
DEPTH    .M                          : Measured Depth
CALI     .inches      UNKNOWN        : CALI:registros:rC:NONE:v0 (auto-composite)
DT       .us/ft       UNKNOWN        : DT:registros:rC:NONE:v0 (auto-composite)
GR       .API         UNKNOWN        : GR:registros:rC:NONE:v0 (auto-composite)
ILD      .ohm.m       UNKNOWN        : ILD:registros:rC:NONE:v0 (auto-composite)
LLD      .ohm.m       UNKNOWN        : LLD:registros:rC:NONE:v0 (auto-composite)
LLS      .ohm.m       UNKNOWN        : LLS:registros:rC:NONE:v0 (auto-composite)
NPHI     .UNKNOWN     UNKNOWN        : NPHI:registros:rC:NONE:v0 (auto-composite)
RHOB     .g/cm3       UNKNOWN        : RHOB:registros:rC:NONE:v0 (auto-composite)
SIGM     .UNKNOWN     UNKNOWN        : SIGM:registros:rC:NONE:v0 (auto-composite)
SP       .UNKNOWN     UNKNOWN        : SP:UNKNOWN:rC:NONE:v0 (auto-composite)
TAU      .UNKNOWN     UNKNOWN        : TAU:registros:rC:NONE:v0 (auto-composite)
~A     DEPTH         CALI           DT           GR          ILD          LLD          LLS         NPHI         RHOB         SIGM           SP          TAU
# ...
   2483.8149       5.9400    -999.2500      65.3700    -999.2500      64.3400      61.5100       0.0507       2.6630    -999.2500       1.4810    -999.2500
   2483.9675       5.9400    -999.2500      65.3700    -999.2500      64.1648      61.5195       0.0508       2.6680    -999.2500       2.2364    -999.2500
   2484.1199       5.9400    -999.2500      65.3700    -999.2500      63.9900      61.5290       0.0513       2.6730    -999.2500       2.9930    -999.2500
   2484.2722       5.9400    -999.2500      65.3700    -999.2500      64.2602      61.5595       0.0522       2.6815    -999.2500       4.9268    -999.2500
   2484.4246       5.9400    -999.2500      65.3700    -999.2500      64.5300      61.5900       0.0531       2.6900    -999.2500       6.8700    -999.2500
   2484.5769       5.9400    -999.2500      65.3700    -999.2500      64.2298      61.5860       0.0539       2.6885    -999.2500       4.6117    -999.2500
   2484.7295       5.9400    -999.2500      65.3700    -999.2500      63.9300      61.5820       0.0545       2.6870    -999.2500       2.3530    -999.2500
   2484.8818       5.9400    -999.2500      65.3700    -999.2500      64.1001      61.5310       0.0546       2.6685    -999.2500      -3.9226    -999.2500
   2485.0342       5.9400    -999.2500      65.3700    -999.2500      64.2700      61.4800       0.0546       2.6500    -999.2500     -10.1700    -999.2500
   2485.1865       5.9400    -999.2500      65.3700    -999.2500      64.2425      61.4865       0.0546       2.6500    -999.2500      -7.3028    -999.2500
   2485.3391       5.9400    -999.2500      65.3700    -999.2500      64.2150      61.4930       0.0546       2.6500    -999.2500      -4.4390    -999.2500
   2485.4915       5.9400    -999.2500      65.3700    -999.2500      64.0574      61.5155       0.0546       2.6540    -999.2500       4.2906    -999.2500
   2485.6438       5.9400    -999.2500      65.3700    -999.2500      63.9000      61.5380       0.0546       2.6580    -999.2500      13.0390    -999.2500
   2485.7961       5.9400    -999.2500      65.3700    -999.2500      63.9355      61.5505       0.0546       2.6690    -999.2500      16.1550    -999.2500
   2485.9487       5.9400    -999.2500      65.3700    -999.2500      63.9710      61.5630       0.0546       2.6800    -999.2500      19.2830    -999.2500
   2486.1011       5.9400    -999.2500      65.3700    -999.2500      64.2158      61.5680       0.0546       2.6600    -999.2500      28.9954    -999.2500
   2486.2534       5.9400    -999.2500      65.3700    -999.2500      64.4600      61.5730       0.0546       2.6400    -999.2500      38.7000    -999.2500
   2486.4058       5.9400    -999.2500      65.3700    -999.2500      64.2548      61.5780       0.0546       2.6415    -999.2500      38.6780    -999.2500
   2486.5581       5.9400    -999.2500      65.3700    -999.2500      64.0500      61.5830       0.0546       2.6430    -999.2500      38.6560    -999.2500
   2486.7107       5.9400    -999.2500      65.3700    -999.2500      64.0595      61.5880       0.0546       2.6505    -999.2500      38.4830    -999.2500
   2486.8630       5.9400    -999.2500      65.3700    -999.2500      64.0690      61.5930       0.0546       2.6580    -999.2500      38.3100    -999.2500
   2487.0154       5.9400    -999.2500      65.3700    -999.2500      64.1371      61.5965       0.0546       2.6690    -999.2500      37.6704    -999.2500
   2487.1677       5.9400    -999.2500      65.3700    -999.2500      64.2050      61.6000       0.0546       2.6800    -999.2500      37.0300    -999.2500
   2487.3203       5.9400    -999.2500      65.3700    -999.2500      76.3686     132.9435       0.0546       2.6785    -999.2500      37.1199    -999.2500
   2487.4727       5.9400    -999.2500      65.3700    -999.2500      88.5090     204.1510       0.0546       2.6770    -999.2500      37.2100    -999.2500
   2487.6250       5.9400    -999.2500      65.3700    -999.2500     150.0643    2846.1260       0.0546       2.6685    -999.2500      37.1225    -999.2500
   2487.7773       5.9400    -999.2500      65.3700    -999.2500     211.5100    5483.4009       0.0546       2.6600    -999.2500      37.0350    -999.2500
   2487.9299       5.9400    -999.2500      65.3700    -999.2500     211.5100    5483.4009       0.0546       2.6615    -999.2500      36.6904    -999.2500
   2488.0823       5.9400    -999.2500      65.3700    -999.2500     211.5100    5483.4009       0.0546       2.6630    -999.2500      36.3470    -999.2500
   2488.2346       5.9400    -999.2500      32.6600    -999.2500     105.7742    2739.7039       0.0546       2.6715    -999.2500      18.1596    -999.2500
   2488.3870       5.9400    -999.2500       0.0000    -999.2500       0.2000       0.2000       0.0546       2.6800    -999.2500       0.0000    -999.2500
   2488.5393       5.9400    -999.2500       0.0000    -999.2500       0.2000       0.2000       0.0546       2.7030    -999.2500       0.0000    -999.2500
   2488.6919       5.9400    -999.2500       0.0000    -999.2500       0.2000       0.2000       0.0546       2.7260    -999.2500       0.0000    -999.2500
   2488.8442       5.9400    -999.2500       0.0000    -999.2500       0.2000       0.2000       0.0546       2.7480    -999.2500       0.0000    -999.2500
   2488.9966       5.9400    -999.2500       0.0000    -999.2500       0.2000       0.2000       0.0546       2.7700    -999.2500       0.0000    -999.2500
   2489.1489       5.9360    -999.2500       0.0000    -999.2500       0.2000       0.2000       0.0546       2.7700    -999.2500       0.0000    -999.2500
   2489.3015       5.9320    -999.2500       0.0000    -999.2500       0.2000       0.2000       0.0546       2.7700    -999.2500       0.0000    -999.2500
   2489.4539       5.1706    -999.2500       0.0000    -999.2500       0.2000       0.2000       0.0547       2.6659    -999.2500       0.0000    -999.2500
   2489.6062       4.4100    -999.2500       0.0000    -999.2500       0.2000       0.2000       0.0548       2.5620    -999.2500       0.0000    -999.2500
   2489.7585       2.2040    -999.2500       0.0000    -999.2500       0.2000       0.2000       0.0549       2.2559    -999.2500       0.0000    -999.2500
   2489.9111       0.0000    -999.2500       0.0000    -999.2500       0.2000       0.2000    -999.2500       1.9500    -999.2500       0.0000    -999.2500
