#------------------------------------------------------------------------------
#
#   Created by  : [OpenWorks] Log Export Utility (LEXP)
#   Created on  : 2016-05-23 17:52:14
#   Project     : CANT971
#   User        : R5K
#   Interpreter : PEP
#
#------------------------------------------------------------------------------
~VERSION INFORMATION
VERS. 2.0 : CWLS Log ASCII Standard - version 2.0
WRAP.  NO : One line per depth step
~WELL INFORMATION
#MNEMONIC   .UNIT                                           VALUE :DESCRIPTION
#------------------------------------------------------------------------------
STRT        .M                                           542.2390 :START DEPTH
STOP        .M                                          2489.9111 :STOP DEPTH
STEP        .M                                             0.1524 :STEP
NULL        .                                           -999.2500 :NULL VALUE
COMP        .                                   PEMEX EXPL & PROD :COMPANY
WELL        .                                                  92 :WELL
FLD         .                                           CANTARELL :FIELD
LOC         .                                             UNKNOWN :LOCATION
CNTY        .                                      CD. DEL CARMEN :COUNTY
STAT        .                                            CAMPECHE :STATE
CTRY        .                                              MEXICO :COUNTRY
SRVC        .                                             UNKNOWN :SERVICE COMPANY
DATE        .                                             UNKNOWN :LOG DATE
UWI         .                                          3060000189 :UNIQUE WELL ID
XCOORD      .                                       598503.540000 :SURFACE X
YCOORD      .                                      2149267.700000 :SURFACE Y
LAT         .                                           19.436511 :LATITUDE
LON         .                                          -92.061671 :LONGITUDE
ELEV        .M                                            27.6000 :SURFACE ELEV
ELEV_TYPE   .                                                  KB :ELEV TYPE
~CURVE INFORMATION
#MNEMONIC.UNIT        API CODE       : CURVE DESCRIPTION
#------------------------------------------------------------------------------
DEPTH    .M                          : Measured Depth
CALI     .inches      UNKNOWN        : CALI:registros:rC:NONE:v0 (auto-composite)
DT       .us/ft       UNKNOWN        : DT:registros:rC:NONE:v0 (auto-composite)
GR       .API         UNKNOWN        : GR:registros:rC:NONE:v0 (auto-composite)
ILD      .ohm.m       UNKNOWN        : ILD:registros:rC:NONE:v0 (auto-composite)
LLD      .ohm.m       UNKNOWN        : LLD:registros:rC:NONE:v0 (auto-composite)
LLS      .ohm.m       UNKNOWN        : LLS:registros:rC:NONE:v0 (auto-composite)
NPHI     .UNKNOWN     UNKNOWN        : NPHI:registros:rC:NONE:v0 (auto-composite)
RHOB     .g/cm3       UNKNOWN        : RHOB:registros:rC:NONE:v0 (auto-composite)
SIGM     .UNKNOWN     UNKNOWN        : SIGM:registros:rC:NONE:v0 (auto-composite)
SP       .UNKNOWN     UNKNOWN        : SP:UNKNOWN:rC:NONE:v0 (auto-composite)
TAU      .UNKNOWN     UNKNOWN        : TAU:registros:rC:NONE:v0 (auto-composite)
~A     DEPTH         CALI           DT           GR          ILD          LLD          LLS         NPHI         RHOB         SIGM           SP          TAU
# ...
   1413.9670      10.7000    -999.2500       5.5600    -999.2500     116.3740     129.2090       0.0396    -999.2500      11.6340    -999.2500     390.9760
   1414.1194      10.6300    -999.2500       5.6235    -999.2500     191.2412     216.0955       0.0395    -999.2500      11.8000    -999.2500     385.5457
   1414.2719      10.5600    -999.2500       5.6870    -999.2500     266.2600     303.1580       0.0399    -999.2500      11.9660    -999.2500     380.1130
   1414.4242      10.6275    -999.2500       6.0362    -999.2500   10917.8633    2481.0259       0.0417    -999.2500      12.0540    -999.2500     377.3678
   1414.5767      10.6950    -999.2500       6.3850    -999.2500   21592.3828    4663.5791       0.0438    -999.2500      12.1420    -999.2500     374.6210
   1414.7290      11.5179    -999.2500       7.0653    -999.2500   16575.4785   40356.0195       0.0483    -999.2500      12.2235    -999.2500     372.0684
   1414.8815      12.3400    -999.2500       7.7450    -999.2500   11547.1475   76129.7422       0.0534    -999.2500      12.3050    -999.2500     369.5140
   1415.0338      12.1799    -999.2500       8.4283    -999.2500   12478.1875   75901.1016       0.0616    -999.2500      12.3825    -999.2500     367.2944
   1415.1862      12.0200    -999.2500       9.1110    -999.2500   13411.4658   75671.9141       0.0718    -999.2500      12.4600    -999.2500     365.0730
   1415.3386      11.4978    -999.2500      10.0473    -999.2500   19058.1797   75757.1641       0.1015    -999.2500      12.7649    -999.2500     356.7598
   1415.4910      10.9760    -999.2500      10.9830    -999.2500   24719.1738   75842.6328       0.1353    -999.2500      13.0700    -999.2500     348.4390
   1415.6434      10.8230    -999.2500      12.8245    -999.2500   42107.8984   76840.5234       0.1932    -999.2500      13.8094    -999.2500     331.9036
   1415.7958      10.6700    -999.2500      14.6650    -999.2500   59542.7930   77841.0703       0.2571    -999.2500      14.5490    -999.2500     315.3640
   1415.9482      11.0691    -999.2500      17.4911    -999.2500   57753.0508   76439.8359       0.3601    -999.2500      16.2879    -999.2500     285.8782
   1416.1006      11.4680    -999.2500      20.3160    -999.2500   55958.3281   75034.7109       0.4554    -999.2500      18.0260    -999.2500     256.4050
   1416.2531      16.0347    -999.2500      22.9084    -999.2500   56156.2734   75286.1797       0.4310    -999.2500      21.4275    -999.2500     219.7910
   1416.4054      20.6000    -999.2500      25.5000    -999.2500   56354.7930   75538.3750       0.3888    -999.2500      24.8280    -999.2500     183.1880
   1416.5579      20.3780    -999.2500      24.5109    -999.2500   49518.4023   76246.2969       0.2828    -999.2500      24.6965    -999.2500     184.2156
   1416.7102      20.1560    -999.2500      23.5220    -999.2500   42661.2812   76956.3594       0.1756    -999.2500      24.5650    -999.2500     185.2430
   1416.8627      18.4475    -999.2500      20.1254    -999.2500   43942.3633   77206.4766       0.1176    -999.2500      23.6540    -999.2500     193.4732
   1417.0150      16.7390    -999.2500      16.7290    -999.2500   45226.4609   77457.1875       0.0678    -999.2500      22.7430    -999.2500     201.7030
   1417.1674      13.7994    -999.2500      14.5547    -999.2500   45181.8594   76922.1250       0.0496    -999.2500      20.7016    -999.2500     224.7351
   1417.3198      10.8620    -999.2500      12.3820    -999.2500   45137.1797   76386.1719       0.0359    -999.2500      18.6600    -999.2500     247.7690
   1417.4722      10.7409    -999.2500      11.2102    -999.2500   42806.8750   74390.6016       0.0352    -999.2500      16.6697    -999.2500     280.4732
   1417.6246      10.6200    -999.2500      10.0400    -999.2500   40472.3633   72391.4297       0.0364    -999.2500      14.6790    -999.2500     313.1840
   1417.7770      10.8101    -999.2500       8.9093    -999.2500   20284.9531   36278.1602       0.0442    -999.2500      13.5762    -999.2500     338.9003
   1417.9294      11.0000    -999.2500       7.7800    -999.2500      58.5700      95.1700       0.0542    -999.2500      12.4730    -999.2500     364.6250
   1418.0818      10.9540    -999.2500       7.7800    -999.2500     162.2634     167.6655       0.0793    -999.2500      12.6035    -999.2500     360.8134
   1418.2343      10.9080    -999.2500       7.7800    -999.2500     266.1700     240.3100       0.1033    -999.2500      12.7340    -999.2500     357.0000
   1418.3866      10.7339    -999.2500       7.7800    -999.2500     168.9311     177.5784       0.1018    -999.2500      12.6520    -999.2500     359.4543
   1418.5391      10.5600    -999.2500       7.7800    -999.2500      71.4800     114.7100       0.0963    -999.2500      12.5700    -999.2500     361.9100
   1418.6914      10.5800    -999.2500       7.8840    -999.2500      99.1631     159.8429       0.0799    -999.2500      11.9552    -999.2500     381.5106
   1418.8439      10.6000    -999.2500       7.9880    -999.2500     126.9100     205.0800       0.0641    -999.2500      11.3400    -999.2500     401.1250
   1418.9962      10.5805    -999.2500       8.9494    -999.2500     848.4214    1392.7072       0.0644    -999.2500      11.3885    -999.2500     399.4552
   1419.1486      10.5610    -999.2500       9.9100    -999.2500    1571.6890    2583.2251       0.0672    -999.2500      11.4370    -999.2500     397.7840
   1419.3010      10.4805    -999.2500       9.7524    -999.2500   15294.0098   24666.3105       0.0759    -999.2500      11.6349    -999.2500     391.1162
   1419.4534      10.4000    -999.2500       9.5950    -999.2500   29051.4590   46805.9258       0.0843    -999.2500      11.8330    -999.2500     384.4420
   1419.6058      10.4080    -999.2500       9.0424    -999.2500   40307.7930   61388.4023       0.0834    -999.2500      12.0335    -999.2500     378.0969
   1419.7582      10.4160    -999.2500       8.4900    -999.2500   51594.3633   76010.0469       0.0809    -999.2500      12.2340    -999.2500     371.7500
   1419.9106      10.4780    -999.2500       7.8199    -999.2500   50095.1445   75765.4844       0.0734    -999.2500      12.1770    -999.2500     373.5239
   1420.0630      10.5400    -999.2500       7.1500    -999.2500   48591.7109   75520.2266       0.0647    -999.2500      12.1200    -999.2500     375.2970
   1420.2155      10.4550    -999.2500       7.2005    -999.2500   35893.7930   56539.4727       0.0504    -999.2500      11.9430    -999.2500     380.8622
   1420.3678      10.3700    -999.2500       7.2510    -999.2500   23158.5742   37502.9570       0.0370    -999.2500      11.7660    -999.2500     386.4260
   1420.5203      10.3795    -999.2500       7.5755    -999.2500   33742.9414   54187.0703       0.0357    -999.2500      11.4845    -999.2500     396.1512
   1420.6726      10.3890    -999.2500       7.9000    -999.2500   44359.7383   70922.2969       0.0360    -999.2500      11.2030    -999.2500     405.8750
   1420.8251      10.4145    -999.2500       8.5380    -999.2500   42586.5312   70166.5156       0.0383    -999.2500      11.2295    -999.2500     404.9555
   1420.9774      10.4400    -999.2500       9.1760    -999.2500   40809.0898   69408.9375       0.0413    -999.2500      11.2560    -999.2500     404.0360
   1421.1298      10.4320    -999.2500       9.5881    -999.2500   33678.2070   55713.5117       0.0489    -999.2500      11.3855    -999.2500     399.6187
   1421.2822      10.4240    -999.2500      10.0000    -999.2500   26535.1348   41994.6719       0.0562    -999.2500      11.5150    -999.2500     395.2010
   1421.4346      10.3820    -999.2500       9.9064    -999.2500   34112.3945   57513.9766       0.0561    -999.2500      11.7360    -999.2500     387.7263
   1421.5870      10.3400    -999.2500       9.8130    -999.2500   41703.5664   73061.7656       0.0547    -999.2500      11.9570    -999.2500     380.2500
   1421.7394      10.4150    -999.2500       9.3632    -999.2500   40944.1797   72842.7031       0.0505    -999.2500      11.9355    -999.2500     380.9999
