#------------------------------------------------------------------------------
#
#   Created by  : [OpenWorks] Log Export Utility (LEXP)
#   Created on  : 2016-05-23 17:52:14
#   Project     : CANT971
#   User        : R5K
#   Interpreter : PEP
#
#------------------------------------------------------------------------------
~VERSION INFORMATION
VERS. 2.0 : CWLS Log ASCII Standard - version 2.0
WRAP.  NO : One line per depth step
~WELL INFORMATION
#MNEMONIC   .UNIT                                           VALUE :DESCRIPTION
#------------------------------------------------------------------------------
STRT        .M                                           542.2390 :START DEPTH
STOP        .M                                          2489.9111 :STOP DEPTH
STEP        .M                                             0.1524 :STEP
NULL        .                                           -999.2500 :NULL VALUE
COMP        .                                   PEMEX EXPL & PROD :COMPANY
WELL        .                                                  92 :WELL
FLD         .                                           CANTARELL :FIELD
LOC         .                                             UNKNOWN :LOCATION
CNTY        .                                      CD. DEL CARMEN :COUNTY
STAT        .                                            CAMPECHE :STATE
CTRY        .                                              MEXICO :COUNTRY
SRVC        .                                             UNKNOWN :SERVICE COMPANY
DATE        .                                             UNKNOWN :LOG DATE
UWI         .                                          3060000189 :UNIQUE WELL ID
XCOORD      .                                       598503.540000 :SURFACE X
YCOORD      .                                      2149267.700000 :SURFACE Y
LAT         .                                           19.436511 :LATITUDE
LON         .                                          -92.061671 :LONGITUDE
ELEV        .M                                            27.6000 :SURFACE ELEV
ELEV_TYPE   .                                                  KB :ELEV TYPE
~CURVE INFORMATION
#MNEMONIC.UNIT        API CODE       : CURVE DESCRIPTION
#------------------------------------------------------------------------------
DEPTH    .M                          : Measured Depth
CALI     .inches      UNKNOWN        : CALI:registros:rC:NONE:v0 (auto-composite)
DT       .us/ft       UNKNOWN        : DT:registros:rC:NONE:v0 (auto-composite)
GR       .API         UNKNOWN        : GR:registros:rC:NONE:v0 (auto-composite)
ILD      .ohm.m       UNKNOWN        : ILD:registros:rC:NONE:v0 (auto-composite)
LLD      .ohm.m       UNKNOWN        : LLD:registros:rC:NONE:v0 (auto-composite)
LLS      .ohm.m       UNKNOWN        : LLS:registros:rC:NONE:v0 (auto-composite)
NPHI     .UNKNOWN     UNKNOWN        : NPHI:registros:rC:NONE:v0 (auto-composite)
RHOB     .g/cm3       UNKNOWN        : RHOB:registros:rC:NONE:v0 (auto-composite)
SIGM     .UNKNOWN     UNKNOWN        : SIGM:registros:rC:NONE:v0 (auto-composite)
SP       .UNKNOWN     UNKNOWN        : SP:UNKNOWN:rC:NONE:v0 (auto-composite)
TAU      .UNKNOWN     UNKNOWN        : TAU:registros:rC:NONE:v0 (auto-composite)
~A     DEPTH         CALI           DT           GR          ILD          LLD          LLS         NPHI         RHOB         SIGM           SP          TAU
# ...
   2150.9734       6.0300      58.6600      43.5000    -999.2500      56.0300      33.6240       0.1106       2.7110    -999.2500      29.8520    -999.2500
   2151.1257       6.0380      59.0022      44.8627    -999.2500      46.3548      26.9534       0.1177       2.7255    -999.2500      29.1194    -999.2500
   2151.2783       6.0460      59.3440      46.2240    -999.2500      36.6900      20.2900       0.1250       2.7400    -999.2500      28.3900    -999.2500
   2151.4307       6.0930      61.8101      50.2139    -999.2500      37.0157      20.7792       0.1236       2.7350    -999.2500      28.5481    -999.2500
   2151.5830       6.1400      64.2700      54.2000    -999.2500      37.3410      21.2680       0.1168       2.7300    -999.2500      28.7060    -999.2500
   2151.7354       6.1000      62.6030      44.8762    -999.2500      47.5046      29.4924       0.1010       2.7300    -999.2500      30.0625    -999.2500
   2151.8877       6.0600      60.9400      35.5600    -999.2500      57.6600      37.7100       0.0896       2.7300    -999.2500      31.4200    -999.2500
   2152.0403       6.0640      62.6495      36.9560    -999.2500      49.9428      32.9989       0.1012       2.6860    -999.2500      31.3841    -999.2500
   2152.1926       6.0680      64.3550      38.3510    -999.2500      42.2310      28.2910       0.1455       2.6420    -999.2500      31.3480    -999.2500
   2152.3450       6.0880      75.0841      45.9516    -999.2500      25.2007      16.9673       0.2729       2.2712    -999.2500      30.4445    -999.2500
   2152.4973       6.1080      85.7900      53.5480    -999.2500       8.1800       5.6500       0.3913       1.9000    -999.2500      29.5400    -999.2500
   2152.6499       6.1691      83.3700      64.6103    -999.2500       8.6006       5.9241       0.3974       1.9120    -999.2500      29.6252    -999.2500
   2152.8022       6.2300      80.9550      75.6500    -999.2500       9.0210       6.1980       0.3565       1.9240    -999.2500      29.7100    -999.2500
   2152.9546       6.2225      69.3014      72.0621    -999.2500      13.3312       8.9734       0.2757       2.0415    -999.2500      30.1234    -999.2500
   2153.1069       6.2150      57.6700      68.4810    -999.2500      17.6400      11.7480       0.1925       2.1590    -999.2500      30.5360    -999.2500
   2153.2595       6.1740      57.8391      51.8306    -999.2500      39.4670      26.2904       0.1409       2.4215    -999.2500      31.0791    -999.2500
   2153.4119       6.1330      58.0080      35.2100    -999.2500      61.2900      40.8300       0.1074       2.6840    -999.2500      31.6230    -999.2500
   2153.5642       6.0364      58.9793      36.4350    -999.2500      55.2998      39.3830       0.0995       2.7320    -999.2500      31.7562    -999.2500
   2153.7166       5.9400      59.9490      37.6580    -999.2500      49.3100      37.9360       0.1002       2.7800    -999.2500      31.8900    -999.2500
   2153.8689       5.9480      72.6393      42.8930    -999.2500      49.3155      33.3131       0.1024       2.7760    -999.2500      31.8100    -999.2500
   2154.0215       5.9560      85.3100      48.1200    -999.2500      49.3210      28.6900       0.1062       2.7720    -999.2500      31.7300    -999.2500
   2154.1738       6.0080      83.7439      47.0342    -999.2500      49.8190      28.9770       0.1132       2.7260    -999.2500      31.3276    -999.2500
   2154.3262       6.0600      82.1800      45.9500    -999.2500      50.3170      29.2640       0.1189       2.6800    -999.2500      30.9270    -999.2500
   2154.4785       6.0550      76.1921      49.0220    -999.2500      53.8544      31.8641       0.1169       2.6825    -999.2500      30.2210    -999.2500
   2154.6311       6.0500      70.2120      52.0900    -999.2500      57.3930      34.4650       0.1088       2.6850    -999.2500      29.5160    -999.2500
   2154.7834       6.0300      65.2731      47.0171    -999.2500      74.0678      46.7098       0.0893       2.7175    -999.2500      28.5800    -999.2500
   2154.9358       6.0100      60.3400      41.9500    -999.2500      90.7500      58.9600       0.0740       2.7500    -999.2500      27.6420    -999.2500
   2155.0881       6.0350      63.2715      43.0481    -999.2500      80.4322      52.7498       0.0830       2.7350    -999.2500      25.4152    -999.2500
   2155.2407       6.0600      66.2000      44.1450    -999.2500      70.1250      46.5460       0.1081       2.7200    -999.2500      23.1800    -999.2500
   2155.3931       6.0545      65.9822      52.2462    -999.2500      48.1575      32.1064       0.1584       2.6100    -999.2500      23.3371    -999.2500
   2155.5454       6.0490      65.7650      60.3400    -999.2500      26.2100      17.6800       0.2026       2.5000    -999.2500      23.4940    -999.2500
   2155.6978       6.0245      64.4329      58.8929    -999.2500      28.3723      18.7874       0.2025       2.5215    -999.2500      24.5792    -999.2500
   2155.8501       6.0000      63.1040      57.4470    -999.2500      30.5330      19.8940       0.1824       2.5430    -999.2500      25.6600    -999.2500
   2156.0027       6.0000      58.6169      48.4755    -999.2500      46.7163      28.8680       0.1451       2.6165    -999.2500      25.1443    -999.2500
   2156.1550       6.0000      54.1400      39.5100    -999.2500      62.8890      37.8360       0.1087       2.6900    -999.2500      24.6290    -999.2500
   2156.3074       6.0500      54.2451      40.6038    -999.2500     102.3250      62.9047       0.0924       2.7300    -999.2500      22.8355    -999.2500
   2156.4597       6.1000      54.3500      41.6970    -999.2500     141.7400      87.9600       0.0833       2.7700    -999.2500      21.0400    -999.2500
   2156.6123       6.0960      58.4791      44.8266    -999.2500     141.2699      87.4394       0.0762       2.7700    -999.2500      21.3795    -999.2500
   2156.7646       6.0920      62.6000      47.9500    -999.2500     140.8000      86.9190       0.0712       2.7700    -999.2500      21.7200    -999.2500
   2156.9170       6.0359      60.1977      47.3705    -999.2500     138.3782      84.7812       0.0705       2.7700    -999.2500      22.9347    -999.2500
   2157.0693       5.9800      57.8000      46.7920    -999.2500     135.9570      82.6440       0.0718       2.7700    -999.2500      24.1490    -999.2500
   2157.2219       5.9935      57.8260      44.5285    -999.2500     128.6184      78.8012       0.0746       2.7675    -999.2500      25.1812    -999.2500
   2157.3743       6.0070      57.8520      42.2690    -999.2500     121.2810      74.9590       0.0786       2.7650    -999.2500      26.2100    -999.2500
   2157.5266       6.0535      58.1487      39.3321    -999.2500     109.3653      69.5564       0.0842       2.7525    -999.2500      27.2609    -999.2500
   2157.6790       6.1000      58.4450      36.4000    -999.2500      97.4500      64.1540       0.0911       2.7400    -999.2500      28.3100    -999.2500
   2157.8313       6.0500      59.1455      37.7555    -999.2500      86.8850      58.0348       0.0997       2.7450    -999.2500      27.3100    -999.2500
   2157.9839       6.0000      59.8450      39.1090    -999.2500      76.3190      51.9150       0.1095       2.7500    -999.2500      26.3100    -999.2500
   2158.1362       6.0120      61.2184      45.3448    -999.2500      61.7411      42.3885       0.1215       2.7475    -999.2500      26.3769    -999.2500
   2158.2886       6.0240      62.5900      51.5720    -999.2500      47.1600      32.8600       0.1311       2.7450    -999.2500      26.4440    -999.2500
   2158.4409       6.1020      61.3642      60.9919    -999.2500      48.0155      33.4469       0.1316       2.7225    -999.2500      26.9752    -999.2500
   2158.5935       6.1800      60.1400      70.4000    -999.2500      48.8700      34.0330       0.1275       2.7000    -999.2500      27.5100    -999.2500
   2158.7458       6.1300      60.2521      68.7196    -999.2500      53.6797      37.1923       0.1192       2.7040    -999.2500      26.6109    -999.2500
