#------------------------------------------------------------------------------
#
#   Created by  : [OpenWorks] Log Export Utility (LEXP)
#   Created on  : 2016-05-23 17:52:14
#   Project     : CANT971
#   User        : R5K
#   Interpreter : PEP
#
#------------------------------------------------------------------------------
~VERSION INFORMATION
VERS. 2.0 : CWLS Log ASCII Standard - version 2.0
WRAP.  NO : One line per depth step
~WELL INFORMATION
#MNEMONIC   .UNIT                                           VALUE :DESCRIPTION
#------------------------------------------------------------------------------
STRT        .M                                           542.2390 :START DEPTH
STOP        .M                                          2489.9111 :STOP DEPTH
STEP        .M                                             0.1524 :STEP
NULL        .                                           -999.2500 :NULL VALUE
COMP        .                                   PEMEX EXPL & PROD :COMPANY
WELL        .                                                  92 :WELL
FLD         .                                           CANTARELL :FIELD
LOC         .                                             UNKNOWN :LOCATION
CNTY        .                                      CD. DEL CARMEN :COUNTY
STAT        .                                            CAMPECHE :STATE
CTRY        .                                              MEXICO :COUNTRY
SRVC        .                                             UNKNOWN :SERVICE COMPANY
DATE        .                                             UNKNOWN :LOG DATE
UWI         .                                          3060000189 :UNIQUE WELL ID
XCOORD      .                                       598503.540000 :SURFACE X
YCOORD      .                                      2149267.700000 :SURFACE Y
LAT         .                                           19.436511 :LATITUDE
LON         .                                          -92.061671 :LONGITUDE
ELEV        .M                                            27.6000 :SURFACE ELEV
ELEV_TYPE   .                                                  KB :ELEV TYPE
~CURVE INFORMATION
#MNEMONIC.UNIT        API CODE       : CURVE DESCRIPTION
#------------------------------------------------------------------------------
DEPTH    .M                          : Measured Depth
CALI     .inches      UNKNOWN        : CALI:registros:rC:NONE:v0 (auto-composite)
DT       .us/ft       UNKNOWN        : DT:registros:rC:NONE:v0 (auto-composite)
GR       .API         UNKNOWN        : GR:registros:rC:NONE:v0 (auto-composite)
ILD      .ohm.m       UNKNOWN        : ILD:registros:rC:NONE:v0 (auto-composite)
LLD      .ohm.m       UNKNOWN        : LLD:registros:rC:NONE:v0 (auto-composite)
LLS      .ohm.m       UNKNOWN        : LLS:registros:rC:NONE:v0 (auto-composite)
NPHI     .UNKNOWN     UNKNOWN        : NPHI:registros:rC:NONE:v0 (auto-composite)
RHOB     .g/cm3       UNKNOWN        : RHOB:registros:rC:NONE:v0 (auto-composite)
SIGM     .UNKNOWN     UNKNOWN        : SIGM:registros:rC:NONE:v0 (auto-composite)
SP       .UNKNOWN     UNKNOWN        : SP:UNKNOWN:rC:NONE:v0 (auto-composite)
TAU      .UNKNOWN     UNKNOWN        : TAU:registros:rC:NONE:v0 (auto-composite)
~A     DEPTH         CALI           DT           GR          ILD          LLD          LLS         NPHI         RHOB         SIGM           SP          TAU
# ...
   2087.5750       5.9100      55.2250      27.3750    -999.2500       0.1100       3.9000       0.1146       2.5170    -999.2500    -149.6800    -999.2500
   2087.7273       5.9100      54.0706      28.2712    -999.2500       0.1135       3.3390       0.1123       2.4920    -999.2500    -149.6390    -999.2500
   2087.8799       5.9100      52.9180      29.1660    -999.2500       0.1170       2.7780       0.1095       2.4670    -999.2500    -149.5980    -999.2500
   2088.0322       5.9100      52.5963      29.9290    -999.2500       0.1685       1.8036       0.1008       2.3585    -999.2500    -149.2376    -999.2500
   2088.1846       5.9100      52.2750      30.6910    -999.2500       0.2200       0.8290       0.0921       2.2500    -999.2500    -148.8760    -999.2500
   2088.3369       5.9100      52.1119      31.8127    -999.2500       0.2145       0.5795       0.0874       2.2670    -999.2500    -147.5844    -999.2500
   2088.4895       5.9100      51.9490      32.9330    -999.2500       0.2090       0.3300       0.0829       2.2840    -999.2500    -146.2840    -999.2500
   2088.6418       5.9115      51.6243      33.1166    -999.2500       0.1595       1.2698       0.0782       2.3570    -999.2500    -144.5093    -999.2500
   2088.7942       5.9130      51.3000      33.3000    -999.2500       0.1100       2.2100       0.0736       2.4300    -999.2500    -142.7310    -999.2500
   2088.9465       5.9190      51.3120      33.4056    -999.2500       0.1115       2.0285       0.0741       2.4000    -999.2500    -142.5659    -999.2500
   2089.0991       5.9250      51.3240      33.5110    -999.2500       0.1130       1.8470       0.0747       2.3700    -999.2500    -142.4010    -999.2500
   2089.2515       5.9325      51.7525      35.6565    -999.2500       0.1215       1.4736       0.0780       2.3725    -999.2500    -141.4291    -999.2500
   2089.4038       5.9400      52.1800      37.8000    -999.2500       0.1300       1.1000       0.0815       2.3750    -999.2500    -140.4550    -999.2500
   2089.5562       5.9400      52.1450      37.7085    -999.2500       0.1250       1.2351       0.0920       2.3975    -999.2500    -138.7324    -999.2500
   2089.7085       5.9400      52.1100      37.6170    -999.2500       0.1200       1.3700       0.1029       2.4200    -999.2500    -137.0140    -999.2500
   2089.8611       5.9450      52.3162      37.3044    -999.2500       0.2250       0.9248       0.1027       2.4135    -999.2500    -135.8780    -999.2500
   2090.0134       5.9500      52.5220      36.9920    -999.2500       0.3300       0.4800       0.1025       2.4070    -999.2500    -134.7500    -999.2500
   2090.1658       5.9450      54.1112      36.3903    -999.2500       0.2900       0.5700       0.1007       2.3835    -999.2500    -134.7655    -999.2500
   2090.3181       5.9400      55.6970      35.7890    -999.2500       0.2500       0.6600       0.0990       2.3600    -999.2500    -134.7810    -999.2500
   2090.4707       5.9415      59.3812      32.1908    -999.2500       0.4150       0.6185       0.0959       2.3655    -999.2500    -136.1708    -999.2500
   2090.6230       5.9430      63.0580      28.6000    -999.2500       0.5800       0.5770       0.0929       2.3710    -999.2500    -137.5600    -999.2500
   2090.7754       5.9465      65.3462      28.9759    -999.2500       0.4980       0.4385       0.0866       2.4055    -999.2500    -136.9354    -999.2500
   2090.9277       5.9500      67.6300      29.3510    -999.2500       0.4160       0.3000       0.0803       2.4400    -999.2500    -136.3100    -999.2500
   2091.0803       5.9500      67.3202      34.3800    -999.2500       0.2780       0.3960       0.0812       2.4360    -999.2500    -136.5431    -999.2500
   2091.2327       5.9500      67.0110      39.4000    -999.2500       0.1400       0.4920       0.0821       2.4320    -999.2500    -136.7770    -999.2500
   2091.3850       5.9500      65.2390      38.7029    -999.2500       0.1425       1.8660       0.0869       2.4060    -999.2500    -138.1385    -999.2500
   2091.5374       5.9500      63.4700      38.0070    -999.2500       0.1450       3.2400       0.0918       2.3800    -999.2500    -139.5000    -999.2500
   2091.6897       5.9450      63.5215      35.5636    -999.2500       0.6325       3.0640       0.1043       2.3960    -999.2500    -138.8089    -999.2500
   2091.8423       5.9400      63.5730      33.1240    -999.2500       1.1200       2.8880       0.1169       2.4120    -999.2500    -138.1200    -999.2500
   2091.9946       5.9415      63.8102      30.6603    -999.2500       1.0490       2.1476       0.1134       2.4610    -999.2500    -138.2726    -999.2500
   2092.1470       5.9430      64.0470      28.2000    -999.2500       0.9780       1.4070       0.1098       2.5100    -999.2500    -138.4250    -999.2500
   2092.2993       5.9480      65.3243      28.5432    -999.2500       0.8150       0.8436       0.0988       2.5020    -999.2500    -140.7151    -999.2500
   2092.4519       5.9530      66.6000      28.8860    -999.2500       0.6520       0.2800       0.0879       2.4940    -999.2500    -143.0060    -999.2500
   2092.6042       5.9565      66.5810      30.1377    -999.2500       0.5610       0.2980       0.0863       2.4670    -999.2500    -165.3671    -999.2500
   2092.7566       5.9600      66.5620      31.3880    -999.2500       0.4700       0.3160       0.0847       2.4400    -999.2500    -187.8100    -999.2500
   2092.9089       5.9550      64.9302      32.4155    -999.2500       0.2851       0.6679       0.0757       2.4440    -999.2500    -183.0756    -999.2500
   2093.0615       5.9500      63.3000      33.4420    -999.2500       0.1000       1.0200       0.0667       2.4480    -999.2500    -178.3080    -999.2500
   2093.2139       5.9500      63.3305      34.8216    -999.2500       0.1340       0.9335       0.0677       2.4590    -999.2500    -162.8569    -999.2500
   2093.3662       5.9500      63.3610      36.2000    -999.2500       0.1680       0.8470       0.0686       2.4700    -999.2500    -147.3700    -999.2500
   2093.5186       5.9450      63.4781      35.9129    -999.2500       3.7304       0.5284       0.0751       2.4790    -999.2500    -152.6658    -999.2500
   2093.6709       5.9400      63.5950      35.6260    -999.2500       7.2900       0.2100       0.0816       2.4880    -999.2500    -157.9490    -999.2500
   2093.8235       5.9415      63.6976      34.5471    -999.2500       6.0581       0.2100       0.0951       2.5190    -999.2500    -184.2600    -999.2500
   2093.9758       5.9430      63.8000      33.4690    -999.2500       4.8270       0.2100       0.1086       2.5500    -999.2500    -210.5960    -999.2500
   2094.1282       5.9490      63.4907      32.4427    -999.2500       3.1081       0.2070       0.1194       2.5450    -999.2500    -288.5657    -999.2500
   2094.2805       5.9550      63.1820      31.4170    -999.2500       1.3900       0.2040       0.1299       2.5400    -999.2500    -366.8700    -999.2500
   2094.4331       5.9625      60.3031      30.2573    -999.2500       1.8801       0.1820       0.1113       2.5500    -999.2500    -366.5254    -999.2500
   2094.5854       5.9700      57.4300      29.1000    -999.2500       2.3700       0.1600       0.0930       2.5600    -999.2500    -366.1810    -999.2500
   2094.7378       5.9650      57.4450      29.4073    -999.2500       1.9874       0.1740       0.0931       2.5550    -999.2500    -364.8557    -999.2500
   2094.8901       5.9600      57.4600      29.7140    -999.2500       1.6050       0.1880       0.0933       2.5500    -999.2500    -363.5370    -999.2500
   2095.0427       5.9650      57.4105      30.7499    -999.2500       0.9725       0.2595       0.0982       2.5550    -999.2500    -353.0949    -999.2500
   2095.1951       5.9700      57.3610      31.7840    -999.2500       0.3400       0.3310       0.1030       2.5600    -999.2500    -342.6710    -999.2500
   2095.3474       5.9645      55.1537      32.3590    -999.2500       0.3510       1.4655       0.0994       2.5500    -999.2500    -303.4240    -999.2500
