#------------------------------------------------------------------------------
#
#   Created by  : [OpenWorks] Log Export Utility (LEXP)
#   Created on  : 2016-05-23 17:52:14
#   Project     : CANT971
#   User        : R5K
#   Interpreter : PEP
#
#------------------------------------------------------------------------------
~VERSION INFORMATION
VERS. 2.0 : CWLS Log ASCII Standard - version 2.0
WRAP.  NO : One line per depth step
~WELL INFORMATION
#MNEMONIC   .UNIT                                           VALUE :DESCRIPTION
#------------------------------------------------------------------------------
STRT        .M                                           542.2390 :START DEPTH
STOP        .M                                          2489.9111 :STOP DEPTH
STEP        .M                                             0.1524 :STEP
NULL        .                                           -999.2500 :NULL VALUE
COMP        .                                   PEMEX EXPL & PROD :COMPANY
WELL        .                                                  92 :WELL
FLD         .                                           CANTARELL :FIELD
LOC         .                                             UNKNOWN :LOCATION
CNTY        .                                      CD. DEL CARMEN :COUNTY
STAT        .                                            CAMPECHE :STATE
CTRY        .                                              MEXICO :COUNTRY
SRVC        .                                             UNKNOWN :SERVICE COMPANY
DATE        .                                             UNKNOWN :LOG DATE
UWI         .                                          3060000189 :UNIQUE WELL ID
XCOORD      .                                       598503.540000 :SURFACE X
YCOORD      .                                      2149267.700000 :SURFACE Y
LAT         .                                           19.436511 :LATITUDE
LON         .                                          -92.061671 :LONGITUDE
ELEV        .M                                            27.6000 :SURFACE ELEV
ELEV_TYPE   .                                                  KB :ELEV TYPE
~CURVE INFORMATION
#MNEMONIC.UNIT        API CODE       : CURVE DESCRIPTION
#------------------------------------------------------------------------------
DEPTH    .M                          : Measured Depth
CALI     .inches      UNKNOWN        : CALI:registros:rC:NONE:v0 (auto-composite)
DT       .us/ft       UNKNOWN        : DT:registros:rC:NONE:v0 (auto-composite)
GR       .API         UNKNOWN        : GR:registros:rC:NONE:v0 (auto-composite)
ILD      .ohm.m       UNKNOWN        : ILD:registros:rC:NONE:v0 (auto-composite)
LLD      .ohm.m       UNKNOWN        : LLD:registros:rC:NONE:v0 (auto-composite)
LLS      .ohm.m       UNKNOWN        : LLS:registros:rC:NONE:v0 (auto-composite)
NPHI     .UNKNOWN     UNKNOWN        : NPHI:registros:rC:NONE:v0 (auto-composite)
RHOB     .g/cm3       UNKNOWN        : RHOB:registros:rC:NONE:v0 (auto-composite)
SIGM     .UNKNOWN     UNKNOWN        : SIGM:registros:rC:NONE:v0 (auto-composite)
SP       .UNKNOWN     UNKNOWN        : SP:UNKNOWN:rC:NONE:v0 (auto-composite)
TAU      .UNKNOWN     UNKNOWN        : TAU:registros:rC:NONE:v0 (auto-composite)
~A     DEPTH         CALI           DT           GR          ILD          LLD          LLS         NPHI         RHOB         SIGM           SP          TAU
# ...
   1683.4102       9.5530    -999.2500      12.5530    -999.2500   46842.6758   61294.0156       0.0858    -999.2500       8.9180    -999.2500     509.7500
   1683.5626       9.5620    -999.2500      12.0078    -999.2500   47708.3672   68921.1406       0.0859    -999.2500       8.8810    -999.2500     511.9990
   1683.7150       9.5710    -999.2500      11.4630    -999.2500   48574.8477   76555.2188       0.0863    -999.2500       8.8440    -999.2500     514.2500
   1683.8674       9.5855    -999.2500      11.1349    -999.2500   51730.7461   76416.6797       0.0850    -999.2500       8.8685    -999.2500     512.8372
   1684.0198       9.6000    -999.2500      10.8070    -999.2500   54889.9180   76278.0000       0.0840    -999.2500       8.8930    -999.2500     511.4230
   1684.1722       9.6015    -999.2500      10.3709    -999.2500   54717.2695   76379.5156       0.0852    -999.2500       9.0339    -999.2500     503.6405
   1684.3246       9.6030    -999.2500       9.9350    -999.2500   54544.4219   76481.1484       0.0881    -999.2500       9.1750    -999.2500     495.8490
   1684.4771       9.6365    -999.2500       9.7960    -999.2500   53972.4688   76468.0312       0.0947    -999.2500       9.4798    -999.2500     480.3095
   1684.6294       9.6700    -999.2500       9.6570    -999.2500   53399.7812   76454.8984       0.1026    -999.2500       9.7850    -999.2500     464.7500
   1684.7819       9.6605    -999.2500       9.3028    -999.2500   57735.0312   76394.1797       0.1115    -999.2500       9.7245    -999.2500     467.6854
   1684.9342       9.6510    -999.2500       8.9490    -999.2500   62076.4141   76333.3750       0.1205    -999.2500       9.6640    -999.2500     470.6250
   1685.0867       9.6105    -999.2500       7.8086    -999.2500   57283.3867   76134.8750       0.1284    -999.2500       9.6665    -999.2500     470.4936
   1685.2390       9.5700    -999.2500       6.6700    -999.2500   52482.9766   75936.0703       0.1344    -999.2500       9.6690    -999.2500     470.3620
   1685.3914       9.5725    -999.2500       6.8336    -999.2500   55799.6875   75049.1484       0.1349    -999.2500       9.7165    -999.2500     468.1189
   1685.5438       9.5750    -999.2500       6.9970    -999.2500   59121.9258   74160.7422       0.1322    -999.2500       9.7640    -999.2500     465.8720
   1685.6962       9.5890    -999.2500       7.6159    -999.2500   52671.4141   75018.8984       0.1239    -999.2500       9.9428    -999.2500     457.7713
   1685.8486       9.6030    -999.2500       8.2340    -999.2500   46209.3398   75878.5938       0.1163    -999.2500      10.1220    -999.2500     449.6560
   1686.0010       9.8316    -999.2500       8.9169    -999.2500   52570.4414   75862.4688       0.1164    -999.2500      10.3809    -999.2500     438.6771
   1686.1534      10.0600    -999.2500       9.5990    -999.2500   58943.7422   75846.3203       0.1204    -999.2500      10.6400    -999.2500     427.6860
   1686.3058      10.0380    -999.2500      10.3870    -999.2500   56501.5898   75047.0547       0.1297    -999.2500      10.8500    -999.2500     419.4458
   1686.4583      10.0160    -999.2500      11.1740    -999.2500   54054.4453   74246.1562       0.1424    -999.2500      11.0600    -999.2500     411.2020
   1686.6106       9.9300    -999.2500      12.2376    -999.2500   39742.1836   53045.5273       0.1608    -999.2500      11.2584    -999.2500     404.0405
   1686.7631       9.8440    -999.2500      13.3000    -999.2500   25410.3516   31815.9043       0.1839    -999.2500      11.4570    -999.2500     396.8750
   1686.9154       9.7620    -999.2500      12.4996    -999.2500   27428.5508   36024.4727       0.2165    -999.2500      11.4385    -999.2500     397.5563
   1687.0679       9.6800    -999.2500      11.7000    -999.2500   29448.1445   40235.9492       0.2446    -999.2500      11.4200    -999.2500     398.2380
   1687.2202       9.7050    -999.2500      12.2462    -999.2500   40846.0156   59791.6133       0.2485    -999.2500      11.2876    -999.2500     403.1250
   1687.3726       9.7300    -999.2500      12.7920    -999.2500   52253.1953   79363.2500       0.2430    -999.2500      11.1550    -999.2500     408.0160
   1687.5250       9.7100    -999.2500      14.7221    -999.2500   51302.6406   79108.4453       0.2306    -999.2500      10.9311    -999.2500     416.3546
   1687.6774       9.6900    -999.2500      16.6510    -999.2500   50351.1875   78853.4062       0.2159    -999.2500      10.7070    -999.2500     424.7010
   1687.8298       9.7270    -999.2500      17.8758    -999.2500   43246.4531   73768.9062       0.2003    -999.2500      10.6535    -999.2500     426.8074
   1687.9822       9.7640    -999.2500      19.1000    -999.2500   36134.1328   68678.9766       0.1863    -999.2500      10.6000    -999.2500     428.9160
   1688.1346      10.0321    -999.2500      17.9498    -999.2500   24678.6406   46865.1719       0.1790    -999.2500      10.4846    -999.2500     433.6931
   1688.2870      10.3000    -999.2500      16.8000    -999.2500   13209.4717   25025.3242       0.1745    -999.2500      10.3690    -999.2500     438.4760
   1688.4395      10.0700    -999.2500      17.1165    -999.2500    6946.0386   12808.7070       0.1726    -999.2500      10.1456    -999.2500     448.4189
   1688.5918       9.8400    -999.2500      17.4330    -999.2500     674.3400     575.9700       0.1711    -999.2500       9.9220    -999.2500     458.3750
   1688.7443       9.8465    -999.2500      18.3554    -999.2500     955.8101     999.8801       0.1687    -999.2500       9.9939    -999.2500     455.2632
   1688.8966       9.8530    -999.2500      19.2770    -999.2500    1237.6870    1424.4030       0.1673    -999.2500      10.0660    -999.2500     452.1470
   1689.0491       9.9115    -999.2500      19.4151    -999.2500   20181.4551   32191.7852       0.1701    -999.2500      10.3498    -999.2500     440.0960
   1689.2014       9.9700    -999.2500      19.5530    -999.2500   39154.9844   63007.5078       0.1763    -999.2500      10.6340    -999.2500     428.0260
   1689.3538       9.9650    -999.2500      20.7774    -999.2500   33345.6172   54359.6992       0.1895    -999.2500      10.9552    -999.2500     415.6485
   1689.5062       9.9600    -999.2500      22.0000    -999.2500   27526.3887   45697.2148       0.2044    -999.2500      11.2770    -999.2500     403.2500
   1689.6586       9.8549    -999.2500      21.4116    -999.2500   34676.3828   50333.0586       0.2176    -999.2500      11.1951    -999.2500     406.3841
   1689.8110       9.7500    -999.2500      20.8240    -999.2500   41839.4062   54977.3555       0.2287    -999.2500      11.1130    -999.2500     409.5240
   1689.9634      10.1953    -999.2500      18.2104    -999.2500   36481.6133   49492.7852       0.2347    -999.2500      10.8352    -999.2500     420.2289
   1690.1158      10.6400    -999.2500      15.6000    -999.2500   31113.3789   43997.5312       0.2378    -999.2500      10.5570    -999.2500     430.9460
   1690.2682      10.1947    -999.2500      15.6000    -999.2500   32500.8242   45360.7344       0.2374    -999.2500      10.3920    -999.2500     437.7869
   1690.4207       9.7500    -999.2500      15.6000    -999.2500   33891.1484   46726.7617       0.2344    -999.2500      10.2270    -999.2500     444.6310
   1690.5730       9.7515    -999.2500      15.6000    -999.2500   39465.7812   53513.2461       0.2271    -999.2500      10.1220    -999.2500     449.3416
   1690.7255       9.7530    -999.2500      15.6000    -999.2500   45048.2070   60309.2227       0.2167    -999.2500      10.0170    -999.2500     454.0550
   1690.8778       9.8165    -999.2500      15.6000    -999.2500   51352.5273   68837.4531       0.2007    -999.2500       9.9365    -999.2500     457.7766
   1691.0303       9.8800    -999.2500      15.6000    -999.2500   57661.3984   77371.8438       0.1815    -999.2500       9.8560    -999.2500     461.5010
   1691.1826       9.8745    -999.2500      15.6000    -999.2500   56447.3828   77310.0859       0.1579    -999.2500       9.7555    -999.2500     466.3409
