#------------------------------------------------------------------------------
#
#   Created by  : [OpenWorks] Log Export Utility (LEXP)
#   Created on  : 2016-05-23 17:52:14
#   Project     : CANT971
#   User        : R5K
#   Interpreter : PEP
#
#------------------------------------------------------------------------------
~VERSION INFORMATION
VERS. 2.0 : CWLS Log ASCII Standard - version 2.0
WRAP.  NO : One line per depth step
~WELL INFORMATION
#MNEMONIC   .UNIT                                           VALUE :DESCRIPTION
#------------------------------------------------------------------------------
STRT        .M                                           542.2390 :START DEPTH
STOP        .M                                          2489.9111 :STOP DEPTH
STEP        .M                                             0.1524 :STEP
NULL        .                                           -999.2500 :NULL VALUE
COMP        .                                   PEMEX EXPL & PROD :COMPANY
WELL        .                                                  92 :WELL
FLD         .                                           CANTARELL :FIELD
LOC         .                                             UNKNOWN :LOCATION
CNTY        .                                      CD. DEL CARMEN :COUNTY
STAT        .                                            CAMPECHE :STATE
CTRY        .                                              MEXICO :COUNTRY
SRVC        .                                             UNKNOWN :SERVICE COMPANY
DATE        .                                             UNKNOWN :LOG DATE
UWI         .                                          3060000189 :UNIQUE WELL ID
XCOORD      .                                       598503.540000 :SURFACE X
YCOORD      .                                      2149267.700000 :SURFACE Y
LAT         .                                           19.436511 :LATITUDE
LON         .                                          -92.061671 :LONGITUDE
ELEV        .M                                            27.6000 :SURFACE ELEV
ELEV_TYPE   .                                                  KB :ELEV TYPE
~CURVE INFORMATION
#MNEMONIC.UNIT        API CODE       : CURVE DESCRIPTION
#------------------------------------------------------------------------------
DEPTH    .M                          : Measured Depth
CALI     .inches      UNKNOWN        : CALI:registros:rC:NONE:v0 (auto-composite)
DT       .us/ft       UNKNOWN        : DT:registros:rC:NONE:v0 (auto-composite)
GR       .API         UNKNOWN        : GR:registros:rC:NONE:v0 (auto-composite)
ILD      .ohm.m       UNKNOWN        : ILD:registros:rC:NONE:v0 (auto-composite)
LLD      .ohm.m       UNKNOWN        : LLD:registros:rC:NONE:v0 (auto-composite)
LLS      .ohm.m       UNKNOWN        : LLS:registros:rC:NONE:v0 (auto-composite)
NPHI     .UNKNOWN     UNKNOWN        : NPHI:registros:rC:NONE:v0 (auto-composite)
RHOB     .g/cm3       UNKNOWN        : RHOB:registros:rC:NONE:v0 (auto-composite)
SIGM     .UNKNOWN     UNKNOWN        : SIGM:registros:rC:NONE:v0 (auto-composite)
SP       .UNKNOWN     UNKNOWN        : SP:UNKNOWN:rC:NONE:v0 (auto-composite)
TAU      .UNKNOWN     UNKNOWN        : TAU:registros:rC:NONE:v0 (auto-composite)
~A     DEPTH         CALI           DT           GR          ILD          LLD          LLS         NPHI         RHOB         SIGM           SP          TAU
# ...
   1620.0118      10.7780    -999.2500      12.2000    -999.2500   25697.9668   43722.8047       0.2938    -999.2500      10.3990    -999.2500     437.2570
   1620.1642      10.4588    -999.2500      12.2000    -999.2500   12892.3066   21923.7930       0.2843    -999.2500      10.3740    -999.2500     438.3508
   1620.3167      10.1400    -999.2500      12.2000    -999.2500      60.7400      80.6800       0.2747    -999.2500      10.3490    -999.2500     439.4450
   1620.4690      10.2701    -999.2500      11.7998    -999.2500      83.9481      84.4764       0.2570    -999.2500      10.2040    -999.2500     446.0032
   1620.6215      10.4000    -999.2500      11.4000    -999.2500     107.2060      88.2810       0.2396    -999.2500      10.0590    -999.2500     452.5650
   1620.7738      11.0253    -999.2500      11.5015    -999.2500     771.6208     297.8142       0.2408    -999.2500       9.7286    -999.2500     468.2148
   1620.9263      11.6500    -999.2500      11.6030    -999.2500    1437.5470     507.8240       0.2431    -999.2500       9.3980    -999.2500     483.8750
   1621.0786      11.1448    -999.2500      12.0712    -999.2500   16017.1914   28040.6309       0.2633    -999.2500       9.4060    -999.2500     483.4672
   1621.2310      10.6400    -999.2500      12.5390    -999.2500   30620.1445   55617.4531       0.2834    -999.2500       9.4140    -999.2500     483.0590
   1621.3834      10.6680    -999.2500      13.0697    -999.2500   29234.8789   53585.6211       0.2831    -999.2500       9.5684    -999.2500     475.4080
   1621.5358      10.6960    -999.2500      13.6000    -999.2500   27848.3379   51551.9180       0.2820    -999.2500       9.7230    -999.2500     467.7500
   1621.6882      10.9031    -999.2500      12.8998    -999.2500   18838.8516   31528.0098       0.2740    -999.2500       9.7200    -999.2500     467.9179
   1621.8406      11.1100    -999.2500      12.2000    -999.2500    9819.9287   11483.1240       0.2654    -999.2500       9.7170    -999.2500     468.0860
   1621.9930      10.9860    -999.2500      12.2000    -999.2500   10695.1670   12611.8828       0.2436    -999.2500       9.6425    -999.2500     471.8273
   1622.1454      10.8620    -999.2500      12.2000    -999.2500   11571.4326   13741.9668       0.2216    -999.2500       9.5680    -999.2500     475.5730
   1622.2979      10.4459    -999.2500      12.0530    -999.2500   39788.6328   42178.0039       0.2011    -999.2500       9.3157    -999.2500     488.7155
   1622.4502      10.0300    -999.2500      11.9060    -999.2500   68042.4922   70650.9844       0.1809    -999.2500       9.0630    -999.2500     501.8750
   1622.6027      10.1900    -999.2500      10.9529    -999.2500   60307.0898   67097.1016       0.1715    -999.2500       9.0910    -999.2500     500.3001
   1622.7550      10.3500    -999.2500      10.0000    -999.2500   52560.6641   63538.1484       0.1625    -999.2500       9.1190    -999.2500     498.7230
   1622.9075      10.2700    -999.2500      10.0000    -999.2500   27138.6562   33294.1680       0.1572    -999.2500       9.2099    -999.2500     493.8028
   1623.0598      10.1900    -999.2500      10.0000    -999.2500    1677.2300    3003.2900       0.1521    -999.2500       9.3010    -999.2500     488.8750
   1623.2122      10.1970    -999.2500      10.0000    -999.2500    2427.8108    4483.6646       0.1524    -999.2500       9.2815    -999.2500     489.9991
   1623.3646      10.2040    -999.2500      10.0000    -999.2500    3179.6499    5966.5210       0.1529    -999.2500       9.2620    -999.2500     491.1250
   1623.5170      10.2525    -999.2500      10.0000    -999.2500   11928.5674   24064.6914       0.1562    -999.2500       9.3120    -999.2500     488.5773
   1623.6694      10.3010    -999.2500      10.0000    -999.2500   20693.2520   42195.4766       0.1596    -999.2500       9.3620    -999.2500     486.0270
   1623.8218      10.3856    -999.2500      10.1766    -999.2500   34322.8047   52667.8047       0.1663    -999.2500       9.5490    -999.2500     476.6765
   1623.9742      10.4700    -999.2500      10.3530    -999.2500   47978.6328   63160.3203       0.1727    -999.2500       9.7360    -999.2500     467.3230
   1624.1266      10.3799    -999.2500      10.9453    -999.2500   42481.5352   68303.8281       0.1610    -999.2500       9.8720    -999.2500     460.8795
   1624.2791      10.2900    -999.2500      11.5370    -999.2500   36973.1484   73457.9062       0.1492    -999.2500      10.0080    -999.2500     454.4330
   1624.4314      10.3850    -999.2500      11.8687    -999.2500   53089.6758   75483.7109       0.1518    -999.2500      10.0330    -999.2500     453.2978
   1624.5839      10.4800    -999.2500      12.2000    -999.2500   69241.3359   77513.9375       0.1548    -999.2500      10.0580    -999.2500     452.1620
   1624.7362      10.4630    -999.2500      12.3181    -999.2500   68369.5391   78152.4531       0.1664    -999.2500      10.2224    -999.2500     445.0210
   1624.8887      10.4460    -999.2500      12.4360    -999.2500   67495.7344   78792.4453       0.1782    -999.2500      10.3870    -999.2500     437.8750
   1625.0410      10.3630    -999.2500      13.2523    -999.2500   58610.5000   71342.3047       0.1970    -999.2500      10.3615    -999.2500     438.9500
   1625.1934      10.2800    -999.2500      14.0680    -999.2500   49710.7891   63880.0312       0.2158    -999.2500      10.3360    -999.2500     440.0260
   1625.3458      10.1249    -999.2500      15.9056    -999.2500   27582.7402   34629.3086       0.2092    -999.2500      10.2006    -999.2500     446.0571
   1625.4982       9.9700    -999.2500      17.7420    -999.2500    5433.6099    5350.7222       0.2023    -999.2500      10.0650    -999.2500     452.0940
   1625.6506      10.0100    -999.2500      19.8215    -999.2500    6881.6899    9021.3398       0.1689    -999.2500       9.6107    -999.2500     474.2850
   1625.8030      10.0500    -999.2500      21.9000    -999.2500    8331.3320   12695.9160       0.1353    -999.2500       9.1560    -999.2500     496.5000
   1625.9554      10.0400    -999.2500      20.1997    -999.2500    4589.6587    6877.4761       0.1355    -999.2500       9.1710    -999.2500     495.7065
   1626.1078      10.0300    -999.2500      18.5000    -999.2500     843.4800    1052.0300       0.1360    -999.2500       9.1860    -999.2500     494.9120
   1626.2603      10.0315    -999.2500      18.6600    -999.2500    1005.8860    1328.0985       0.1349    -999.2500       9.2734    -999.2500     490.3310
   1626.4126      10.0330    -999.2500      18.8200    -999.2500    1168.5081    1604.5341       0.1339    -999.2500       9.3610    -999.2500     485.7440
   1626.5651      10.0515    -999.2500      20.1766    -999.2500    2556.5986    4007.3557       0.1250    -999.2500       9.5179    -999.2500     477.8942
   1626.7174      10.0700    -999.2500      21.5320    -999.2500    3946.7100    6413.6748       0.1160    -999.2500       9.6750    -999.2500     470.0330
   1626.8699       9.9499    -999.2500      24.6685    -999.2500    8431.0479   11506.1543       0.1160    -999.2500       9.7694    -999.2500     465.4881
   1627.0222       9.8300    -999.2500      27.8000    -999.2500   12922.4766   16606.6875       0.1160    -999.2500       9.8640    -999.2500     460.9360
   1627.1746       9.8500    -999.2500      27.4918    -999.2500   29077.0312   34202.5547       0.1180    -999.2500       9.9280    -999.2500     458.0943
   1627.3270       9.8700    -999.2500      27.1840    -999.2500   45259.1641   51828.4648       0.1200    -999.2500       9.9920    -999.2500     455.2500
   1627.4794       9.8645    -999.2500      25.9086    -999.2500   36422.4180   49767.5625       0.1120    -999.2500       9.9385    -999.2500     457.7897
   1627.6318       9.8590    -999.2500      24.6350    -999.2500   27569.4746   47702.8789       0.1040    -999.2500       9.8850    -999.2500     460.3300
   1627.7842       9.7845    -999.2500      23.1196    -999.2500   28915.1973   71803.4219       0.1048    -999.2500       9.5991    -999.2500     474.2875
