#------------------------------------------------------------------------------
#
#   Created by  : [OpenWorks] Log Export Utility (LEXP)
#   Created on  : 2016-05-23 17:52:14
#   Project     : CANT971
#   User        : R5K
#   Interpreter : PEP
#
#------------------------------------------------------------------------------
~VERSION INFORMATION
VERS. 2.0 : CWLS Log ASCII Standard - version 2.0
WRAP.  NO : One line per depth step
~WELL INFORMATION
#MNEMONIC   .UNIT                                           VALUE :DESCRIPTION
#------------------------------------------------------------------------------
STRT        .M                                           542.2390 :START DEPTH
STOP        .M                                          2489.9111 :STOP DEPTH
STEP        .M                                             0.1524 :STEP
NULL        .                                           -999.2500 :NULL VALUE
COMP        .                                   PEMEX EXPL & PROD :COMPANY
WELL        .                                                  92 :WELL
FLD         .                                           CANTARELL :FIELD
LOC         .                                             UNKNOWN :LOCATION
CNTY        .                                      CD. DEL CARMEN :COUNTY
STAT        .                                            CAMPECHE :STATE
CTRY        .                                              MEXICO :COUNTRY
SRVC        .                                             UNKNOWN :SERVICE COMPANY
DATE        .                                             UNKNOWN :LOG DATE
UWI         .                                          3060000189 :UNIQUE WELL ID
XCOORD      .                                       598503.540000 :SURFACE X
YCOORD      .                                      2149267.700000 :SURFACE Y
LAT         .                                           19.436511 :LATITUDE
LON         .                                          -92.061671 :LONGITUDE
ELEV        .M                                            27.6000 :SURFACE ELEV
ELEV_TYPE   .                                                  KB :ELEV TYPE
~CURVE INFORMATION
#MNEMONIC.UNIT        API CODE       : CURVE DESCRIPTION
#------------------------------------------------------------------------------
DEPTH    .M                          : Measured Depth
CALI     .inches      UNKNOWN        : CALI:registros:rC:NONE:v0 (auto-composite)
DT       .us/ft       UNKNOWN        : DT:registros:rC:NONE:v0 (auto-composite)
GR       .API         UNKNOWN        : GR:registros:rC:NONE:v0 (auto-composite)
ILD      .ohm.m       UNKNOWN        : ILD:registros:rC:NONE:v0 (auto-composite)
LLD      .ohm.m       UNKNOWN        : LLD:registros:rC:NONE:v0 (auto-composite)
LLS      .ohm.m       UNKNOWN        : LLS:registros:rC:NONE:v0 (auto-composite)
NPHI     .UNKNOWN     UNKNOWN        : NPHI:registros:rC:NONE:v0 (auto-composite)
RHOB     .g/cm3       UNKNOWN        : RHOB:registros:rC:NONE:v0 (auto-composite)
SIGM     .UNKNOWN     UNKNOWN        : SIGM:registros:rC:NONE:v0 (auto-composite)
SP       .UNKNOWN     UNKNOWN        : SP:UNKNOWN:rC:NONE:v0 (auto-composite)
TAU      .UNKNOWN     UNKNOWN        : TAU:registros:rC:NONE:v0 (auto-composite)
~A     DEPTH         CALI           DT           GR          ILD          LLD          LLS         NPHI         RHOB         SIGM           SP          TAU
# ...
   1548.6886      11.2700    -999.2500      23.6970    -999.2500      49.2700      69.8100       0.1135    -999.2500      10.0550    -999.2500     452.3830
   1548.8411      11.2375    -999.2500      22.4854    -999.2500      67.1174      96.3255       0.1450    -999.2500      10.2719    -999.2500     443.3475
   1548.9934      11.2050    -999.2500      21.2740    -999.2500      84.9910     122.8800       0.1758    -999.2500      10.4890    -999.2500     434.3060
   1549.1459      11.0925    -999.2500      20.0865    -999.2500    3857.0803    5891.9907       0.1842    -999.2500      11.0140    -999.2500     414.2154
   1549.2982      10.9800    -999.2500      18.9000    -999.2500    7635.1831   11670.2988       0.1824    -999.2500      11.5390    -999.2500     394.1250
   1549.4506      10.9960    -999.2500      19.2082    -999.2500    4155.1846    6209.4458       0.1781    -999.2500      11.5090    -999.2500     395.1629
   1549.6030      11.0120    -999.2500      19.5160    -999.2500     669.2000     739.2000       0.1719    -999.2500      11.4790    -999.2500     396.2010
   1549.7554      11.0861    -999.2500      20.4887    -999.2500    1218.8318    1485.9028       0.1632    -999.2500      11.3190    -999.2500     402.0058
   1549.9078      11.1600    -999.2500      21.4600    -999.2500    1769.4780    2233.9839       0.1545    -999.2500      11.1590    -999.2500     407.8120
   1550.0602      11.0900    -999.2500      21.9103    -999.2500   15997.9727   38890.8750       0.1479    -999.2500      10.9135    -999.2500     417.1128
   1550.2126      11.0200    -999.2500      22.3600    -999.2500   30254.5215   75620.0391       0.1403    -999.2500      10.6680    -999.2500     426.4170
   1550.3650      11.0240    -999.2500      22.6447    -999.2500   40248.5234   75534.8750       0.1281    -999.2500      10.5975    -999.2500     429.2083
   1550.5175      11.0280    -999.2500      22.9290    -999.2500   50263.4844   75449.5312       0.1173    -999.2500      10.5270    -999.2500     432.0010
   1550.6698      11.0495    -999.2500      23.1146    -999.2500   49762.8867   74813.0625       0.1147    -999.2500      10.4885    -999.2500     433.5870
   1550.8223      11.0710    -999.2500      23.3000    -999.2500   49261.1797   74175.1719       0.1157    -999.2500      10.4500    -999.2500     435.1740
   1550.9746      11.1255    -999.2500      23.1499    -999.2500   47164.0312   69134.2031       0.1178    -999.2500      10.3460    -999.2500     439.5229
   1551.1270      11.1800    -999.2500      23.0000    -999.2500   45061.9570   64081.3867       0.1204    -999.2500      10.2420    -999.2500     443.8750
   1551.2794      11.1495    -999.2500      24.6006    -999.2500   32045.7598   52649.9805       0.1233    -999.2500      10.3260    -999.2500     440.3141
   1551.4318      11.1190    -999.2500      26.2000    -999.2500   18997.3457   41190.2773       0.1270    -999.2500      10.4100    -999.2500     436.7500
   1551.5842      11.0295    -999.2500      25.5873    -999.2500   20994.8867   58346.5547       0.1322    -999.2500      10.4065    -999.2500     436.8934
   1551.7366      10.9400    -999.2500      24.9750    -999.2500   22997.6230   75547.4531       0.1361    -999.2500      10.4030    -999.2500     437.0370
   1551.8890      10.9560    -999.2500      22.7800    -999.2500   33467.1406   75533.3828       0.1354    -999.2500      10.3610    -999.2500     438.8665
   1552.0414      10.9720    -999.2500      20.5860    -999.2500   43956.8086   75519.2891       0.1297    -999.2500      10.3190    -999.2500     440.6980
   1552.1938      11.0285    -999.2500      17.4925    -999.2500   51581.1055   75563.6172       0.1164    -999.2500      10.1926    -999.2500     446.3565
   1552.3462      11.0850    -999.2500      14.4000    -999.2500   59214.9180   75608.0000       0.1047    -999.2500      10.0660    -999.2500     452.0220
   1552.4987      11.1445    -999.2500      14.4000    -999.2500   49269.2109   75767.6172       0.1051    -999.2500       9.9376    -999.2500     457.8195
   1552.6510      11.2040    -999.2500      14.4000    -999.2500   39309.8477   75927.4531       0.1135    -999.2500       9.8090    -999.2500     463.6250
   1552.8035      11.4021    -999.2500      14.6526    -999.2500   40328.8594   76116.4766       0.1304    -999.2500       9.8380    -999.2500     462.1880
   1552.9558      11.6000    -999.2500      14.9050    -999.2500   41349.3984   76305.7891       0.1513    -999.2500       9.8670    -999.2500     460.7500
   1553.1082      11.5770    -999.2500      15.9894    -999.2500   58553.9453   78012.6875       0.1738    -999.2500       9.8435    -999.2500     461.8750
   1553.2606      11.5540    -999.2500      17.0720    -999.2500   75786.4531   79722.3672       0.1911    -999.2500       9.8200    -999.2500     463.0000
   1553.4130      11.4834    -999.2500      17.9867    -999.2500   72878.3672   79008.4141       0.1933    -999.2500       9.6755    -999.2500     470.1245
   1553.5654      11.4130    -999.2500      18.9000    -999.2500   69965.1953   78293.2109       0.1875    -999.2500       9.5310    -999.2500     477.2500
   1553.7178      11.3730    -999.2500      18.3997    -999.2500   63050.2617   76290.2969       0.1763    -999.2500       9.5925    -999.2500     474.2924
   1553.8702      11.3330    -999.2500      17.9000    -999.2500   56122.3477   74283.6250       0.1677    -999.2500       9.6540    -999.2500     471.3340
   1554.0226      11.1564    -999.2500      18.2002    -999.2500   53644.4375   73632.3984       0.1715    -999.2500      10.0299    -999.2500     454.2329
   1554.1750      10.9800    -999.2500      18.5000    -999.2500   51161.5664   72979.8672       0.1731    -999.2500      10.4060    -999.2500     437.1250
   1554.3274      11.0145    -999.2500      18.2469    -999.2500   41674.7773   58061.7656       0.1565    -999.2500      10.3875    -999.2500     437.9233
   1554.4799      11.0490    -999.2500      17.9940    -999.2500   32167.8008   43111.9102       0.1388    -999.2500      10.3690    -999.2500     438.7220
   1554.6322      11.2116    -999.2500      16.3462    -999.2500   43668.4922   46621.6953       0.1361    -999.2500      10.2825    -999.2500     442.4593
   1554.7847      11.3740    -999.2500      14.7000    -999.2500   55195.1094   50139.3906       0.1430    -999.2500      10.1960    -999.2500     446.1990
   1554.9370      11.5666    -999.2500      14.8060    -999.2500   55045.4922   62749.2109       0.1597    -999.2500      10.0456    -999.2500     452.9094
   1555.0894      11.7590    -999.2500      14.9120    -999.2500   54895.5195   75389.0469       0.1911    -999.2500       9.8950    -999.2500     459.6250
   1555.2418      11.8115    -999.2500      15.5452    -999.2500   47724.6211   75359.2188       0.2520    -999.2500       9.9435    -999.2500     457.4550
   1555.3942      11.8640    -999.2500      16.1780    -999.2500   40535.7500   75329.3203       0.3080    -999.2500       9.9920    -999.2500     455.2830
   1555.5466      11.9270    -999.2500      17.0893    -999.2500   41660.4570   75076.9922       0.3216    -999.2500      10.2114    -999.2500     445.8723
   1555.6990      11.9900    -999.2500      18.0000    -999.2500   42787.2227   74824.1953       0.3165    -999.2500      10.4310    -999.2500     436.4520
   1555.8514      11.9495    -999.2500      17.6354    -999.2500   47018.8633   63820.5352       0.3039    -999.2500      10.7603    -999.2500     423.2336
   1556.0038      11.9090    -999.2500      17.2710    -999.2500   51255.3789   52804.1875       0.2856    -999.2500      11.0900    -999.2500     410.0000
   1556.1562      11.6495    -999.2500      15.8353    -999.2500   61576.0469   55177.1328       0.2595    -999.2500      11.0420    -999.2500     411.8328
   1556.3086      11.3900    -999.2500      14.4000    -999.2500   71909.9062   57553.1133       0.2333    -999.2500      10.9940    -999.2500     413.6680
   1556.4611      11.4550    -999.2500      14.7230    -999.2500   70218.5312   70104.3906       0.2147    -999.2500      10.8041    -999.2500     421.0983
