#------------------------------------------------------------------------------
#
#   Created by  : [OpenWorks] Log Export Utility (LEXP)
#   Created on  : 2016-05-11 12:13:43
#   Project     : CANT971
#   User        : R5K
#   Interpreter : PEP
#
#------------------------------------------------------------------------------
~VERSION INFORMATION
VERS. 2.0 : CWLS Log ASCII Standard - version 2.0
WRAP.  NO : One line per depth step
~WELL INFORMATION
#MNEMONIC   .UNIT                                           VALUE :DESCRIPTION
#------------------------------------------------------------------------------
STRT        .M                                           706.6788 :START DEPTH
STOP        .M                                          3003.8040 :STOP DEPTH
STEP        .M                                             0.1524 :STEP
NULL        .                                           -999.2500 :NULL VALUE
COMP        .                                   PEMEX EXPL & PROD :COMPANY
WELL        .                                                 95D :WELL
FLD         .                                           CANTARELL :FIELD
LOC         .                                             UNKNOWN :LOCATION
CNTY        .                                      CD. DEL CARMEN :COUNTY
STAT        .                                            CAMPECHE :STATE
CTRY        .                                              MEXICO :COUNTRY
SRVC        .                                             UNKNOWN :SERVICE COMPANY
DATE        .                                             UNKNOWN :LOG DATE
UWI         .                                          3060000607 :UNIQUE WELL ID
XCOORD      .                                       601395.340000 :SURFACE X
YCOORD      .                                      2149877.570000 :SURFACE Y
LAT         .                                           19.441878 :LATITUDE
LON         .                                          -92.034095 :LONGITUDE
ELEV        .M                                            28.0000 :SURFACE ELEV
ELEV_TYPE   .                                                  KB :ELEV TYPE
~CURVE INFORMATION
#MNEMONIC.UNIT        API CODE       : CURVE DESCRIPTION
#------------------------------------------------------------------------------
DEPTH    .M                          : Measured Depth
CALI     .inches      UNKNOWN        : CALI:registros:rC:NONE:v0 (auto-composite)
CGR      .API         UNKNOWN        : CGR:registros:rC:NONE:v0 (auto-composite)
DRHO     .g/cm3       UNKNOWN        : DRHO:registros:rC:NONE:v0 (auto-composite)
DT       .us/ft       UNKNOWN        : DT:registros:rC:NONE:v0 (auto-composite)
GR       .API         UNKNOWN        : GR:registros:rC:NONE:v0 (auto-composite)
ILD      .ohm.m       UNKNOWN        : ILD:registros:rC:NONE:v0 (auto-composite)
ILM      .ohm.m       UNKNOWN        : ILM:registros:rC:NONE:v0 (auto-composite)
LLD      .ohm.m       UNKNOWN        : LLD:registros:rC:NONE:v0 (auto-composite)
LLS      .ohm.m       UNKNOWN        : LLS:registros:rC:NONE:v0 (auto-composite)
MSFL     .ohm.m       UNKNOWN        : MSFL:registros:rC:NONE:v0 (auto-composite)
NPHI     .UNKNOWN     UNKNOWN        : NPHI:registros:rC:NONE:v0 (auto-composite)
PEF      .UNKNOWN     UNKNOWN        : PEF:registros:rC:NONE:v0 (auto-composite)
POTA     .UNKNOWN     UNKNOWN        : POTA:registros:rC:NONE:v0 (auto-composite)
RHOB     .g/cm3       UNKNOWN        : RHOB:registros:rC:NONE:v0 (auto-composite)
SP       .mV          UNKNOWN        : SP:registros:rC:NONE:v0 (auto-composite)
THOR     .ppm         UNKNOWN        : THOR:registros:rC:NONE:v0 (auto-composite)
URAN     .ppm         UNKNOWN        : URAN:registros:rC:NONE:v0 (auto-composite)
~A     DEPTH         CALI          CGR         DRHO           DT           GR          ILD          ILM          LLD          LLS         MSFL         NPHI          PEF         POTA         RHOB           SP         THOR         URAN
# ...
   3000.2988       6.5634      -1.6110    -999.2500    -999.2500      51.7740    -999.2500    -999.2500     579.8370     238.7450      42.4070    -999.2500    -999.2500       0.0020    -999.2500    -999.2500      -1.3770       6.3440
   3000.4512       6.6241      -1.6110    -999.2500    -999.2500      51.7740    -999.2500    -999.2500     579.8370     238.7450      42.4070    -999.2500    -999.2500       0.0020    -999.2500    -999.2500      -1.3770       6.3440
   3000.6035       6.6260      -1.6110    -999.2500    -999.2500      51.7740    -999.2500    -999.2500     579.8370     238.7450      42.4070    -999.2500    -999.2500       0.0020    -999.2500    -999.2500      -1.3770       6.3440
   3000.7559       6.6260      -1.6110    -999.2500    -999.2500      51.7740    -999.2500    -999.2500     579.8370     238.7450      42.4070    -999.2500    -999.2500       0.0020    -999.2500    -999.2500      -1.3770       6.3440
   3000.9084       6.6260      -1.6110    -999.2500    -999.2500      51.7740    -999.2500    -999.2500     579.8370     238.7450      42.4070    -999.2500    -999.2500       0.0020    -999.2500    -999.2500      -1.3770       6.3440
   3001.0608       6.6260      -1.6110    -999.2500    -999.2500      51.7740    -999.2500    -999.2500     579.8370     238.7450      42.4070    -999.2500    -999.2500       0.0020    -999.2500    -999.2500      -1.3770       6.3440
   3001.2131       6.6260      -1.6110    -999.2500    -999.2500      51.7740    -999.2500    -999.2500     579.8370     238.7450      42.4070    -999.2500    -999.2500       0.0020    -999.2500    -999.2500      -1.3770       6.3440
   3001.3655       6.6260      -1.6110    -999.2500    -999.2500      51.7740    -999.2500    -999.2500     579.8370     238.7450      42.4070    -999.2500    -999.2500       0.0020    -999.2500    -999.2500      -1.3770       6.3440
   3001.5181       6.6260      -1.6110    -999.2500    -999.2500      51.7734    -999.2500    -999.2500     579.8370     238.7450      42.4070    -999.2500    -999.2500       0.0020    -999.2500    -999.2500      -1.3770       6.3440
   3001.6704       6.6260      -1.6110    -999.2500    -999.2500      51.7730    -999.2500    -999.2500     579.8370     238.7450      42.4070    -999.2500    -999.2500       0.0020    -999.2500    -999.2500      -1.3770       6.3440
   3001.8228       6.6260      -1.6110    -999.2500    -999.2500      51.7730    -999.2500    -999.2500     579.8370     238.7450      42.4070    -999.2500    -999.2500       0.0020    -999.2500    -999.2500      -1.3770       6.3440
   3001.9751       6.6260      -1.6110    -999.2500    -999.2500      51.7730    -999.2500    -999.2500     579.8370     238.7450      42.4070    -999.2500    -999.2500       0.0020    -999.2500    -999.2500      -1.3770       6.3440
   3002.1277       6.6260      -1.6110    -999.2500    -999.2500      51.7730    -999.2500    -999.2500     579.8370     238.7450      42.4070    -999.2500    -999.2500       0.0020    -999.2500    -999.2500      -1.3770       6.3440
   3002.2800       6.6260      -1.6110    -999.2500    -999.2500      51.7730    -999.2500    -999.2500     579.8370     238.7450      42.4070    -999.2500    -999.2500       0.0020    -999.2500    -999.2500      -1.3770       6.3440
   3002.4324       6.6260      -1.6110    -999.2500    -999.2500      51.7730    -999.2500    -999.2500     579.8370     238.7450      42.4070    -999.2500    -999.2500       0.0020    -999.2500    -999.2500      -1.3770       6.3440
   3002.5847       6.6260      -1.6110    -999.2500    -999.2500      51.7730    -999.2500    -999.2500     579.8370     238.7450      42.4070    -999.2500    -999.2500       0.0020    -999.2500    -999.2500      -1.3770       6.3440
   3002.7371       6.6260      -1.6110    -999.2500    -999.2500      51.7730    -999.2500    -999.2500     579.8370     238.7450      42.4070    -999.2500    -999.2500       0.0020    -999.2500    -999.2500      -1.3770       6.3440
   3002.8896       6.6260      -1.6110    -999.2500    -999.2500      51.7730    -999.2500    -999.2500     579.8370     238.7450      42.4070    -999.2500    -999.2500       0.0020    -999.2500    -999.2500      -1.3770       6.3440
   3003.0420       6.6260      -1.6110    -999.2500    -999.2500      51.7730    -999.2500    -999.2500     579.8370     238.7450      42.4070    -999.2500    -999.2500       0.0020    -999.2500    -999.2500      -1.3770       6.3440
   3003.1943       6.6260      -1.6110    -999.2500    -999.2500      51.7730    -999.2500    -999.2500     579.8370     238.7450      42.4070    -999.2500    -999.2500       0.0020    -999.2500    -999.2500      -1.3770       6.3440
   3003.3467       6.6260      -1.6110    -999.2500    -999.2500      51.7730    -999.2500    -999.2500     579.8370     238.7450      42.4070    -999.2500    -999.2500       0.0020    -999.2500    -999.2500      -1.3770       6.3440
   3003.4993       6.6260      -1.6110    -999.2500    -999.2500      51.7730    -999.2500    -999.2500     579.8370     238.7450      42.4070    -999.2500    -999.2500       0.0020    -999.2500    -999.2500      -1.3770       6.3440
   3003.6516       6.6260      -1.6110    -999.2500    -999.2500      51.7730    -999.2500    -999.2500     579.8370     238.7450      42.4070    -999.2500    -999.2500       0.0020    -999.2500    -999.2500      -1.3770       6.3440
   3003.8040       6.6260      -1.6110    -999.2500    -999.2500      51.7730    -999.2500    -999.2500     579.8370     238.7450      42.4070    -999.2500    -999.2500       0.0020    -999.2500    -999.2500      -1.3770       6.3440
