#------------------------------------------------------------------------------
#
#   Created by  : [OpenWorks] Log Export Utility (LEXP)
#   Created on  : 2016-05-11 12:13:43
#   Project     : CANT971
#   User        : R5K
#   Interpreter : PEP
#
#------------------------------------------------------------------------------
~VERSION INFORMATION
VERS. 2.0 : CWLS Log ASCII Standard - version 2.0
WRAP.  NO : One line per depth step
~WELL INFORMATION
#MNEMONIC   .UNIT                                           VALUE :DESCRIPTION
#------------------------------------------------------------------------------
STRT        .M                                           706.6788 :START DEPTH
STOP        .M                                          3003.8040 :STOP DEPTH
STEP        .M                                             0.1524 :STEP
NULL        .                                           -999.2500 :NULL VALUE
COMP        .                                   PEMEX EXPL & PROD :COMPANY
WELL        .                                                 95D :WELL
FLD         .                                           CANTARELL :FIELD
LOC         .                                             UNKNOWN :LOCATION
CNTY        .                                      CD. DEL CARMEN :COUNTY
STAT        .                                            CAMPECHE :STATE
CTRY        .                                              MEXICO :COUNTRY
SRVC        .                                             UNKNOWN :SERVICE COMPANY
DATE        .                                             UNKNOWN :LOG DATE
UWI         .                                          3060000607 :UNIQUE WELL ID
XCOORD      .                                       601395.340000 :SURFACE X
YCOORD      .                                      2149877.570000 :SURFACE Y
LAT         .                                           19.441878 :LATITUDE
LON         .                                          -92.034095 :LONGITUDE
ELEV        .M                                            28.0000 :SURFACE ELEV
ELEV_TYPE   .                                                  KB :ELEV TYPE
~CURVE INFORMATION
#MNEMONIC.UNIT        API CODE       : CURVE DESCRIPTION
#------------------------------------------------------------------------------
DEPTH    .M                          : Measured Depth
CALI     .inches      UNKNOWN        : CALI:registros:rC:NONE:v0 (auto-composite)
CGR      .API         UNKNOWN        : CGR:registros:rC:NONE:v0 (auto-composite)
DRHO     .g/cm3       UNKNOWN        : DRHO:registros:rC:NONE:v0 (auto-composite)
DT       .us/ft       UNKNOWN        : DT:registros:rC:NONE:v0 (auto-composite)
GR       .API         UNKNOWN        : GR:registros:rC:NONE:v0 (auto-composite)
ILD      .ohm.m       UNKNOWN        : ILD:registros:rC:NONE:v0 (auto-composite)
ILM      .ohm.m       UNKNOWN        : ILM:registros:rC:NONE:v0 (auto-composite)
LLD      .ohm.m       UNKNOWN        : LLD:registros:rC:NONE:v0 (auto-composite)
LLS      .ohm.m       UNKNOWN        : LLS:registros:rC:NONE:v0 (auto-composite)
MSFL     .ohm.m       UNKNOWN        : MSFL:registros:rC:NONE:v0 (auto-composite)
NPHI     .UNKNOWN     UNKNOWN        : NPHI:registros:rC:NONE:v0 (auto-composite)
PEF      .UNKNOWN     UNKNOWN        : PEF:registros:rC:NONE:v0 (auto-composite)
POTA     .UNKNOWN     UNKNOWN        : POTA:registros:rC:NONE:v0 (auto-composite)
RHOB     .g/cm3       UNKNOWN        : RHOB:registros:rC:NONE:v0 (auto-composite)
SP       .mV          UNKNOWN        : SP:registros:rC:NONE:v0 (auto-composite)
THOR     .ppm         UNKNOWN        : THOR:registros:rC:NONE:v0 (auto-composite)
URAN     .ppm         UNKNOWN        : URAN:registros:rC:NONE:v0 (auto-composite)
~A     DEPTH         CALI          CGR         DRHO           DT           GR          ILD          ILM          LLD          LLS         MSFL         NPHI          PEF         POTA         RHOB           SP         THOR         URAN
# ...
   2280.2087       9.4063       9.2249    -999.2500      66.1535      49.9562    -999.2500    -999.2500      30.2321      34.6332      60.1706       0.1656    -999.2500       0.0038       2.6129    -999.2500       0.6433       4.9782
   2280.3611       9.3703       0.7727    -999.2500      66.1000      35.2322    -999.2500    -999.2500      37.9336      43.9053     214.3850       0.1509    -999.2500       0.0014       2.6245    -999.2500      -0.3784       4.2110
   2280.5137       9.3458      -5.5345    -999.2500      65.5136      24.3371    -999.2500    -999.2500      44.6136      51.9196     332.8128       0.1393    -999.2500      -0.0005       2.6300    -999.2500      -1.1180       3.6501
   2280.6660       9.3588      -3.4695    -999.2500      63.8911      28.0682    -999.2500    -999.2500      48.0678      55.9684     317.7180       0.1327    -999.2500      -0.0002       2.6225    -999.2500      -0.7883       3.8543
   2280.8184       9.3854       1.2482    -999.2500      62.0253      36.4556    -999.2500    -999.2500      50.4556      58.7102     255.8973       0.1288    -999.2500       0.0010       2.6103    -999.2500      -0.1176       4.3035
   2280.9707       9.4076      -1.9801    -999.2500      64.1902      31.7962    -999.2500    -999.2500      54.2323      63.2679     151.6455       0.1250    -999.2500      -0.0002       2.6207    -999.2500      -0.3879       4.1769
   2281.1233       9.4083      -4.3823    -999.2500      66.5792      28.1394    -999.2500    -999.2500      58.5360      68.6046      71.8000       0.1201    -999.2500      -0.0010       2.6321    -999.2500      -0.6477       4.0523
   2281.2756       9.3405      -3.6988    -999.2500      69.3570      28.4735    -999.2500    -999.2500      64.3377      76.1735      69.1040       0.1133    -999.2500      -0.0004       2.6443    -999.2500      -0.8051       3.9784
   2281.4280       9.2655      -1.9388    -999.2500      72.1840      30.2460    -999.2500    -999.2500      70.3204      83.9607      91.9563       0.1085    -999.2500       0.0008       2.6548    -999.2500      -0.8913       3.9347
   2281.5803       9.3008       0.2799    -999.2500      74.4595      32.9490    -999.2500    -999.2500      74.1303      88.1433     116.7978       0.1117    -999.2500       0.0021       2.6507    -999.2500      -0.7089       3.9908
   2281.7327       9.3399       1.6010    -999.2500      75.2865      34.5710    -999.2500    -999.2500      76.1824      90.4175     144.6370       0.1195    -999.2500       0.0027       2.6426    -999.2500      -0.5659       4.0290
   2281.8853       9.3359      -0.8603    -999.2500      70.6787      31.4480    -999.2500    -999.2500      72.4525      87.0684     183.2415       0.1305    -999.2500       0.0020       2.6264    -999.2500      -0.7246       3.9485
   2282.0376       9.3242      -3.3511    -999.2500      65.3545      28.6451    -999.2500    -999.2500      67.3787      82.0458     216.2296       0.1395    -999.2500       0.0013       2.6103    -999.2500      -0.7132       3.9286
   2282.1899       9.3248      -2.2144    -999.2500      62.6064      31.8389    -999.2500    -999.2500      62.5961      75.8284     215.8463       0.1407    -999.2500      -0.0009       2.6023    -999.2500       0.2843       4.2722
   2282.3423       9.3306      -0.3155    -999.2500      60.8013      36.1548    -999.2500    -999.2500      58.7155      70.3937     205.1574       0.1377    -999.2500      -0.0030       2.5965    -999.2500       1.3818       4.6535
   2282.4949       9.3513       0.7862    -999.2500      61.2054      38.1863    -999.2500    -999.2500      60.5841      72.3786     179.1025       0.1327    -999.2500      -0.0030       2.5932    -999.2500       1.5121       4.6866
   2282.6472       9.3660       1.3490    -999.2500      61.8247      39.1483    -999.2500    -999.2500      63.0335      75.0492     157.7361       0.1260    -999.2500      -0.0030       2.5968    -999.2500       1.4488       4.6503
   2282.7996       9.3549       0.6060    -999.2500      62.1626      37.8189    -999.2500    -999.2500      64.7706      76.6061     157.4256       0.1171    -999.2500      -0.0030       2.6197    -999.2500       1.2087       4.5540
   2282.9519       9.3337      -0.5618    -999.2500      62.3040      35.6995    -999.2500    -999.2500      66.2687      77.7906     165.2881       0.1095    -999.2500      -0.0030       2.6469    -999.2500       0.9131       4.4346
   2283.1045       9.2640      -1.8027    -999.2500      59.3301      32.1128    -999.2500    -999.2500      67.4746      78.5955     213.8523       0.1110    -999.2500      -0.0027       2.6430    -999.2500       0.6427       4.2095
   2283.2568       9.1971      -1.8877    -999.2500      56.9436      29.5150    -999.2500    -999.2500      69.4169      80.4909     242.9679       0.1158    -999.2500      -0.0015       2.6352    -999.2500       0.3546       3.9523
   2283.4092       9.1424       1.3382    -999.2500      56.5018      29.8801    -999.2500    -999.2500      73.4871      85.5358     212.7483       0.1218    -999.2500       0.0011       2.6202    -999.2500       0.0139       3.6102
   2283.5615       9.1016       5.2568    -999.2500      56.3719      31.3965    -999.2500    -999.2500      78.0787      91.0351     163.6324       0.1269    -999.2500       0.0038       2.6032    -999.2500      -0.3171       3.3071
   2283.7139       9.1932       3.3712    -999.2500      51.5391      34.7308    -999.2500    -999.2500      79.9447      88.3013     133.0678       0.1277    -999.2500       0.0027       2.5963    -999.2500      -0.2856       3.8903
   2283.8665       9.2679       2.1236    -999.2500      48.4625      37.3729    -999.2500    -999.2500      81.8679      86.1413     102.2961       0.1277    -999.2500       0.0014       2.5881    -999.2500      -0.1615       4.3383
   2284.0188       9.2595       4.3594    -999.2500      52.3050      37.2932    -999.2500    -999.2500      84.6208      87.8219      66.4653       0.1293    -999.2500       0.0020       2.5735    -999.2500       0.1836       4.1271
   2284.1711       9.2202       6.4558    -999.2500      57.9848      35.4107    -999.2500    -999.2500      90.9373      93.4684      47.8950       0.1329    -999.2500       0.0028       2.5585    -999.2500       0.4786       3.7144
   2284.3235       9.1500       2.3030    -999.2500      62.4500      28.2820    -999.2500    -999.2500     114.7650     114.0140     128.9680       0.1395    -999.2500       0.0010       2.5490    -999.2500       0.1570       3.2780
   2284.4761       9.0907      -2.2321    -999.2500      66.2753      22.8281    -999.2500    -999.2500     138.0694     133.7767     208.7365       0.1445    -999.2500      -0.0010       2.5448    -999.2500      -0.2114       3.0776
   2284.6284       9.1206      -2.4138    -999.2500      67.5608      31.1427    -999.2500    -999.2500     139.9501     133.6385     181.4283       0.1420    -999.2500      -0.0010       2.5626    -999.2500      -0.2053       4.1011
   2284.7808       9.1702      -1.6169    -999.2500      66.7078      41.1817    -999.2500    -999.2500     134.7735     126.9513     155.0922       0.1360    -999.2500      -0.0010       2.5837    -999.2500      -0.1103       5.2302
   2284.9331       9.2258      -0.5048    -999.2500      60.1951      47.3057    -999.2500    -999.2500     120.1109     111.4889     209.7429       0.1291    -999.2500      -0.0010       2.5988    -999.2500       0.0265       5.8429
   2285.0857       9.2746       0.5456    -999.2500      52.8389      51.1660    -999.2500    -999.2500     102.5412      93.4707     271.6311       0.1235    -999.2500       0.0000       2.6116    -999.2500       0.1270       6.1874
   2285.2380       9.2452      -0.0050    -999.2500      53.4648      42.8949    -999.2500    -999.2500      82.8000      74.8383     166.7617       0.1239    -999.2500       0.0003       2.6064    -999.2500      -0.2817       5.2432
   2285.3904       9.2338      -0.1012    -999.2500      55.5332      36.0792    -999.2500    -999.2500      67.9146      60.6750      98.0973       0.1278    -999.2500       0.0010       2.6014    -999.2500      -0.6009       4.4219
