#------------------------------------------------------------------------------
#
#   Created by  : [OpenWorks] Log Export Utility (LEXP)
#   Created on  : 2016-05-11 12:13:43
#   Project     : CANT971
#   User        : R5K
#   Interpreter : PEP
#
#------------------------------------------------------------------------------
~VERSION INFORMATION
VERS. 2.0 : CWLS Log ASCII Standard - version 2.0
WRAP.  NO : One line per depth step
~WELL INFORMATION
#MNEMONIC   .UNIT                                           VALUE :DESCRIPTION
#------------------------------------------------------------------------------
STRT        .M                                           706.6788 :START DEPTH
STOP        .M                                          3003.8040 :STOP DEPTH
STEP        .M                                             0.1524 :STEP
NULL        .                                           -999.2500 :NULL VALUE
COMP        .                                   PEMEX EXPL & PROD :COMPANY
WELL        .                                                 95D :WELL
FLD         .                                           CANTARELL :FIELD
LOC         .                                             UNKNOWN :LOCATION
CNTY        .                                      CD. DEL CARMEN :COUNTY
STAT        .                                            CAMPECHE :STATE
CTRY        .                                              MEXICO :COUNTRY
SRVC        .                                             UNKNOWN :SERVICE COMPANY
DATE        .                                             UNKNOWN :LOG DATE
UWI         .                                          3060000607 :UNIQUE WELL ID
XCOORD      .                                       601395.340000 :SURFACE X
YCOORD      .                                      2149877.570000 :SURFACE Y
LAT         .                                           19.441878 :LATITUDE
LON         .                                          -92.034095 :LONGITUDE
ELEV        .M                                            28.0000 :SURFACE ELEV
ELEV_TYPE   .                                                  KB :ELEV TYPE
~CURVE INFORMATION
#MNEMONIC.UNIT        API CODE       : CURVE DESCRIPTION
#------------------------------------------------------------------------------
DEPTH    .M                          : Measured Depth
CALI     .inches      UNKNOWN        : CALI:registros:rC:NONE:v0 (auto-composite)
CGR      .API         UNKNOWN        : CGR:registros:rC:NONE:v0 (auto-composite)
DRHO     .g/cm3       UNKNOWN        : DRHO:registros:rC:NONE:v0 (auto-composite)
DT       .us/ft       UNKNOWN        : DT:registros:rC:NONE:v0 (auto-composite)
GR       .API         UNKNOWN        : GR:registros:rC:NONE:v0 (auto-composite)
ILD      .ohm.m       UNKNOWN        : ILD:registros:rC:NONE:v0 (auto-composite)
ILM      .ohm.m       UNKNOWN        : ILM:registros:rC:NONE:v0 (auto-composite)
LLD      .ohm.m       UNKNOWN        : LLD:registros:rC:NONE:v0 (auto-composite)
LLS      .ohm.m       UNKNOWN        : LLS:registros:rC:NONE:v0 (auto-composite)
MSFL     .ohm.m       UNKNOWN        : MSFL:registros:rC:NONE:v0 (auto-composite)
NPHI     .UNKNOWN     UNKNOWN        : NPHI:registros:rC:NONE:v0 (auto-composite)
PEF      .UNKNOWN     UNKNOWN        : PEF:registros:rC:NONE:v0 (auto-composite)
POTA     .UNKNOWN     UNKNOWN        : POTA:registros:rC:NONE:v0 (auto-composite)
RHOB     .g/cm3       UNKNOWN        : RHOB:registros:rC:NONE:v0 (auto-composite)
SP       .mV          UNKNOWN        : SP:registros:rC:NONE:v0 (auto-composite)
THOR     .ppm         UNKNOWN        : THOR:registros:rC:NONE:v0 (auto-composite)
URAN     .ppm         UNKNOWN        : URAN:registros:rC:NONE:v0 (auto-composite)
~A     DEPTH         CALI          CGR         DRHO           DT           GR          ILD          ILM          LLD          LLS         MSFL         NPHI          PEF         POTA         RHOB           SP         THOR         URAN
# ...
   2461.5647       9.2816       2.3103    -999.2500      55.6124      28.8868    -999.2500    -999.2500      55.6762      30.5176      58.9322       0.1549    -999.2500       0.0010       2.6291    -999.2500       0.0685       3.2478
   2461.7173       9.4246       2.7481    -999.2500      57.4173      29.9032    -999.2500    -999.2500      71.0797      38.2900      48.2312       0.1516    -999.2500       0.0010       2.6371    -999.2500       0.2132       3.3187
   2461.8696       9.4963       3.0447    -999.2500      58.9523      30.6565    -999.2500    -999.2500      92.1275      49.0362      40.7150       0.1477    -999.2500       0.0010       2.6396    -999.2500       0.3271       3.3751
   2462.0220       9.3286       2.9654    -999.2500      59.3764      30.6194    -999.2500    -999.2500     128.7779      68.0432      42.4515       0.1452    -999.2500       0.0010       2.6220    -999.2500       0.3434       3.3796
   2462.1743       9.1105       2.8600    -999.2500      59.9624      30.4565    -999.2500    -999.2500     166.0308      87.5844      63.3079       0.1427    -999.2500       0.0010       2.5993    -999.2500       0.3333       3.3727
   2462.3267       9.0416       3.3111    -999.2500      63.6283      31.0257    -999.2500    -999.2500     177.3472      94.7133     183.7044       0.1389    -999.2500       0.0010       2.5836    -999.2500       0.3444       3.3876
   2462.4792       9.0037       3.8527    -999.2500      67.1564      31.6732    -999.2500    -999.2500     181.9616      98.3248     294.4926       0.1353    -999.2500       0.0010       2.5727    -999.2500       0.3591       3.4020
   2462.6316       8.9970       4.4016    -999.2500      67.9345      32.1512    -999.2500    -999.2500     175.4409      95.2544     293.6947       0.1333    -999.2500       0.0015       2.5730    -999.2500       0.3801       3.3933
   2462.7839       8.9991       4.7153    -999.2500      67.7796      32.1534    -999.2500    -999.2500     168.6580      91.6776     278.7124       0.1309    -999.2500       0.0020       2.5803    -999.2500       0.3677       3.3543
   2462.9363       9.0092       4.1403    -999.2500      66.4619      30.5142    -999.2500    -999.2500     170.3630      91.8848     305.4552       0.1259    -999.2500       0.0020       2.6086    -999.2500       0.2262       3.2238
   2463.0889       9.0214       3.2503    -999.2500      64.9916      28.2288    -999.2500    -999.2500     176.0919      94.0723     331.4073       0.1171    -999.2500       0.0020       2.6407    -999.2500       0.0522       3.0528
   2463.2412       9.0247       1.6914    -999.2500      64.8410      24.1574    -999.2500    -999.2500     196.7751     104.5014     257.0773       0.1047    -999.2500       0.0016       2.6644    -999.2500      -0.1083       2.7456
   2463.3936       9.0277       0.8598    -999.2500      63.9129      21.3876    -999.2500    -999.2500     215.2738     114.0402     314.1143       0.0945    -999.2500       0.0010       2.6812    -999.2500      -0.1775       2.5091
   2463.5459       9.0330       2.3884    -999.2500      60.2475      23.0393    -999.2500    -999.2500     222.4459     118.2603     791.2682       0.0914    -999.2500       0.0018       2.6834    -999.2500       0.0193       2.5242
   2463.6985       9.0380       4.6970    -999.2500      55.6840      26.1540    -999.2500    -999.2500     225.8370     120.7030    1406.5240       0.0913    -999.2500       0.0020       2.6800    -999.2500       0.3040       2.6220
   2463.8508       9.0333       4.5538    -999.2500      55.4217      25.9173    -999.2500    -999.2500     217.0642     118.6279     811.0928       0.0892    -999.2500       0.0020       2.6923    -999.2500       0.2816       2.6109
   2464.0032       9.0292       4.2256    -999.2500      55.1774      25.3939    -999.2500    -999.2500     211.0191     117.7497     356.7150       0.0859    -999.2500       0.0020       2.7022    -999.2500       0.2306       2.5874
   2464.1555       9.0243       3.3598    -999.2500      54.9817      24.0350    -999.2500    -999.2500     212.8516     120.3412     308.5410       0.0830    -999.2500       0.0013       2.7043    -999.2500       0.0977       2.5275
   2464.3079       9.0212       2.3130    -999.2500      54.8176      22.4105    -999.2500    -999.2500     216.4161     123.4565     406.2905       0.0817    -999.2500       0.0010       2.7031    -999.2500      -0.0579       2.4565
   2464.4604       9.0365       1.2934    -999.2500      54.8030      20.9655    -999.2500    -999.2500     210.2278     119.7970     585.8687       0.0828    -999.2500       0.0010       2.7018    -999.2500      -0.1562       2.4045
   2464.6128       9.0500       0.8804    -999.2500      54.8908      20.3911    -999.2500    -999.2500     198.4385     112.8317     715.6575       0.0847    -999.2500       0.0010       2.6984    -999.2500      -0.1874       2.3840
   2464.7651       9.0509       2.5979    -999.2500      55.2886      22.8185    -999.2500    -999.2500     170.2693      96.5452     642.0224       0.0859    -999.2500       0.0015       2.6906    -999.2500      -0.0023       2.4708
   2464.9175       9.0462       4.4712    -999.2500      55.9524      25.3683    -999.2500    -999.2500     138.6108      78.4661     547.8605       0.0873    -999.2500       0.0020       2.6794    -999.2500       0.1892       2.5538
   2465.0701       9.0332       4.3274    -999.2500      57.4581      24.6247    -999.2500    -999.2500     111.7672      64.0255     619.8133       0.0905    -999.2500       0.0020       2.6613    -999.2500       0.1285       2.4804
   2465.2224       9.0208       3.9774    -999.2500      58.6795      23.6487    -999.2500    -999.2500      92.8266      54.1537     667.6403       0.0984    -999.2500       0.0020       2.6381    -999.2500       0.0600       2.4036
   2465.3748       9.0204       4.8163    -999.2500      57.3716      25.1776    -999.2500    -999.2500     111.9360      65.2861     391.4576       0.1134    -999.2500       0.0020       2.5949    -999.2500       0.2393       2.4883
   2465.5271       9.0274       5.4907    -999.2500      55.5216      26.5721    -999.2500    -999.2500     155.1427      88.3696     124.3161       0.1334    -999.2500       0.0020       2.5576    -999.2500       0.4021       2.5760
   2465.6797       9.0542       4.9349    -999.2500      53.3638      26.0628    -999.2500    -999.2500     255.5240     138.5627      75.4963       0.1551    -999.2500       0.0020       2.5516    -999.2500       0.3643       2.5821
   2465.8320       9.0858       4.1296    -999.2500      51.4309      25.1496    -999.2500    -999.2500     359.4900     190.1440     107.5471       0.1677    -999.2500       0.0020       2.5569    -999.2500       0.2865       2.5686
   2465.9844       9.1126       5.1070    -999.2500      54.1001      26.7217    -999.2500    -999.2500     264.0772     142.6576     355.6023       0.1602    -999.2500       0.0020       2.5868    -999.2500       0.4979       2.6412
   2466.1367       9.1342       6.0003    -999.2500      56.2550      28.1756    -999.2500    -999.2500     173.2534      97.2536     524.4698       0.1415    -999.2500       0.0020       2.6200    -999.2500       0.7072       2.7093
   2466.2891       9.1407       6.3079    -999.2500      56.0831      28.8099    -999.2500    -999.2500     134.4223      77.1224     426.0526       0.1208    -999.2500       0.0013       2.6561    -999.2500       0.8525       2.7487
   2466.4417       9.1534       6.4018    -999.2500      55.1458      29.1405    -999.2500    -999.2500     114.0595      66.0228     239.9529       0.1050    -999.2500       0.0010       2.6918    -999.2500       0.9766       2.7770
   2466.5940       9.4247       6.1629    -999.2500      55.0683      28.9099    -999.2500    -999.2500     109.8295      64.0769     146.6954       0.1008    -999.2500       0.0008       2.6954    -999.2500       1.0937       2.7792
   2466.7463       9.5909       6.2837    -999.2500      54.2136      29.1754    -999.2500    -999.2500     106.7142      62.9303      76.2015       0.1029    -999.2500       0.0000       2.6974    -999.2500       1.2285       2.7978
