#------------------------------------------------------------------------------
#
#   Created by  : [OpenWorks] Log Export Utility (LEXP)
#   Created on  : 2016-05-11 12:13:43
#   Project     : CANT971
#   User        : R5K
#   Interpreter : PEP
#
#------------------------------------------------------------------------------
~VERSION INFORMATION
VERS. 2.0 : CWLS Log ASCII Standard - version 2.0
WRAP.  NO : One line per depth step
~WELL INFORMATION
#MNEMONIC   .UNIT                                           VALUE :DESCRIPTION
#------------------------------------------------------------------------------
STRT        .M                                           706.6788 :START DEPTH
STOP        .M                                          3003.8040 :STOP DEPTH
STEP        .M                                             0.1524 :STEP
NULL        .                                           -999.2500 :NULL VALUE
COMP        .                                   PEMEX EXPL & PROD :COMPANY
WELL        .                                                 95D :WELL
FLD         .                                           CANTARELL :FIELD
LOC         .                                             UNKNOWN :LOCATION
CNTY        .                                      CD. DEL CARMEN :COUNTY
STAT        .                                            CAMPECHE :STATE
CTRY        .                                              MEXICO :COUNTRY
SRVC        .                                             UNKNOWN :SERVICE COMPANY
DATE        .                                             UNKNOWN :LOG DATE
UWI         .                                          3060000607 :UNIQUE WELL ID
XCOORD      .                                       601395.340000 :SURFACE X
YCOORD      .                                      2149877.570000 :SURFACE Y
LAT         .                                           19.441878 :LATITUDE
LON         .                                          -92.034095 :LONGITUDE
ELEV        .M                                            28.0000 :SURFACE ELEV
ELEV_TYPE   .                                                  KB :ELEV TYPE
~CURVE INFORMATION
#MNEMONIC.UNIT        API CODE       : CURVE DESCRIPTION
#------------------------------------------------------------------------------
DEPTH    .M                          : Measured Depth
CALI     .inches      UNKNOWN        : CALI:registros:rC:NONE:v0 (auto-composite)
CGR      .API         UNKNOWN        : CGR:registros:rC:NONE:v0 (auto-composite)
DRHO     .g/cm3       UNKNOWN        : DRHO:registros:rC:NONE:v0 (auto-composite)
DT       .us/ft       UNKNOWN        : DT:registros:rC:NONE:v0 (auto-composite)
GR       .API         UNKNOWN        : GR:registros:rC:NONE:v0 (auto-composite)
ILD      .ohm.m       UNKNOWN        : ILD:registros:rC:NONE:v0 (auto-composite)
ILM      .ohm.m       UNKNOWN        : ILM:registros:rC:NONE:v0 (auto-composite)
LLD      .ohm.m       UNKNOWN        : LLD:registros:rC:NONE:v0 (auto-composite)
LLS      .ohm.m       UNKNOWN        : LLS:registros:rC:NONE:v0 (auto-composite)
MSFL     .ohm.m       UNKNOWN        : MSFL:registros:rC:NONE:v0 (auto-composite)
NPHI     .UNKNOWN     UNKNOWN        : NPHI:registros:rC:NONE:v0 (auto-composite)
PEF      .UNKNOWN     UNKNOWN        : PEF:registros:rC:NONE:v0 (auto-composite)
POTA     .UNKNOWN     UNKNOWN        : POTA:registros:rC:NONE:v0 (auto-composite)
RHOB     .g/cm3       UNKNOWN        : RHOB:registros:rC:NONE:v0 (auto-composite)
SP       .mV          UNKNOWN        : SP:registros:rC:NONE:v0 (auto-composite)
THOR     .ppm         UNKNOWN        : THOR:registros:rC:NONE:v0 (auto-composite)
URAN     .ppm         UNKNOWN        : URAN:registros:rC:NONE:v0 (auto-composite)
~A     DEPTH         CALI          CGR         DRHO           DT           GR          ILD          ILM          LLD          LLS         MSFL         NPHI          PEF         POTA         RHOB           SP         THOR         URAN
# ...
   2818.9429       6.8981      -3.2384       0.0041      70.8488      16.1821    -999.2500    -999.2500    3051.5762     328.0693      48.0322       0.0791       2.7766      -0.0010       2.6643    -999.2500      -0.3451       2.2912
   2819.0952       6.8575      -2.8438       0.0008      70.5768      17.1714    -999.2500    -999.2500    3436.5923     324.0832      52.6792       0.0896       2.7973      -0.0010       2.6219    -999.2500      -0.2845       2.3764
   2819.2476       6.8002      -3.4487       0.0000      69.7142      16.4582    -999.2500    -999.2500    3844.5046     332.8162      68.9744       0.0918       2.8619      -0.0014       2.6174    -999.2500      -0.3361       2.3655
   2819.3999       6.7523      -3.9678       0.0012      68.7327      15.9544    -999.2500    -999.2500    4876.6060     377.9814      95.0090       0.0912       2.9488      -0.0020       2.6311    -999.2500      -0.3688       2.3674
   2819.5525       6.7418      -3.6958       0.0071      67.6733      16.9995    -999.2500    -999.2500    7886.0781     532.6484     146.0393       0.0889       3.0812      -0.0020       2.6837    -999.2500      -0.2820       2.4595
   2819.7048       6.7446      -3.2077       0.0140      66.5650      18.4493    -999.2500    -999.2500   11316.1084     711.3074     197.7954       0.0852       3.2199      -0.0020       2.7451    -999.2500      -0.1659       2.5728
   2819.8572       6.7574      -3.2888       0.0140      64.9776      18.3934    -999.2500    -999.2500   11043.6963     698.1120     116.5421       0.0757       3.1967      -0.0017       2.7467    -999.2500      -0.1862       2.5659
   2820.0095       6.7770      -3.4787       0.0135      63.8762      18.1672    -999.2500    -999.2500   10300.1611     649.4368      47.4769       0.0678       3.1389      -0.0010       2.7425    -999.2500      -0.2351       2.5560
   2820.1619       6.8125      -3.9031       0.0123      64.2305      17.6598    -999.2500    -999.2500    8720.2002     525.8871      31.3149       0.0657       3.0071      -0.0010       2.7289    -999.2500      -0.3465       2.5554
   2820.3145       6.8464      -4.3900       0.0111      65.2442      17.0861    -999.2500    -999.2500    6884.0586     384.0278      36.0419       0.0677       2.8573      -0.0010       2.7100    -999.2500      -0.4775       2.5588
   2820.4668       6.7482      -4.5449       0.0087      69.1420      17.0638    -999.2500    -999.2500    5626.4224     378.0794      89.4734       0.0802       2.8583      -0.0010       2.6547    -999.2500      -0.5823       2.5707
   2820.6191       6.6637      -4.2276       0.0062      72.3894      17.8241    -999.2500    -999.2500    4646.5557     382.6245     133.6932       0.0908       2.9111      -0.0010       2.6115    -999.2500      -0.6107       2.6204
   2820.7715       6.6474      -2.4658       0.0044      73.1040      20.9801    -999.2500    -999.2500    4454.2446     398.2482     140.6775       0.0926       3.1010      -0.0010       2.6094    -999.2500      -0.4037       2.7855
   2820.9241       6.6563      -0.5443       0.0024      72.9390      24.3780    -999.2500    -999.2500    4565.4463     446.4783     137.2502       0.0882       3.3020      -0.0010       2.6252    -999.2500      -0.1617       2.9581
   2821.0764       6.6891      -0.3971      -0.0011      72.2051      24.6884    -999.2500    -999.2500    5034.8804     673.5982     141.0439       0.0743       3.3042      -0.0010       2.6715    -999.2500      -0.1497       2.9540
   2821.2288       6.7172      -0.6856      -0.0040      71.0547      24.3266    -999.2500    -999.2500    5476.7515     888.2222     140.2279       0.0610       3.2459       0.0000       2.7199    -999.2500      -0.2013       2.9262
   2821.3811       6.7025      -1.6197      -0.0040      68.4765      23.2210    -999.2500    -999.2500    5537.2466     918.0231     113.7609       0.0578       3.0592       0.0000       2.7558    -999.2500      -0.3678       2.9215
   2821.5337       6.6830      -1.9356      -0.0026      65.3943      23.2704    -999.2500    -999.2500    5480.8882     886.7562      87.3141       0.0581       2.8808       0.0000       2.7825    -999.2500      -0.4794       2.9851
   2821.6860       6.6836       0.5471       0.0016      61.6250      28.1603    -999.2500    -999.2500    5314.2886     785.8445      82.2591       0.0594       2.8448       0.0000       2.7871    -999.2500      -0.2913       3.2784
   2821.8384       6.6880       3.4570       0.0069      58.0509      33.7427    -999.2500    -999.2500    5148.4551     678.5845      84.5513       0.0619       2.8473       0.0001       2.7826    -999.2500      -0.0506       3.5986
   2821.9907       6.6873       3.6024       0.0060      57.7600      34.1297    -999.2500    -999.2500    5244.3447     677.4131     101.0900       0.0683       2.8599       0.0014       2.7491    -999.2500      -0.0389       3.6279
   2822.1431       6.6911       3.3069       0.0037      58.0628      33.7846    -999.2500    -999.2500    5688.4941     705.5187     115.4247       0.0738       2.9131       0.0020       2.7193    -999.2500      -0.0620       3.6209
   2822.2957       6.7124       2.6141      -0.0027      59.0398      32.9776    -999.2500    -999.2500    7078.6758     785.5141     118.5429       0.0747       3.0845       0.0012       2.7120    -999.2500      -0.1150       3.6028
   2822.4480       6.7390       1.7880      -0.0100      60.2370      32.0170    -999.2500    -999.2500    8785.9639     882.9030     117.8980       0.0752       3.2950       0.0010       2.7120    -999.2500      -0.1780       3.5820
   2822.6003       6.7105       1.1909      -0.0100      66.2661      31.3838    -999.2500    -999.2500    8631.5430    1618.8895      82.5568       0.0861       3.2886       0.0010       2.7098    -999.2500      -0.1976       3.5869
   2822.7527       6.6902       0.6326      -0.0100      70.5343      30.7882    -999.2500    -999.2500    8334.8447    2196.2859      59.3602       0.0956       3.2755       0.0010       2.7005    -999.2500      -0.2212       3.5891
   2822.9053       6.6953       0.1853      -0.0093      69.7410      30.3037    -999.2500    -999.2500    7625.5156    2314.3440      71.3553       0.0984       3.2450       0.0003       2.6687    -999.2500      -0.2556       3.5833
   2823.0576       6.7008      -0.3703      -0.0081      67.4676      29.6164    -999.2500    -999.2500    6760.2744    2262.8240      92.2815       0.0983       3.2076       0.0000       2.6332    -999.2500      -0.3164       3.5633
   2823.2100       6.6413      -2.2939      -0.0069      67.3494      26.6736    -999.2500    -999.2500    5728.9819    2064.0125      86.1768       0.0974       3.1665       0.0000       2.6409    -999.2500      -0.5869       3.4419
   2823.3623       6.5862      -3.9480      -0.0057      67.3046      24.1378    -999.2500    -999.2500    4725.6748    1823.0347      82.7232       0.0970       3.1205       0.0000       2.6500    -999.2500      -0.8220       3.3379
   2823.5149       6.5745      -4.1542      -0.0045      66.7492      23.8528    -999.2500    -999.2500    3881.2517    1484.3677      98.3482       0.0980       3.0587       0.0000       2.6515    -999.2500      -0.8573       3.3281
   2823.6672       6.5758      -3.8030      -0.0032      65.4414      24.5307    -999.2500    -999.2500    3076.2244    1121.4216     109.6209       0.1010       3.0081       0.0000       2.6502    -999.2500      -0.8112       3.3668
   2823.8196       6.5819      -2.7194      -0.0030      61.3052      26.7913    -999.2500    -999.2500    2249.6775     771.4410      75.8586       0.1077       3.0324       0.0000       2.6451    -999.2500      -0.6430       3.5065
   2823.9719       6.5900      -1.2652      -0.0018      57.3196      29.9873    -999.2500    -999.2500    1534.5623     480.7878      38.5645       0.1130       3.0660       0.0000       2.6384    -999.2500      -0.3902       3.7002
   2824.1243       6.6087       1.3994      -0.0006      57.5341      36.5472    -999.2500    -999.2500    1470.6549     507.8170      34.9702       0.1095       3.0631       0.0004       2.6217    -999.2500       0.1940       4.0718
