#------------------------------------------------------------------------------
#
#   Created by  : [OpenWorks] Log Export Utility (LEXP)
#   Created on  : 2016-05-11 12:13:43
#   Project     : CANT971
#   User        : R5K
#   Interpreter : PEP
#
#------------------------------------------------------------------------------
~VERSION INFORMATION
VERS. 2.0 : CWLS Log ASCII Standard - version 2.0
WRAP.  NO : One line per depth step
~WELL INFORMATION
#MNEMONIC   .UNIT                                           VALUE :DESCRIPTION
#------------------------------------------------------------------------------
STRT        .M                                           706.6788 :START DEPTH
STOP        .M                                          3003.8040 :STOP DEPTH
STEP        .M                                             0.1524 :STEP
NULL        .                                           -999.2500 :NULL VALUE
COMP        .                                   PEMEX EXPL & PROD :COMPANY
WELL        .                                                 95D :WELL
FLD         .                                           CANTARELL :FIELD
LOC         .                                             UNKNOWN :LOCATION
CNTY        .                                      CD. DEL CARMEN :COUNTY
STAT        .                                            CAMPECHE :STATE
CTRY        .                                              MEXICO :COUNTRY
SRVC        .                                             UNKNOWN :SERVICE COMPANY
DATE        .                                             UNKNOWN :LOG DATE
UWI         .                                          3060000607 :UNIQUE WELL ID
XCOORD      .                                       601395.340000 :SURFACE X
YCOORD      .                                      2149877.570000 :SURFACE Y
LAT         .                                           19.441878 :LATITUDE
LON         .                                          -92.034095 :LONGITUDE
ELEV        .M                                            28.0000 :SURFACE ELEV
ELEV_TYPE   .                                                  KB :ELEV TYPE
~CURVE INFORMATION
#MNEMONIC.UNIT        API CODE       : CURVE DESCRIPTION
#------------------------------------------------------------------------------
DEPTH    .M                          : Measured Depth
CALI     .inches      UNKNOWN        : CALI:registros:rC:NONE:v0 (auto-composite)
CGR      .API         UNKNOWN        : CGR:registros:rC:NONE:v0 (auto-composite)
DRHO     .g/cm3       UNKNOWN        : DRHO:registros:rC:NONE:v0 (auto-composite)
DT       .us/ft       UNKNOWN        : DT:registros:rC:NONE:v0 (auto-composite)
GR       .API         UNKNOWN        : GR:registros:rC:NONE:v0 (auto-composite)
ILD      .ohm.m       UNKNOWN        : ILD:registros:rC:NONE:v0 (auto-composite)
ILM      .ohm.m       UNKNOWN        : ILM:registros:rC:NONE:v0 (auto-composite)
LLD      .ohm.m       UNKNOWN        : LLD:registros:rC:NONE:v0 (auto-composite)
LLS      .ohm.m       UNKNOWN        : LLS:registros:rC:NONE:v0 (auto-composite)
MSFL     .ohm.m       UNKNOWN        : MSFL:registros:rC:NONE:v0 (auto-composite)
NPHI     .UNKNOWN     UNKNOWN        : NPHI:registros:rC:NONE:v0 (auto-composite)
PEF      .UNKNOWN     UNKNOWN        : PEF:registros:rC:NONE:v0 (auto-composite)
POTA     .UNKNOWN     UNKNOWN        : POTA:registros:rC:NONE:v0 (auto-composite)
RHOB     .g/cm3       UNKNOWN        : RHOB:registros:rC:NONE:v0 (auto-composite)
SP       .mV          UNKNOWN        : SP:registros:rC:NONE:v0 (auto-composite)
THOR     .ppm         UNKNOWN        : THOR:registros:rC:NONE:v0 (auto-composite)
URAN     .ppm         UNKNOWN        : URAN:registros:rC:NONE:v0 (auto-composite)
~A     DEPTH         CALI          CGR         DRHO           DT           GR          ILD          ILM          LLD          LLS         MSFL         NPHI          PEF         POTA         RHOB           SP         THOR         URAN
# ...
   2877.6167       6.5731      -5.4567       0.0010      60.4469      26.1541    -999.2500    -999.2500    2948.6204    2080.9360     193.3586       0.0757       3.1006      -0.0020       2.7332    -999.2500      -0.4772       3.7559
   2877.7693       6.5773      -5.5929       0.0016      60.0263      25.6383    -999.2500    -999.2500    2842.0933    1870.1140     161.9337       0.0700       3.1032      -0.0020       2.7390    -999.2500      -0.4766       3.7109
   2877.9216       6.5830      -3.5695       0.0020      59.4183      29.1294    -999.2500    -999.2500    2911.7576    1662.1853     199.2420       0.0633       3.1293      -0.0012       2.7382    -999.2500      -0.2526       3.8850
   2878.0740       6.5942       5.3369       0.0030      58.2594      45.6703    -999.2500    -999.2500    3326.5027    1637.8197     644.4795       0.0572       3.2366       0.0020       2.7309    -999.2500       0.7156       4.7927
   2878.2263       6.6111      13.8374       0.0037      57.1105      61.5647    -999.2500    -999.2500    3699.5166    1634.5031    1060.2504       0.0529       3.3209       0.0042       2.7249    -999.2500       1.6418       5.6718
   2878.3787       6.6455      14.4997       0.0074      56.4873      63.1735    -999.2500    -999.2500    3577.3621    1573.9192     985.3472       0.0518       3.2202       0.0045       2.7312    -999.2500       1.7239       5.7842
   2878.5312       6.6670      12.2052       0.0097      55.8626      59.2392    -999.2500    -999.2500    3394.4980    1516.3912     776.7327       0.0535       3.1284       0.0033       2.7370    -999.2500       1.4674       5.5895
   2878.6836       6.6288       5.1954       0.0082      54.8568      46.1637    -999.2500    -999.2500    3357.9497    1511.2925     453.9345       0.0572       3.2015       0.0012       2.7335    -999.2500       0.6290       4.8684
   2878.8359       6.5776      -2.2176       0.0052      53.9078      32.1948    -999.2500    -999.2500    3354.9949    1516.7670     135.0893       0.0607       3.3083      -0.0010       2.7289    -999.2500      -0.2569       4.0889
   2878.9883       6.5743      -0.1640       0.0077      54.6378      35.4241    -999.2500    -999.2500    3274.2620    1479.3676     186.0896       0.0612       3.2967      -0.0010       2.7393    -999.2500       0.0593       4.2290
   2879.1409       6.5767       1.8949       0.0096      55.1097      38.9177    -999.2500    -999.2500    3121.5967    1408.6058     247.8811       0.0596       3.2383      -0.0010       2.7482    -999.2500       0.3665       4.3991
   2879.2932       6.5834       1.3324       0.0092      54.3853      38.3811    -999.2500    -999.2500    2783.7288    1253.8378     237.7050       0.0567       3.0771      -0.0002       2.7469    -999.2500       0.3155       4.4021
   2879.4456       6.5930      -0.1060       0.0080      53.1940      36.4970    -999.2500    -999.2500    2377.6580    1068.1810     202.5650       0.0546       2.8810       0.0000       2.7420    -999.2500       0.1440       4.3490
   2879.5979       6.6305       0.1209       0.0022      48.0908      36.8882    -999.2500    -999.2500    1819.9956     818.4633     139.4835       0.0565       2.8882       0.0000       2.7213    -999.2500       0.1742       4.3693
   2879.7505       6.6529       1.6722      -0.0019      44.3416      39.9124    -999.2500    -999.2500    1373.0217     617.9646      85.0772       0.0642       2.8986       0.0000       2.7002    -999.2500       0.3470       4.5444
   2879.9028       6.6293       7.1481      -0.0024      44.7384      50.7389    -999.2500    -999.2500    1269.5861     570.2756      58.1227       0.0783       2.9176       0.0006       2.6800    -999.2500       0.9431       5.1803
   2880.0552       6.5972      13.2546      -0.0011      47.8550      62.8368    -999.2500    -999.2500    1295.7694     582.7233      42.4790       0.0912       2.9387       0.0010       2.6610    -999.2500       1.6037       5.8921
   2880.2075       6.6276      13.7570       0.0022      62.0165      63.9364    -999.2500    -999.2500    1450.3910     672.9413      45.0157       0.0940       2.9485       0.0022       2.6537    -999.2500       1.6253       5.9627
   2880.3599       6.6560      12.5205       0.0043      74.3666      61.6766    -999.2500    -999.2500    1577.2318     751.5737      52.5091       0.0926       2.9558       0.0037       2.6473    -999.2500       1.4701       5.8407
   2880.5125       6.6497       7.2226       0.0045      75.0740      51.6458    -999.2500    -999.2500    1542.6239     752.1497      70.5975       0.0933       2.9626       0.0020       2.6363    -999.2500       0.9333       5.2785
   2880.6648       6.6269       1.8895       0.0040      71.5950      41.5213    -999.2500    -999.2500    1434.4801     719.5341      89.2602       0.0964       2.9650       0.0003       2.6268    -999.2500       0.3996       4.7093
   2880.8171       6.5700       1.0185       0.0021      63.1663      39.8154    -999.2500    -999.2500    1196.3721     634.1403      98.3479       0.1020       2.9506       0.0000       2.6260    -999.2500       0.3125       4.6098
   2880.9695       6.5134       1.2892       0.0002      54.8609      40.1667    -999.2500    -999.2500     926.6947     528.6320     104.1226       0.1081       2.9414       0.0000       2.6284    -999.2500       0.3304       4.6193
   2881.1221       6.5064       2.3477       0.0014      54.3241      41.4121    -999.2500    -999.2500     644.4909     372.7254     102.8496       0.1132       2.9820       0.0004       2.6454    -999.2500       0.3690       4.6420
   2881.2744       6.5076       2.4490       0.0014      56.0567      41.1579    -999.2500    -999.2500     418.2301     242.1698      99.4075       0.1174       3.0209       0.0010       2.6575    -999.2500       0.2791       4.5995
   2881.4268       6.5097      -0.8344       0.0002      61.1173      35.7675    -999.2500    -999.2500     373.3783     215.6100      92.6006       0.1211       3.0275       0.0002       2.6456    -999.2500      -0.2250       4.3497
   2881.5791       6.5107      -4.9779      -0.0020      66.9219      29.0876    -999.2500    -999.2500     399.2271     229.8944      84.5688       0.1258       3.0235      -0.0010       2.6271    -999.2500      -0.8298       4.0484
   2881.7317       6.4626      -5.0237      -0.0017      66.6063      28.9604    -999.2500    -999.2500     706.7975     412.1134      73.0840       0.1321       3.0125      -0.0010       2.6283    -999.2500      -0.8386       4.0388
   2881.8840       6.4226      -4.5451      -0.0005      67.2924      29.6341    -999.2500    -999.2500     958.1021     562.6671      68.2382       0.1342       3.0005      -0.0010       2.6295    -999.2500      -0.7972       4.0618
   2882.0364       6.4127      -3.1236       0.0014      71.6186      31.7103    -999.2500    -999.2500    1008.6018     598.9127      82.9714       0.1276       2.9871      -0.0003       2.6293    -999.2500      -0.6933       4.1395
   2882.1887       6.4139      -0.6750       0.0039      76.7581      36.1871    -999.2500    -999.2500     982.9354     592.0229     102.8080       0.1191       2.9625       0.0000       2.6281    -999.2500      -0.5229       4.3797
   2882.3411       6.4185      13.0503       0.0007      74.5444      71.5845    -999.2500    -999.2500     854.3486     530.1235      95.1600       0.1171       2.7614       0.0068       2.6132    -999.2500       0.3615       6.9550
   2882.4937       6.4214      24.5467      -0.0014      70.4296     101.3539    -999.2500    -999.2500     704.9312     450.8017      80.2363       0.1198       2.5956       0.0117       2.5881    -999.2500       1.1052       9.1265
   2882.6460       6.4214      26.9294      -0.0014      61.5412     107.6660    -999.2500    -999.2500     507.3413     325.6683      46.9807       0.1252       2.5748       0.0124       2.5304    -999.2500       1.2729       9.5934
   2882.7983       6.4202      26.1523       0.0006      53.7332     105.8479    -999.2500    -999.2500     324.0416     205.2266      29.2451       0.1350       2.6236       0.0120       2.4731    -999.2500       1.2489       9.4695
