#------------------------------------------------------------------------------
#
#   Created by  : [OpenWorks] Log Export Utility (LEXP)
#   Created on  : 2016-05-11 12:13:43
#   Project     : CANT971
#   User        : R5K
#   Interpreter : PEP
#
#------------------------------------------------------------------------------
~VERSION INFORMATION
VERS. 2.0 : CWLS Log ASCII Standard - version 2.0
WRAP.  NO : One line per depth step
~WELL INFORMATION
#MNEMONIC   .UNIT                                           VALUE :DESCRIPTION
#------------------------------------------------------------------------------
STRT        .M                                           706.6788 :START DEPTH
STOP        .M                                          3003.8040 :STOP DEPTH
STEP        .M                                             0.1524 :STEP
NULL        .                                           -999.2500 :NULL VALUE
COMP        .                                   PEMEX EXPL & PROD :COMPANY
WELL        .                                                 95D :WELL
FLD         .                                           CANTARELL :FIELD
LOC         .                                             UNKNOWN :LOCATION
CNTY        .                                      CD. DEL CARMEN :COUNTY
STAT        .                                            CAMPECHE :STATE
CTRY        .                                              MEXICO :COUNTRY
SRVC        .                                             UNKNOWN :SERVICE COMPANY
DATE        .                                             UNKNOWN :LOG DATE
UWI         .                                          3060000607 :UNIQUE WELL ID
XCOORD      .                                       601395.340000 :SURFACE X
YCOORD      .                                      2149877.570000 :SURFACE Y
LAT         .                                           19.441878 :LATITUDE
LON         .                                          -92.034095 :LONGITUDE
ELEV        .M                                            28.0000 :SURFACE ELEV
ELEV_TYPE   .                                                  KB :ELEV TYPE
~CURVE INFORMATION
#MNEMONIC.UNIT        API CODE       : CURVE DESCRIPTION
#------------------------------------------------------------------------------
DEPTH    .M                          : Measured Depth
CALI     .inches      UNKNOWN        : CALI:registros:rC:NONE:v0 (auto-composite)
CGR      .API         UNKNOWN        : CGR:registros:rC:NONE:v0 (auto-composite)
DRHO     .g/cm3       UNKNOWN        : DRHO:registros:rC:NONE:v0 (auto-composite)
DT       .us/ft       UNKNOWN        : DT:registros:rC:NONE:v0 (auto-composite)
GR       .API         UNKNOWN        : GR:registros:rC:NONE:v0 (auto-composite)
ILD      .ohm.m       UNKNOWN        : ILD:registros:rC:NONE:v0 (auto-composite)
ILM      .ohm.m       UNKNOWN        : ILM:registros:rC:NONE:v0 (auto-composite)
LLD      .ohm.m       UNKNOWN        : LLD:registros:rC:NONE:v0 (auto-composite)
LLS      .ohm.m       UNKNOWN        : LLS:registros:rC:NONE:v0 (auto-composite)
MSFL     .ohm.m       UNKNOWN        : MSFL:registros:rC:NONE:v0 (auto-composite)
NPHI     .UNKNOWN     UNKNOWN        : NPHI:registros:rC:NONE:v0 (auto-composite)
PEF      .UNKNOWN     UNKNOWN        : PEF:registros:rC:NONE:v0 (auto-composite)
POTA     .UNKNOWN     UNKNOWN        : POTA:registros:rC:NONE:v0 (auto-composite)
RHOB     .g/cm3       UNKNOWN        : RHOB:registros:rC:NONE:v0 (auto-composite)
SP       .mV          UNKNOWN        : SP:registros:rC:NONE:v0 (auto-composite)
THOR     .ppm         UNKNOWN        : THOR:registros:rC:NONE:v0 (auto-composite)
URAN     .ppm         UNKNOWN        : URAN:registros:rC:NONE:v0 (auto-composite)
~A     DEPTH         CALI          CGR         DRHO           DT           GR          ILD          ILM          LLD          LLS         MSFL         NPHI          PEF         POTA         RHOB           SP         THOR         URAN
# ...
   2578.9128       9.2423      15.2712    -999.2500      60.7617      44.9060    -999.2500    -999.2500      75.7446      37.4683     111.8451       0.1677    -999.2500       0.0075       2.5735    -999.2500       0.4004       3.6214
   2579.0652       9.1793       8.3484    -999.2500      53.3606      35.0884    -999.2500    -999.2500      93.1465      48.8598      81.0581       0.1427    -999.2500       0.0051       2.6015    -999.2500      -0.1007       3.2683
   2579.2175       9.1012       1.8745    -999.2500      45.6996      25.7922    -999.2500    -999.2500     107.8586      59.2055      38.9005       0.1174    -999.2500       0.0020       2.6343    -999.2500      -0.5441       2.9231
   2579.3699       8.9814       1.0793    -999.2500      45.1696      24.6844    -999.2500    -999.2500     109.3402      60.4363      36.2258       0.1081    -999.2500       0.0020       2.6660    -999.2500      -0.5923       2.8849
   2579.5225       8.8878       1.1186    -999.2500      46.3787      24.8447    -999.2500    -999.2500     108.2491      60.2095      71.3951       0.1027    -999.2500       0.0020       2.6977    -999.2500      -0.5693       2.9001
   2579.6748       8.8919       1.2547    -999.2500      49.8304      25.3477    -999.2500    -999.2500     105.0009      59.4597     205.3898       0.0989    -999.2500       0.0020       2.7294    -999.2500      -0.5011       2.9450
   2579.8271       8.9242       1.4487    -999.2500      53.9024      26.0103    -999.2500    -999.2500     100.8745      58.3968     365.2259       0.0946    -999.2500       0.0020       2.7600    -999.2500      -0.4155       3.0004
   2579.9795       8.8993       2.4126    -999.2500      55.0898      28.1079    -999.2500    -999.2500      91.4836      53.2359     355.9032       0.0812    -999.2500       0.0020       2.7582    -999.2500      -0.2553       3.1007
   2580.1321       8.8777       3.1738    -999.2500      56.4497      29.5976    -999.2500    -999.2500      83.8929      49.0466     314.5039       0.0701    -999.2500       0.0020       2.7488    -999.2500      -0.1292       3.1898
   2580.2844       8.8727       3.2770    -999.2500      58.5621      29.1981    -999.2500    -999.2500      81.9978      48.0489     196.5242       0.0675    -999.2500       0.0013       2.7228    -999.2500      -0.1074       3.2445
   2580.4368       8.8831       3.0880    -999.2500      61.1658      28.3300    -999.2500    -999.2500      82.1493      48.2404      61.5720       0.0690    -999.2500       0.0010       2.6902    -999.2500      -0.1303       3.2862
   2580.5891       9.0251       2.0468    -999.2500      66.9153      29.9323    -999.2500    -999.2500      83.2360      49.5042      53.1287       0.0769    -999.2500       0.0011       2.6404    -999.2500      -0.2618       3.3287
   2580.7415       9.1459       1.1084    -999.2500      71.7397      31.2894    -999.2500    -999.2500      85.0336      51.2854      54.9022       0.0866    -999.2500       0.0020       2.6011    -999.2500      -0.3960       3.4037
   2580.8940       9.1670       0.7003    -999.2500      72.7935      31.2741    -999.2500    -999.2500      88.9589      54.5236      61.2091       0.0987    -999.2500       0.0014       2.5975    -999.2500      -0.5103       3.5897
   2581.0464       9.1481       0.3172    -999.2500      72.7933      31.6893    -999.2500    -999.2500      93.8506      58.2980      67.3558       0.1104    -999.2500       0.0010       2.6008    -999.2500      -0.6212       3.8028
   2581.1987       9.0780      -0.7590    -999.2500      73.1320      36.5250    -999.2500    -999.2500     100.4560      62.5730      65.4700       0.1167    -999.2500       0.0010       2.5790    -999.2500      -0.7470       3.9820
   2581.3511       8.9942      -2.2769    -999.2500      73.4594      41.2523    -999.2500    -999.2500     108.5305      67.7558      63.6708       0.1216    -999.2500       0.0008       2.5568    -999.2500      -0.9056       4.2567
   2581.5037       8.9002      -5.1457    -999.2500      73.3821      40.8132    -999.2500    -999.2500     121.2158      76.2528      69.7677       0.1256    -999.2500       0.0000       2.5535    -999.2500      -1.1958       4.9904
   2581.6560       8.8274      -7.6165    -999.2500      72.9037      40.0926    -999.2500    -999.2500     136.2123      86.3153      75.2725       0.1283    -999.2500      -0.0007       2.5560    -999.2500      -1.4455       5.6634
   2581.8083       8.8371      -7.6846    -999.2500      71.3101      42.0975    -999.2500    -999.2500     155.9423      99.4458      72.9560       0.1277    -999.2500      -0.0010       2.5659    -999.2500      -1.4552       5.7815
   2581.9607       8.8662      -6.7005    -999.2500      68.8925      44.6481    -999.2500    -999.2500     175.2648     112.2909      69.1331       0.1243    -999.2500      -0.0008       2.5809    -999.2500      -1.3630       5.7187
   2582.1133       8.8677      -1.8665    -999.2500      61.1821      44.8580    -999.2500    -999.2500     176.4586     113.1722      72.6555       0.1107    -999.2500       0.0013       2.6358    -999.2500      -0.9095       5.4097
   2582.2656       8.8654       2.3576    -999.2500      54.6796      44.7087    -999.2500    -999.2500     175.0424     112.5005     219.4455       0.0950    -999.2500       0.0025       2.6872    -999.2500      -0.5136       5.1314
   2582.4180       8.8594       3.8293    -999.2500      53.0772      44.1290    -999.2500    -999.2500     170.7825     110.4427     777.4749       0.0783    -999.2500       0.0030       2.7191    -999.2500      -0.3788       5.0044
   2582.5703       8.8540       4.3880    -999.2500      53.1510      43.4180    -999.2500    -999.2500     165.3670     107.8010    1470.8700       0.0624    -999.2500       0.0030       2.7440    -999.2500      -0.3270       4.9270
   2582.7227       8.9819       5.9649    -999.2500      53.9246      44.3482    -999.2500    -999.2500     149.5247      98.5701    1300.4034       0.0617    -999.2500       0.0030       2.7428    -999.2500       0.0591       4.7760
   2582.8752       9.0835       7.2242    -999.2500      56.9281      44.9792    -999.2500    -999.2500     131.8216      86.2711    1060.2861       0.0631    -999.2500       0.0030       2.7394    -999.2500       0.3368       4.6394
   2583.0276       9.1031       7.4885    -999.2500      66.5285      44.6884    -999.2500    -999.2500     109.0704      65.1234     618.0669       0.0667    -999.2500       0.0030       2.7296    -999.2500       0.2800       4.5520
   2583.1799       9.0889       7.3679    -999.2500      77.0821      43.6585    -999.2500    -999.2500      85.5380      43.3714     154.4466       0.0719    -999.2500       0.0030       2.7156    -999.2500       0.1601       4.4351
   2583.3323       9.0188       6.8028    -999.2500      77.6777      39.0295    -999.2500    -999.2500      69.5048      41.1417      73.3593       0.0807    -999.2500       0.0030       2.6869    -999.2500       0.4404       3.9389
   2583.4849       8.9445       6.0340    -999.2500      77.9585      34.3988    -999.2500    -999.2500      57.3066      41.8921      44.2487       0.0944    -999.2500       0.0027       2.6531    -999.2500       0.7015       3.4669
   2583.6372       8.8737       4.6997    -999.2500      81.5180      31.3684    -999.2500    -999.2500      56.1372      45.0865      38.9721       0.1199    -999.2500       0.0015       2.6061    -999.2500       0.7120       3.2595
   2583.7896       8.8156       3.5055    -999.2500      85.2215      29.2282    -999.2500    -999.2500      57.1978      48.0018      42.8608       0.1428    -999.2500       0.0003       2.5645    -999.2500       0.6710       3.1442
   2583.9419       8.8079       3.5291    -999.2500      85.8889      29.1318    -999.2500    -999.2500      55.6762      47.0530      59.7055       0.1437    -999.2500       0.0000       2.5647    -999.2500       0.6832       3.1297
   2584.0945       8.8153       4.1400    -999.2500      85.7951      29.8815    -999.2500    -999.2500      51.8702      43.8577      76.7696       0.1389    -999.2500       0.0002       2.5736    -999.2500       0.7443       3.1553
