#------------------------------------------------------------------------------
#
#   Created by  : [OpenWorks] Log Export Utility (LEXP)
#   Created on  : 2016-05-11 12:13:43
#   Project     : CANT971
#   User        : R5K
#   Interpreter : PEP
#
#------------------------------------------------------------------------------
~VERSION INFORMATION
VERS. 2.0 : CWLS Log ASCII Standard - version 2.0
WRAP.  NO : One line per depth step
~WELL INFORMATION
#MNEMONIC   .UNIT                                           VALUE :DESCRIPTION
#------------------------------------------------------------------------------
STRT        .M                                           706.6788 :START DEPTH
STOP        .M                                          3003.8040 :STOP DEPTH
STEP        .M                                             0.1524 :STEP
NULL        .                                           -999.2500 :NULL VALUE
COMP        .                                   PEMEX EXPL & PROD :COMPANY
WELL        .                                                 95D :WELL
FLD         .                                           CANTARELL :FIELD
LOC         .                                             UNKNOWN :LOCATION
CNTY        .                                      CD. DEL CARMEN :COUNTY
STAT        .                                            CAMPECHE :STATE
CTRY        .                                              MEXICO :COUNTRY
SRVC        .                                             UNKNOWN :SERVICE COMPANY
DATE        .                                             UNKNOWN :LOG DATE
UWI         .                                          3060000607 :UNIQUE WELL ID
XCOORD      .                                       601395.340000 :SURFACE X
YCOORD      .                                      2149877.570000 :SURFACE Y
LAT         .                                           19.441878 :LATITUDE
LON         .                                          -92.034095 :LONGITUDE
ELEV        .M                                            28.0000 :SURFACE ELEV
ELEV_TYPE   .                                                  KB :ELEV TYPE
~CURVE INFORMATION
#MNEMONIC.UNIT        API CODE       : CURVE DESCRIPTION
#------------------------------------------------------------------------------
DEPTH    .M                          : Measured Depth
CALI     .inches      UNKNOWN        : CALI:registros:rC:NONE:v0 (auto-composite)
CGR      .API         UNKNOWN        : CGR:registros:rC:NONE:v0 (auto-composite)
DRHO     .g/cm3       UNKNOWN        : DRHO:registros:rC:NONE:v0 (auto-composite)
DT       .us/ft       UNKNOWN        : DT:registros:rC:NONE:v0 (auto-composite)
GR       .API         UNKNOWN        : GR:registros:rC:NONE:v0 (auto-composite)
ILD      .ohm.m       UNKNOWN        : ILD:registros:rC:NONE:v0 (auto-composite)
ILM      .ohm.m       UNKNOWN        : ILM:registros:rC:NONE:v0 (auto-composite)
LLD      .ohm.m       UNKNOWN        : LLD:registros:rC:NONE:v0 (auto-composite)
LLS      .ohm.m       UNKNOWN        : LLS:registros:rC:NONE:v0 (auto-composite)
MSFL     .ohm.m       UNKNOWN        : MSFL:registros:rC:NONE:v0 (auto-composite)
NPHI     .UNKNOWN     UNKNOWN        : NPHI:registros:rC:NONE:v0 (auto-composite)
PEF      .UNKNOWN     UNKNOWN        : PEF:registros:rC:NONE:v0 (auto-composite)
POTA     .UNKNOWN     UNKNOWN        : POTA:registros:rC:NONE:v0 (auto-composite)
RHOB     .g/cm3       UNKNOWN        : RHOB:registros:rC:NONE:v0 (auto-composite)
SP       .mV          UNKNOWN        : SP:registros:rC:NONE:v0 (auto-composite)
THOR     .ppm         UNKNOWN        : THOR:registros:rC:NONE:v0 (auto-composite)
URAN     .ppm         UNKNOWN        : URAN:registros:rC:NONE:v0 (auto-composite)
~A     DEPTH         CALI          CGR         DRHO           DT           GR          ILD          ILM          LLD          LLS         MSFL         NPHI          PEF         POTA         RHOB           SP         THOR         URAN
# ...
   2397.5569       9.0831       5.0249    -999.2500      78.1602      23.1389    -999.2500    -999.2500     530.8812     423.9667     304.3125       0.1429    -999.2500       0.0000       2.5878    -999.2500       1.2977       2.2948
   2397.7092       9.0830       5.7798    -999.2500      82.9826      24.4626    -999.2500    -999.2500     528.4055     413.8945     681.9363       0.1412    -999.2500       0.0010       2.5769    -999.2500       1.2999       2.3279
   2397.8616       9.0843       6.4441    -999.2500      87.1763      25.8529    -999.2500    -999.2500     506.6639     388.7362     978.6585       0.1380    -999.2500       0.0010       2.5699    -999.2500       1.2518       2.3796
   2398.0139       9.0902       7.0375    -999.2500      87.9609      28.4963    -999.2500    -999.2500     432.9941     326.1002     817.4481       0.1331    -999.2500       0.0015       2.5856    -999.2500       1.1220       2.6222
   2398.1663       9.0990       7.1873    -999.2500      87.7977      30.5049    -999.2500    -999.2500     350.9893     258.2517     546.4802       0.1299    -999.2500       0.0020       2.6038    -999.2500       0.9522       2.8496
   2398.3188       9.1137       5.4158    -999.2500      87.5252      28.1111    -999.2500    -999.2500     294.9378     212.7690     340.3102       0.1325    -999.2500       0.0020       2.6051    -999.2500       0.6977       2.7740
   2398.4712       9.1276       3.3141    -999.2500      87.1352      24.8347    -999.2500    -999.2500     268.1885     186.0010     185.6405       0.1375    -999.2500       0.0010       2.6005    -999.2500       0.4279       2.6300
   2398.6235       9.1239       1.7160    -999.2500      86.1957      21.9877    -999.2500    -999.2500     378.6939     239.6123     248.0737       0.1418    -999.2500       0.0006       2.5838    -999.2500       0.1772       2.4780
   2398.7759       9.1204       0.3572    -999.2500      85.0587      19.5541    -999.2500    -999.2500     522.0601     302.9728     333.0226       0.1454    -999.2500       0.0000       2.5668    -999.2500      -0.0412       2.3465
   2398.9285       9.1243      -0.5055    -999.2500      83.5853      18.2203    -999.2500    -999.2500     696.2398     353.7062     371.5355       0.1485    -999.2500       0.0000       2.5518    -999.2500      -0.1654       2.2892
   2399.0808       9.1318      -1.1378    -999.2500      81.9552      17.3518    -999.2500    -999.2500     874.2698     397.9537     385.8445       0.1495    -999.2500       0.0000       2.5396    -999.2500      -0.2453       2.2599
   2399.2332       9.1465      -0.4907    -999.2500      79.4530      18.5777    -999.2500    -999.2500     958.8546     399.1336     235.9322       0.1454    -999.2500       0.0000       2.5499    -999.2500      -0.0727       2.3303
   2399.3855       9.1565      -0.1076    -999.2500      77.2515      19.3264    -999.2500    -999.2500    1032.7690     400.5635     201.6100       0.1410    -999.2500       0.0000       2.5611    -999.2500       0.0803       2.3750
   2399.5381       9.1529      -0.6754    -999.2500      76.0470      18.3878    -999.2500    -999.2500    1090.8705     409.4307     522.2509       0.1391    -999.2500      -0.0007       2.5694    -999.2500       0.1376       2.3299
   2399.6904       9.1444      -1.4320    -999.2500      75.2355      17.0761    -999.2500    -999.2500    1133.3735     417.4932     933.6167       0.1381    -999.2500      -0.0010       2.5767    -999.2500       0.1667       2.2618
   2399.8428       9.1335       0.6973    -999.2500      75.4740      20.0945    -999.2500    -999.2500     964.6383     355.6203     691.9076       0.1354    -999.2500       0.0002       2.5898    -999.2500       0.2928       2.3708
   2399.9951       9.1310       2.2607    -999.2500      75.3901      22.2510    -999.2500    -999.2500     783.3621     289.2401     447.2738       0.1325    -999.2500       0.0010       2.6025    -999.2500       0.3565       2.4469
   2400.1475       9.1559       1.6417    -999.2500      74.1518      21.0935    -999.2500    -999.2500     592.2568     218.4865     284.8826       0.1310    -999.2500       0.0004       2.6128    -999.2500       0.2101       2.3978
   2400.3000       9.2099       0.3418    -999.2500      71.5332      19.2638    -999.2500    -999.2500     425.4299     156.5067     158.3701       0.1327    -999.2500       0.0000       2.6168    -999.2500       0.0091       2.3509
   2400.4524       9.3911      -0.8810    -999.2500      62.5404      19.8575    -999.2500    -999.2500     434.3545     159.7099      94.7598       0.1401    -999.2500      -0.0010       2.5868    -999.2500      -0.1109       2.5713
   2400.6047       9.5448      -2.0163    -999.2500      54.2543      20.5287    -999.2500    -999.2500     526.8890     190.4238      66.0869       0.1487    -999.2500      -0.0010       2.5569    -999.2500      -0.2170       2.7857
   2400.7571       9.4954      -2.8294    -999.2500      53.2497      19.9210    -999.2500    -999.2500     859.6801     295.2799     144.8326       0.1543    -999.2500      -0.0010       2.5456    -999.2500      -0.3131       2.7960
   2400.9097       9.4045      -2.5489    -999.2500      54.6585      20.2605    -999.2500    -999.2500    1150.6125     390.4880     268.7313       0.1541    -999.2500      -0.0010       2.5472    -999.2500      -0.2885       2.7901
   2401.0620       9.3306       1.5455    -999.2500      58.9060      25.2200    -999.2500    -999.2500    1082.4323     387.0861     470.6313       0.1453    -999.2500       0.0008       2.5784    -999.2500       0.1760       2.8934
   2401.2144       9.2627       6.2909    -999.2500      63.4742      30.9785    -999.2500    -999.2500     904.2743     349.3955     649.1519       0.1345    -999.2500       0.0020       2.6141    -999.2500       0.7187       3.0174
   2401.3667       9.2175       8.2424    -999.2500      64.6115      33.4349    -999.2500    -999.2500     592.7082     241.7014     470.9285       0.1291    -999.2500       0.0024       2.6136    -999.2500       0.9544       3.0791
   2401.5193       9.1748       9.2178    -999.2500      65.2113      34.6449    -999.2500    -999.2500     316.0241     142.7946     272.7482       0.1306    -999.2500       0.0030       2.6052    -999.2500       1.0954       3.1080
   2401.6716       9.1321       8.2794    -999.2500      65.4158      33.3145    -999.2500    -999.2500     191.2558      95.1882     142.7139       0.1401    -999.2500       0.0022       2.5851    -999.2500       1.0630       3.0602
   2401.8240       9.0905       6.6926    -999.2500      65.4912      31.1181    -999.2500    -999.2500     117.6859      64.9541      36.0058       0.1576    -999.2500       0.0010       2.5606    -999.2500       0.9697       2.9854
   2401.9763       9.2051       4.9914    -999.2500      65.6624      28.3975    -999.2500    -999.2500     127.6192      71.7112      29.6136       0.1832    -999.2500       0.0010       2.5336    -999.2500       0.6402       2.8608
   2402.1287       9.3115       3.4907    -999.2500      66.0355      26.0119    -999.2500    -999.2500     151.7442      85.5249      30.4334       0.1992    -999.2500       0.0010       2.5228    -999.2500       0.3444       2.7525
   2402.2812       9.3941       2.6011    -999.2500      66.9890      24.6421    -999.2500    -999.2500     216.5884     119.5533      52.1544       0.1916    -999.2500       0.0010       2.5613    -999.2500       0.1484       2.6941
   2402.4336       9.4586       1.9430    -999.2500      68.9114      23.6625    -999.2500    -999.2500     286.4885     156.0118      82.2548       0.1669    -999.2500       0.0010       2.6171    -999.2500      -0.0030       2.6544
   2402.5859       9.4206       1.5590    -999.2500      78.7880      23.1687    -999.2500    -999.2500     267.0619     147.3058     126.1151       0.1326    -999.2500       0.0010       2.6688    -999.2500      -0.0473       2.6410
   2402.7383       9.3727       1.5014    -999.2500      87.6997      23.1524    -999.2500    -999.2500     245.9407     136.3652     155.8864       0.1058    -999.2500       0.0010       2.7063    -999.2500      -0.0591       2.6459
