#------------------------------------------------------------------------------
#
#   Created by  : [OpenWorks] Log Export Utility (LEXP)
#   Created on  : 2016-05-11 12:13:43
#   Project     : CANT971
#   User        : R5K
#   Interpreter : PEP
#
#------------------------------------------------------------------------------
~VERSION INFORMATION
VERS. 2.0 : CWLS Log ASCII Standard - version 2.0
WRAP.  NO : One line per depth step
~WELL INFORMATION
#MNEMONIC   .UNIT                                           VALUE :DESCRIPTION
#------------------------------------------------------------------------------
STRT        .M                                           706.6788 :START DEPTH
STOP        .M                                          3003.8040 :STOP DEPTH
STEP        .M                                             0.1524 :STEP
NULL        .                                           -999.2500 :NULL VALUE
COMP        .                                   PEMEX EXPL & PROD :COMPANY
WELL        .                                                 95D :WELL
FLD         .                                           CANTARELL :FIELD
LOC         .                                             UNKNOWN :LOCATION
CNTY        .                                      CD. DEL CARMEN :COUNTY
STAT        .                                            CAMPECHE :STATE
CTRY        .                                              MEXICO :COUNTRY
SRVC        .                                             UNKNOWN :SERVICE COMPANY
DATE        .                                             UNKNOWN :LOG DATE
UWI         .                                          3060000607 :UNIQUE WELL ID
XCOORD      .                                       601395.340000 :SURFACE X
YCOORD      .                                      2149877.570000 :SURFACE Y
LAT         .                                           19.441878 :LATITUDE
LON         .                                          -92.034095 :LONGITUDE
ELEV        .M                                            28.0000 :SURFACE ELEV
ELEV_TYPE   .                                                  KB :ELEV TYPE
~CURVE INFORMATION
#MNEMONIC.UNIT        API CODE       : CURVE DESCRIPTION
#------------------------------------------------------------------------------
DEPTH    .M                          : Measured Depth
CALI     .inches      UNKNOWN        : CALI:registros:rC:NONE:v0 (auto-composite)
CGR      .API         UNKNOWN        : CGR:registros:rC:NONE:v0 (auto-composite)
DRHO     .g/cm3       UNKNOWN        : DRHO:registros:rC:NONE:v0 (auto-composite)
DT       .us/ft       UNKNOWN        : DT:registros:rC:NONE:v0 (auto-composite)
GR       .API         UNKNOWN        : GR:registros:rC:NONE:v0 (auto-composite)
ILD      .ohm.m       UNKNOWN        : ILD:registros:rC:NONE:v0 (auto-composite)
ILM      .ohm.m       UNKNOWN        : ILM:registros:rC:NONE:v0 (auto-composite)
LLD      .ohm.m       UNKNOWN        : LLD:registros:rC:NONE:v0 (auto-composite)
LLS      .ohm.m       UNKNOWN        : LLS:registros:rC:NONE:v0 (auto-composite)
MSFL     .ohm.m       UNKNOWN        : MSFL:registros:rC:NONE:v0 (auto-composite)
NPHI     .UNKNOWN     UNKNOWN        : NPHI:registros:rC:NONE:v0 (auto-composite)
PEF      .UNKNOWN     UNKNOWN        : PEF:registros:rC:NONE:v0 (auto-composite)
POTA     .UNKNOWN     UNKNOWN        : POTA:registros:rC:NONE:v0 (auto-composite)
RHOB     .g/cm3       UNKNOWN        : RHOB:registros:rC:NONE:v0 (auto-composite)
SP       .mV          UNKNOWN        : SP:registros:rC:NONE:v0 (auto-composite)
THOR     .ppm         UNKNOWN        : THOR:registros:rC:NONE:v0 (auto-composite)
URAN     .ppm         UNKNOWN        : URAN:registros:rC:NONE:v0 (auto-composite)
~A     DEPTH         CALI          CGR         DRHO           DT           GR          ILD          ILM          LLD          LLS         MSFL         NPHI          PEF         POTA         RHOB           SP         THOR         URAN
# ...
   2520.2388       9.2250       5.9999    -999.2500      67.2154      34.0482    -999.2500    -999.2500     112.9687      48.2028     106.2755       0.1267    -999.2500       0.0023       2.6140    -999.2500       0.5951       3.4216
   2520.3911       9.2280       9.8081    -999.2500      66.3783      39.5241    -999.2500    -999.2500      95.1676      42.4558      74.6262       0.1171    -999.2500       0.0036       2.5996    -999.2500       0.9425       3.6313
   2520.5435       9.2498      10.7373    -999.2500      61.7444      40.8517    -999.2500    -999.2500      90.9440      41.1537      66.6964       0.1019    -999.2500       0.0040       2.5968    -999.2500       1.0269       3.6809
   2520.6960       9.2780      10.6860    -999.2500      55.8450      40.7670    -999.2500    -999.2500      91.3400      41.3650      66.8400       0.0874    -999.2500       0.0040       2.5980    -999.2500       1.0220       3.6770
   2520.8484       9.2768       9.0325    -999.2500      55.9102      38.0187    -999.2500    -999.2500     117.8832      56.7590     103.1007       0.0874    -999.2500       0.0038       2.6596    -999.2500       0.8647       3.5430
   2521.0007       9.2708       6.6586    -999.2500      56.3528      33.9194    -999.2500    -999.2500     131.8177      65.6431     131.9782       0.0881    -999.2500       0.0026       2.7050    -999.2500       0.6037       3.3326
   2521.1531       9.2504       2.1640    -999.2500      57.9121      25.8447    -999.2500    -999.2500     108.6504      55.3696     139.1239       0.0835    -999.2500       0.0014       2.7033    -999.2500       0.0383       2.8945
   2521.3057       9.2239      -2.1338    -999.2500      60.0301      18.1865    -999.2500    -999.2500      76.6666      40.3788     138.9408       0.0777    -999.2500       0.0001       2.6902    -999.2500      -0.5205       2.4333
   2521.4580       9.1863       1.0304    -999.2500      63.7284      24.9078    -999.2500    -999.2500      73.3901      38.8457     137.5766       0.0764    -999.2500       0.0000       2.7118    -999.2500      -0.1898       2.4013
   2521.6104       9.1549       4.2469    -999.2500      68.8730      31.7569    -999.2500    -999.2500      73.6021      38.9584     134.4840       0.0777    -999.2500       0.0003       2.7328    -999.2500       0.1603       2.5066
   2521.7627       9.1480       4.4773    -999.2500      78.7097      32.9462    -999.2500    -999.2500      74.5432      39.4540     125.4689       0.0823    -999.2500       0.0010       2.7365    -999.2500       0.2078       2.9357
   2521.9153       9.1577       4.0651    -999.2500      89.8274      32.7972    -999.2500    -999.2500     116.1030      58.0539     109.5244       0.0944    -999.2500       0.0017       2.7338    -999.2500       0.1823       3.3821
   2522.0676       9.2092       4.3097    -999.2500     101.1351      33.3747    -999.2500    -999.2500     335.4618     155.8332      70.0205       0.1213    -999.2500       0.0020       2.7205    -999.2500       0.1896       3.5229
   2522.2200       9.2623       4.6502    -999.2500     111.0291      33.9056    -999.2500    -999.2500     562.1382     256.8621      30.9899       0.1475    -999.2500       0.0020       2.7009    -999.2500       0.1927       3.5841
   2522.3723       9.2672       4.6731    -999.2500     112.0403      33.1488    -999.2500    -999.2500     589.1908     268.9465      27.1879       0.1546    -999.2500       0.0020       2.6587    -999.2500       0.1330       3.5727
   2522.5247       9.2492       4.5038    -999.2500     109.4412      32.3897    -999.2500    -999.2500     561.3128     259.5354     130.8885       0.1532    -999.2500       0.0020       2.6267    -999.2500       0.0803       3.5564
   2522.6772       9.1851       3.8897    -999.2500      99.9467      32.2441    -999.2500    -999.2500     458.7045     226.1272     553.0012       0.1475    -999.2500       0.0020       2.6412    -999.2500       0.0808       3.5581
   2522.8296       9.1105       3.1713    -999.2500      88.2576      32.2868    -999.2500    -999.2500     338.9435     186.4573    1027.7520       0.1387    -999.2500       0.0020       2.6701    -999.2500       0.0970       3.5650
   2522.9819       9.1003       3.1074    -999.2500      75.6623      32.2626    -999.2500    -999.2500     336.3048     169.8540     608.8907       0.1236    -999.2500       0.0020       2.6707    -999.2500       0.0964       3.5647
   2523.1343       9.0945       2.9387    -999.2500      66.0800      32.0598    -999.2500    -999.2500     338.5563     157.1885     242.5298       0.1076    -999.2500       0.0020       2.6660    -999.2500       0.0825       3.5595
   2523.2869       9.0930       2.3809    -999.2500      65.2009      31.3557    -999.2500    -999.2500     338.7221     152.6147     148.8148       0.0930    -999.2500       0.0013       2.6512    -999.2500       0.0362       3.5413
   2523.4392       9.0930       1.5871    -999.2500      66.9708      30.2584    -999.2500    -999.2500     337.3028     150.4280     149.9748       0.0815    -999.2500       0.0010       2.6329    -999.2500      -0.0304       3.5097
   2523.5916       9.0943      -1.0488    -999.2500      62.6413      25.1482    -999.2500    -999.2500     320.1481     140.8084     164.0654       0.0801    -999.2500      -0.0002       2.6089    -999.2500      -0.2550       3.3366
   2523.7439       9.0968      -3.5005    -999.2500      60.3939      21.6692    -999.2500    -999.2500     289.4589     126.1057     187.8641       0.0870    -999.2500      -0.0010       2.5894    -999.2500      -0.4724       3.1975
   2523.8965       9.0998      -5.0529    -999.2500      65.7843      24.0722    -999.2500    -999.2500     218.2390      96.4362     240.4604       0.1063    -999.2500      -0.0016       2.5856    -999.2500      -0.6410       3.1946
   2524.0488       9.1051      -6.7375    -999.2500      72.5374      27.7571    -999.2500    -999.2500     145.1162      66.4961     294.0207       0.1257    -999.2500      -0.0020       2.5893    -999.2500      -0.8761       3.3619
   2524.2012       9.1235     -10.8435    -999.2500      73.4115      28.2047    -999.2500    -999.2500     134.8961      62.3133     300.6140       0.1296    -999.2500      -0.0030       2.6137    -999.2500      -1.5878       4.2767
   2524.3535       9.1595     -15.4051    -999.2500      72.6185      27.6671    -999.2500    -999.2500     139.9685      64.5299     295.2630       0.1283    -999.2500      -0.0033       2.6365    -999.2500      -2.2949       5.1883
   2524.5059       9.2682     -20.2239    -999.2500      68.7130      25.1180    -999.2500    -999.2500     167.0538      76.3643     271.1411       0.1282    -999.2500      -0.0049       2.6405    -999.2500      -2.6336       5.5412
   2524.6584       9.3365     -24.2146    -999.2500      64.9383      22.6658    -999.2500    -999.2500     188.6596      86.1221     234.1607       0.1314    -999.2500      -0.0067       2.6338    -999.2500      -2.8439       5.7295
   2524.8108       9.2019     -24.9666    -999.2500      64.1409      22.1863    -999.2500    -999.2500     172.5031      80.5409     165.1989       0.1410    -999.2500      -0.0070       2.6046    -999.2500      -2.8807       5.7626
   2524.9631       9.0294     -24.5857    -999.2500      64.2220      22.3518    -999.2500    -999.2500     149.2892      71.8097      94.8614       0.1510    -999.2500      -0.0069       2.5736    -999.2500      -2.8520       5.7282
   2525.1155       9.0120     -21.8944    -999.2500      64.9948      23.5237    -999.2500    -999.2500     153.1168      71.5646      87.8688       0.1530    -999.2500      -0.0060       2.5713    -999.2500      -2.6472       5.4565
   2525.2681       9.0131     -19.1122    -999.2500      65.5611      24.8224    -999.2500    -999.2500     158.2270      71.9376      88.4162       0.1504    -999.2500      -0.0049       2.5760    -999.2500      -2.4513       5.2180
   2525.4204       9.0179     -16.8233    -999.2500      65.2959      26.1643    -999.2500    -999.2500     158.2354      71.3460      90.4774       0.1432    -999.2500      -0.0016       2.5924    -999.2500      -2.3387       5.1588
