#------------------------------------------------------------------------------
#
#   Created by  : [OpenWorks] Log Export Utility (LEXP)
#   Created on  : 2016-05-11 12:13:43
#   Project     : CANT971
#   User        : R5K
#   Interpreter : PEP
#
#------------------------------------------------------------------------------
~VERSION INFORMATION
VERS. 2.0 : CWLS Log ASCII Standard - version 2.0
WRAP.  NO : One line per depth step
~WELL INFORMATION
#MNEMONIC   .UNIT                                           VALUE :DESCRIPTION
#------------------------------------------------------------------------------
STRT        .M                                           706.6788 :START DEPTH
STOP        .M                                          3003.8040 :STOP DEPTH
STEP        .M                                             0.1524 :STEP
NULL        .                                           -999.2500 :NULL VALUE
COMP        .                                   PEMEX EXPL & PROD :COMPANY
WELL        .                                                 95D :WELL
FLD         .                                           CANTARELL :FIELD
LOC         .                                             UNKNOWN :LOCATION
CNTY        .                                      CD. DEL CARMEN :COUNTY
STAT        .                                            CAMPECHE :STATE
CTRY        .                                              MEXICO :COUNTRY
SRVC        .                                             UNKNOWN :SERVICE COMPANY
DATE        .                                             UNKNOWN :LOG DATE
UWI         .                                          3060000607 :UNIQUE WELL ID
XCOORD      .                                       601395.340000 :SURFACE X
YCOORD      .                                      2149877.570000 :SURFACE Y
LAT         .                                           19.441878 :LATITUDE
LON         .                                          -92.034095 :LONGITUDE
ELEV        .M                                            28.0000 :SURFACE ELEV
ELEV_TYPE   .                                                  KB :ELEV TYPE
~CURVE INFORMATION
#MNEMONIC.UNIT        API CODE       : CURVE DESCRIPTION
#------------------------------------------------------------------------------
DEPTH    .M                          : Measured Depth
CALI     .inches      UNKNOWN        : CALI:registros:rC:NONE:v0 (auto-composite)
CGR      .API         UNKNOWN        : CGR:registros:rC:NONE:v0 (auto-composite)
DRHO     .g/cm3       UNKNOWN        : DRHO:registros:rC:NONE:v0 (auto-composite)
DT       .us/ft       UNKNOWN        : DT:registros:rC:NONE:v0 (auto-composite)
GR       .API         UNKNOWN        : GR:registros:rC:NONE:v0 (auto-composite)
ILD      .ohm.m       UNKNOWN        : ILD:registros:rC:NONE:v0 (auto-composite)
ILM      .ohm.m       UNKNOWN        : ILM:registros:rC:NONE:v0 (auto-composite)
LLD      .ohm.m       UNKNOWN        : LLD:registros:rC:NONE:v0 (auto-composite)
LLS      .ohm.m       UNKNOWN        : LLS:registros:rC:NONE:v0 (auto-composite)
MSFL     .ohm.m       UNKNOWN        : MSFL:registros:rC:NONE:v0 (auto-composite)
NPHI     .UNKNOWN     UNKNOWN        : NPHI:registros:rC:NONE:v0 (auto-composite)
PEF      .UNKNOWN     UNKNOWN        : PEF:registros:rC:NONE:v0 (auto-composite)
POTA     .UNKNOWN     UNKNOWN        : POTA:registros:rC:NONE:v0 (auto-composite)
RHOB     .g/cm3       UNKNOWN        : RHOB:registros:rC:NONE:v0 (auto-composite)
SP       .mV          UNKNOWN        : SP:registros:rC:NONE:v0 (auto-composite)
THOR     .ppm         UNKNOWN        : THOR:registros:rC:NONE:v0 (auto-composite)
URAN     .ppm         UNKNOWN        : URAN:registros:rC:NONE:v0 (auto-composite)
~A     DEPTH         CALI          CGR         DRHO           DT           GR          ILD          ILM          LLD          LLS         MSFL         NPHI          PEF         POTA         RHOB           SP         THOR         URAN
# ...
   2338.8828       9.1905       2.4908    -999.2500      69.2026      21.8770    -999.2500    -999.2500     245.2183     128.2243     896.7282       0.1086    -999.2500       0.0005       2.6498    -999.2500       0.2715       2.3469
   2339.0352       9.0681       3.7913    -999.2500      73.1498      24.0280    -999.2500    -999.2500     209.6801     104.5680     208.8944       0.1148    -999.2500       0.0010       2.6257    -999.2500       0.4562       2.4359
   2339.1875       9.1692       3.7814    -999.2500      73.7928      24.2286    -999.2500    -999.2500     222.0594     105.9010     103.4893       0.1197    -999.2500       0.0010       2.6265    -999.2500       0.4708       2.4772
   2339.3401       9.3048       3.4332    -999.2500      73.3420      23.9091    -999.2500    -999.2500     246.5696     114.1436     146.1239       0.1229    -999.2500       0.0010       2.6352    -999.2500       0.4391       2.5030
   2339.4924       9.2597       3.0878    -999.2500      70.9736      23.4459    -999.2500    -999.2500     269.3428     126.0747     172.2030       0.1170    -999.2500       0.0010       2.6542    -999.2500       0.3880       2.4930
   2339.6448       9.1984       2.9047    -999.2500      68.5808      23.1286    -999.2500    -999.2500     283.6084     134.7017     246.3508       0.1097    -999.2500       0.0010       2.6732    -999.2500       0.3379       2.4778
   2339.7971       9.1576       3.2028    -999.2500      66.8204      23.2951    -999.2500    -999.2500     273.3129     132.1474     469.2252       0.1024    -999.2500       0.0010       2.6870    -999.2500       0.2979       2.4592
   2339.9495       9.1260       3.6495    -999.2500      65.3338      23.6158    -999.2500    -999.2500     254.2945     125.5743     731.2911       0.0950    -999.2500       0.0010       2.6993    -999.2500       0.2621       2.4402
   2340.1021       9.2433       3.5586    -999.2500      67.6088      23.6039    -999.2500    -999.2500     197.9493      99.2711     435.2961       0.0878    -999.2500       0.0010       2.7154    -999.2500       0.2699       2.4499
   2340.2544       9.3450       3.4446    -999.2500      69.8928      23.6909    -999.2500    -999.2500     147.6379      75.7657     214.0291       0.0795    -999.2500       0.0010       2.7269    -999.2500       0.2820       2.4744
   2340.4067       9.3990       3.2873    -999.2500      72.0444      24.0757    -999.2500    -999.2500     116.1460      61.0770     229.4322       0.0679    -999.2500       0.0010       2.7233    -999.2500       0.3012       2.5408
   2340.5591       9.4350       3.0984    -999.2500      73.9672      24.5442    -999.2500    -999.2500      92.9928      50.3027     306.6337       0.0569    -999.2500       0.0010       2.7129    -999.2500       0.3259       2.6221
   2340.7117       9.4569       2.7155    -999.2500      73.9174      24.8185    -999.2500    -999.2500      91.3492      49.6996     174.9300       0.0610    -999.2500       0.0009       2.6897    -999.2500       0.3861       2.7117
   2340.8640       9.4586       1.9840    -999.2500      72.7706      24.5241    -999.2500    -999.2500      97.3557      52.9603      54.8253       0.0708    -999.2500       0.0000       2.6686    -999.2500       0.3681       2.7713
   2341.0164       9.3985       0.1074    -999.2500      68.4458      22.3222    -999.2500    -999.2500     123.2538      66.4804      39.0397       0.0929    -999.2500       0.0000       2.6587    -999.2500       0.0687       2.7250
   2341.1687       9.3243      -1.6584    -999.2500      63.5430      20.2020    -999.2500    -999.2500     158.2108      84.6074      55.4439       0.1129    -999.2500       0.0000       2.6537    -999.2500      -0.2474       2.6730
   2341.3213       9.2730      -1.2940    -999.2500      60.2140      21.1310    -999.2500    -999.2500     209.4200     110.8000      82.0550       0.1075    -999.2500       0.0000       2.6580    -999.2500      -0.2550       2.7410
   2341.4736       9.2380      -0.6254    -999.2500      58.0676      22.3884    -999.2500    -999.2500     265.7651     138.9012     118.8388       0.0959    -999.2500       0.0000       2.6636    -999.2500      -0.2337       2.8134
   2341.6260       9.2681      -0.5497    -999.2500      60.2936      22.2683    -999.2500    -999.2500     335.5514     170.3580     200.2243       0.0821    -999.2500       0.0004       2.6669    -999.2500      -0.3749       2.7889
   2341.7783       9.2860      -0.4614    -999.2500      61.8383      22.1494    -999.2500    -999.2500     399.4254     198.0904     319.9367       0.0697    -999.2500       0.0010       2.6713    -999.2500      -0.5045       2.7631
   2341.9307       9.2215       0.0310    -999.2500      58.4216      22.8850    -999.2500    -999.2500     435.5034     211.4251     540.3136       0.0635    -999.2500       0.0019       2.6808    -999.2500      -0.4927       2.7931
   2342.0833       9.1407       0.7168    -999.2500      54.1030      23.9815    -999.2500    -999.2500     457.3325     218.0655     780.2903       0.0604    -999.2500       0.0020       2.6905    -999.2500      -0.4262       2.8435
   2342.2356       9.1663       2.3417    -999.2500      57.0574      26.4566    -999.2500    -999.2500     401.2932     193.2593     888.5818       0.0673    -999.2500       0.0020       2.6825    -999.2500      -0.1786       2.9472
   2342.3879       9.1950       3.8422    -999.2500      59.7732      28.8088    -999.2500    -999.2500     343.4558     167.9695     891.9438       0.0768    -999.2500       0.0020       2.6717    -999.2500       0.0682       3.0487
   2342.5403       9.2107       4.7784    -999.2500      60.2713      30.5037    -999.2500    -999.2500     297.4406     148.1536     621.0946       0.0901    -999.2500       0.0020       2.6588    -999.2500       0.2703       3.1321
   2342.6929       9.2217       5.4839    -999.2500      60.0904      31.9127    -999.2500    -999.2500     255.7075     130.3176     264.0083       0.1046    -999.2500       0.0020       2.6434    -999.2500       0.4549       3.2070
   2342.8452       9.2327       5.1888    -999.2500      62.5477      31.6437    -999.2500    -999.2500     219.7951     115.0426     151.3288       0.1157    -999.2500       0.0018       2.6134    -999.2500       0.5622       3.2280
   2342.9976       9.2254       4.9102    -999.2500      65.1994      31.4041    -999.2500    -999.2500     191.5427     103.3731     104.3594       0.1255    -999.2500       0.0010       2.5833    -999.2500       0.6678       3.2467
   2343.1499       9.1641       4.7668    -999.2500      68.2149      31.3998    -999.2500    -999.2500     186.0843     102.4444     236.3640       0.1321    -999.2500       0.0010       2.5546    -999.2500       0.7714       3.2625
   2343.3025       9.0953       4.5092    -999.2500      71.1197      31.2660    -999.2500    -999.2500     189.3770     105.7957     386.8591       0.1373    -999.2500       0.0010       2.5300    -999.2500       0.8300       3.2721
   2343.4548       9.0913       3.1411    -999.2500      72.4129      29.6869    -999.2500    -999.2500     202.4961     114.8749     260.3009       0.1418    -999.2500       0.0009       2.5302    -999.2500       0.5747       3.2453
   2343.6072       9.0999       1.7244    -999.2500      73.1490      27.9546    -999.2500    -999.2500     213.7453     122.5872     132.9769       0.1456    -999.2500       0.0000       2.5386    -999.2500       0.2836       3.2056
   2343.7595       9.1190       0.7253    -999.2500      72.5438      26.4044    -999.2500    -999.2500     212.0239     121.6287     156.3617       0.1474    -999.2500       0.0000       2.5660    -999.2500       0.0223       3.1384
   2343.9119       9.1374       0.1430    -999.2500      71.9870      25.3531    -999.2500    -999.2500     206.5551     118.1516     227.8971       0.1444    -999.2500       0.0000       2.6028    -999.2500      -0.1835       3.0814
   2344.0645       9.1391       0.8330    -999.2500      72.9353      26.1430    -999.2500    -999.2500     198.8229     113.1065     344.3959       0.1268    -999.2500       0.0009       2.6590    -999.2500      -0.1901       3.0935
