#------------------------------------------------------------------------------
#
#   Created by  : [OpenWorks] Log Export Utility (LEXP)
#   Created on  : 2016-05-11 12:13:43
#   Project     : CANT971
#   User        : R5K
#   Interpreter : PEP
#
#------------------------------------------------------------------------------
~VERSION INFORMATION
VERS. 2.0 : CWLS Log ASCII Standard - version 2.0
WRAP.  NO : One line per depth step
~WELL INFORMATION
#MNEMONIC   .UNIT                                           VALUE :DESCRIPTION
#------------------------------------------------------------------------------
STRT        .M                                           706.6788 :START DEPTH
STOP        .M                                          3003.8040 :STOP DEPTH
STEP        .M                                             0.1524 :STEP
NULL        .                                           -999.2500 :NULL VALUE
COMP        .                                   PEMEX EXPL & PROD :COMPANY
WELL        .                                                 95D :WELL
FLD         .                                           CANTARELL :FIELD
LOC         .                                             UNKNOWN :LOCATION
CNTY        .                                      CD. DEL CARMEN :COUNTY
STAT        .                                            CAMPECHE :STATE
CTRY        .                                              MEXICO :COUNTRY
SRVC        .                                             UNKNOWN :SERVICE COMPANY
DATE        .                                             UNKNOWN :LOG DATE
UWI         .                                          3060000607 :UNIQUE WELL ID
XCOORD      .                                       601395.340000 :SURFACE X
YCOORD      .                                      2149877.570000 :SURFACE Y
LAT         .                                           19.441878 :LATITUDE
LON         .                                          -92.034095 :LONGITUDE
ELEV        .M                                            28.0000 :SURFACE ELEV
ELEV_TYPE   .                                                  KB :ELEV TYPE
~CURVE INFORMATION
#MNEMONIC.UNIT        API CODE       : CURVE DESCRIPTION
#------------------------------------------------------------------------------
DEPTH    .M                          : Measured Depth
CALI     .inches      UNKNOWN        : CALI:registros:rC:NONE:v0 (auto-composite)
CGR      .API         UNKNOWN        : CGR:registros:rC:NONE:v0 (auto-composite)
DRHO     .g/cm3       UNKNOWN        : DRHO:registros:rC:NONE:v0 (auto-composite)
DT       .us/ft       UNKNOWN        : DT:registros:rC:NONE:v0 (auto-composite)
GR       .API         UNKNOWN        : GR:registros:rC:NONE:v0 (auto-composite)
ILD      .ohm.m       UNKNOWN        : ILD:registros:rC:NONE:v0 (auto-composite)
ILM      .ohm.m       UNKNOWN        : ILM:registros:rC:NONE:v0 (auto-composite)
LLD      .ohm.m       UNKNOWN        : LLD:registros:rC:NONE:v0 (auto-composite)
LLS      .ohm.m       UNKNOWN        : LLS:registros:rC:NONE:v0 (auto-composite)
MSFL     .ohm.m       UNKNOWN        : MSFL:registros:rC:NONE:v0 (auto-composite)
NPHI     .UNKNOWN     UNKNOWN        : NPHI:registros:rC:NONE:v0 (auto-composite)
PEF      .UNKNOWN     UNKNOWN        : PEF:registros:rC:NONE:v0 (auto-composite)
POTA     .UNKNOWN     UNKNOWN        : POTA:registros:rC:NONE:v0 (auto-composite)
RHOB     .g/cm3       UNKNOWN        : RHOB:registros:rC:NONE:v0 (auto-composite)
SP       .mV          UNKNOWN        : SP:registros:rC:NONE:v0 (auto-composite)
THOR     .ppm         UNKNOWN        : THOR:registros:rC:NONE:v0 (auto-composite)
URAN     .ppm         UNKNOWN        : URAN:registros:rC:NONE:v0 (auto-composite)
~A     DEPTH         CALI          CGR         DRHO           DT           GR          ILD          ILM          LLD          LLS         MSFL         NPHI          PEF         POTA         RHOB           SP         THOR         URAN
# ...
   2157.5269      21.9867      20.1889    -999.2500      87.5587      31.9076    -999.2500    -999.2500       8.7734       4.6652       5.2328       0.2220    -999.2500       0.0076       2.3950    -999.2500       1.6972       1.4323
   2157.6792      21.7903      22.8490    -999.2500      83.2569      36.4169    -999.2500    -999.2500       8.9479       4.7496       5.0293       0.2200    -999.2500       0.0080       2.3833    -999.2500       2.1996       1.6618
   2157.8315      21.2104      22.2344    -999.2500      78.8255      35.2938    -999.2500    -999.2500       8.9100       4.7515       4.7304       0.2212    -999.2500       0.0079       2.3885    -999.2500       2.1765       1.6363
   2157.9839      20.7557      21.6375    -999.2500      75.2262      34.0040    -999.2500    -999.2500       8.8656       4.7500       4.8580       0.2247    -999.2500       0.0070       2.3878    -999.2500       2.1278       1.5790
   2158.1365      20.9673      22.6845    -999.2500      74.8780      34.7779    -999.2500    -999.2500       8.8941       4.7759       6.6712       0.2305    -999.2500       0.0075       2.3555    -999.2500       2.2293       1.5258
   2158.2888      21.3741      23.8973    -999.2500      75.9364      35.6799    -999.2500    -999.2500       8.9248       4.8162       8.2099       0.2382    -999.2500       0.0080       2.3228    -999.2500       2.3695       1.4683
   2158.4412      21.8770      24.0344    -999.2500      79.4144      34.9015    -999.2500    -999.2500       8.8880       4.8870       6.8074       0.2482    -999.2500       0.0080       2.3227    -999.2500       2.5116       1.3892
   2158.5935      22.0856      24.1355    -999.2500      82.8196      34.0540    -999.2500    -999.2500       8.8608       4.9773       5.0136       0.2604    -999.2500       0.0070       2.3363    -999.2500       2.6731       1.3075
   2158.7461      20.2235      25.6417    -999.2500      82.0589      35.3170    -999.2500    -999.2500       8.9974       5.1470       5.1610       0.2752    -999.2500       0.0074       2.3906    -999.2500       2.9646       1.2420
   2158.8984      18.7489      26.6657    -999.2500      79.8511      35.8548    -999.2500    -999.2500       9.1925       5.3483       5.4923       0.2860    -999.2500       0.0080       2.4393    -999.2500       3.1936       1.1450
   2159.0508      19.4258      25.5505    -999.2500      75.0729      33.1773    -999.2500    -999.2500       9.4969       5.6125       5.5011       0.2867    -999.2500       0.0072       2.4485    -999.2500       3.1721       0.9394
   2159.2031      20.7280      23.9401    -999.2500      70.0691      29.7632    -999.2500    -999.2500       9.8182       5.8827       5.4029       0.2784    -999.2500       0.0060       2.4448    -999.2500       3.0871       0.7118
   2159.3555      20.6146      26.7388    -999.2500      79.1284      33.1552    -999.2500    -999.2500       9.7210       5.7982       5.1772       0.2590    -999.2500       0.0063       2.4387    -999.2500       3.3876       0.7843
   2159.5081      20.3441      28.9901    -999.2500      85.4203      35.8503    -999.2500    -999.2500       9.5627       5.6790       4.9282       0.2427    -999.2500       0.0070       2.4321    -999.2500       3.6170       0.8477
   2159.6604      19.7829      29.1592    -999.2500      82.2794      35.7646    -999.2500    -999.2500       9.2749       5.5000       4.6246       0.2388    -999.2500       0.0077       2.4248    -999.2500       3.5975       0.8535
   2159.8127      19.0505      28.6128    -999.2500      76.2673      34.7912    -999.2500    -999.2500       8.9309       5.2954       4.3756       0.2437    -999.2500       0.0080       2.4174    -999.2500       3.4923       0.8417
   2159.9651      17.2933      28.1779    -999.2500      75.9120      34.9551    -999.2500    -999.2500       8.4311       5.0183       5.2108       0.2551    -999.2500       0.0080       2.4227    -999.2500       3.3943       0.8628
   2160.1177      16.0896      27.7288    -999.2500      75.5092      35.1207    -999.2500    -999.2500       8.0474       4.7980       5.9105       0.2647    -999.2500       0.0080       2.4274    -999.2500       3.3169       0.8899
   2160.2700      16.8865      27.2102    -999.2500      73.7987      35.0613    -999.2500    -999.2500       8.0705       4.7755       5.9538       0.2661    -999.2500       0.0074       2.4274    -999.2500       3.3039       0.9300
   2160.4224      18.0717      26.8147    -999.2500      71.5489      35.0333    -999.2500    -999.2500       8.2397       4.8362       5.7669       0.2597    -999.2500       0.0070       2.4278    -999.2500       3.3084       0.9707
   2160.5747      18.0466      27.2303    -999.2500      68.5053      35.5585    -999.2500    -999.2500       8.5379       5.0280       5.3976       0.2448    -999.2500       0.0080       2.4382    -999.2500       3.2978       0.9995
   2160.7271      17.7688      27.6130    -999.2500      66.4321      35.9006    -999.2500    -999.2500       8.8666       5.2609       5.0134       0.2310    -999.2500       0.0080       2.4480    -999.2500       3.2761       1.0152
   2160.8796      17.2989      27.1848    -999.2500      69.5002      34.9431    -999.2500    -999.2500       9.2272       5.5792       4.7078       0.2272    -999.2500       0.0080       2.4466    -999.2500       3.2162       0.9795
   2161.0320      16.8159      26.8109    -999.2500      73.8360      34.0502    -999.2500    -999.2500       9.5267       5.8355       4.5093       0.2286    -999.2500       0.0080       2.4409    -999.2500       3.1520       0.9359
   2161.1843      16.4306      27.2330    -999.2500      78.8114      34.3564    -999.2500    -999.2500       9.5874       5.8132       4.6271       0.2313    -999.2500       0.0089       2.4273    -999.2500       3.1036       0.9016
   2161.3367      16.1449      27.7230    -999.2500      82.8135      34.8284    -999.2500    -999.2500       9.5206       5.6957       4.8349       0.2342    -999.2500       0.0090       2.4129    -999.2500       3.0571       0.8710
   2161.4893      16.5711      26.7534    -999.2500      75.7143      33.7138    -999.2500    -999.2500       8.8678       5.3979       5.0826       0.2368    -999.2500       0.0087       2.4127    -999.2500       2.9854       0.8509
   2161.6416      16.9553      26.0436    -999.2500      69.2164      33.0072    -999.2500    -999.2500       8.2068       5.0883       5.3510       0.2406    -999.2500       0.0080       2.4118    -999.2500       2.9589       0.8516
   2161.7939      17.0167      26.5023    -999.2500      67.7109      33.9352    -999.2500    -999.2500       7.6843       4.7948       5.6694       0.2468    -999.2500       0.0080       2.4022    -999.2500       3.0717       0.9089
   2161.9463      16.9700      27.3530    -999.2500      67.8900      35.4120    -999.2500    -999.2500       7.2110       4.5080       6.0030       0.2542    -999.2500       0.0080       2.3890    -999.2500       3.2310       0.9850
   2162.0989      16.7552      26.5732    -999.2500      67.3735      34.5374    -999.2500    -999.2500       7.1296       4.3625       5.3529       0.2613    -999.2500       0.0078       2.3892    -999.2500       3.1737       0.9739
   2162.2512      16.4444      25.7303    -999.2500      66.7905      33.4953    -999.2500    -999.2500       7.0172       4.2282       4.9450       0.2680    -999.2500       0.0070       2.3917    -999.2500       3.1022       0.9586
   2162.4036      15.8482      24.6938    -999.2500      66.0050      31.9523    -999.2500    -999.2500       6.8143       4.1267       5.2485       0.2749    -999.2500       0.0063       2.3992    -999.2500       2.9908       0.9346
   2162.5559      15.2900      23.4373    -999.2500      65.2405      30.4656    -999.2500    -999.2500       6.6093       4.0382       5.7379       0.2866    -999.2500       0.0060       2.4090    -999.2500       2.8373       0.9628
   2162.7083      15.9135      20.8141    -999.2500      65.2393      30.9618    -999.2500    -999.2500       6.6609       3.9614       5.7510       0.3093    -999.2500       0.0059       2.4220    -999.2500       2.4424       1.4841
