#------------------------------------------------------------------------------
#
#   Created by  : [OpenWorks] Log Export Utility (LEXP)
#   Created on  : 2016-05-11 12:13:43
#   Project     : CANT971
#   User        : R5K
#   Interpreter : PEP
#
#------------------------------------------------------------------------------
~VERSION INFORMATION
VERS. 2.0 : CWLS Log ASCII Standard - version 2.0
WRAP.  NO : One line per depth step
~WELL INFORMATION
#MNEMONIC   .UNIT                                           VALUE :DESCRIPTION
#------------------------------------------------------------------------------
STRT        .M                                           706.6788 :START DEPTH
STOP        .M                                          3003.8040 :STOP DEPTH
STEP        .M                                             0.1524 :STEP
NULL        .                                           -999.2500 :NULL VALUE
COMP        .                                   PEMEX EXPL & PROD :COMPANY
WELL        .                                                 95D :WELL
FLD         .                                           CANTARELL :FIELD
LOC         .                                             UNKNOWN :LOCATION
CNTY        .                                      CD. DEL CARMEN :COUNTY
STAT        .                                            CAMPECHE :STATE
CTRY        .                                              MEXICO :COUNTRY
SRVC        .                                             UNKNOWN :SERVICE COMPANY
DATE        .                                             UNKNOWN :LOG DATE
UWI         .                                          3060000607 :UNIQUE WELL ID
XCOORD      .                                       601395.340000 :SURFACE X
YCOORD      .                                      2149877.570000 :SURFACE Y
LAT         .                                           19.441878 :LATITUDE
LON         .                                          -92.034095 :LONGITUDE
ELEV        .M                                            28.0000 :SURFACE ELEV
ELEV_TYPE   .                                                  KB :ELEV TYPE
~CURVE INFORMATION
#MNEMONIC.UNIT        API CODE       : CURVE DESCRIPTION
#------------------------------------------------------------------------------
DEPTH    .M                          : Measured Depth
CALI     .inches      UNKNOWN        : CALI:registros:rC:NONE:v0 (auto-composite)
CGR      .API         UNKNOWN        : CGR:registros:rC:NONE:v0 (auto-composite)
DRHO     .g/cm3       UNKNOWN        : DRHO:registros:rC:NONE:v0 (auto-composite)
DT       .us/ft       UNKNOWN        : DT:registros:rC:NONE:v0 (auto-composite)
GR       .API         UNKNOWN        : GR:registros:rC:NONE:v0 (auto-composite)
ILD      .ohm.m       UNKNOWN        : ILD:registros:rC:NONE:v0 (auto-composite)
ILM      .ohm.m       UNKNOWN        : ILM:registros:rC:NONE:v0 (auto-composite)
LLD      .ohm.m       UNKNOWN        : LLD:registros:rC:NONE:v0 (auto-composite)
LLS      .ohm.m       UNKNOWN        : LLS:registros:rC:NONE:v0 (auto-composite)
MSFL     .ohm.m       UNKNOWN        : MSFL:registros:rC:NONE:v0 (auto-composite)
NPHI     .UNKNOWN     UNKNOWN        : NPHI:registros:rC:NONE:v0 (auto-composite)
PEF      .UNKNOWN     UNKNOWN        : PEF:registros:rC:NONE:v0 (auto-composite)
POTA     .UNKNOWN     UNKNOWN        : POTA:registros:rC:NONE:v0 (auto-composite)
RHOB     .g/cm3       UNKNOWN        : RHOB:registros:rC:NONE:v0 (auto-composite)
SP       .mV          UNKNOWN        : SP:registros:rC:NONE:v0 (auto-composite)
THOR     .ppm         UNKNOWN        : THOR:registros:rC:NONE:v0 (auto-composite)
URAN     .ppm         UNKNOWN        : URAN:registros:rC:NONE:v0 (auto-composite)
~A     DEPTH         CALI          CGR         DRHO           DT           GR          ILD          ILM          LLD          LLS         MSFL         NPHI          PEF         POTA         RHOB           SP         THOR         URAN
# ...
   2760.2688       6.6851       4.4195       0.0051      55.6826      42.2575    -999.2500    -999.2500     677.3312     297.7160     149.2884       0.1512       3.1421       0.0013       2.6182    -999.2500       0.0713       4.7335
   2760.4211       6.6908       0.8074       0.0052      55.0436      39.3775    -999.2500    -999.2500     706.0281     309.8830     105.7403       0.1443       3.0589       0.0000       2.6294    -999.2500      -0.1389       4.5837
   2760.5735       6.6970      -1.1480       0.0050      55.1570      35.9030    -999.2500    -999.2500     700.3540     307.2220      35.8120       0.1360       2.9170       0.0000       2.6280    -999.2500      -0.3930       4.4030
   2760.7261       6.7404      -2.6867       0.0001      56.1958      33.0093    -999.2500    -999.2500     627.1897     272.9942      37.1174       0.1270       2.9229       0.0000       2.5910    -999.2500      -0.7064       4.2416
   2760.8784       6.7838      -3.8799      -0.0039      57.2383      30.7517    -999.2500    -999.2500     569.6122     246.1284      41.2571       0.1195       2.9359       0.0000       2.5630    -999.2500      -0.9522       4.1153
   2761.0308       6.8265      -4.0879      -0.0050      58.3060      30.3065    -999.2500    -999.2500     556.4178     240.2308      53.6440       0.1155       2.9728       0.0000       2.5597    -999.2500      -1.0066       4.0867
   2761.1831       6.8674      -3.8565      -0.0050      59.3346      30.6180    -999.2500    -999.2500     560.1412     242.5775      68.4544       0.1132       3.0152       0.0000       2.5708    -999.2500      -0.9871       4.0960
   2761.3357       6.8942      -2.5368      -0.0017      59.8927      32.4009    -999.2500    -999.2500     583.2720     256.6791      79.4394       0.1115       3.0345       0.0010       2.6395    -999.2500      -0.8698       4.1513
   2761.4880       6.9195      -0.6433       0.0013      60.2811      34.9484    -999.2500    -999.2500     632.7445     279.4773      98.6826       0.1089       3.0559       0.0013       2.6989    -999.2500      -0.6973       4.2291
   2761.6404       6.9481       2.9080       0.0015      60.2345      39.6932    -999.2500    -999.2500     768.6526     329.0032     148.3735       0.1035       3.0921       0.0025       2.7094    -999.2500      -0.3596       4.3707
   2761.7927       6.9736       6.2237       0.0002      59.6646      44.0575    -999.2500    -999.2500     904.4060     385.0924     197.4820       0.0985       3.1354       0.0038       2.7011    -999.2500      -0.0453       4.4952
   2761.9451       6.9810       6.2520      -0.0040      57.1750      43.7360    -999.2500    -999.2500     925.3640     437.0800     203.6710       0.0974       3.1940       0.0040       2.6730    -999.2500      -0.0620       4.4540
   2762.0977       6.9832       5.7310      -0.0088      54.8896      42.9745    -999.2500    -999.2500     917.2645     480.2177     198.5587       0.0966       3.2462       0.0040       2.6462    -999.2500      -0.1300       4.3998
   2762.2500       6.9836       5.8322      -0.0137      55.4664      44.9111    -999.2500    -999.2500     879.7214     487.3537     179.7969       0.0926       3.2489       0.0040       2.6434    -999.2500      -0.1224       4.4493
   2762.4023       6.9779       6.3563      -0.0173      56.1059      46.8677    -999.2500    -999.2500     845.8804     488.8206     155.3947       0.0888       3.2351       0.0040       2.6466    -999.2500      -0.0663       4.5035
   2762.5547       6.9560       7.9054      -0.0171      55.2615      47.3191    -999.2500    -999.2500     841.2709     492.9011     120.3646       0.0879       3.1954       0.0049       2.6583    -999.2500       0.0996       4.5134
   2762.7073       6.9312       9.6359      -0.0163      54.0556      47.2938    -999.2500    -999.2500     848.0684     499.6939      84.6440       0.0883       3.1480       0.0050       2.6711    -999.2500       0.2856       4.5072
   2762.8596       6.9358       9.5639      -0.0050      54.0465      46.9403    -999.2500    -999.2500     892.0731     533.9344      84.6275       0.0882       3.1178       0.0050       2.6720    -999.2500       0.2753       4.4649
   2763.0120       6.9390       9.0734       0.0036      54.4880      46.0198    -999.2500    -999.2500     959.3402     582.6549      93.0561       0.0877       3.0563       0.0050       2.6684    -999.2500       0.2178       4.3948
   2763.1643       6.9291       7.7326       0.0028      55.9899      43.5282    -999.2500    -999.2500    1086.2668     667.6663     118.7478       0.0864       2.9026       0.0043       2.6546    -999.2500       0.0602       4.2535
   2763.3167       6.9155       6.1216      -0.0018      57.7874      40.5307    -999.2500    -999.2500    1244.9844     771.5585     159.5120       0.0845       2.7231       0.0040       2.6385    -999.2500      -0.1267       4.0886
   2763.4692       6.9187       5.0907      -0.0020      57.8398      38.4835    -999.2500    -999.2500    1673.1541    1028.2870     420.4143       0.0808       2.7276       0.0038       2.6417    -999.2500      -0.1919       3.9676
   2763.6216       6.9204       3.9831      -0.0008      57.8018      36.3403    -999.2500    -999.2500    2146.5359    1305.5182     631.4761       0.0757       2.7918       0.0030       2.6589    -999.2500      -0.2560       3.8445
   2763.7739       6.9125       2.5776       0.0047      57.6735      33.8018    -999.2500    -999.2500    2730.0737    1629.4220     665.6824       0.0685       3.0197       0.0024       2.7145    -999.2500      -0.3292       3.7104
   2763.9263       6.9040       1.0375       0.0103      57.4285      31.0644    -999.2500    -999.2500    3275.4753    1944.9353     630.0567       0.0618       3.2592       0.0020       2.7753    -999.2500      -0.4207       3.5684
   2764.0789       6.9125      -0.7590       0.0109      56.5981      27.8408    -999.2500    -999.2500    3328.6960    2104.0613     504.8177       0.0602       3.2152       0.0009       2.7799    -999.2500      -0.6133       3.3983
   2764.2312       6.9218      -1.9122       0.0097      55.4690      25.5898    -999.2500    -999.2500    3286.8362    2214.9585     369.2629       0.0604       3.1471       0.0000       2.7736    -999.2500      -0.7464       3.2681
   2764.3835       6.9235      -0.2581       0.0080      53.4599      27.6435    -999.2500    -999.2500    3148.1582    2220.7527     244.9441       0.0615       3.1499       0.0000       2.7512    -999.2500      -0.5734       3.3155
   2764.5359       6.9223       1.6322       0.0049      51.6355      30.0991    -999.2500    -999.2500    2977.4863    2165.0129     145.4723       0.0637       3.1416       0.0000       2.7229    -999.2500      -0.3727       3.3829
   2764.6885       6.9192       1.8038       0.0021      51.3343      30.0785    -999.2500    -999.2500    2772.2893    1966.5026     133.0354       0.0683       3.0242       0.0009       2.6871    -999.2500      -0.3479       3.3596
   2764.8408       6.9155       1.5879       0.0000      51.6620      29.5244    -999.2500    -999.2500    2572.1479    1756.7115     138.9198       0.0740       2.9015       0.0020       2.6534    -999.2500      -0.3627       3.3197
   2764.9932       6.9115       1.7278       0.0004      53.8394      29.6721    -999.2500    -999.2500    2475.6895    1733.7429     116.9401       0.0802       2.9481       0.0020       2.6507    -999.2500      -0.3430       3.3198
   2765.1455       6.9078       2.1663       0.0016      55.3789      30.2314    -999.2500    -999.2500    2419.9287    1763.4976      96.5527       0.0857       2.9987       0.0020       2.6567    -999.2500      -0.2857       3.3354
   2765.2979       6.9078       3.3660       0.0044      54.2947      31.7554    -999.2500    -999.2500    2446.7046    1880.2098      91.5339       0.0892       2.9904       0.0028       2.6721    -999.2500      -0.1287       3.3796
   2765.4504       6.9081       4.8037       0.0080      52.3954      33.5752    -999.2500    -999.2500    2499.0808    2021.9796      91.5653       0.0917       2.9635       0.0030       2.6910    -999.2500       0.0591       3.4320
