#------------------------------------------------------------------------------
#
#   Created by  : [OpenWorks] Log Export Utility (LEXP)
#   Created on  : 2016-05-11 12:13:43
#   Project     : CANT971
#   User        : R5K
#   Interpreter : PEP
#
#------------------------------------------------------------------------------
~VERSION INFORMATION
VERS. 2.0 : CWLS Log ASCII Standard - version 2.0
WRAP.  NO : One line per depth step
~WELL INFORMATION
#MNEMONIC   .UNIT                                           VALUE :DESCRIPTION
#------------------------------------------------------------------------------
STRT        .M                                           706.6788 :START DEPTH
STOP        .M                                          3003.8040 :STOP DEPTH
STEP        .M                                             0.1524 :STEP
NULL        .                                           -999.2500 :NULL VALUE
COMP        .                                   PEMEX EXPL & PROD :COMPANY
WELL        .                                                 95D :WELL
FLD         .                                           CANTARELL :FIELD
LOC         .                                             UNKNOWN :LOCATION
CNTY        .                                      CD. DEL CARMEN :COUNTY
STAT        .                                            CAMPECHE :STATE
CTRY        .                                              MEXICO :COUNTRY
SRVC        .                                             UNKNOWN :SERVICE COMPANY
DATE        .                                             UNKNOWN :LOG DATE
UWI         .                                          3060000607 :UNIQUE WELL ID
XCOORD      .                                       601395.340000 :SURFACE X
YCOORD      .                                      2149877.570000 :SURFACE Y
LAT         .                                           19.441878 :LATITUDE
LON         .                                          -92.034095 :LONGITUDE
ELEV        .M                                            28.0000 :SURFACE ELEV
ELEV_TYPE   .                                                  KB :ELEV TYPE
~CURVE INFORMATION
#MNEMONIC.UNIT        API CODE       : CURVE DESCRIPTION
#------------------------------------------------------------------------------
DEPTH    .M                          : Measured Depth
CALI     .inches      UNKNOWN        : CALI:registros:rC:NONE:v0 (auto-composite)
CGR      .API         UNKNOWN        : CGR:registros:rC:NONE:v0 (auto-composite)
DRHO     .g/cm3       UNKNOWN        : DRHO:registros:rC:NONE:v0 (auto-composite)
DT       .us/ft       UNKNOWN        : DT:registros:rC:NONE:v0 (auto-composite)
GR       .API         UNKNOWN        : GR:registros:rC:NONE:v0 (auto-composite)
ILD      .ohm.m       UNKNOWN        : ILD:registros:rC:NONE:v0 (auto-composite)
ILM      .ohm.m       UNKNOWN        : ILM:registros:rC:NONE:v0 (auto-composite)
LLD      .ohm.m       UNKNOWN        : LLD:registros:rC:NONE:v0 (auto-composite)
LLS      .ohm.m       UNKNOWN        : LLS:registros:rC:NONE:v0 (auto-composite)
MSFL     .ohm.m       UNKNOWN        : MSFL:registros:rC:NONE:v0 (auto-composite)
NPHI     .UNKNOWN     UNKNOWN        : NPHI:registros:rC:NONE:v0 (auto-composite)
PEF      .UNKNOWN     UNKNOWN        : PEF:registros:rC:NONE:v0 (auto-composite)
POTA     .UNKNOWN     UNKNOWN        : POTA:registros:rC:NONE:v0 (auto-composite)
RHOB     .g/cm3       UNKNOWN        : RHOB:registros:rC:NONE:v0 (auto-composite)
SP       .mV          UNKNOWN        : SP:registros:rC:NONE:v0 (auto-composite)
THOR     .ppm         UNKNOWN        : THOR:registros:rC:NONE:v0 (auto-composite)
URAN     .ppm         UNKNOWN        : URAN:registros:rC:NONE:v0 (auto-composite)
~A     DEPTH         CALI          CGR         DRHO           DT           GR          ILD          ILM          LLD          LLS         MSFL         NPHI          PEF         POTA         RHOB           SP         THOR         URAN
# ...
   2701.5947       8.6082      -1.7625    -999.2500      63.9633      39.7429    -999.2500    -999.2500     480.4133     406.5786     464.5482       0.1280    -999.2500       0.0062       2.5713    -999.2500       0.0649       3.3804
   2701.7471       8.6294      -1.0605    -999.2500      62.2117      39.1828    -999.2500    -999.2500     487.6793     413.3648     369.0640       0.1154    -999.2500       0.0070       2.5998    -999.2500      -0.0533       3.2928
   2701.8997       8.6299       1.5174    -999.2500      61.8556      37.0511    -999.2500    -999.2500     514.0916     437.9639     523.0216       0.1106    -999.2500       0.0064       2.6070    -999.2500      -0.0814       3.0713
   2702.0520       8.6255       4.3360    -999.2500      62.6006      34.7061    -999.2500    -999.2500     608.0989     517.7642     731.5359       0.1125    -999.2500       0.0060       2.6062    -999.2500      -0.0760       2.8353
   2702.2043       8.6293       4.5654    -999.2500      67.8364      34.4521    -999.2500    -999.2500    1135.7128     946.6813     754.0814       0.1192    -999.2500       0.0060       2.5986    -999.2500      -0.0411       2.8081
   2702.3567       8.6340       3.9114    -999.2500      72.7240      34.6643    -999.2500    -999.2500    1626.3755    1345.3026     751.3419       0.1258    -999.2500       0.0060       2.5920    -999.2500       0.0316       2.8211
   2702.5093       8.6330       1.1641    -999.2500      73.6356      35.5625    -999.2500    -999.2500    1719.8306    1421.9110     752.6202       0.1279    -999.2500       0.0060       2.5930    -999.2500       0.2405       2.8764
   2702.6616       8.6227      -1.7856    -999.2500      73.3697      36.7764    -999.2500    -999.2500    1710.8467    1418.4568     737.0298       0.1256    -999.2500       0.0060       2.5947    -999.2500       0.4956       2.9647
   2702.8140       8.5816      -3.5725    -999.2500      72.2311      38.5826    -999.2500    -999.2500    1672.1088    1402.5498     651.6984       0.1195    -999.2500       0.0060       2.5950    -999.2500       0.8013       3.1425
   2702.9663       8.5371      -4.9060    -999.2500      71.0308      40.4843    -999.2500    -999.2500    1598.3378    1359.0110     563.3276       0.1114    -999.2500       0.0050       2.5945    -999.2500       1.1116       3.3209
   2703.1187       8.5324      -5.0470    -999.2500      70.9621      42.0199    -999.2500    -999.2500    1323.1799    1136.7126     578.9492       0.1032    -999.2500       0.0050       2.5909    -999.2500       1.3643       3.3420
   2703.2712       8.5383      -4.9070    -999.2500      71.5377      43.1636    -999.2500    -999.2500    1031.4725     896.6493     601.1468       0.0973    -999.2500       0.0050       2.5866    -999.2500       1.5571       3.3402
   2703.4236       8.5607      -4.3985    -999.2500      73.6076      43.2647    -999.2500    -999.2500     771.6057     675.5012     600.9188       0.0951    -999.2500       0.0050       2.5801    -999.2500       1.5908       3.3317
   2703.5759       8.5879      -3.6661    -999.2500      76.0953      42.7710    -999.2500    -999.2500     528.7197     466.2021     590.3099       0.0975    -999.2500       0.0049       2.5729    -999.2500       1.5627       3.3111
   2703.7283       8.5840       0.9150    -999.2500      76.0159      32.7919    -999.2500    -999.2500     531.0520     468.1702     465.7959       0.1056    -999.2500       0.0025       2.5677    -999.2500       1.1676       2.9318
   2703.8809       8.5810       4.5997    -999.2500      74.7384      24.6845    -999.2500    -999.2500     596.7737     523.7148     365.8995       0.1180    -999.2500       0.0005       2.5532    -999.2500       0.7896       2.6234
   2704.0332       8.5838       5.4400    -999.2500      70.1810      22.6304    -999.2500    -999.2500     825.1645     716.4475     344.7718       0.1334    -999.2500       0.0000       2.5134    -999.2500       0.4881       2.5457
   2704.1855       8.5868       5.0244    -999.2500      64.9077      22.6446    -999.2500    -999.2500    1094.1688     941.8854     376.2821       0.1464    -999.2500       0.0000       2.4683    -999.2500       0.2317       2.5487
   2704.3379       8.5690       1.1222    -999.2500      64.5499      22.7949    -999.2500    -999.2500    1186.2766     999.4758     720.0991       0.1507    -999.2500       0.0000       2.4671    -999.2500       0.2143       2.5782
   2704.4905       8.5529      -2.2692    -999.2500      64.7818      23.3934    -999.2500    -999.2500    1258.9852    1041.8260     975.9413       0.1494    -999.2500       0.0003       2.4777    -999.2500       0.2243       2.6240
   2704.6428       8.5496      -3.0171    -999.2500      65.7000      25.4650    -999.2500    -999.2500    1313.1277    1077.2150     853.2764       0.1451    -999.2500       0.0010       2.5198    -999.2500       0.2604       2.7211
   2704.7952       8.5508      -2.5688    -999.2500      66.6448      29.5889    -999.2500    -999.2500    1389.0795    1134.0996     653.6518       0.1340    -999.2500       0.0018       2.5647    -999.2500       0.5164       2.8812
   2704.9475       8.5570       0.0580    -999.2500      66.7010      42.0420    -999.2500    -999.2500    1604.9530    1311.8890     628.6850       0.1138    -999.2500       0.0040       2.5770    -999.2500       1.8670       3.2850
   2705.0999       8.5627       2.5318    -999.2500      66.2509      54.1528    -999.2500    -999.2500    1873.6941    1535.0187     691.7614       0.0946    -999.2500       0.0060       2.5824    -999.2500       3.2102       3.6739
   2705.2524       8.5659       2.0101    -999.2500      64.1279      55.9129    -999.2500    -999.2500    2262.1333    1860.2823    1029.0260       0.0865    -999.2500       0.0060       2.5849    -999.2500       3.4017       3.7338
   2705.4048       8.5657       1.1366    -999.2500      61.7519      54.4053    -999.2500    -999.2500    2591.8657    2136.7573    1343.4517       0.0849    -999.2500       0.0060       2.5926    -999.2500       3.2141       3.7052
   2705.5571       8.5579       1.0948    -999.2500      59.6183      48.8136    -999.2500    -999.2500    2641.4797    2178.6436    1395.1766       0.0839    -999.2500       0.0051       2.6189    -999.2500       2.5169       3.5985
   2705.7095       8.5490       1.1288    -999.2500      57.7229      42.2544    -999.2500    -999.2500    2573.9419    2122.8860    1345.9634       0.0831    -999.2500       0.0040       2.6482    -999.2500       1.6998       3.4687
   2705.8621       8.5493      -0.6922    -999.2500      57.7414      38.0753    -999.2500    -999.2500    2088.7341    1722.6678    1007.0071       0.0831    -999.2500       0.0037       2.6497    -999.2500       1.1866       3.3318
   2706.0144       8.5554      -1.2990    -999.2500      58.6522      34.5166    -999.2500    -999.2500    1591.7848    1315.5267     671.3255       0.0844    -999.2500       0.0030       2.6468    -999.2500       0.7587       3.2113
   2706.1667       8.5767       2.0303    -999.2500      61.6761      32.1786    -999.2500    -999.2500    1160.3594     970.3755     413.9884       0.0874    -999.2500       0.0022       2.6397    -999.2500       0.5062       3.1406
   2706.3191       8.6035       6.5852    -999.2500      65.4019      30.2718    -999.2500    -999.2500     760.5427     653.8243     190.5089       0.0957    -999.2500       0.0010       2.6292    -999.2500       0.3155       3.0880
   2706.4717       8.5944       5.0917    -999.2500      68.2743      29.1359    -999.2500    -999.2500     833.9326     718.0710     331.1108       0.1119    -999.2500       0.0010       2.6037    -999.2500       0.2244       3.0776
   2706.6240       8.5897       4.3149    -999.2500      70.3457      27.1034    -999.2500    -999.2500     898.1046     774.1439     410.1492       0.1256    -999.2500       0.0010       2.5835    -999.2500       0.0110       3.0183
   2706.7764       8.5990       6.0399    -999.2500      70.0612      22.3218    -999.2500    -999.2500     907.9700     784.2356     283.0229       0.1284    -999.2500       0.0004       2.5838    -999.2500      -0.5741       2.8064
