#------------------------------------------------------------------------------
#
#   Created by  : [OpenWorks] Log Export Utility (LEXP)
#   Created on  : 2016-05-11 12:13:43
#   Project     : CANT971
#   User        : R5K
#   Interpreter : PEP
#
#------------------------------------------------------------------------------
~VERSION INFORMATION
VERS. 2.0 : CWLS Log ASCII Standard - version 2.0
WRAP.  NO : One line per depth step
~WELL INFORMATION
#MNEMONIC   .UNIT                                           VALUE :DESCRIPTION
#------------------------------------------------------------------------------
STRT        .M                                           706.6788 :START DEPTH
STOP        .M                                          3003.8040 :STOP DEPTH
STEP        .M                                             0.1524 :STEP
NULL        .                                           -999.2500 :NULL VALUE
COMP        .                                   PEMEX EXPL & PROD :COMPANY
WELL        .                                                 95D :WELL
FLD         .                                           CANTARELL :FIELD
LOC         .                                             UNKNOWN :LOCATION
CNTY        .                                      CD. DEL CARMEN :COUNTY
STAT        .                                            CAMPECHE :STATE
CTRY        .                                              MEXICO :COUNTRY
SRVC        .                                             UNKNOWN :SERVICE COMPANY
DATE        .                                             UNKNOWN :LOG DATE
UWI         .                                          3060000607 :UNIQUE WELL ID
XCOORD      .                                       601395.340000 :SURFACE X
YCOORD      .                                      2149877.570000 :SURFACE Y
LAT         .                                           19.441878 :LATITUDE
LON         .                                          -92.034095 :LONGITUDE
ELEV        .M                                            28.0000 :SURFACE ELEV
ELEV_TYPE   .                                                  KB :ELEV TYPE
~CURVE INFORMATION
#MNEMONIC.UNIT        API CODE       : CURVE DESCRIPTION
#------------------------------------------------------------------------------
DEPTH    .M                          : Measured Depth
CALI     .inches      UNKNOWN        : CALI:registros:rC:NONE:v0 (auto-composite)
CGR      .API         UNKNOWN        : CGR:registros:rC:NONE:v0 (auto-composite)
DRHO     .g/cm3       UNKNOWN        : DRHO:registros:rC:NONE:v0 (auto-composite)
DT       .us/ft       UNKNOWN        : DT:registros:rC:NONE:v0 (auto-composite)
GR       .API         UNKNOWN        : GR:registros:rC:NONE:v0 (auto-composite)
ILD      .ohm.m       UNKNOWN        : ILD:registros:rC:NONE:v0 (auto-composite)
ILM      .ohm.m       UNKNOWN        : ILM:registros:rC:NONE:v0 (auto-composite)
LLD      .ohm.m       UNKNOWN        : LLD:registros:rC:NONE:v0 (auto-composite)
LLS      .ohm.m       UNKNOWN        : LLS:registros:rC:NONE:v0 (auto-composite)
MSFL     .ohm.m       UNKNOWN        : MSFL:registros:rC:NONE:v0 (auto-composite)
NPHI     .UNKNOWN     UNKNOWN        : NPHI:registros:rC:NONE:v0 (auto-composite)
PEF      .UNKNOWN     UNKNOWN        : PEF:registros:rC:NONE:v0 (auto-composite)
POTA     .UNKNOWN     UNKNOWN        : POTA:registros:rC:NONE:v0 (auto-composite)
RHOB     .g/cm3       UNKNOWN        : RHOB:registros:rC:NONE:v0 (auto-composite)
SP       .mV          UNKNOWN        : SP:registros:rC:NONE:v0 (auto-composite)
THOR     .ppm         UNKNOWN        : THOR:registros:rC:NONE:v0 (auto-composite)
URAN     .ppm         UNKNOWN        : URAN:registros:rC:NONE:v0 (auto-composite)
~A     DEPTH         CALI          CGR         DRHO           DT           GR          ILD          ILM          LLD          LLS         MSFL         NPHI          PEF         POTA         RHOB           SP         THOR         URAN
# ...
   2637.5867       8.7072      14.8254    -999.2500      65.1757      56.3653    -999.2500    -999.2500      47.8776      38.3043      95.7996       0.1146    -999.2500       0.0072       2.6096    -999.2500       0.4120       5.0769
   2637.7393       8.7131      19.3132    -999.2500      67.5458      63.3791    -999.2500    -999.2500      45.7755      36.2645      88.7723       0.1115    -999.2500       0.0093       2.6464    -999.2500       0.7642       5.3860
   2637.8916       8.7299      19.6813    -999.2500      67.9592      63.9921    -999.2500    -999.2500      42.4382      33.4274      61.4870       0.1153    -999.2500       0.0094       2.6465    -999.2500       0.7345       5.4156
   2638.0439       8.7510      19.4461    -999.2500      67.7213      64.8256    -999.2500    -999.2500      38.7274      30.3557      35.2863       0.1208    -999.2500       0.0090       2.6283    -999.2500       0.6630       5.5460
   2638.1963       8.7790      22.1370    -999.2500      67.0290      76.0240    -999.2500    -999.2500      34.9170      27.2460      43.7280       0.1218    -999.2500       0.0110       2.5710    -999.2500       0.9310       6.5860
   2638.3489       8.8065      24.8748    -999.2500      66.1982      86.8994    -999.2500    -999.2500      31.3596      24.3590      53.8227       0.1213    -999.2500       0.0120       2.5174    -999.2500       1.2104       7.5809
   2638.5012       8.8321      24.9745    -999.2500      65.0788      85.9679    -999.2500    -999.2500      29.0467      22.5171      37.2946       0.1245    -999.2500       0.0120       2.5259    -999.2500       1.2197       7.4546
   2638.6536       8.8675      23.2973    -999.2500      64.4622      78.9310    -999.2500    -999.2500      27.5342      21.3035      22.9024       0.1398    -999.2500       0.0113       2.5409    -999.2500       1.0815       6.8724
   2638.8059       8.9367      17.3182    -999.2500      65.6990      58.8029    -999.2500    -999.2500      27.9155      21.5351      31.9279       0.1743    -999.2500       0.0093       2.5423    -999.2500       0.6195       5.4607
   2638.9583       9.0096      11.3052    -999.2500      67.3465      36.5022    -999.2500    -999.2500      29.8298      22.8444      45.7001       0.2088    -999.2500       0.0060       2.5380    -999.2500       0.1814       3.8301
   2639.1108       9.0023      20.9397    -999.2500      67.2823      35.5192    -999.2500    -999.2500      44.1286      32.4117      32.2434       0.2196    -999.2500       0.0063       2.5243    -999.2500       1.2541       2.5312
   2639.2632       8.9749      29.5005    -999.2500      66.6327      37.8100    -999.2500    -999.2500      55.3353      39.8472      20.0621       0.2182    -999.2500       0.0075       2.5134    -999.2500       2.1793       1.6876
   2639.4155       8.9108      31.5652    -999.2500      64.6677      44.8856    -999.2500    -999.2500      54.9452      39.3449      17.4851       0.2140    -999.2500       0.0102       2.5117    -999.2500       2.3533       2.0860
   2639.5679       8.8340      31.2938    -999.2500      62.4003      53.2941    -999.2500    -999.2500      50.6857      36.1987      18.3214       0.2067    -999.2500       0.0139       2.5130    -999.2500       2.2527       2.8891
   2639.7205       8.7586      27.1663    -999.2500      64.9018      49.7255    -999.2500    -999.2500      51.0499      36.3782      23.3093       0.1946    -999.2500       0.0128       2.5235    -999.2500       1.5816       2.8544
   2639.8728       8.7029      23.8621    -999.2500      66.7890      46.8407    -999.2500    -999.2500      52.1933      37.0330      29.7664       0.1812    -999.2500       0.0116       2.5353    -999.2500       1.0407       2.8276
   2640.0251       8.7040      23.3580    -999.2500      66.4254      46.9971    -999.2500    -999.2500      55.3214      38.8580      40.3363       0.1691    -999.2500       0.0110       2.5530    -999.2500       0.9409       2.8893
   2640.1775       8.7134      23.4090    -999.2500      65.4682      47.6383    -999.2500    -999.2500      60.8140      42.1532      49.8135       0.1614    -999.2500       0.0110       2.5725    -999.2500       0.9540       2.9618
   2640.3301       8.6470      21.0157    -999.2500      65.4657      44.7934    -999.2500    -999.2500      78.4631      53.1505      42.2543       0.1617    -999.2500       0.0099       2.5878    -999.2500       0.7571       2.9062
   2640.4824       8.5832      18.9712    -999.2500      65.7357      42.5114    -999.2500    -999.2500      94.4761      63.1687      34.3089       0.1645    -999.2500       0.0090       2.6008    -999.2500       0.6003       2.8519
   2640.6348       8.5715      19.6467    -999.2500      66.5730      44.3774    -999.2500    -999.2500      97.3327      65.0763      34.1110       0.1650    -999.2500       0.0090       2.6025    -999.2500       0.7229       2.8676
   2640.7871       8.5828      20.7493    -999.2500      67.8315      46.6996    -999.2500    -999.2500      96.6690      64.9056      37.8107       0.1629    -999.2500       0.0090       2.6006    -999.2500       0.8789       2.9214
   2640.9395       8.6350      20.8708    -999.2500      70.2123      46.7402    -999.2500    -999.2500      94.8348      64.3826      49.5945       0.1582    -999.2500       0.0099       2.5934    -999.2500       0.8921       3.0593
   2641.0920       8.6901      20.7043    -999.2500      72.0143      46.3226    -999.2500    -999.2500      92.5602      63.5333      60.6657       0.1547    -999.2500       0.0100       2.5817    -999.2500       0.8625       3.2070
   2641.2444       8.6956      20.1970    -999.2500      67.7877      46.6322    -999.2500    -999.2500      89.2030      60.9820      52.6740       0.1561    -999.2500       0.0100       2.5472    -999.2500       0.7705       3.2866
   2641.3967       8.6836      19.6967    -999.2500      63.7640      46.9018    -999.2500    -999.2500      86.4961      58.8023      44.1667       0.1586    -999.2500       0.0100       2.5166    -999.2500       0.6586       3.3358
   2641.5491       8.6392      19.3637    -999.2500      62.8754      46.7417    -999.2500    -999.2500      86.2143      58.4731      42.2492       0.1590    -999.2500       0.0100       2.5098    -999.2500       0.5125       3.3213
   2641.7017       8.5860      19.0552    -999.2500      63.0157      46.4099    -999.2500    -999.2500      86.7882      58.7829      42.7996       0.1571    -999.2500       0.0100       2.5113    -999.2500       0.3613       3.2881
   2641.8540       8.5878      17.8320    -999.2500      63.6706      45.0116    -999.2500    -999.2500      89.7873      60.4736      54.4286       0.1527    -999.2500       0.0097       2.5200    -999.2500       0.3711       3.2935
   2642.0063       8.5943      16.6860    -999.2500      64.1926      43.6263    -999.2500    -999.2500      92.9298      62.3469      63.8631       0.1482    -999.2500       0.0085       2.5317    -999.2500       0.3957       3.3075
   2642.1587       8.6101      15.8304    -999.2500      64.2923      42.3570    -999.2500    -999.2500      96.3021      64.6431      66.1549       0.1453    -999.2500       0.0073       2.5491    -999.2500       0.4498       3.3423
   2642.3113       8.6305      15.0307    -999.2500      64.2152      41.2111    -999.2500    -999.2500      99.6924      67.0668      65.2340       0.1436    -999.2500       0.0061       2.5668    -999.2500       0.5126       3.3868
   2642.4636       8.6593      13.6600    -999.2500      63.7243      41.1728    -999.2500    -999.2500     102.2694      69.2456      54.3681       0.1424    -999.2500       0.0060       2.5554    -999.2500       0.5353       3.4513
   2642.6160       8.6870      12.5304    -999.2500      63.7367      41.2793    -999.2500    -999.2500     106.3577      72.6748      48.2283       0.1401    -999.2500       0.0060       2.5443    -999.2500       0.5701       3.5219
   2642.7683       8.7060      12.3490    -999.2500      65.5236      41.5951    -999.2500    -999.2500     115.6962      80.3407      60.3533       0.1358    -999.2500       0.0060       2.5447    -999.2500       0.6521       3.6046
