#------------------------------------------------------------------------------
#
#   Created by  : [OpenWorks] Log Export Utility (LEXP)
#   Created on  : 2016-05-11 12:13:43
#   Project     : CANT971
#   User        : R5K
#   Interpreter : PEP
#
#------------------------------------------------------------------------------
~VERSION INFORMATION
VERS. 2.0 : CWLS Log ASCII Standard - version 2.0
WRAP.  NO : One line per depth step
~WELL INFORMATION
#MNEMONIC   .UNIT                                           VALUE :DESCRIPTION
#------------------------------------------------------------------------------
STRT        .M                                           706.6788 :START DEPTH
STOP        .M                                          3003.8040 :STOP DEPTH
STEP        .M                                             0.1524 :STEP
NULL        .                                           -999.2500 :NULL VALUE
COMP        .                                   PEMEX EXPL & PROD :COMPANY
WELL        .                                                 95D :WELL
FLD         .                                           CANTARELL :FIELD
LOC         .                                             UNKNOWN :LOCATION
CNTY        .                                      CD. DEL CARMEN :COUNTY
STAT        .                                            CAMPECHE :STATE
CTRY        .                                              MEXICO :COUNTRY
SRVC        .                                             UNKNOWN :SERVICE COMPANY
DATE        .                                             UNKNOWN :LOG DATE
UWI         .                                          3060000607 :UNIQUE WELL ID
XCOORD      .                                       601395.340000 :SURFACE X
YCOORD      .                                      2149877.570000 :SURFACE Y
LAT         .                                           19.441878 :LATITUDE
LON         .                                          -92.034095 :LONGITUDE
ELEV        .M                                            28.0000 :SURFACE ELEV
ELEV_TYPE   .                                                  KB :ELEV TYPE
~CURVE INFORMATION
#MNEMONIC.UNIT        API CODE       : CURVE DESCRIPTION
#------------------------------------------------------------------------------
DEPTH    .M                          : Measured Depth
CALI     .inches      UNKNOWN        : CALI:registros:rC:NONE:v0 (auto-composite)
CGR      .API         UNKNOWN        : CGR:registros:rC:NONE:v0 (auto-composite)
DRHO     .g/cm3       UNKNOWN        : DRHO:registros:rC:NONE:v0 (auto-composite)
DT       .us/ft       UNKNOWN        : DT:registros:rC:NONE:v0 (auto-composite)
GR       .API         UNKNOWN        : GR:registros:rC:NONE:v0 (auto-composite)
ILD      .ohm.m       UNKNOWN        : ILD:registros:rC:NONE:v0 (auto-composite)
ILM      .ohm.m       UNKNOWN        : ILM:registros:rC:NONE:v0 (auto-composite)
LLD      .ohm.m       UNKNOWN        : LLD:registros:rC:NONE:v0 (auto-composite)
LLS      .ohm.m       UNKNOWN        : LLS:registros:rC:NONE:v0 (auto-composite)
MSFL     .ohm.m       UNKNOWN        : MSFL:registros:rC:NONE:v0 (auto-composite)
NPHI     .UNKNOWN     UNKNOWN        : NPHI:registros:rC:NONE:v0 (auto-composite)
PEF      .UNKNOWN     UNKNOWN        : PEF:registros:rC:NONE:v0 (auto-composite)
POTA     .UNKNOWN     UNKNOWN        : POTA:registros:rC:NONE:v0 (auto-composite)
RHOB     .g/cm3       UNKNOWN        : RHOB:registros:rC:NONE:v0 (auto-composite)
SP       .mV          UNKNOWN        : SP:registros:rC:NONE:v0 (auto-composite)
THOR     .ppm         UNKNOWN        : THOR:registros:rC:NONE:v0 (auto-composite)
URAN     .ppm         UNKNOWN        : URAN:registros:rC:NONE:v0 (auto-composite)
~A     DEPTH         CALI          CGR         DRHO           DT           GR          ILD          ILM          LLD          LLS         MSFL         NPHI          PEF         POTA         RHOB           SP         THOR         URAN
# ...
   2221.5347      22.5355      38.7419    -999.2500     141.0975      46.4316    -999.2500    -999.2500       5.8502       2.0919       3.2623       0.3430    -999.2500       0.0133       2.2482    -999.2500       3.5898       1.0112
   2221.6873      22.3899      36.2160    -999.2500     150.1547      45.0359    -999.2500    -999.2500       5.7873       2.0892       3.4926       0.3576    -999.2500       0.0130       2.2311    -999.2500       3.2688       1.2143
   2221.8396      22.5235      32.4743    -999.2500     154.8271      41.3686    -999.2500    -999.2500       5.5550       2.0958       3.4568       0.3753    -999.2500       0.0119       2.2323    -999.2500       2.8464       1.1595
   2221.9919      22.6448      29.5408    -999.2500     158.3728      38.6169    -999.2500    -999.2500       5.3674       2.1082       3.4525       0.3875    -999.2500       0.0110       2.2380    -999.2500       2.5498       1.1224
   2222.1443      22.6669      29.5299    -999.2500    -999.2500      39.3778    -999.2500    -999.2500       5.3618       2.1378       3.6111       0.3863    -999.2500       0.0104       2.2531    -999.2500       2.6886       1.2036
   2222.2969      22.6632      30.4205    -999.2500    -999.2500      41.2185    -999.2500    -999.2500       5.3542       2.1588       3.7756       0.3741    -999.2500       0.0100       2.2718    -999.2500       2.9641       1.3238
   2222.4492      22.6844      31.3923    -999.2500    -999.2500      43.1391    -999.2500    -999.2500       5.0396       2.1040       3.7064       0.3564    -999.2500       0.0100       2.2974    -999.2500       3.2685       1.4651
   2222.6016      22.7067      32.3062    -999.2500     107.6495      44.8629    -999.2500    -999.2500       4.7543       2.0391       3.5466       0.3427    -999.2500       0.0100       2.3173    -999.2500       3.4973       1.5817
   2222.7539      22.7072      32.8775    -999.2500     104.0540      45.5878    -999.2500    -999.2500       4.8665       1.9901       3.1563       0.3408    -999.2500       0.0105       2.3100    -999.2500       3.3496       1.5694
   2222.9062      22.7030      33.6912    -999.2500      98.3332      46.5159    -999.2500    -999.2500       5.0138       1.9700       2.7645       0.3492    -999.2500       0.0117       2.2932    -999.2500       3.1443       1.5520
   2223.0588      22.6993      35.6057    -999.2500      87.2896      48.8860    -999.2500    -999.2500       4.9956       2.0371       2.5349       0.3637    -999.2500       0.0129       2.2647    -999.2500       3.0099       1.6101
   2223.2112      22.6973      37.3619    -999.2500      75.7962      51.0996    -999.2500    -999.2500       4.9327       2.1118       2.3808       0.3748    -999.2500       0.0148       2.2374    -999.2500       2.9222       1.6780
   2223.3635      22.7113      34.4126    -999.2500      74.8000      47.6624    -999.2500    -999.2500       4.8870       2.0064       2.5186       0.3731    -999.2500       0.0120       2.2533    -999.2500       3.0949       1.6197
   2223.5159      22.7217      31.2570    -999.2500      77.3601      43.8670    -999.2500    -999.2500       4.8359       1.9153       2.7270       0.3601    -999.2500       0.0089       2.2767    -999.2500       3.2372       1.5418
   2223.6685      22.7168      28.8328    -999.2500      87.3651      40.6216    -999.2500    -999.2500       4.7631       1.9191       3.0572       0.3391    -999.2500       0.0080       2.3109    -999.2500       3.2156       1.4414
   2223.8208      22.7070      26.6780    -999.2500      99.8540      37.5890    -999.2500    -999.2500       4.6830       1.9560       3.4250       0.3205    -999.2500       0.0080       2.3480    -999.2500       3.1400       1.3340
   2223.9731      22.6997      27.3895    -999.2500     126.3457      38.3170    -999.2500    -999.2500       4.6223       1.9911       3.2264       0.3151    -999.2500       0.0082       2.3444    -999.2500       3.1922       1.3364
   2224.1255      21.8835      28.5198    -999.2500     146.7705      39.4268    -999.2500    -999.2500       4.5781       2.0213       3.0677       0.3167    -999.2500       0.0094       2.3459    -999.2500       3.2695       1.3324
   2224.2781      18.6779      30.8677    -999.2500     149.5416      41.6505    -999.2500    -999.2500       4.5866       2.0375       3.0339       0.3184    -999.2500       0.0100       2.3614    -999.2500       3.4167       1.3088
   2224.4304      15.1155      33.5388    -999.2500     146.0111      44.2064    -999.2500    -999.2500       4.5992       2.0488       3.0447       0.3215    -999.2500       0.0109       2.3800    -999.2500       3.5857       1.2861
   2224.5828      15.1696      35.5437    -999.2500     138.7491      46.4549    -999.2500    -999.2500       4.5066       2.0577       3.0850       0.3264    -999.2500       0.0120       2.3819    -999.2500       3.7420       1.3232
   2224.7351      15.9823      37.0738    -999.2500     130.7943      48.2046    -999.2500    -999.2500       4.4439       2.0684       3.3230       0.3275    -999.2500       0.0120       2.3831    -999.2500       3.8601       1.3576
   2224.8875      18.0608      37.1219    -999.2500     121.8696      48.2266    -999.2500    -999.2500       4.5388       2.0828       4.2912       0.3201    -999.2500       0.0120       2.3938    -999.2500       3.8414       1.3517
   2225.0400      20.2699      36.5420    -999.2500     112.6922      47.6363    -999.2500    -999.2500       4.6441       2.1083       5.1890       0.3082    -999.2500       0.0120       2.4072    -999.2500       3.7486       1.3465
   2225.1924      21.5730      34.9373    -999.2500     103.5143      46.3746    -999.2500    -999.2500       4.6081       2.1805       4.9239       0.2971    -999.2500       0.0120       2.4235    -999.2500       3.4890       1.3923
   2225.3447      22.5382      32.9780    -999.2500      94.3353      44.8602    -999.2500    -999.2500       4.4542       2.2183       4.4751       0.2898    -999.2500       0.0110       2.4355    -999.2500       3.1760       1.4524
   2225.4971      22.6986      30.2757    -999.2500      85.1507      42.7377    -999.2500    -999.2500       3.7743       1.9788       4.5202       0.2878    -999.2500       0.0106       2.4242    -999.2500       2.7676       1.5231
   2225.6497      22.7228      27.7400    -999.2500      77.0313      40.7696    -999.2500    -999.2500       3.1911       1.7698       4.3788       0.2861    -999.2500       0.0100       2.4040    -999.2500       2.3911       1.5900
   2225.8020      22.7119      26.0867    -999.2500      72.2646      39.5784    -999.2500    -999.2500       3.1630       1.7917       3.4142       0.2810    -999.2500       0.0092       2.3674    -999.2500       2.1611       1.6384
   2225.9543      22.6888      24.8641    -999.2500      68.7181      38.8217    -999.2500    -999.2500       3.3486       1.9083       2.2902       0.2859    -999.2500       0.0090       2.3231    -999.2500       2.0033       1.6865
   2226.1067      22.6629      26.7193    -999.2500      68.5610      41.8728    -999.2500    -999.2500       4.3388       2.4752       3.1029       0.3116    -999.2500       0.0093       2.2433    -999.2500       2.3461       1.8418
   2226.2593      22.6420      28.1518    -999.2500      75.1425      44.1185    -999.2500    -999.2500       5.1316       2.9380       4.0038       0.3340    -999.2500       0.0100       2.1885    -999.2500       2.6367       1.9489
   2226.4116      22.6392      27.9511    -999.2500     100.5246      43.5275    -999.2500    -999.2500       5.2499       3.0404       4.8910       0.3308    -999.2500       0.0093       2.2107    -999.2500       2.7050       1.9036
   2226.5640      22.6437      27.1234    -999.2500     130.6411      41.8515    -999.2500    -999.2500       5.1247       3.0125       5.9338       0.3040    -999.2500       0.0090       2.2594    -999.2500       2.6899       1.8005
   2226.7163      22.6557      25.1749    -999.2500     130.7145      38.3285    -999.2500    -999.2500       4.8051       2.8874       9.9190       0.2628    -999.2500       0.0088       2.3095    -999.2500       2.5514       1.6078
