#------------------------------------------------------------------------------
#
#   Created by  : [OpenWorks] Log Export Utility (LEXP)
#   Created on  : 2016-05-11 12:13:43
#   Project     : CANT971
#   User        : R5K
#   Interpreter : PEP
#
#------------------------------------------------------------------------------
~VERSION INFORMATION
VERS. 2.0 : CWLS Log ASCII Standard - version 2.0
WRAP.  NO : One line per depth step
~WELL INFORMATION
#MNEMONIC   .UNIT                                           VALUE :DESCRIPTION
#------------------------------------------------------------------------------
STRT        .M                                           706.6788 :START DEPTH
STOP        .M                                          3003.8040 :STOP DEPTH
STEP        .M                                             0.1524 :STEP
NULL        .                                           -999.2500 :NULL VALUE
COMP        .                                   PEMEX EXPL & PROD :COMPANY
WELL        .                                                 95D :WELL
FLD         .                                           CANTARELL :FIELD
LOC         .                                             UNKNOWN :LOCATION
CNTY        .                                      CD. DEL CARMEN :COUNTY
STAT        .                                            CAMPECHE :STATE
CTRY        .                                              MEXICO :COUNTRY
SRVC        .                                             UNKNOWN :SERVICE COMPANY
DATE        .                                             UNKNOWN :LOG DATE
UWI         .                                          3060000607 :UNIQUE WELL ID
XCOORD      .                                       601395.340000 :SURFACE X
YCOORD      .                                      2149877.570000 :SURFACE Y
LAT         .                                           19.441878 :LATITUDE
LON         .                                          -92.034095 :LONGITUDE
ELEV        .M                                            28.0000 :SURFACE ELEV
ELEV_TYPE   .                                                  KB :ELEV TYPE
~CURVE INFORMATION
#MNEMONIC.UNIT        API CODE       : CURVE DESCRIPTION
#------------------------------------------------------------------------------
DEPTH    .M                          : Measured Depth
CALI     .inches      UNKNOWN        : CALI:registros:rC:NONE:v0 (auto-composite)
CGR      .API         UNKNOWN        : CGR:registros:rC:NONE:v0 (auto-composite)
DRHO     .g/cm3       UNKNOWN        : DRHO:registros:rC:NONE:v0 (auto-composite)
DT       .us/ft       UNKNOWN        : DT:registros:rC:NONE:v0 (auto-composite)
GR       .API         UNKNOWN        : GR:registros:rC:NONE:v0 (auto-composite)
ILD      .ohm.m       UNKNOWN        : ILD:registros:rC:NONE:v0 (auto-composite)
ILM      .ohm.m       UNKNOWN        : ILM:registros:rC:NONE:v0 (auto-composite)
LLD      .ohm.m       UNKNOWN        : LLD:registros:rC:NONE:v0 (auto-composite)
LLS      .ohm.m       UNKNOWN        : LLS:registros:rC:NONE:v0 (auto-composite)
MSFL     .ohm.m       UNKNOWN        : MSFL:registros:rC:NONE:v0 (auto-composite)
NPHI     .UNKNOWN     UNKNOWN        : NPHI:registros:rC:NONE:v0 (auto-composite)
PEF      .UNKNOWN     UNKNOWN        : PEF:registros:rC:NONE:v0 (auto-composite)
POTA     .UNKNOWN     UNKNOWN        : POTA:registros:rC:NONE:v0 (auto-composite)
RHOB     .g/cm3       UNKNOWN        : RHOB:registros:rC:NONE:v0 (auto-composite)
SP       .mV          UNKNOWN        : SP:registros:rC:NONE:v0 (auto-composite)
THOR     .ppm         UNKNOWN        : THOR:registros:rC:NONE:v0 (auto-composite)
URAN     .ppm         UNKNOWN        : URAN:registros:rC:NONE:v0 (auto-composite)
~A     DEPTH         CALI          CGR         DRHO           DT           GR          ILD          ILM          LLD          LLS         MSFL         NPHI          PEF         POTA         RHOB           SP         THOR         URAN
# ...
   2098.8528    -999.2500      23.4145    -999.2500    -999.2500      33.3820    -999.2500    -999.2500       3.8094       3.1021       0.5438    -999.2500    -999.2500    -999.2500    -999.2500    -999.2500    -999.2500    -999.2500
   2099.0051    -999.2500      22.1117    -999.2500    -999.2500      32.7433    -999.2500    -999.2500       3.7182       3.0520       0.5409    -999.2500    -999.2500    -999.2500    -999.2500    -999.2500    -999.2500    -999.2500
   2099.1575    -999.2500      20.8820    -999.2500    -999.2500      32.0356    -999.2500    -999.2500       3.6254       3.0105       0.5413    -999.2500    -999.2500    -999.2500    -999.2500    -999.2500    -999.2500    -999.2500
   2099.3101    -999.2500      20.9998    -999.2500    -999.2500      32.2040    -999.2500    -999.2500       3.6669       3.0083       0.5311    -999.2500    -999.2500    -999.2500    -999.2500    -999.2500    -999.2500    -999.2500
   2099.4624    -999.2500      21.4395    -999.2500    -999.2500      32.6337    -999.2500    -999.2500       3.7292       3.0191       0.5167    -999.2500    -999.2500    -999.2500    -999.2500    -999.2500    -999.2500    -999.2500
   2099.6147    -999.2500      21.4561    -999.2500    -999.2500      33.2827    -999.2500    -999.2500       3.6567       3.0502       0.4932    -999.2500    -999.2500    -999.2500    -999.2500    -999.2500    -999.2500    -999.2500
   2099.7671    -999.2500      21.0922    -999.2500    -999.2500      33.2597    -999.2500    -999.2500       3.6055       3.0877       0.4794    -999.2500    -999.2500    -999.2500    -999.2500    -999.2500    -999.2500    -999.2500
   2099.9197    -999.2500      19.7385    -999.2500    -999.2500      31.1918    -999.2500    -999.2500       3.6582       3.1374       0.4970    -999.2500    -999.2500    -238.4588    -999.2500    -999.2500       1.8848       1.4031
   2100.0720    -472.2580      18.0490    -999.2500    -999.2500      28.4320    -999.2500    -999.2500       3.7470       3.1920       0.5240    -999.2500    -999.2500       0.0070    -475.7100    -999.2500       1.7310       1.2690
   2100.2244    -231.0710      18.5077    -999.2500    -999.2500      28.9441    -999.2500    -999.2500       3.9313       3.6870       0.6657      -2.0803    -999.2500       0.0072    -236.6765    -999.2500       1.5713       1.2753
   2100.3767     -39.2020      18.6437    -999.2500    -999.2500      28.9817    -999.2500    -999.2500       3.9136       3.8580       0.7737      -0.0956    -999.2500       0.0080     -46.0107    -999.2500       1.4102       1.2721
   2100.5291       8.7351      17.8346    -999.2500    -999.2500      27.6346    -999.2500    -999.2500       3.3043       3.0837       0.7818       0.4163    -999.2500       0.0073       2.1692    -999.2500       1.2436       1.2377
   2100.6816       8.7277      16.9648    -999.2500    -999.2500      26.2755    -999.2500    -999.2500       2.5852       2.1177       0.7566       0.4269    -999.2500       0.0070       2.1909    -999.2500       1.1083       1.1943
   2100.8340       8.7302      18.3284    -999.2500    -999.2500      28.8885    -999.2500    -999.2500       2.6377       2.2376       0.7244       0.4180    -999.2500       0.0081       2.1819    -999.2500       1.2649       1.1528
   2100.9863       8.7329      20.0240    -999.2500    -999.2500      31.2807    -999.2500    -999.2500       2.8588       2.5678       0.7126       0.4092    -999.2500       0.0090       2.1666    -999.2500       1.4971       1.0981
   2101.1387       8.7366      22.0550    -999.2500    -999.2500      31.3226    -999.2500    -999.2500       3.3920       3.2386       0.7774       0.4077    -999.2500       0.0085       2.1443    -999.2500       1.8862       0.9911
   2101.2913       8.7388      24.0521    -999.2500    -999.2500      30.8862    -999.2500    -999.2500       3.8534       3.8202       0.8349       0.4096    -999.2500       0.0080       2.1237    -999.2500       2.2967       0.8696
   2101.4436       8.7361      25.4839    -999.2500    -999.2500      31.1682    -999.2500    -999.2500       3.6069       3.5832       0.7700       0.4172    -999.2500       0.0080       2.1219    -999.2500       2.6085       0.7448
   2101.5959       8.7342      26.5752    -999.2500    -999.2500      31.4622    -999.2500    -999.2500       3.2728       3.2214       0.6788       0.4243    -999.2500       0.0080       2.1244    -999.2500       2.8574       0.6282
   2101.7483       8.7362      26.3972    -999.2500    -999.2500      30.9004    -999.2500    -999.2500       3.3314       3.1819       0.5886       0.4213    -999.2500       0.0080       2.1272    -999.2500       2.8645       0.5649
   2101.9009       8.7380      26.1011    -999.2500    -999.2500      30.3976    -999.2500    -999.2500       3.4071       3.1323       0.5349       0.4161    -999.2500       0.0080       2.1353    -999.2500       2.8184       0.5251
   2102.0532       8.7363      26.1138    -999.2500    -999.2500      30.5401    -999.2500    -999.2500       3.3251       2.8772       0.5961       0.4087    -999.2500       0.0088       2.1560    -999.2500       2.7364       0.5272
   2102.2056       8.7346      26.1685    -999.2500    -999.2500      30.8209    -999.2500    -999.2500       3.1937       2.5620       0.6867       0.4024    -999.2500       0.0090       2.1794    -999.2500       2.6446       0.5420
   2102.3579       8.7443      25.3486    -999.2500    -999.2500      30.0754    -999.2500    -999.2500       3.0288       2.2797       0.6612       0.4208    -999.2500       0.0087       2.1691    -999.2500       2.5855       0.5603
   2102.5103       8.7510      24.7040    -999.2500    -999.2500      29.5152    -999.2500    -999.2500       2.9011       2.0572       0.6379       0.4364    -999.2500       0.0080       2.1610    -999.2500       2.5556       0.5791
   2102.6628       8.7498      24.7010    -999.2500    -999.2500      29.6461    -999.2500    -999.2500       2.8834       2.0000       0.6405       0.4395    -999.2500       0.0080       2.1651    -999.2500       2.6040       0.6008
   2102.8152       8.7452      24.9940    -999.2500    -999.2500      30.1082    -999.2500    -999.2500       2.9107       2.0104       0.6477       0.4386    -999.2500       0.0080       2.1736    -999.2500       2.6853       0.6249
   2102.9675       8.7403      26.8367    -999.2500    -999.2500      32.5052    -999.2500    -999.2500       3.0774       2.2382       0.5783       0.4431    -999.2500       0.0082       2.1660    -999.2500       2.9020       0.6934
   2103.1199       8.7362      28.1324    -999.2500    -999.2500      34.2445    -999.2500    -999.2500       3.2671       2.4809       0.6200       0.4469    -999.2500       0.0090       2.1614    -999.2500       3.0601       0.7471
   2103.2725       8.7350      27.4798    -999.2500    -999.2500      33.6273    -999.2500    -999.2500       3.5089       2.7387       1.0218       0.4472    -999.2500       0.0084       2.1650    -999.2500       3.0175       0.7516
   2103.4248       8.7358      26.3776    -999.2500    -999.2500      32.5160    -999.2500    -999.2500       3.7485       2.9704       1.4170       0.4437    -999.2500       0.0080       2.1711    -999.2500       2.9295       0.7464
   2103.5771       8.7392      26.3051    -999.2500    -999.2500      32.9564    -999.2500    -999.2500       3.8716       3.0145       1.0723       0.4238    -999.2500       0.0080       2.1709    -999.2500       2.9524       0.7783
   2103.7295       8.7430      26.3502    -999.2500    -999.2500      33.5183    -999.2500    -999.2500       3.9566       3.0404       0.6870       0.4076    -999.2500       0.0080       2.1672    -999.2500       2.9993       0.8197
   2103.8821       8.7420      26.2007    -999.2500    -999.2500      33.5544    -999.2500    -999.2500       3.9500       3.1205       0.6219       0.4179    -999.2500       0.0075       2.1577    -999.2500       3.0707       0.8765
   2104.0344       8.7396      25.9138    -999.2500    -999.2500      33.2568    -999.2500    -999.2500       3.8967       3.1894       0.6180       0.4293    -999.2500       0.0070       2.1502    -999.2500       3.1208       0.9216
