#------------------------------------------------------------------------------
#
#   Created by  : [OpenWorks] Log Export Utility (LEXP)
#   Created on  : 2016-05-11 12:13:43
#   Project     : CANT971
#   User        : R5K
#   Interpreter : PEP
#
#------------------------------------------------------------------------------
~VERSION INFORMATION
VERS. 2.0 : CWLS Log ASCII Standard - version 2.0
WRAP.  NO : One line per depth step
~WELL INFORMATION
#MNEMONIC   .UNIT                                           VALUE :DESCRIPTION
#------------------------------------------------------------------------------
STRT        .M                                           706.6788 :START DEPTH
STOP        .M                                          3003.8040 :STOP DEPTH
STEP        .M                                             0.1524 :STEP
NULL        .                                           -999.2500 :NULL VALUE
COMP        .                                   PEMEX EXPL & PROD :COMPANY
WELL        .                                                 95D :WELL
FLD         .                                           CANTARELL :FIELD
LOC         .                                             UNKNOWN :LOCATION
CNTY        .                                      CD. DEL CARMEN :COUNTY
STAT        .                                            CAMPECHE :STATE
CTRY        .                                              MEXICO :COUNTRY
SRVC        .                                             UNKNOWN :SERVICE COMPANY
DATE        .                                             UNKNOWN :LOG DATE
UWI         .                                          3060000607 :UNIQUE WELL ID
XCOORD      .                                       601395.340000 :SURFACE X
YCOORD      .                                      2149877.570000 :SURFACE Y
LAT         .                                           19.441878 :LATITUDE
LON         .                                          -92.034095 :LONGITUDE
ELEV        .M                                            28.0000 :SURFACE ELEV
ELEV_TYPE   .                                                  KB :ELEV TYPE
~CURVE INFORMATION
#MNEMONIC.UNIT        API CODE       : CURVE DESCRIPTION
#------------------------------------------------------------------------------
DEPTH    .M                          : Measured Depth
CALI     .inches      UNKNOWN        : CALI:registros:rC:NONE:v0 (auto-composite)
CGR      .API         UNKNOWN        : CGR:registros:rC:NONE:v0 (auto-composite)
DRHO     .g/cm3       UNKNOWN        : DRHO:registros:rC:NONE:v0 (auto-composite)
DT       .us/ft       UNKNOWN        : DT:registros:rC:NONE:v0 (auto-composite)
GR       .API         UNKNOWN        : GR:registros:rC:NONE:v0 (auto-composite)
ILD      .ohm.m       UNKNOWN        : ILD:registros:rC:NONE:v0 (auto-composite)
ILM      .ohm.m       UNKNOWN        : ILM:registros:rC:NONE:v0 (auto-composite)
LLD      .ohm.m       UNKNOWN        : LLD:registros:rC:NONE:v0 (auto-composite)
LLS      .ohm.m       UNKNOWN        : LLS:registros:rC:NONE:v0 (auto-composite)
MSFL     .ohm.m       UNKNOWN        : MSFL:registros:rC:NONE:v0 (auto-composite)
NPHI     .UNKNOWN     UNKNOWN        : NPHI:registros:rC:NONE:v0 (auto-composite)
PEF      .UNKNOWN     UNKNOWN        : PEF:registros:rC:NONE:v0 (auto-composite)
POTA     .UNKNOWN     UNKNOWN        : POTA:registros:rC:NONE:v0 (auto-composite)
RHOB     .g/cm3       UNKNOWN        : RHOB:registros:rC:NONE:v0 (auto-composite)
SP       .mV          UNKNOWN        : SP:registros:rC:NONE:v0 (auto-composite)
THOR     .ppm         UNKNOWN        : THOR:registros:rC:NONE:v0 (auto-composite)
URAN     .ppm         UNKNOWN        : URAN:registros:rC:NONE:v0 (auto-composite)
~A     DEPTH         CALI          CGR         DRHO           DT           GR          ILD          ILM          LLD          LLS         MSFL         NPHI          PEF         POTA         RHOB           SP         THOR         URAN
# ...
   2941.6248       6.3973       9.4279      -0.0053      63.5781      57.1871    -999.2500    -999.2500     171.0737     156.3544      40.1253       0.1352       2.9268       0.0050       2.5490    -999.2500       0.1285       5.6754
   2941.7771       6.3937      11.1122      -0.0102      65.5203      59.3287    -999.2500    -999.2500     165.5479     148.4984      81.7134       0.1372       2.8616       0.0056       2.5392    -999.2500       0.2920       5.7297
   2941.9297       6.3921      12.9071      -0.0154      67.5515      61.5834    -999.2500    -999.2500     156.3155     138.5375     130.6297       0.1415       2.7951       0.0060       2.5265    -999.2500       0.4619       5.7843
   2942.0820       6.3920      12.9023      -0.0159      68.3917      61.2676    -999.2500    -999.2500     135.0161     117.3405     128.5282       0.1494       2.8096       0.0070       2.5045    -999.2500       0.4195       5.7478
   2942.2344       6.3920      12.8264      -0.0147      69.2488      60.8566    -999.2500    -999.2500     112.7716      95.5773     113.7637       0.1592       2.8421       0.0070       2.4834    -999.2500       0.3701       5.7074
   2942.3867       6.3920      13.3141      -0.0140      70.7223      61.2781    -999.2500    -999.2500      92.5262      76.8687      74.5354       0.1695       2.9046       0.0070       2.4703    -999.2500       0.3916       5.6995
   2942.5391       6.3927      12.7577      -0.0133      72.5274      60.1488    -999.2500    -999.2500      73.9644      60.0903      36.3864       0.1773       2.9593       0.0070       2.4623    -999.2500       0.2941       5.6314
   2942.6917       6.3959       7.1191      -0.0120      75.0576      51.4747    -999.2500    -999.2500      60.3977      48.1983      29.8141       0.1803       2.9518       0.0051       2.4639    -999.2500      -0.3900       5.2711
   2942.8440       6.4008       1.1383      -0.0108      77.7688      42.3216    -999.2500    -999.2500      49.7070      38.8837      31.1752       0.1812       2.9390       0.0030       2.4691    -999.2500      -1.1091       4.8938
   2942.9963       6.4137       0.5239      -0.0092      80.5566      41.3214    -999.2500    -999.2500      49.9953      38.8037      36.3792       0.1826       2.9848       0.0030       2.4837    -999.2500      -1.1791       4.8480
   2943.1487       6.4247       0.9216      -0.0068      82.7623      41.8600    -999.2500    -999.2500      54.5523      41.7283      54.4141       0.1834       3.0274       0.0030       2.5002    -999.2500      -1.1271       4.8651
   2943.3013       6.4253       1.8615      -0.0052      83.1283      43.2270    -999.2500    -999.2500      66.9951      49.4786     110.1637       0.1822       3.0328       0.0038       2.5193    -999.2500      -1.0081       4.9157
   2943.4536       6.4230       3.0253      -0.0031      82.8958      44.9393    -999.2500    -999.2500      81.0722      58.1758     171.6581       0.1778       3.0238       0.0041       2.5389    -999.2500      -0.8607       4.9804
   2943.6060       6.4233       5.3747      -0.0043      82.2645      48.5398    -999.2500    -999.2500      76.2516      54.0858      96.4397       0.1695       2.9733       0.0053       2.5377    -999.2500      -0.5762       5.1287
   2943.7583       6.4245       8.1561      -0.0040      81.0797      53.8606    -999.2500    -999.2500      68.5943      48.0661      33.5938       0.1619       2.9454       0.0060       2.5350    -999.2500      -0.2384       5.3246
   2943.9109       6.4264      12.0396       0.0006      78.3617      63.8941    -999.2500    -999.2500      54.9566      37.9660      21.5983       0.1588       2.9881       0.0067       2.5287    -999.2500       0.2368       5.6471
   2944.0632       6.4279      16.3078       0.0066      74.8345      74.9066    -999.2500    -999.2500      39.5604      26.7170      28.8356       0.1584       3.0505       0.0079       2.5214    -999.2500       0.7598       5.9925
   2944.2156       6.4303      20.6578       0.0049      66.8905      75.4540    -999.2500    -999.2500      29.1250      19.6794      63.1799       0.1586       3.0378       0.0091       2.5095    -999.2500       1.3046       6.0017
   2944.3679       6.4335      23.9258       0.0040      60.2990      74.9693    -999.2500    -999.2500      21.5680      14.5252      90.7149       0.1594       3.0095       0.0096       2.5039    -999.2500       1.7207       5.9727
   2944.5203       6.4389      23.6751       0.0040      58.9197      73.1785    -999.2500    -999.2500      22.3667      14.6508      90.9317       0.1612       2.9483       0.0084       2.5196    -999.2500       1.7203       5.8855
   2944.6729       6.4450      22.1425       0.0040      59.7156      70.6819    -999.2500    -999.2500      25.2095      16.0293      81.8863       0.1670       2.8877       0.0072       2.5359    -999.2500       1.5697       5.7685
   2944.8252       6.4522      19.4818      -0.0011      63.8707      66.4762    -999.2500    -999.2500      25.0908      15.3195      68.0163       0.1789       2.8893       0.0070       2.5165    -999.2500       1.2937       5.5849
   2944.9775       6.4605      16.9860      -0.0060      69.5053      62.4368    -999.2500    -999.2500      24.3671      14.4283      57.2763       0.1898       2.9054       0.0070       2.4958    -999.2500       1.0269       5.4016
   2945.1299       6.4682      16.1357      -0.0060      79.2734      60.5003    -999.2500    -999.2500      23.1997      14.3473      64.6584       0.1925       2.9394       0.0070       2.4973    -999.2500       0.9003       5.2724
   2945.2825       6.4775      15.4377      -0.0053      87.8201      58.6837    -999.2500    -999.2500      22.8965      14.8253      72.7411       0.1889       2.9615       0.0070       2.5048    -999.2500       0.7815       5.1397
   2945.4348       6.4899      14.0283      -0.0059      88.8828      55.6911    -999.2500    -999.2500      26.0318      16.6895      69.4923       0.1813       2.9270       0.0070       2.5178    -999.2500       0.5808       4.9513
   2945.5872       6.5026      12.6960      -0.0068      87.7217      52.8463    -999.2500    -999.2500      29.6024      18.6422      64.1009       0.1713       2.8862       0.0070       2.5341    -999.2500       0.3837       4.7713
   2945.7395       6.5087      13.9112      -0.0040      84.9182      54.4203    -999.2500    -999.2500      28.4011      17.8627      67.7716       0.1602       2.9209       0.0073       2.5555    -999.2500       0.4197       4.8134
   2945.8921       6.5131      16.9972      -0.0014      81.9219      58.3895    -999.2500    -999.2500      26.0021      16.3325      64.5840       0.1505       2.9507       0.0091       2.5730    -999.2500       0.5293       4.9185
   2946.0444       6.5132      24.8206      -0.0018      78.8529      68.0738    -999.2500    -999.2500      21.5332      13.4241      38.3743       0.1439       2.9443       0.0131       2.5747    -999.2500       0.7848       5.1398
   2946.1968       6.5130      34.2030      -0.0020      75.7710      79.6370    -999.2500    -999.2500      16.3890      10.0660       4.5260       0.1415       2.9250       0.0180       2.5720    -999.2500       1.0880       5.3990
   2946.3491       6.5130      32.9795      -0.0008      73.1850      76.4715    -999.2500    -999.2500      17.8140      10.6849       5.1060       0.1463       3.0222       0.0178       2.5381    -999.2500       0.9360       5.1679
   2946.5015       6.5152      31.1787       0.0004      70.6058      72.1445    -999.2500    -999.2500      19.8497      11.6204       5.9797       0.1627       3.0967       0.0166       2.5122    -999.2500       0.7503       4.8671
   2946.6541       6.5232      27.6697       0.0030      68.0172      64.3678    -999.2500    -999.2500      23.7000      13.4934       7.7234       0.1937       3.1078       0.0153       2.5073    -999.2500       0.4648       4.3603
   2946.8064       6.5339      23.5868       0.0058      65.8584      55.6449    -999.2500    -999.2500      27.6319      15.4299       9.4926       0.2227       3.0954       0.0141       2.5115    -999.2500       0.1632       3.8085
