#------------------------------------------------------------------------------
#
#   Created by  : [OpenWorks] Log Export Utility (LEXP)
#   Created on  : 2016-05-11 12:13:44
#   Project     : CANT971
#   User        : R5K
#   Interpreter : PEP
#
#------------------------------------------------------------------------------
~VERSION INFORMATION
VERS. 2.0 : CWLS Log ASCII Standard - version 2.0
WRAP.  NO : One line per depth step
~WELL INFORMATION
#MNEMONIC   .UNIT                                           VALUE :DESCRIPTION
#------------------------------------------------------------------------------
STRT        .M                                           727.2530 :START DEPTH
STOP        .M                                          3766.1089 :STOP DEPTH
STEP        .M                                             0.1524 :STEP
NULL        .                                           -999.2500 :NULL VALUE
COMP        .                                   PEMEX EXPL & PROD :COMPANY
WELL        .                                                  99 :WELL
FLD         .                                           CANTARELL :FIELD
LOC         .                                             UNKNOWN :LOCATION
CNTY        .                                      CD. DEL CARMEN :COUNTY
STAT        .                                            CAMPECHE :STATE
CTRY        .                                              MEXICO :COUNTRY
SRVC        .                                             UNKNOWN :SERVICE COMPANY
DATE        .                                             UNKNOWN :LOG DATE
UWI         .                                          3060000617 :UNIQUE WELL ID
XCOORD      .                                       601388.490000 :SURFACE X
YCOORD      .                                      2149874.120000 :SURFACE Y
LAT         .                                           19.441847 :LATITUDE
LON         .                                          -92.034160 :LONGITUDE
ELEV        .M                                            28.0000 :SURFACE ELEV
ELEV_TYPE   .                                                  KB :ELEV TYPE
~CURVE INFORMATION
#MNEMONIC.UNIT        API CODE       : CURVE DESCRIPTION
#------------------------------------------------------------------------------
DEPTH    .M                          : Measured Depth
CALI     .inches      UNKNOWN        : CALI:Import:rC:NONE:v0 (auto-composite)
DRHO     .g/cm3       UNKNOWN        : DRHO:Import:rC:NONE:v0 (auto-composite)
DT       .us/ft       UNKNOWN        : DT:Import:rC:NONE:v0 (auto-composite)
GR       .API         UNKNOWN        : GR:Import:rC:NONE:v0 (auto-composite)
ILD      .ohm.m       UNKNOWN        : ILD:Import:rC:NONE:v0 (auto-composite)
ILM      .ohm.m       UNKNOWN        : ILM:Import:rC:NONE:v0 (auto-composite)
LLD      .ohm.m       UNKNOWN        : LLD:Import:rC:NONE:v0 (auto-composite)
LLS      .ohm.m       UNKNOWN        : LLS:Import:rC:NONE:v0 (auto-composite)
MSFL     .ohm.m       UNKNOWN        : MSFL:Import:rC:NONE:v0 (auto-composite)
NPHI     .v/v_decimal UNKNOWN        : NPHI:Import:rC:NONE:v0 (auto-composite)
PEF      .b/elec      UNKNOWN        : PEF:Import:rC:NONE:v0 (auto-composite)
RHOB     .g/cm3       UNKNOWN        : RHOB:Import:rC:NONE:v0 (auto-composite)
~A     DEPTH         CALI         DRHO           DT           GR          ILD          ILM          LLD          LLS         MSFL         NPHI          PEF         RHOB
# ...
   2812.0850       9.8590       0.0230      89.3000     277.3750    -999.2500    -999.2500       3.2000       2.1940       3.7850       0.3280       3.6290       2.3840
   2812.2373       9.8340       0.0220      88.2180     276.0030    -999.2500    -999.2500       2.7140       1.9650       4.0080       0.3216       3.6780       2.3870
   2812.3899       9.8090       0.0210      87.1350     274.6280    -999.2500    -999.2500       2.3020       1.7600       4.2460       0.3153       3.7260       2.3890
   2812.5422       9.5700       0.0170      84.0090     265.9910    -999.2500    -999.2500       2.6630       2.0680       4.5130       0.3182       3.8240       2.4030
   2812.6946       9.5700       0.0130      80.8830     257.3540    -999.2500    -999.2500       2.6630       2.0680       4.7980       0.3181       3.9210       2.4170
   2812.8469       9.6330       0.0070      78.1440     233.6110    -999.2500    -999.2500       2.6080       2.0450       5.4700       0.3126       4.0500       2.4410
   2812.9995       9.6950       0.0000      75.4000     209.8300    -999.2500    -999.2500       2.5550       2.0220       6.2380       0.3062       4.1800       2.4650
   2813.1519       9.6910       0.0020      75.7500     176.1150    -999.2500    -999.2500       2.5600       2.0280       6.7320       0.2703       4.1700       2.4780
   2813.3042       9.6880       0.0040      76.1000     142.4000    -999.2500    -999.2500       2.5650       2.0340       7.2660       0.2345       4.1610       2.4910
   2813.4565       9.5780       0.0030      75.0000      88.3750    -999.2500    -999.2500       2.6770       2.1170       6.3520       0.2354       3.9610       2.4800
   2813.6089       9.5780       0.0030      75.0000      88.3750    -999.2500    -999.2500       2.7930       2.2030       6.3520       0.2371       3.9610       2.4800
   2813.7615       9.5950       0.0030      75.4610      88.6880    -999.2500    -999.2500       3.0850       2.4540       6.4870       0.2423       4.0350       2.4940
   2813.9138       9.6120       0.0040      75.9210      89.0000    -999.2500    -999.2500       3.4070       2.7330       6.6260       0.2472       4.1100       2.5080
   2814.0662       9.7110       0.0040      80.0000      88.2890    -999.2500    -999.2500       3.0330       2.5850       8.3130       0.2357       4.5980       2.5040
   2814.2185       9.7110       0.0030      80.0000      87.5790    -999.2500    -999.2500       3.0330       2.5850       8.3130       0.2356       4.5980       2.5000
   2814.3711       9.6410       0.0000      79.5690      85.4170    -999.2500    -999.2500       3.2100       2.7620       7.3850       0.2409       4.3890       2.4760
   2814.5234       9.5700      -0.0040      79.1390      83.2590    -999.2500    -999.2500       3.3980       2.9500       6.5630       0.2461       4.1800       2.4520
   2814.6758       9.6950      -0.0040      75.9000      80.9770    -999.2500    -999.2500       2.9620       2.8280       6.8570       0.2361       4.4800       2.4540
   2814.8281       9.6950      -0.0040      75.9000      78.6940    -999.2500    -999.2500       2.9620       2.8280       7.1640       0.2359       4.4800       2.4560
   2814.9805       9.6770      -0.0010      75.9330      76.9420    -999.2500    -999.2500       3.1680       3.1770       7.9240       0.2364       4.4750       2.4690
   2815.1331       9.6590       0.0020      75.9670      75.1870    -999.2500    -999.2500       3.3890       3.5700       8.7650       0.2370       4.4690       2.4830
   2815.2854       9.5700      -0.0040      76.2840      75.8750    -999.2500    -999.2500       4.4480       3.5160       9.0260       0.2460       4.3120       2.4490
   2815.4377       9.5700      -0.0040      76.6020      75.8750    -999.2500    -999.2500       4.4480       3.5160       9.2940       0.2462       4.1560       2.4490
   2815.5901       9.5740       0.0010      77.1500      75.0990    -999.2500    -999.2500       4.2230       3.6870       9.4120       0.2441       3.8620       2.4550
   2815.7427       9.5780       0.0060      77.7000      74.3210    -999.2500    -999.2500       4.0080       3.8680       9.5310       0.2419       3.5680       2.4610
   2815.8950       9.5700       0.0050      77.1000      72.7010    -999.2500    -999.2500       4.2740       3.8580       9.6810       0.2433       3.5350       2.4910
   2816.0474       9.5700       0.0050      77.1000      71.0820    -999.2500    -999.2500       4.2740       3.8490       9.8330       0.2446       3.5350       2.4910
   2816.1997       9.5700       0.0040      77.3000      70.3450    -999.2500    -999.2500       4.1150       3.7410      10.4110       0.2514       3.5670       2.4870
   2816.3523       9.5700       0.0020      77.5000      69.6080    -999.2500    -999.2500       3.9620       3.6360      11.0230       0.2582       3.6000       2.4830
   2816.5046       9.5700      -0.0050      77.3300      68.4700    -999.2500    -999.2500       4.0090       3.7620      10.4220       0.2546       3.5250       2.4340
   2816.6570       9.5700      -0.0050      77.1610      67.3330    -999.2500    -999.2500       4.0090       3.7620      10.4220       0.2510       3.5250       2.4340
   2816.8093       9.5250      -0.0050      76.3640      67.0000    -999.2500    -999.2500       3.7920       3.7040      11.3130       0.2277       3.6870       2.4500
   2816.9617       9.5250      -0.0050      76.3640      67.0000    -999.2500    -999.2500       3.7920       3.7040      11.3130       0.2276       3.6870       2.4500
   2817.1143       9.4770      -0.0040      76.0440      67.0960    -999.2500    -999.2500       4.1060       3.7140      10.8050       0.2318       3.6670       2.4480
   2817.2666       9.4300      -0.0040      75.7240      67.1920    -999.2500    -999.2500       4.4460       3.7250      10.3200       0.2360       3.6470       2.4470
   2817.4189       9.4300      -0.0030      75.3620      68.0940    -999.2500    -999.2500       4.4210       4.3610      10.5640       0.2336       3.5900       2.4500
   2817.5713       9.4300      -0.0020      75.0000      68.9960    -999.2500    -999.2500       4.3950       4.3610      10.8140       0.2313       3.5320       2.4530
   2817.7239       9.4690      -0.0020      74.6210      70.3960    -999.2500    -999.2500       4.2940       4.3080      12.1530       0.2261       3.4070       2.4630
   2817.8762       9.5080      -0.0010      74.2430      71.7930    -999.2500    -999.2500       4.1960       4.2550      13.6560       0.2209       3.2810       2.4730
   2818.0286       9.2810       0.0000      72.9700      72.6870    -999.2500    -999.2500       4.3070       4.4020      13.1250       0.2190       3.6150       2.4840
   2818.1809       9.2810       0.0020      71.6970      72.6870    -999.2500    -999.2500       4.4200       4.5550      13.1250       0.2171       3.6150       2.4950
   2818.3335       9.2810       0.0040      69.4460      71.3980    -999.2500    -999.2500       4.6640       4.8630      13.6430       0.2137       3.5940       2.5080
   2818.4858       9.2810       0.0070      67.2000      70.1110    -999.2500    -999.2500       4.9220       5.1910      14.1800       0.2102       3.5730       2.5210
   2818.6382       9.2620       0.0100      67.2170      60.6870    -999.2500    -999.2500       5.0510       5.2600      16.4370       0.2044       3.4650       2.5340
   2818.7905       9.2430       0.0100      67.2350      60.6870    -999.2500    -999.2500       5.1840       5.3300      16.4370       0.1985       3.4650       2.5460
   2818.9429       9.1920       0.0100      67.4420      61.0910    -999.2500    -999.2500       5.4410       5.5370      16.3280       0.1932       3.5970       2.5510
   2819.0955       9.1410       0.0100      67.6490      61.4940    -999.2500    -999.2500       5.7120       5.7510      16.2190       0.1880       3.7290       2.5550
   2819.2478       9.1480       0.0110      68.1840      62.6300    -999.2500    -999.2500       6.7680       5.9590      16.5070       0.1889       3.6920       2.5510
