#------------------------------------------------------------------------------
#
#   Created by  : [OpenWorks] Log Export Utility (LEXP)
#   Created on  : 2016-05-11 12:13:44
#   Project     : CANT971
#   User        : R5K
#   Interpreter : PEP
#
#------------------------------------------------------------------------------
~VERSION INFORMATION
VERS. 2.0 : CWLS Log ASCII Standard - version 2.0
WRAP.  NO : One line per depth step
~WELL INFORMATION
#MNEMONIC   .UNIT                                           VALUE :DESCRIPTION
#------------------------------------------------------------------------------
STRT        .M                                           727.2530 :START DEPTH
STOP        .M                                          3766.1089 :STOP DEPTH
STEP        .M                                             0.1524 :STEP
NULL        .                                           -999.2500 :NULL VALUE
COMP        .                                   PEMEX EXPL & PROD :COMPANY
WELL        .                                                  99 :WELL
FLD         .                                           CANTARELL :FIELD
LOC         .                                             UNKNOWN :LOCATION
CNTY        .                                      CD. DEL CARMEN :COUNTY
STAT        .                                            CAMPECHE :STATE
CTRY        .                                              MEXICO :COUNTRY
SRVC        .                                             UNKNOWN :SERVICE COMPANY
DATE        .                                             UNKNOWN :LOG DATE
UWI         .                                          3060000617 :UNIQUE WELL ID
XCOORD      .                                       601388.490000 :SURFACE X
YCOORD      .                                      2149874.120000 :SURFACE Y
LAT         .                                           19.441847 :LATITUDE
LON         .                                          -92.034160 :LONGITUDE
ELEV        .M                                            28.0000 :SURFACE ELEV
ELEV_TYPE   .                                                  KB :ELEV TYPE
~CURVE INFORMATION
#MNEMONIC.UNIT        API CODE       : CURVE DESCRIPTION
#------------------------------------------------------------------------------
DEPTH    .M                          : Measured Depth
CALI     .inches      UNKNOWN        : CALI:Import:rC:NONE:v0 (auto-composite)
DRHO     .g/cm3       UNKNOWN        : DRHO:Import:rC:NONE:v0 (auto-composite)
DT       .us/ft       UNKNOWN        : DT:Import:rC:NONE:v0 (auto-composite)
GR       .API         UNKNOWN        : GR:Import:rC:NONE:v0 (auto-composite)
ILD      .ohm.m       UNKNOWN        : ILD:Import:rC:NONE:v0 (auto-composite)
ILM      .ohm.m       UNKNOWN        : ILM:Import:rC:NONE:v0 (auto-composite)
LLD      .ohm.m       UNKNOWN        : LLD:Import:rC:NONE:v0 (auto-composite)
LLS      .ohm.m       UNKNOWN        : LLS:Import:rC:NONE:v0 (auto-composite)
MSFL     .ohm.m       UNKNOWN        : MSFL:Import:rC:NONE:v0 (auto-composite)
NPHI     .v/v_decimal UNKNOWN        : NPHI:Import:rC:NONE:v0 (auto-composite)
PEF      .b/elec      UNKNOWN        : PEF:Import:rC:NONE:v0 (auto-composite)
RHOB     .g/cm3       UNKNOWN        : RHOB:Import:rC:NONE:v0 (auto-composite)
~A     DEPTH         CALI         DRHO           DT           GR          ILD          ILM          LLD          LLS         MSFL         NPHI          PEF         RHOB
# ...
   3016.9106       6.2910       0.0010    -999.2500      79.9250    -999.2500    -999.2500      37.2980      29.4670      16.7000       0.1313       3.1270       2.6440
   3017.0630       6.3110       0.0000    -999.2500      85.5190    -999.2500    -999.2500      37.2970      29.4670       9.5830       0.1339       3.1350       2.6290
   3017.2153       6.3430       0.0010    -999.2500      85.5100    -999.2500    -999.2500      36.9470      29.3170       9.5860       0.1398       2.9820       2.6200
   3017.3677       6.3430       0.0030    -999.2500      82.7300    -999.2500    -999.2500      30.8840      24.2080      10.4280       0.1395       3.1850       2.6160
   3017.5203       6.3100       0.0060    -999.2500      75.4510    -999.2500    -999.2500      28.2630      21.9470      14.2770       0.1396       2.9220       2.6290
   3017.6726       6.3100       0.0030    -999.2500      75.4660    -999.2500    -999.2500      26.8070      21.0900      14.2820       0.1332       3.2260       2.6300
   3017.8250       6.3350       0.0020    -999.2500      79.4230    -999.2500    -999.2500      26.8070      20.3150      15.4170       0.1332       3.0740       2.6490
   3017.9773       6.3350       0.0020    -999.2500      79.4150    -999.2500    -999.2500      28.8040      21.4530      17.1580       0.1349       3.1900       2.6670
   3018.1299       6.2770       0.0050    -999.2500      76.8720    -999.2500    -999.2500      28.8040      21.4530      29.8890       0.1283       3.0400       2.6940
   3018.2822       6.2490       0.0080    -999.2500      67.4730    -999.2500    -999.2500      28.1330      21.0750      35.8140       0.1124       3.1700       2.7070
   3018.4346       6.2780       0.0210    -999.2500      67.4810    -999.2500    -999.2500      29.9910      22.4480      33.3360       0.1101       3.1700       2.7060
   3018.5869       6.3430       0.0570    -999.2500      69.1310    -999.2500    -999.2500      32.7200      24.7250      33.3760       0.1123       3.0360       2.7030
   3018.7395       6.3540       0.0750    -999.2500      72.7640    -999.2500    -999.2500      37.4360      28.2300      70.2510       0.1237       3.1840       2.6560
   3018.8918       6.4030       0.0800    -999.2500      75.8580    -999.2500    -999.2500      45.0850      34.0030      82.1540       0.1418       2.9300       2.6160
   3019.0442       6.4050       0.0770    -999.2500      74.4940    -999.2500    -999.2500      53.4600      39.8460      38.9990       0.1662       2.7820       2.5810
   3019.1965       6.3430       0.0720    -999.2500      67.8900    -999.2500    -999.2500      49.4550      35.7270      11.4300       0.1910       2.7820       2.5830
   3019.3489       6.3430       0.0410    -999.2500      58.6240    -999.2500    -999.2500      35.1760      24.8910       9.2580       0.2069       2.9070       2.5530
   3019.5015       6.3610       0.0140    -999.2500      51.9800    -999.2500    -999.2500      24.3370      17.3100       6.5810       0.2081       2.8650       2.5480
   3019.6538       6.3740       0.0120    -999.2500      51.6050    -999.2500    -999.2500      17.3260      12.5690       7.6800       0.2077       2.8510       2.5410
   3019.8062       6.3980       0.0020    -999.2500      53.5450    -999.2500    -999.2500      13.9220      10.3820       5.7540       0.2058       3.0560       2.5350
   3019.9585       6.3430       0.0020    -999.2500      53.4330    -999.2500    -999.2500      13.9290      10.5310       8.9660       0.2079       3.0560       2.5100
   3020.1111       6.3430       0.0040    -999.2500      50.5750    -999.2500    -999.2500      15.3720      11.8890       8.9660       0.2044       3.0210       2.5050
   3020.2634       6.3660       0.0090    -999.2500      48.3210    -999.2500    -999.2500      16.6590      12.9870       8.1580       0.2088       2.8270       2.5310
   3020.4158       6.3780       0.0060    -999.2500      47.6800    -999.2500    -999.2500      17.0180      13.4200       8.3370       0.2122       2.8080       2.5260
   3020.5681       6.2540       0.0030    -999.2500      41.8130    -999.2500    -999.2500      17.5330      13.4730       8.3070       0.2084       2.8460       2.5330
   3020.7207       6.2540       0.0040    -999.2500      41.8150    -999.2500    -999.2500      18.4220      14.3720      14.8390       0.1942       2.9440       2.5400
   3020.8730       6.3040       0.0050    -999.2500      42.1830    -999.2500    -999.2500      19.5140      15.0970      16.0500       0.1858       2.9400       2.5910
   3021.0254       6.3300       0.0050    -999.2500      43.4610    -999.2500    -999.2500      22.0350      16.6830      24.2170       0.1698       2.9520       2.6390
   3021.1777       6.3030       0.0050    -999.2500      45.4330    -999.2500    -999.2500      25.8190      19.1750      17.5430       0.1499       2.9760       2.6610
   3021.3301       6.2800       0.0050    -999.2500      44.5260    -999.2500    -999.2500      32.1640      23.4790       8.4400       0.1245       3.0420       2.6500
   3021.4827       6.3290       0.0100    -999.2500      44.9140    -999.2500    -999.2500      39.0930      28.1990      17.7590       0.1173       3.1960       2.6340
   3021.6350       6.4010       0.0150    -999.2500      44.5640    -999.2500    -999.2500      45.7370      32.7650      17.7530       0.1228       3.1070       2.6140
   3021.7874       6.4050       0.0320    -999.2500      43.9040    -999.2500    -999.2500      45.7290      32.7610      14.5050       0.1340       3.2230       2.5880
   3021.9397       6.4540       0.0530    -999.2500      43.6900    -999.2500    -999.2500      43.1860      31.5460       7.7430       0.1405       3.1520       2.5190
   3022.0923       6.4530       0.0430    -999.2500      44.7430    -999.2500    -999.2500      39.0890      29.2880       1.2220       0.1605       3.0980       2.4180
   3022.2446       6.4130       0.0190    -999.2500      48.2530    -999.2500    -999.2500      32.5550      25.2440       1.2240       0.2062       2.8530       2.3470
   3022.3970       6.4130       0.0170    -999.2500      54.1400    -999.2500    -999.2500      23.4400      18.7310      11.0720       0.2430       2.9730       2.3900
   3022.5493       6.4850       0.0430    -999.2500      56.3610    -999.2500    -999.2500      14.8460      12.4450      11.0590       0.2377       3.0510       2.4820
   3022.7019       6.4850       0.0110    -999.2500      58.7520    -999.2500    -999.2500      11.1980       9.6540       7.6800       0.1988       2.8190       2.3620
   3022.8542       6.4350      -0.0050    -999.2500      63.1370    -999.2500    -999.2500      11.3580       9.7530       7.0910       0.1923       2.6740       2.2410
   3023.0066       6.3570      -0.0090    -999.2500      63.1130    -999.2500    -999.2500      11.3570       9.7520       0.7730       0.2517       2.5950       2.2080
   3023.1589       6.2710       0.0030    -999.2500      58.0470    -999.2500    -999.2500      11.1690       9.6000       0.7770       0.3141       3.2160       2.3590
   3023.3113       6.2000       0.0150    -999.2500      51.4600    -999.2500    -999.2500       9.8950       8.8880      28.7810       0.3082       2.9410       2.5310
   3023.4639       6.1580       0.0220    -999.2500      40.4570    -999.2500    -999.2500       9.7700       8.8300      51.5280       0.2212       2.7930       2.6430
   3023.6162       6.1410       0.0180    -999.2500      29.1470    -999.2500    -999.2500      10.9280       9.8290      74.7930       0.0969       2.8710       2.7010
   3023.7686       6.1540       0.0400    -999.2500      29.1510    -999.2500    -999.2500      16.1620      14.5620      74.7910       0.0820       3.1270       2.7010
   3023.9209       6.1540       0.0400    -999.2500      29.9390    -999.2500    -999.2500      76.1380      70.9570      21.8800       0.0836       3.1270       2.6840
   3024.0735       6.1520       0.0270    -999.2500      34.3230    -999.2500    -999.2500      76.1330      70.9410      21.8960       0.0980       2.9380       2.6310
