#------------------------------------------------------------------------------
#
#   Created by  : [OpenWorks] Log Export Utility (LEXP)
#   Created on  : 2016-05-11 12:13:44
#   Project     : CANT971
#   User        : R5K
#   Interpreter : PEP
#
#------------------------------------------------------------------------------
~VERSION INFORMATION
VERS. 2.0 : CWLS Log ASCII Standard - version 2.0
WRAP.  NO : One line per depth step
~WELL INFORMATION
#MNEMONIC   .UNIT                                           VALUE :DESCRIPTION
#------------------------------------------------------------------------------
STRT        .M                                           727.2530 :START DEPTH
STOP        .M                                          3766.1089 :STOP DEPTH
STEP        .M                                             0.1524 :STEP
NULL        .                                           -999.2500 :NULL VALUE
COMP        .                                   PEMEX EXPL & PROD :COMPANY
WELL        .                                                  99 :WELL
FLD         .                                           CANTARELL :FIELD
LOC         .                                             UNKNOWN :LOCATION
CNTY        .                                      CD. DEL CARMEN :COUNTY
STAT        .                                            CAMPECHE :STATE
CTRY        .                                              MEXICO :COUNTRY
SRVC        .                                             UNKNOWN :SERVICE COMPANY
DATE        .                                             UNKNOWN :LOG DATE
UWI         .                                          3060000617 :UNIQUE WELL ID
XCOORD      .                                       601388.490000 :SURFACE X
YCOORD      .                                      2149874.120000 :SURFACE Y
LAT         .                                           19.441847 :LATITUDE
LON         .                                          -92.034160 :LONGITUDE
ELEV        .M                                            28.0000 :SURFACE ELEV
ELEV_TYPE   .                                                  KB :ELEV TYPE
~CURVE INFORMATION
#MNEMONIC.UNIT        API CODE       : CURVE DESCRIPTION
#------------------------------------------------------------------------------
DEPTH    .M                          : Measured Depth
CALI     .inches      UNKNOWN        : CALI:Import:rC:NONE:v0 (auto-composite)
DRHO     .g/cm3       UNKNOWN        : DRHO:Import:rC:NONE:v0 (auto-composite)
DT       .us/ft       UNKNOWN        : DT:Import:rC:NONE:v0 (auto-composite)
GR       .API         UNKNOWN        : GR:Import:rC:NONE:v0 (auto-composite)
ILD      .ohm.m       UNKNOWN        : ILD:Import:rC:NONE:v0 (auto-composite)
ILM      .ohm.m       UNKNOWN        : ILM:Import:rC:NONE:v0 (auto-composite)
LLD      .ohm.m       UNKNOWN        : LLD:Import:rC:NONE:v0 (auto-composite)
LLS      .ohm.m       UNKNOWN        : LLS:Import:rC:NONE:v0 (auto-composite)
MSFL     .ohm.m       UNKNOWN        : MSFL:Import:rC:NONE:v0 (auto-composite)
NPHI     .v/v_decimal UNKNOWN        : NPHI:Import:rC:NONE:v0 (auto-composite)
PEF      .b/elec      UNKNOWN        : PEF:Import:rC:NONE:v0 (auto-composite)
RHOB     .g/cm3       UNKNOWN        : RHOB:Import:rC:NONE:v0 (auto-composite)
~A     DEPTH         CALI         DRHO           DT           GR          ILD          ILM          LLD          LLS         MSFL         NPHI          PEF         RHOB
# ...
   3550.9202       6.1590       0.0230    -999.2500      38.1680    -999.2500    -999.2500     109.9480      81.2640       7.2960       0.0753       3.2690       2.7590
   3551.0725       6.1890       0.0440    -999.2500      34.6700    -999.2500    -999.2500     107.1820      79.5720       7.3400       0.0750       3.1450       2.7590
   3551.2251       6.1890       0.0560    -999.2500      33.9610    -999.2500    -999.2500     107.1820      79.5720      25.5550       0.0747       3.2240       2.7570
   3551.3774       6.1530       0.0420    -999.2500      31.5060    -999.2500    -999.2500     112.7100      83.5010     107.3510       0.0733       3.0600       2.7430
   3551.5298       6.1440       0.0250    -999.2500      30.7180    -999.2500    -999.2500     104.2140      76.8640      37.3220       0.0742       3.0220       2.7070
   3551.6821       6.1040       0.0350    -999.2500      30.4800    -999.2500    -999.2500      80.8400      59.0060      14.0100       0.0823       3.1160       2.7180
   3551.8345       6.1400       0.0290    -999.2500      39.7400    -999.2500    -999.2500      59.7990      44.2630      22.1640       0.0926       2.9720       2.7090
   3551.9871       6.1340       0.0090    -999.2500      39.7400    -999.2500    -999.2500      59.7990      44.2630      22.1640       0.0993       3.0370       2.7060
   3552.1394       6.1400       0.0040    -999.2500      38.8040    -999.2500    -999.2500      65.8330      48.7840      16.7240       0.0948       2.9810       2.7490
   3552.2917       6.0930       0.0060    -999.2500      36.1680    -999.2500    -999.2500      78.0600      57.7070      15.0640       0.0819       3.1390       2.7670
   3552.4441       6.2050      -0.0010    -999.2500      23.9440    -999.2500    -999.2500     104.9600      75.8990      34.9840       0.0682       3.1150       2.7500
   3552.5967       6.2050      -0.0060    -999.2500      23.9520    -999.2500    -999.2500     158.5730     112.6060      19.8840       0.0629       3.0440       2.6850
   3552.7490       6.1410      -0.0020    -999.2500      25.5490    -999.2500    -999.2500     158.5730     112.6060      22.4560       0.0702       3.1240       2.6740
   3552.9014       6.1400       0.0010    -999.2500      31.3210    -999.2500    -999.2500     152.5320     106.5120      14.9850       0.0857       3.1750       2.6930
   3553.0537       6.1960       0.0030    -999.2500      35.6790    -999.2500    -999.2500     137.5830      96.0700      26.0450       0.0997       3.3960       2.7550
   3553.2063       6.1400       0.0030    -999.2500      37.2500    -999.2500    -999.2500     113.9380      80.0340      18.8650       0.1035       3.5260       2.7810
   3553.3586       6.1620       0.0010    -999.2500      37.2490    -999.2500    -999.2500      85.2000      60.5320      43.1370       0.0918       3.3100       2.7560
   3553.5110       6.1550      -0.0030    -999.2500      37.0630    -999.2500    -999.2500      85.2200      60.5470      43.1260       0.0728       3.3470       2.7180
   3553.6633       6.1840      -0.0020    -999.2500      34.7270    -999.2500    -999.2500      98.7360      70.4080      10.3650       0.0595       3.3370       2.7110
   3553.8157       6.1840       0.0060    -999.2500      31.3340    -999.2500    -999.2500     120.1820      86.2280      10.3650       0.0614       3.6680       2.7310
   3553.9683       6.1770       0.0090    -999.2500      29.5300    -999.2500    -999.2500     146.7520     107.1760      17.6800       0.0723       3.5780       2.7600
   3554.1206       6.1550       0.0040    -999.2500      34.0930    -999.2500    -999.2500     124.8060      92.2990      13.5040       0.0795       3.5060       2.7500
   3554.2729       6.1550       0.0000    -999.2500      45.7890    -999.2500    -999.2500     124.8080      92.2990      13.5270       0.0770       3.3240       2.7250
   3554.4253       6.1550       0.0010    -999.2500      44.3670    -999.2500    -999.2500     126.2030      92.3390      68.5600       0.0688       3.4330       2.7210
   3554.5779       6.1550       0.0020    -999.2500      44.3670    -999.2500    -999.2500     140.8410     104.3080      68.5600       0.0648       3.3040       2.7270
   3554.7302       6.0930       0.0060    -999.2500      45.7860    -999.2500    -999.2500     138.5430     105.2530      31.7510       0.0657       3.0590       2.7400
   3554.8826       6.0930       0.0070    -999.2500      51.1970    -999.2500    -999.2500     138.5810     105.2820      48.8000       0.0653       3.0590       2.7420
   3555.0349       6.0930       0.0100    -999.2500      51.1960    -999.2500    -999.2500     146.6990     111.5420      42.3500       0.0601       3.1430       2.7710
   3555.1875       6.1080       0.0200    -999.2500      50.6140    -999.2500    -999.2500     154.8580     119.6170      42.3630       0.0507       3.8110       2.8080
   3555.3398       6.1240       0.0150    -999.2500      45.1360    -999.2500    -999.2500     167.6440     132.2670      46.6080       0.0444       3.6550       2.7950
   3555.4922       6.0930       0.0100    -999.2500      43.9860    -999.2500    -999.2500     167.3320     135.3320      50.2100       0.0420       3.2760       2.7570
   3555.6445       6.0930       0.0190    -999.2500      43.9950    -999.2500    -999.2500     143.5090     118.9190      69.7940       0.0450       3.2770       2.7570
   3555.7969       6.0930       0.0310    -999.2500      43.3030    -999.2500    -999.2500     143.5090     118.9190      69.7940       0.0489       3.4740       2.7850
   3555.9495       6.0950       0.0340    -999.2500      41.7950    -999.2500    -999.2500     159.8490     132.3400      68.6810       0.0513       3.5570       2.8020
   3556.1018       6.0950       0.0430    -999.2500      38.1270    -999.2500    -999.2500     164.6370     135.3800      72.9840       0.0507       3.5680       2.7830
   3556.2542       6.0930       0.0570    -999.2500      34.8370    -999.2500    -999.2500     174.6110     144.5710      81.4050       0.0545       3.2000       2.7310
   3556.4065       6.0660       0.0490    -999.2500      34.8480    -999.2500    -999.2500     161.4970     132.6690      45.7130       0.0657       3.0960       2.7310
   3556.5591       6.0660       0.0520    -999.2500      37.0710    -999.2500    -999.2500     135.4770     110.8240      45.7130       0.0757       2.9360       2.7500
   3556.7114       6.0690       0.0580    -999.2500      40.8660    -999.2500    -999.2500     126.5250     105.4450      50.6300       0.0774       2.9810       2.7760
   3556.8638       6.0680       0.0400    -999.2500      40.9430    -999.2500    -999.2500     129.0020     108.1800      57.4560       0.0706       3.1540       2.7830
   3557.0161       6.1400       0.0210    -999.2500      36.8610    -999.2500    -999.2500     147.7030     127.4880      43.4020       0.0654       3.3610       2.7750
   3557.1687       6.1180       0.0120    -999.2500      36.8630    -999.2500    -999.2500     192.0300     166.5940       0.9610       0.0634       3.1290       2.7640
   3557.3210       6.0730       0.0140    -999.2500      37.2600    -999.2500    -999.2500     192.0300     166.5940       0.9610       0.0646       3.0490       2.7490
   3557.4734       6.0620       0.0120    -999.2500      39.8560    -999.2500    -999.2500     167.7130     146.6240      39.3480       0.0683       3.1210       2.7610
   3557.6257       6.0710       0.0300    -999.2500      39.4320    -999.2500    -999.2500     149.1170     129.3840      34.5060       0.0705       3.1000       2.7430
   3557.7781       6.3080       0.0300    -999.2500      40.1990    -999.2500    -999.2500     105.1850      66.0590     354.9190       0.0809       3.0020       2.6280
   3557.9307       6.3080       0.0080    -999.2500      38.2670    -999.2500    -999.2500      74.3640      66.0610       0.2580       0.0992       2.9520       2.5060
   3558.0830       6.2990       0.0010    -999.2500      34.5940    -999.2500    -999.2500      74.3640      66.4200       0.2580       0.1039       3.1160       2.4930
