#------------------------------------------------------------------------------
#
#   Created by  : [OpenWorks] Log Export Utility (LEXP)
#   Created on  : 2016-05-11 12:13:44
#   Project     : CANT971
#   User        : R5K
#   Interpreter : PEP
#
#------------------------------------------------------------------------------
~VERSION INFORMATION
VERS. 2.0 : CWLS Log ASCII Standard - version 2.0
WRAP.  NO : One line per depth step
~WELL INFORMATION
#MNEMONIC   .UNIT                                           VALUE :DESCRIPTION
#------------------------------------------------------------------------------
STRT        .M                                           727.2530 :START DEPTH
STOP        .M                                          3766.1089 :STOP DEPTH
STEP        .M                                             0.1524 :STEP
NULL        .                                           -999.2500 :NULL VALUE
COMP        .                                   PEMEX EXPL & PROD :COMPANY
WELL        .                                                  99 :WELL
FLD         .                                           CANTARELL :FIELD
LOC         .                                             UNKNOWN :LOCATION
CNTY        .                                      CD. DEL CARMEN :COUNTY
STAT        .                                            CAMPECHE :STATE
CTRY        .                                              MEXICO :COUNTRY
SRVC        .                                             UNKNOWN :SERVICE COMPANY
DATE        .                                             UNKNOWN :LOG DATE
UWI         .                                          3060000617 :UNIQUE WELL ID
XCOORD      .                                       601388.490000 :SURFACE X
YCOORD      .                                      2149874.120000 :SURFACE Y
LAT         .                                           19.441847 :LATITUDE
LON         .                                          -92.034160 :LONGITUDE
ELEV        .M                                            28.0000 :SURFACE ELEV
ELEV_TYPE   .                                                  KB :ELEV TYPE
~CURVE INFORMATION
#MNEMONIC.UNIT        API CODE       : CURVE DESCRIPTION
#------------------------------------------------------------------------------
DEPTH    .M                          : Measured Depth
CALI     .inches      UNKNOWN        : CALI:Import:rC:NONE:v0 (auto-composite)
DRHO     .g/cm3       UNKNOWN        : DRHO:Import:rC:NONE:v0 (auto-composite)
DT       .us/ft       UNKNOWN        : DT:Import:rC:NONE:v0 (auto-composite)
GR       .API         UNKNOWN        : GR:Import:rC:NONE:v0 (auto-composite)
ILD      .ohm.m       UNKNOWN        : ILD:Import:rC:NONE:v0 (auto-composite)
ILM      .ohm.m       UNKNOWN        : ILM:Import:rC:NONE:v0 (auto-composite)
LLD      .ohm.m       UNKNOWN        : LLD:Import:rC:NONE:v0 (auto-composite)
LLS      .ohm.m       UNKNOWN        : LLS:Import:rC:NONE:v0 (auto-composite)
MSFL     .ohm.m       UNKNOWN        : MSFL:Import:rC:NONE:v0 (auto-composite)
NPHI     .v/v_decimal UNKNOWN        : NPHI:Import:rC:NONE:v0 (auto-composite)
PEF      .b/elec      UNKNOWN        : PEF:Import:rC:NONE:v0 (auto-composite)
RHOB     .g/cm3       UNKNOWN        : RHOB:Import:rC:NONE:v0 (auto-composite)
~A     DEPTH         CALI         DRHO           DT           GR          ILD          ILM          LLD          LLS         MSFL         NPHI          PEF         RHOB
# ...
   3353.4099       6.1890       0.0060    -999.2500      19.6750    -999.2500    -999.2500     982.1860    3413.6880     163.1300       0.0236       3.2170       2.8300
   3353.5623       6.2230       0.0050    -999.2500      20.4420    -999.2500    -999.2500    1269.1510    4296.3140     179.0940       0.0230       3.2560       2.8270
   3353.7146       6.2120       0.0020    -999.2500      19.8080    -999.2500    -999.2500    1268.6949    4296.0200     179.1170       0.0224       3.3340       2.8100
   3353.8669       6.1610       0.0030    -999.2500      19.8110    -999.2500    -999.2500    1176.7340    4232.3979     194.5250       0.0232       3.2250       2.8010
   3354.0193       6.1610       0.0010    -999.2500      21.5810    -999.2500    -999.2500     768.5830    2698.8149     193.5650       0.0246       3.1530       2.7910
   3354.1719       6.1740       0.0030    -999.2500      23.0600    -999.2500    -999.2500     570.7570    1976.1090      41.2180       0.0254       3.0400       2.8090
   3354.3242       6.2020       0.0150    -999.2500      24.6640    -999.2500    -999.2500     517.1600    1833.8390      33.2980       0.0270       3.3350       2.8350
   3354.4766       6.1910       0.0090    -999.2500      21.9280    -999.2500    -999.2500     577.1370    2063.0081      13.8980       0.0290       3.5020       2.8100
   3354.6289       6.1890       0.0090    -999.2500      20.6470    -999.2500    -999.2500     576.8880    2062.1379      13.9210       0.0306       3.5020       2.8100
   3354.7815       6.1750       0.0110    -999.2500      20.6470    -999.2500    -999.2500     441.0970    1586.1630      38.1510       0.0312       3.1790       2.8130
   3354.9338       6.1360       0.0090    -999.2500      20.7150    -999.2500    -999.2500     390.7190    1423.8210      47.9050       0.0318       3.2720       2.8010
   3355.0862       6.1240       0.0100    -999.2500      22.8870    -999.2500    -999.2500     372.8500    1317.1930      16.1910       0.0326       3.3910       2.8100
   3355.2385       6.1340       0.0080    -999.2500      22.8830    -999.2500    -999.2500     373.0020    1317.5410     116.7840       0.0350       3.3910       2.8100
   3355.3909       6.1800       0.0120    -999.2500      22.0050    -999.2500    -999.2500     406.0810    1391.9880     116.7840       0.0384       3.3240       2.8170
   3355.5435       6.1870       0.0120    -999.2500      20.9210    -999.2500    -999.2500     522.6720    1738.7620      78.2800       0.0419       3.2870       2.7950
   3355.6958       6.1850       0.0180    -999.2500      20.3890    -999.2500    -999.2500     453.7110    1496.7820      23.1470       0.0413       3.2620       2.7630
   3355.8481       6.1400       0.0050    -999.2500      22.4490    -999.2500    -999.2500     444.4950    1378.4130       1.4100       0.0367       3.4170       2.7160
   3356.0005       6.1400       0.0100    -999.2500      20.2050    -999.2500    -999.2500     521.4920    1602.8140       3.3600       0.0350       3.3190       2.7470
   3356.1531       6.1840       0.0160    -999.2500      21.5030    -999.2500    -999.2500     604.4700    1830.1920      51.5760       0.0363       3.1980       2.7910
   3356.3054       6.1870       0.0170    -999.2500      21.2620    -999.2500    -999.2500     790.6390    2252.9680      59.0530       0.0412       3.1970       2.8410
   3356.4578       6.1490       0.0070    -999.2500      23.2310    -999.2500    -999.2500    1228.5570    3193.9990       9.7710       0.0467       3.1970       2.8440
   3356.6101       6.1260       0.0070    -999.2500      24.3560    -999.2500    -999.2500    1190.8290    3333.4690      31.5250       0.0473       3.2300       2.8470
   3356.7627       6.1260       0.0020    -999.2500      25.6580    -999.2500    -999.2500     932.5650    2467.9800       5.9080       0.0420       3.0990       2.8270
   3356.9150       6.1280      -0.0010    -999.2500      25.6580    -999.2500    -999.2500     826.9840    2221.8921      15.4160       0.0352       3.1740       2.8020
   3357.0674       6.1850       0.0020    -999.2500      25.0080    -999.2500    -999.2500     643.4570    1759.5790      15.8640       0.0299       3.0720       2.7910
   3357.2197       6.2200       0.0090    -999.2500      25.5780    -999.2500    -999.2500     452.5950    1268.4050     417.1890       0.0274       3.1160       2.8010
   3357.3721       6.1590       0.0140    -999.2500      26.5320    -999.2500    -999.2500     323.5210     934.0750       4.0440       0.0272       3.2200       2.8150
   3357.5247       6.1590       0.0250    -999.2500      26.5270    -999.2500    -999.2500     260.4830     764.1530       4.0920       0.0282       3.3310       2.8270
   3357.6770       6.1630       0.0290    -999.2500      25.0760    -999.2500    -999.2500     203.5600     647.7250      61.3670       0.0302       3.2660       2.8140
   3357.8293       6.1890       0.0210    -999.2500      25.0770    -999.2500    -999.2500     203.5640     602.7300      61.3500       0.0334       3.1760       2.7880
   3357.9817       6.1890       0.0140    -999.2500      25.4790    -999.2500    -999.2500     204.8990     593.1350      56.2530       0.0373       3.1510       2.7820
   3358.1343       6.2080       0.0140    -999.2500      26.2330    -999.2500    -999.2500     217.5310     658.9510      71.7040       0.0407       3.0970       2.7810
   3358.2866       6.1590       0.0110    -999.2500      25.7050    -999.2500    -999.2500     231.9510     679.8270       8.3990       0.0439       2.9870       2.7870
   3358.4390       6.1590       0.0110    -999.2500      29.6830    -999.2500    -999.2500     266.8000     797.9640       8.4110       0.0457       3.1390       2.7860
   3358.5913       6.2050       0.0150    -999.2500      29.6830    -999.2500    -999.2500     313.8890     959.5780      90.3640       0.0473       3.3320       2.7960
   3358.7439       6.2050       0.0210    -999.2500      29.5760    -999.2500    -999.2500     330.8330     959.5780      90.3640       0.0484       3.5700       2.7950
   3358.8962       6.1610       0.0150    -999.2500      28.4940    -999.2500    -999.2500     334.5430     951.4470      30.5160       0.0489       3.3530       2.8000
   3359.0486       6.1700       0.0160    -999.2500      25.9290    -999.2500    -999.2500     323.2590     895.0580      39.7680       0.0477       3.0620       2.8030
   3359.2009       6.1880       0.0250    -999.2500      24.8730    -999.2500    -999.2500     265.1330     718.4220      14.7210       0.0468       3.0620       2.8260
   3359.3533       6.1980       0.0160    -999.2500      24.8740    -999.2500    -999.2500     265.1430     718.4390      14.7820       0.0462       3.1020       2.8090
   3359.5059       6.2190       0.0110    -999.2500      25.2630    -999.2500    -999.2500     268.2330     723.6900      53.3790       0.0453       3.2790       2.8010
   3359.6582       6.2220       0.0120    -999.2500      28.8230    -999.2500    -999.2500     264.0900     718.4220      35.3040       0.0441       3.1640       2.7940
   3359.8105       6.1890       0.0100    -999.2500      30.5030    -999.2500    -999.2500     274.4900     749.1470      34.9020       0.0450       3.2080       2.7780
   3359.9629       6.1870       0.0000    -999.2500      30.4960    -999.2500    -999.2500     351.7340     938.4190      20.4010       0.0470       3.0870       2.7550
   3360.1155       6.1870      -0.0050    -999.2500      26.3870    -999.2500    -999.2500     351.6070     938.1150      20.4210       0.0488       2.9160       2.7430
   3360.2678       6.2210      -0.0020    -999.2500      25.9660    -999.2500    -999.2500     314.1630     847.7370      27.7570       0.0498       2.9190       2.7670
   3360.4202       6.1870       0.0020    -999.2500      27.1980    -999.2500    -999.2500     297.4560     790.3720      31.1760       0.0496       3.1040       2.7970
   3360.5725       6.1870       0.0040    -999.2500      27.1860    -999.2500    -999.2500     297.5430     790.5700      31.0200       0.0473       3.1040       2.7970
