#------------------------------------------------------------------------------
#
#   Created by  : [OpenWorks] Log Export Utility (LEXP)
#   Created on  : 2016-05-11 12:13:44
#   Project     : CANT971
#   User        : R5K
#   Interpreter : PEP
#
#------------------------------------------------------------------------------
~VERSION INFORMATION
VERS. 2.0 : CWLS Log ASCII Standard - version 2.0
WRAP.  NO : One line per depth step
~WELL INFORMATION
#MNEMONIC   .UNIT                                           VALUE :DESCRIPTION
#------------------------------------------------------------------------------
STRT        .M                                           727.2530 :START DEPTH
STOP        .M                                          3766.1089 :STOP DEPTH
STEP        .M                                             0.1524 :STEP
NULL        .                                           -999.2500 :NULL VALUE
COMP        .                                   PEMEX EXPL & PROD :COMPANY
WELL        .                                                  99 :WELL
FLD         .                                           CANTARELL :FIELD
LOC         .                                             UNKNOWN :LOCATION
CNTY        .                                      CD. DEL CARMEN :COUNTY
STAT        .                                            CAMPECHE :STATE
CTRY        .                                              MEXICO :COUNTRY
SRVC        .                                             UNKNOWN :SERVICE COMPANY
DATE        .                                             UNKNOWN :LOG DATE
UWI         .                                          3060000617 :UNIQUE WELL ID
XCOORD      .                                       601388.490000 :SURFACE X
YCOORD      .                                      2149874.120000 :SURFACE Y
LAT         .                                           19.441847 :LATITUDE
LON         .                                          -92.034160 :LONGITUDE
ELEV        .M                                            28.0000 :SURFACE ELEV
ELEV_TYPE   .                                                  KB :ELEV TYPE
~CURVE INFORMATION
#MNEMONIC.UNIT        API CODE       : CURVE DESCRIPTION
#------------------------------------------------------------------------------
DEPTH    .M                          : Measured Depth
CALI     .inches      UNKNOWN        : CALI:Import:rC:NONE:v0 (auto-composite)
DRHO     .g/cm3       UNKNOWN        : DRHO:Import:rC:NONE:v0 (auto-composite)
DT       .us/ft       UNKNOWN        : DT:Import:rC:NONE:v0 (auto-composite)
GR       .API         UNKNOWN        : GR:Import:rC:NONE:v0 (auto-composite)
ILD      .ohm.m       UNKNOWN        : ILD:Import:rC:NONE:v0 (auto-composite)
ILM      .ohm.m       UNKNOWN        : ILM:Import:rC:NONE:v0 (auto-composite)
LLD      .ohm.m       UNKNOWN        : LLD:Import:rC:NONE:v0 (auto-composite)
LLS      .ohm.m       UNKNOWN        : LLS:Import:rC:NONE:v0 (auto-composite)
MSFL     .ohm.m       UNKNOWN        : MSFL:Import:rC:NONE:v0 (auto-composite)
NPHI     .v/v_decimal UNKNOWN        : NPHI:Import:rC:NONE:v0 (auto-composite)
PEF      .b/elec      UNKNOWN        : PEF:Import:rC:NONE:v0 (auto-composite)
RHOB     .g/cm3       UNKNOWN        : RHOB:Import:rC:NONE:v0 (auto-composite)
~A     DEPTH         CALI         DRHO           DT           GR          ILD          ILM          LLD          LLS         MSFL         NPHI          PEF         RHOB
# ...
   3082.7473       6.1440       0.0120    -999.2500      36.8110    -999.2500    -999.2500      57.9780      47.9970     124.7450       0.1128       3.0890       2.6770
   3082.8999       6.1300       0.0160    -999.2500      40.6120    -999.2500    -999.2500      57.9780      47.9970     124.7450       0.0983       3.1010       2.7140
   3083.0522       6.0990       0.0140    -999.2500      41.6280    -999.2500    -999.2500      62.8050      51.8570      23.6850       0.0793       3.0570       2.7450
   3083.2046       6.0990       0.0100    -999.2500      37.7060    -999.2500    -999.2500      76.2490      62.2960      23.7070       0.0691       3.1550       2.7460
   3083.3569       6.1850       0.0170    -999.2500      27.9550    -999.2500    -999.2500     105.5800      82.9890      29.4210       0.0674       3.1190       2.7650
   3083.5093       6.1850       0.0200    -999.2500      27.9580    -999.2500    -999.2500     105.5500      82.9630      29.4080       0.0688       2.9910       2.7490
   3083.6619       6.1650       0.0230    -999.2500      29.4800    -999.2500    -999.2500      96.6880      75.1450      25.7210       0.0694       3.0330       2.7240
   3083.8142       6.1170       0.0280    -999.2500      27.2600    -999.2500    -999.2500      89.2030      70.0720      45.5870       0.0737       2.9320       2.6790
   3083.9666       6.1170       0.0590    -999.2500      27.2700    -999.2500    -999.2500      88.5030      69.0040       9.5810       0.0897       2.9030       2.6890
   3084.1189       6.1660       0.0590    -999.2500      29.3700    -999.2500    -999.2500      79.6740      60.8530      28.7730       0.1105       2.9030       2.6890
   3084.2715       6.1660       0.0390    -999.2500      33.5020    -999.2500    -999.2500      73.5030      56.3090      28.7600       0.1268       3.0640       2.6510
   3084.4238       6.1360       0.0250    -999.2500      36.7270    -999.2500    -999.2500      64.6710      49.9080      24.8890       0.1290       2.9290       2.6640
   3084.5762       6.1260       0.0130    -999.2500      35.5920    -999.2500    -999.2500      55.9620      41.4380      21.6500       0.1295       2.9420       2.6560
   3084.7285       6.0970       0.0070    -999.2500      35.2030    -999.2500    -999.2500      52.9140      41.4400      27.5340       0.1330       3.0650       2.6560
   3084.8811       6.0970      -0.0110    -999.2500      35.2030    -999.2500    -999.2500      52.9140      41.7910      27.5340       0.1355       3.2160       2.6350
   3085.0334       6.1040      -0.0120    -999.2500      35.5420    -999.2500    -999.2500      55.5630      44.1470      15.8460       0.1295       3.0950       2.6350
   3085.1858       6.1500      -0.0070    -999.2500      33.9720    -999.2500    -999.2500      58.7960      46.8740      68.6260       0.1246       3.0130       2.6480
   3085.3381       6.1260      -0.0040    -999.2500      31.6120    -999.2500    -999.2500      67.7680      53.0490      13.7950       0.1181       3.0570       2.6700
   3085.4905       6.0760      -0.0070    -999.2500      31.6240    -999.2500    -999.2500      67.7480      53.0290      25.3240       0.1124       3.0560       2.6320
   3085.6431       6.0760       0.0000    -999.2500      34.0640    -999.2500    -999.2500      63.7250      48.9610      25.3240       0.1102       2.7930       2.6230
   3085.7954       6.1100       0.0030    -999.2500      35.5550    -999.2500    -999.2500      61.0300      46.5110       8.8040       0.1164       2.8370       2.6020
   3085.9478       6.1510       0.0090    -999.2500      37.8620    -999.2500    -999.2500      56.1510      42.1850      24.8800       0.1306       2.8820       2.6460
   3086.1001       6.0690       0.0120    -999.2500      36.9500    -999.2500    -999.2500      50.4750      37.9380      20.9690       0.1374       3.0580       2.6570
   3086.2527       6.0790       0.0100    -999.2500      34.9990    -999.2500    -999.2500      50.6290      37.9390      29.2040       0.1385       2.9820       2.6450
   3086.4050       6.0790       0.0050    -999.2500      34.9990    -999.2500    -999.2500      50.6290      38.1630      29.2040       0.1368       2.9470       2.6100
   3086.5574       6.0740       0.0040    -999.2500      36.2800    -999.2500    -999.2500      50.6090      38.4240      22.5710       0.1393       2.9200       2.5910
   3086.7097       6.1320       0.0030    -999.2500      38.1170    -999.2500    -999.2500      51.2440      38.9630       6.3320       0.1435       2.8550       2.5880
   3086.8623       6.0950       0.0090    -999.2500      37.1440    -999.2500    -999.2500      49.8220      37.8880      12.9810       0.1442       2.8630       2.5880
   3087.0146       6.0930       0.0130    -999.2500      33.7950    -999.2500    -999.2500      47.6320      36.4670      38.8870       0.1409       2.9640       2.5750
   3087.1670       6.0930       0.0220    -999.2500      31.3710    -999.2500    -999.2500      45.7770      34.6330      11.8250       0.1417       2.9740       2.5720
   3087.3193       6.1490       0.0210    -999.2500      30.9420    -999.2500    -999.2500      45.7840      34.6340      19.2010       0.1409       3.0450       2.5690
   3087.4717       6.1490       0.0190    -999.2500      29.6000    -999.2500    -999.2500      48.0950      35.0360      19.2010       0.1324       2.9650       2.6130
   3087.6243       6.0820       0.0130    -999.2500      25.5690    -999.2500    -999.2500      51.7170      37.6600      17.1610       0.1148       2.8330       2.6620
   3087.7766       6.1170       0.0060    -999.2500      25.5710    -999.2500    -999.2500      61.7190      44.9260      17.1580       0.1020       2.9230       2.6870
   3087.9290       6.1590      -0.0050    -999.2500      25.8710    -999.2500    -999.2500      71.1300      50.5670       3.0520       0.1007       2.9270       2.6770
   3088.0813       6.1590      -0.0110    -999.2500      27.2630    -999.2500    -999.2500      89.0440      61.2450      23.1130       0.0991       3.2730       2.6650
   3088.2339       6.1530      -0.0040    -999.2500      27.3190    -999.2500    -999.2500      89.0440      61.2450      23.1130       0.0924       3.0790       2.6940
   3088.3862       6.0460       0.0050    -999.2500      28.6760    -999.2500    -999.2500      84.9370      57.3060       1.3790       0.0893       3.1620       2.6750
   3088.5386       6.0460       0.0050    -999.2500      35.4140    -999.2500    -999.2500      62.5100      41.6040       1.3950       0.1001       3.0640       2.6570
   3088.6909       6.1020       0.0060    -999.2500      52.5500    -999.2500    -999.2500      52.5220      36.0930      15.9590       0.1167       3.1500       2.6400
   3088.8435       6.1020       0.0170    -999.2500      52.5320    -999.2500    -999.2500      52.5230      36.0960      16.9130       0.1198       3.0770       2.6940
   3088.9958       6.0950       0.0190    -999.2500      47.0130    -999.2500    -999.2500      52.7850      37.0590      67.2000       0.1085       2.9940       2.7130
   3089.1482       6.0740       0.0060    -999.2500      38.6590    -999.2500    -999.2500      64.6190      45.6440      33.0520       0.0936       2.8980       2.7090
   3089.3005       6.0910       0.0060    -999.2500      34.8170    -999.2500    -999.2500      75.9210      54.5710      23.5880       0.0874       3.1500       2.7090
   3089.4529       6.1210       0.0090    -999.2500      33.0640    -999.2500    -999.2500      75.9160      54.5680      15.7720       0.0851       3.1500       2.7230
   3089.6055       6.1210       0.0090    -999.2500      30.4750    -999.2500    -999.2500      72.9690      52.6660      15.7910       0.0850       3.1450       2.7260
   3089.7578       6.0470       0.0110    -999.2500      28.8470    -999.2500    -999.2500      69.9130      50.3150      23.0350       0.0900       3.1230       2.7140
   3089.9102       6.0320       0.0110    -999.2500      30.6830    -999.2500    -999.2500      68.8330      48.7080      25.3360       0.0957       3.1820       2.7010
