#------------------------------------------------------------------------------
#
#   Created by  : [OpenWorks] Log Export Utility (LEXP)
#   Created on  : 2016-05-11 12:13:44
#   Project     : CANT971
#   User        : R5K
#   Interpreter : PEP
#
#------------------------------------------------------------------------------
~VERSION INFORMATION
VERS. 2.0 : CWLS Log ASCII Standard - version 2.0
WRAP.  NO : One line per depth step
~WELL INFORMATION
#MNEMONIC   .UNIT                                           VALUE :DESCRIPTION
#------------------------------------------------------------------------------
STRT        .M                                           727.2530 :START DEPTH
STOP        .M                                          3766.1089 :STOP DEPTH
STEP        .M                                             0.1524 :STEP
NULL        .                                           -999.2500 :NULL VALUE
COMP        .                                   PEMEX EXPL & PROD :COMPANY
WELL        .                                                  99 :WELL
FLD         .                                           CANTARELL :FIELD
LOC         .                                             UNKNOWN :LOCATION
CNTY        .                                      CD. DEL CARMEN :COUNTY
STAT        .                                            CAMPECHE :STATE
CTRY        .                                              MEXICO :COUNTRY
SRVC        .                                             UNKNOWN :SERVICE COMPANY
DATE        .                                             UNKNOWN :LOG DATE
UWI         .                                          3060000617 :UNIQUE WELL ID
XCOORD      .                                       601388.490000 :SURFACE X
YCOORD      .                                      2149874.120000 :SURFACE Y
LAT         .                                           19.441847 :LATITUDE
LON         .                                          -92.034160 :LONGITUDE
ELEV        .M                                            28.0000 :SURFACE ELEV
ELEV_TYPE   .                                                  KB :ELEV TYPE
~CURVE INFORMATION
#MNEMONIC.UNIT        API CODE       : CURVE DESCRIPTION
#------------------------------------------------------------------------------
DEPTH    .M                          : Measured Depth
CALI     .inches      UNKNOWN        : CALI:Import:rC:NONE:v0 (auto-composite)
DRHO     .g/cm3       UNKNOWN        : DRHO:Import:rC:NONE:v0 (auto-composite)
DT       .us/ft       UNKNOWN        : DT:Import:rC:NONE:v0 (auto-composite)
GR       .API         UNKNOWN        : GR:Import:rC:NONE:v0 (auto-composite)
ILD      .ohm.m       UNKNOWN        : ILD:Import:rC:NONE:v0 (auto-composite)
ILM      .ohm.m       UNKNOWN        : ILM:Import:rC:NONE:v0 (auto-composite)
LLD      .ohm.m       UNKNOWN        : LLD:Import:rC:NONE:v0 (auto-composite)
LLS      .ohm.m       UNKNOWN        : LLS:Import:rC:NONE:v0 (auto-composite)
MSFL     .ohm.m       UNKNOWN        : MSFL:Import:rC:NONE:v0 (auto-composite)
NPHI     .v/v_decimal UNKNOWN        : NPHI:Import:rC:NONE:v0 (auto-composite)
PEF      .b/elec      UNKNOWN        : PEF:Import:rC:NONE:v0 (auto-composite)
RHOB     .g/cm3       UNKNOWN        : RHOB:Import:rC:NONE:v0 (auto-composite)
~A     DEPTH         CALI         DRHO           DT           GR          ILD          ILM          LLD          LLS         MSFL         NPHI          PEF         RHOB
# ...
   3419.2466       5.9990       0.0090    -999.2500      16.8360    -999.2500    -999.2500     544.4040     474.3480      35.6190       0.0360       3.2190       2.8350
   3419.3989       5.9680       0.0090    -999.2500      18.3920    -999.2500    -999.2500     544.4030     527.4360       4.7660       0.0332       3.4240       2.8220
   3419.5513       5.9680       0.0080    -999.2500      19.5470    -999.2500    -999.2500     543.6570     527.3660       4.8110       0.0305       3.1540       2.8220
   3419.7039       5.9900       0.0090    -999.2500      20.9610    -999.2500    -999.2500     522.2020     506.0860      95.9030       0.0288       3.1070       2.8120
   3419.8562       6.0270       0.0130    -999.2500      19.4070    -999.2500    -999.2500     425.6460     414.4930      70.7040       0.0270       3.0490       2.8050
   3420.0085       6.0620       0.0110    -999.2500      17.6020    -999.2500    -999.2500     265.1080     256.4780      71.1670       0.0252       3.2860       2.8050
   3420.1609       6.0650       0.0170    -999.2500      17.6060    -999.2500    -999.2500     265.1170     256.4880     276.0760       0.0240       3.2860       2.8100
   3420.3135       6.0930       0.0580    -999.2500      20.2060    -999.2500    -999.2500     271.1540     262.9740     326.1420       0.0237       3.1860       2.8260
   3420.4658       6.0930       0.0710    -999.2500      21.8940    -999.2500    -999.2500     302.7160     300.0170     371.7300       0.0248       3.2440       2.8210
   3420.6182       6.0770       0.0570    -999.2500      18.6590    -999.2500    -999.2500     339.5880     331.3780      55.6630       0.0253       2.7930       2.7930
   3420.7705       6.0770       0.0730    -999.2500      18.6730    -999.2500    -999.2500     402.9180     389.7950      75.9130       0.0242       2.7930       2.8320
   3420.9231       6.0770       0.0770    -999.2500      21.6560    -999.2500    -999.2500     614.8300     584.7410      75.9130       0.0228       2.8180       2.8630
   3421.0754       6.0930       0.0420    -999.2500      25.3570    -999.2500    -999.2500     946.3910     923.8410      63.5300       0.0217       3.2250       2.8660
   3421.2278       6.0930       0.0220    -999.2500      23.9010    -999.2500    -999.2500     984.5000     985.5460      71.3800       0.0215       3.5070       2.8570
   3421.3801       6.0930       0.0150    -999.2500      16.6140    -999.2500    -999.2500     728.9420     719.9630    1267.1219       0.0217       3.2780       2.8170
   3421.5325       6.0470       0.0070    -999.2500      16.6230    -999.2500    -999.2500     563.2620     549.0420     574.0810       0.0235       3.2780       2.8170
   3421.6851       5.9550       0.0040    -999.2500      18.4500    -999.2500    -999.2500     563.2620     549.0420      88.5460       0.0275       3.4210       2.8190
   3421.8374       5.9400       0.0020    -999.2500      19.4630    -999.2500    -999.2500     569.9300     553.9890      56.2120       0.0313       3.4260       2.8070
   3421.9897       5.9590       0.0000    -999.2500      20.8820    -999.2500    -999.2500     562.7680     530.5890      19.1660       0.0318       3.5400       2.7920
   3422.1421       5.9680       0.0020    -999.2500      17.7680    -999.2500    -999.2500     589.2730     542.6880     403.7370       0.0290       3.1640       2.7820
   3422.2947       5.9680       0.0020    -999.2500      17.7750    -999.2500    -999.2500     850.5830     771.8600     403.6000       0.0252       3.1910       2.7850
   3422.4470       5.9840       0.0040    -999.2500      19.3220    -999.2500    -999.2500     850.5830     771.8600     376.0300       0.0237       3.0260       2.8010
   3422.5994       6.0020       0.0060    -999.2500      22.7120    -999.2500    -999.2500     847.2710     763.0060      95.9420       0.0255       3.1850       2.8020
   3422.7517       5.9840       0.0040    -999.2500      24.6650    -999.2500    -999.2500     851.8540     756.5410      45.9710       0.0288       3.2630       2.7980
   3422.9043       5.9930       0.0050    -999.2500      26.5380    -999.2500    -999.2500    1094.8831     952.8260     209.3070       0.0320       3.5570       2.7800
   3423.0566       5.9990       0.0070    -999.2500      26.5290    -999.2500    -999.2500    1253.6350    1101.0050      77.0280       0.0345       3.6330       2.7780
   3423.2090       6.0020       0.0050    -999.2500      24.7250    -999.2500    -999.2500    1306.2850    1151.3521     161.4860       0.0360       3.5780       2.7710
   3423.3613       6.0020      -0.0010    -999.2500      20.7960    -999.2500    -999.2500    1473.6980    1281.1270     107.9890       0.0370       3.5720       2.7620
   3423.5137       5.9990       0.0020    -999.2500      20.7960    -999.2500    -999.2500    1694.8430    1492.0110      58.2050       0.0382       3.5780       2.7660
   3423.6663       5.9620       0.0040    -999.2500      19.8070    -999.2500    -999.2500    1946.0070    1638.5601       7.3410       0.0395       3.7870       2.7650
   3423.8186       5.9620       0.0050    -999.2500      20.0360    -999.2500    -999.2500    1944.1390    1637.2290      29.5250       0.0395       3.7040       2.7730
   3423.9709       5.9870       0.0040    -999.2500      15.6610    -999.2500    -999.2500    1592.1760    1382.5770      44.1840       0.0385       3.3370       2.7420
   3424.1233       6.0150       0.0120    -999.2500      16.4170    -999.2500    -999.2500    1327.2030    1106.9240     151.0300       0.0382       2.9930       2.7520
   3424.2759       6.0710       0.0100    -999.2500      16.4170    -999.2500    -999.2500    1203.0670    1001.3300     151.0300       0.0390       2.9650       2.7580
   3424.4282       6.0900       0.0070    -999.2500      16.3700    -999.2500    -999.2500    1025.0660     870.8990     102.5590       0.0410       3.2380       2.7920
   3424.5806       6.0400       0.0040    -999.2500      19.0540    -999.2500    -999.2500    1064.6870     871.0540     163.3760       0.0448       3.2370       2.7920
   3424.7329       6.0180      -0.0020    -999.2500      18.4380    -999.2500    -999.2500    1064.6810     909.1100     163.1550       0.0497       3.0600       2.7850
   3424.8855       6.0130      -0.0060    -999.2500      18.4420    -999.2500    -999.2500    1060.8800     908.7110      70.2880       0.0546       2.9960       2.7870
   3425.0378       6.0050      -0.0030    -999.2500      19.6380    -999.2500    -999.2500     937.6710     792.1690      55.9040       0.0563       3.1150       2.8040
   3425.1902       6.0210      -0.0070    -999.2500      17.9590    -999.2500    -999.2500     810.2570     688.6630      18.2470       0.0545       3.1790       2.8020
   3425.3425       6.0550       0.0030    -999.2500      20.6380    -999.2500    -999.2500     627.9040     529.2830      31.7430       0.0507       3.4680       2.7980
   3425.4949       6.0740       0.0080    -999.2500      21.2340    -999.2500    -999.2500     496.7470     415.0650      74.7380       0.0460       3.4850       2.7920
   3425.6475       6.0800       0.0060    -999.2500      21.8820    -999.2500    -999.2500     467.9780     392.9380      89.9710       0.0410       3.7020       2.7810
   3425.7998       6.0620       0.0040    -999.2500      21.7260    -999.2500    -999.2500     460.9890     384.9170      93.6920       0.0362       3.6420       2.7890
   3425.9521       6.0370       0.0120    -999.2500      20.8890    -999.2500    -999.2500     458.8850     389.1950      62.4450       0.0332       3.6430       2.7910
   3426.1045       6.0020       0.0000    -999.2500      20.3190    -999.2500    -999.2500     531.3490     460.3000      79.3960       0.0340       3.3710       2.7760
   3426.2571       5.9960      -0.0050    -999.2500      20.3190    -999.2500    -999.2500     531.3490     460.3000      40.8640       0.0385       3.3320       2.7480
   3426.4094       5.9680      -0.0010    -999.2500      23.3240    -999.2500    -999.2500     516.4590     442.7980      21.7720       0.0448       2.9430       2.7370
