#------------------------------------------------------------------------------
#
#   Created by  : [OpenWorks] Log Export Utility (LEXP)
#   Created on  : 2016-05-11 12:13:44
#   Project     : CANT971
#   User        : R5K
#   Interpreter : PEP
#
#------------------------------------------------------------------------------
~VERSION INFORMATION
VERS. 2.0 : CWLS Log ASCII Standard - version 2.0
WRAP.  NO : One line per depth step
~WELL INFORMATION
#MNEMONIC   .UNIT                                           VALUE :DESCRIPTION
#------------------------------------------------------------------------------
STRT        .M                                           727.2530 :START DEPTH
STOP        .M                                          3766.1089 :STOP DEPTH
STEP        .M                                             0.1524 :STEP
NULL        .                                           -999.2500 :NULL VALUE
COMP        .                                   PEMEX EXPL & PROD :COMPANY
WELL        .                                                  99 :WELL
FLD         .                                           CANTARELL :FIELD
LOC         .                                             UNKNOWN :LOCATION
CNTY        .                                      CD. DEL CARMEN :COUNTY
STAT        .                                            CAMPECHE :STATE
CTRY        .                                              MEXICO :COUNTRY
SRVC        .                                             UNKNOWN :SERVICE COMPANY
DATE        .                                             UNKNOWN :LOG DATE
UWI         .                                          3060000617 :UNIQUE WELL ID
XCOORD      .                                       601388.490000 :SURFACE X
YCOORD      .                                      2149874.120000 :SURFACE Y
LAT         .                                           19.441847 :LATITUDE
LON         .                                          -92.034160 :LONGITUDE
ELEV        .M                                            28.0000 :SURFACE ELEV
ELEV_TYPE   .                                                  KB :ELEV TYPE
~CURVE INFORMATION
#MNEMONIC.UNIT        API CODE       : CURVE DESCRIPTION
#------------------------------------------------------------------------------
DEPTH    .M                          : Measured Depth
CALI     .inches      UNKNOWN        : CALI:Import:rC:NONE:v0 (auto-composite)
DRHO     .g/cm3       UNKNOWN        : DRHO:Import:rC:NONE:v0 (auto-composite)
DT       .us/ft       UNKNOWN        : DT:Import:rC:NONE:v0 (auto-composite)
GR       .API         UNKNOWN        : GR:Import:rC:NONE:v0 (auto-composite)
ILD      .ohm.m       UNKNOWN        : ILD:Import:rC:NONE:v0 (auto-composite)
ILM      .ohm.m       UNKNOWN        : ILM:Import:rC:NONE:v0 (auto-composite)
LLD      .ohm.m       UNKNOWN        : LLD:Import:rC:NONE:v0 (auto-composite)
LLS      .ohm.m       UNKNOWN        : LLS:Import:rC:NONE:v0 (auto-composite)
MSFL     .ohm.m       UNKNOWN        : MSFL:Import:rC:NONE:v0 (auto-composite)
NPHI     .v/v_decimal UNKNOWN        : NPHI:Import:rC:NONE:v0 (auto-composite)
PEF      .b/elec      UNKNOWN        : PEF:Import:rC:NONE:v0 (auto-composite)
RHOB     .g/cm3       UNKNOWN        : RHOB:Import:rC:NONE:v0 (auto-composite)
~A     DEPTH         CALI         DRHO           DT           GR          ILD          ILM          LLD          LLS         MSFL         NPHI          PEF         RHOB
# ...
   3485.0835       6.2350       0.0440    -999.2500      20.7550    -999.2500    -999.2500      18.6420      14.1650       6.7090       0.1495       3.0460       2.6510
   3485.2358       6.2250       0.0470    -999.2500      21.1430    -999.2500    -999.2500      18.6650      13.8770       4.6810       0.1502       3.1420       2.6520
   3485.3882       6.2140       0.0210    -999.2500      27.9740    -999.2500    -999.2500      22.6100      15.4410      11.7040       0.1521       3.1470       2.6210
   3485.5405       6.2180       0.0210    -999.2500      35.6020    -999.2500    -999.2500      22.5600      16.1850       8.2320       0.1472       3.1330       2.6210
   3485.6929       6.2180       0.0350    -999.2500      42.7510    -999.2500    -999.2500      22.5600      16.3390       8.2320       0.1373       2.9300       2.6600
   3485.8455       6.1850       0.0330    -999.2500      43.0450    -999.2500    -999.2500      25.2000      18.4560      15.2990       0.1366       2.9520       2.6750
   3485.9978       6.1660       0.0240    -999.2500      41.2240    -999.2500    -999.2500      27.2640      20.2130      10.2660       0.1412       3.0050       2.6810
   3486.1501       6.1870       0.0220    -999.2500      41.0180    -999.2500    -999.2500      31.0920      93.5420      21.4850       0.1472       2.9440       2.6670
   3486.3025       6.1550       0.0200    -999.2500      48.5360    -999.2500    -999.2500      31.0750      92.9230      14.2720       0.1477       2.9810       2.6670
   3486.4551       6.1550       0.0150    -999.2500      48.5360    -999.2500    -999.2500      27.7030      23.3730       8.5020       0.1440       2.9320       2.6820
   3486.6074       6.1770       0.0100    -999.2500      47.3340    -999.2500    -999.2500      24.0140      18.9070       8.2460       0.1331       3.3140       2.6840
   3486.7598       6.1590       0.0070    -999.2500      42.4040    -999.2500    -999.2500      22.4310      18.0350      15.2780       0.1225       3.2470       2.6900
   3486.9121       6.1390       0.0000    -999.2500      30.8520    -999.2500    -999.2500      22.9330      17.5380       7.5990       0.1172       3.0970       2.6600
   3487.0647       6.1520      -0.0040    -999.2500      30.8570    -999.2500    -999.2500      22.0320      17.5380       7.6900       0.1220       2.9310       2.6490
   3487.2170       6.1550      -0.0050    -999.2500      31.9260    -999.2500    -999.2500      22.0320      17.5450       7.6900       0.1325       2.9430       2.6220
   3487.3694       6.1550      -0.0050    -999.2500      36.4430    -999.2500    -999.2500      23.6490      18.6530       5.7800       0.1258       3.1390       2.6200
   3487.5217       6.1520       0.0040    -999.2500      33.8750    -999.2500    -999.2500      27.3720      21.6050       5.0220       0.1133       3.2320       2.6580
   3487.6741       6.1920       0.0060    -999.2500      29.2840    -999.2500    -999.2500      34.1760      42.6400      24.1570       0.0902       3.1210       2.7010
   3487.8267       6.1530       0.0090    -999.2500      19.1760    -999.2500    -999.2500      42.0080     118.0510      23.8540       0.0826       2.8030       2.7310
   3487.9790       6.1980       0.0070    -999.2500      14.9130    -999.2500    -999.2500      50.8400     180.9460       1.5690       0.0830       2.7130       2.7410
   3488.1313       6.1980       0.0100    -999.2500      14.9180    -999.2500    -999.2500      59.5500     180.2910       1.5820       0.0923       2.8220       2.7550
   3488.2837       6.1760       0.0080    -999.2500      16.3380    -999.2500    -999.2500      62.6220      58.1550      27.0260       0.1045       3.1110       2.7210
   3488.4363       6.1550       0.0060    -999.2500      18.0980    -999.2500    -999.2500      65.0420     195.7950      11.3620       0.1117       3.3040       2.6750
   3488.5886       6.2270       0.0020    -999.2500      18.6430    -999.2500    -999.2500      63.5330     195.7510      21.4090       0.1077       3.4580       2.6510
   3488.7410       6.1950       0.0080    -999.2500      19.2900    -999.2500    -999.2500      63.2660     186.7070      21.3740       0.1001       3.2630       2.6780
   3488.8933       6.2750       0.0090    -999.2500      22.8350    -999.2500    -999.2500      60.9840     147.3600       7.7050       0.0932       3.2810       2.7070
   3489.0459       6.2750       0.0090    -999.2500      22.8350    -999.2500    -999.2500      54.9080      42.6260       4.6840       0.0885       3.3530       2.7220
   3489.1982       6.1870       0.0090    -999.2500      22.6280    -999.2500    -999.2500      49.4360      37.9260       1.6550       0.0875       3.5200       2.7280
   3489.3506       6.1870       0.0130    -999.2500      21.6610    -999.2500    -999.2500      44.4130      35.1720       1.6600       0.0833       3.2380       2.7300
   3489.5029       6.1870       0.0120    -999.2500      19.5960    -999.2500    -999.2500      44.4150      35.1730      31.6070       0.0809       3.0790       2.7130
   3489.6553       6.1790       0.0230    -999.2500      17.6510    -999.2500    -999.2500      45.4820      35.9580      31.6060       0.0786       3.1400       2.6860
   3489.8079       6.1530       0.0220    -999.2500      15.8990    -999.2500    -999.2500      47.6830      37.9530      31.3660       0.0813       3.3650       2.6660
   3489.9602       6.1600       0.0220    -999.2500      16.1200    -999.2500    -999.2500      50.5900      40.3440      20.1060       0.0868       3.2730       2.6730
   3490.1125       6.1600       0.0300    -999.2500      17.2880    -999.2500    -999.2500      56.2190      45.5340      25.8810       0.0906       3.1700       2.7540
   3490.2649       6.1400       0.0300    -999.2500      20.0710    -999.2500    -999.2500      62.2540      51.2120       9.0030       0.0909       3.1700       2.7540
   3490.4175       6.1400       0.0120    -999.2500      20.8890    -999.2500    -999.2500      68.0400      55.3280       9.0290       0.0896       3.4030       2.7420
   3490.5698       6.1550       0.0030    -999.2500      21.2770    -999.2500    -999.2500      73.8420      60.1890      22.0760       0.0854       3.4080       2.7270
   3490.7222       6.1530      -0.0030    -999.2500      19.5740    -999.2500    -999.2500      70.4150      58.0440      61.6440       0.0833       3.4650       2.7170
   3490.8745       6.1550      -0.0030    -999.2500      21.2730    -999.2500    -999.2500      66.9900      55.5320      37.6680       0.0766       3.0830       2.7150
   3491.0271       6.1530      -0.0030    -999.2500      22.9540    -999.2500    -999.2500      62.1070      51.2630      28.0080       0.0741       2.8900       2.7140
   3491.1794       6.1530       0.0010    -999.2500      24.0380    -999.2500    -999.2500      56.5670      45.8650      11.5920       0.0740       2.8520       2.7230
   3491.3318       6.1550       0.0100    -999.2500      21.8880    -999.2500    -999.2500      55.5330      45.2500      15.6080       0.0852       3.0810       2.7270
   3491.4841       6.1980       0.0140    -999.2500      21.9200    -999.2500    -999.2500      65.0940      53.3330       7.2610       0.1139       3.1590       2.7350
   3491.6365       6.1550       0.0240    -999.2500      23.5010    -999.2500    -999.2500      82.4670      67.9680       3.5610       0.1167       3.1590       2.7220
   3491.7891       6.1550       0.0290    -999.2500      30.9950    -999.2500    -999.2500      82.4670      67.9680       3.5610       0.1123       3.1300       2.7070
   3491.9414       6.1550       0.0170    -999.2500      36.4710    -999.2500    -999.2500      78.5290      65.9070       9.0650       0.0938       3.0660       2.6700
   3492.0938       6.1550       0.0130    -999.2500      39.8420    -999.2500    -999.2500      67.3180      56.4380      15.1460       0.0818       2.8220       2.6780
   3492.2461       6.1550       0.0150    -999.2500      34.6300    -999.2500    -999.2500      58.4550      50.0140      25.3880       0.0793       2.9140       2.7140
