#------------------------------------------------------------------------------
#
#   Created by  : [OpenWorks] Log Export Utility (LEXP)
#   Created on  : 2016-05-11 12:13:44
#   Project     : CANT971
#   User        : R5K
#   Interpreter : PEP
#
#------------------------------------------------------------------------------
~VERSION INFORMATION
VERS. 2.0 : CWLS Log ASCII Standard - version 2.0
WRAP.  NO : One line per depth step
~WELL INFORMATION
#MNEMONIC   .UNIT                                           VALUE :DESCRIPTION
#------------------------------------------------------------------------------
STRT        .M                                           727.2530 :START DEPTH
STOP        .M                                          3766.1089 :STOP DEPTH
STEP        .M                                             0.1524 :STEP
NULL        .                                           -999.2500 :NULL VALUE
COMP        .                                   PEMEX EXPL & PROD :COMPANY
WELL        .                                                  99 :WELL
FLD         .                                           CANTARELL :FIELD
LOC         .                                             UNKNOWN :LOCATION
CNTY        .                                      CD. DEL CARMEN :COUNTY
STAT        .                                            CAMPECHE :STATE
CTRY        .                                              MEXICO :COUNTRY
SRVC        .                                             UNKNOWN :SERVICE COMPANY
DATE        .                                             UNKNOWN :LOG DATE
UWI         .                                          3060000617 :UNIQUE WELL ID
XCOORD      .                                       601388.490000 :SURFACE X
YCOORD      .                                      2149874.120000 :SURFACE Y
LAT         .                                           19.441847 :LATITUDE
LON         .                                          -92.034160 :LONGITUDE
ELEV        .M                                            28.0000 :SURFACE ELEV
ELEV_TYPE   .                                                  KB :ELEV TYPE
~CURVE INFORMATION
#MNEMONIC.UNIT        API CODE       : CURVE DESCRIPTION
#------------------------------------------------------------------------------
DEPTH    .M                          : Measured Depth
CALI     .inches      UNKNOWN        : CALI:Import:rC:NONE:v0 (auto-composite)
DRHO     .g/cm3       UNKNOWN        : DRHO:Import:rC:NONE:v0 (auto-composite)
DT       .us/ft       UNKNOWN        : DT:Import:rC:NONE:v0 (auto-composite)
GR       .API         UNKNOWN        : GR:Import:rC:NONE:v0 (auto-composite)
ILD      .ohm.m       UNKNOWN        : ILD:Import:rC:NONE:v0 (auto-composite)
ILM      .ohm.m       UNKNOWN        : ILM:Import:rC:NONE:v0 (auto-composite)
LLD      .ohm.m       UNKNOWN        : LLD:Import:rC:NONE:v0 (auto-composite)
LLS      .ohm.m       UNKNOWN        : LLS:Import:rC:NONE:v0 (auto-composite)
MSFL     .ohm.m       UNKNOWN        : MSFL:Import:rC:NONE:v0 (auto-composite)
NPHI     .v/v_decimal UNKNOWN        : NPHI:Import:rC:NONE:v0 (auto-composite)
PEF      .b/elec      UNKNOWN        : PEF:Import:rC:NONE:v0 (auto-composite)
RHOB     .g/cm3       UNKNOWN        : RHOB:Import:rC:NONE:v0 (auto-composite)
~A     DEPTH         CALI         DRHO           DT           GR          ILD          ILM          LLD          LLS         MSFL         NPHI          PEF         RHOB
# ...
   2877.9219       8.3210       0.0070      49.6150      48.2190    -999.2500    -999.2500     581.8530      61.1100     605.7500       0.0763       3.4040       2.7480
   2878.0742       8.3250       0.0050      42.7000      46.4690    -999.2500    -999.2500    1153.8730      72.5090     200.6870       0.0882       3.4370       2.7140
   2878.2266       8.3280       0.0030      42.7000      46.4690    -999.2500    -999.2500    1153.8730      72.5090     200.6870       0.1005       3.4700       2.6800
   2878.3789       8.3330       0.0010      47.9500      51.5800    -999.2500    -999.2500    1018.2910      69.8310     213.3990       0.1094       3.5190       2.6480
   2878.5315       8.3370      -0.0020      53.2080      56.6990    -999.2500    -999.2500     898.4600      67.2470     226.9370       0.1133       3.5680       2.6150
   2878.6838       8.3400       0.0010      65.7000      66.1890    -999.2500    -999.2500     705.6330      63.5250     160.9370       0.1070       3.4770       2.6520
   2878.8362       8.3440       0.0010      65.7000      75.6790    -999.2500    -999.2500     554.1910      60.0090     160.9370       0.1052       3.4770       2.6520
   2878.9885       8.3940      -0.0020      52.2000     101.2150    -999.2500    -999.2500     361.9930      56.3980     563.2500       0.1076       3.6720       2.6400
   2879.1409       8.3940      -0.0020      52.2000     101.2150    -999.2500    -999.2500     361.9930      56.3980     563.2500       0.1083       3.6720       2.6400
   2879.2935       8.4120       0.0040      53.3330     130.4750    -999.2500    -999.2500     273.3600      48.6550     234.7790       0.1083       3.7460       2.6450
   2879.4458       8.4300       0.0090      54.4640     159.6870    -999.2500    -999.2500     206.5220      41.9850      98.0000       0.1078       3.8200       2.6510
   2879.5981       8.4300       0.0060     127.8000     151.8390    -999.2500    -999.2500     177.1460      44.2190     131.1300       0.1059       3.8500       2.6880
   2879.7505       8.4300       0.0060     127.8000     143.9900    -999.2500    -999.2500     151.9490      44.2190     175.4610       0.1029       3.8500       2.6880
   2879.9031       8.4300       0.0080     119.8940     117.9310    -999.2500    -999.2500     145.9070      42.2500     307.5950       0.0981       3.8380       2.6750
   2880.0554       8.4300       0.0110     112.0000      91.9140    -999.2500    -999.2500     140.1140      40.3710     538.7500       0.0860       3.8270       2.6620
   2880.2078       8.4300       0.0160     121.5000      34.6560    -999.2500    -999.2500     304.4190      64.4580      81.5630       0.0607       3.7990       2.7210
   2880.3601       8.4300       0.0160     121.5000      34.6560    -999.2500    -999.2500     304.4190      64.4580      81.5630       0.0536       3.7720       2.7210
   2880.5127       8.4250       0.0130     113.6200      35.0220    -999.2500    -999.2500     278.4340      59.0030     186.3880       0.0562       3.7420       2.7190
   2880.6650       8.4210       0.0100     105.7530      35.3880    -999.2500    -999.2500     254.7040      54.0170     425.3750       0.0628       3.7130       2.7180
   2880.8174       8.4130       0.0040      94.3440      40.3640    -999.2500    -999.2500    1584.6591      72.8150     292.4720       0.0758       4.1720       2.7030
   2880.9697       8.4050       0.0040      82.9340      45.3410    -999.2500    -999.2500    1584.6591      72.8150     201.0920       0.0789       4.1720       2.6880
   2881.1221       8.3920       0.0050      55.9390      59.8090    -999.2500    -999.2500     738.4570      64.5510     121.0020       0.0752       4.0190       2.6440
   2881.2747       8.3800       0.0050      28.9000      74.3000    -999.2500    -999.2500     343.7030      57.2130      72.7500       0.0742       3.8650       2.6010
   2881.4270       8.3520      -0.0030      30.8720     122.5630    -999.2500    -999.2500     965.9050      70.5890      89.5390       0.0844       3.9960       2.4820
   2881.5793       8.3520      -0.0030      32.8440     122.5630    -999.2500    -999.2500     965.9050      70.5890     110.2020       0.1005       3.9960       2.4820
   2881.7317       8.3590       0.0000      58.9510     117.8810    -999.2500    -999.2500     602.4910      62.0450     145.1680       0.1233       3.9300       2.5140
   2881.8843       8.3670       0.0020      85.1000     113.1930    -999.2500    -999.2500     375.5250      54.5230     191.3120       0.1427       3.8650       2.5450
   2882.0366       8.3280       0.0100      73.9890     104.9170    -999.2500    -999.2500     392.0720      55.5650      57.4690       0.1448       3.6950       2.5450
   2882.1890       8.3280       0.0100      62.8780      96.6400    -999.2500    -999.2500     409.3480      56.6270      57.4690       0.1405       3.6950       2.5450
   2882.3413       8.3350       0.0100      52.8970      86.8940    -999.2500    -999.2500     442.9670      57.4290      75.6520       0.1337       3.7870       2.5620
   2882.4939       8.3420       0.0090      42.9000      77.1310    -999.2500    -999.2500     479.4090      58.2440      99.6330       0.1218       3.8790       2.5800
   2882.6462       8.3750       0.0060      50.2580      59.5940    -999.2500    -999.2500     470.9520      61.6070     207.5630       0.1029       3.8070       2.6180
   2882.7986       8.3750       0.0030      57.6170      59.5940    -999.2500    -999.2500     462.6450      61.6070     207.5630       0.0973       3.7350       2.6560
   2882.9509       8.2890      -0.0050      84.3000      62.7190    -999.2500    -999.2500     382.7490      57.2000     164.1870       0.0979       3.6040       2.7000
   2883.1033       8.2890      -0.0050      84.3000      62.7190    -999.2500    -999.2500     382.7490      57.2000     164.1870       0.0986       3.6040       2.7000
   2883.2559       8.3240      -0.0050      81.8850      60.3260    -999.2500    -999.2500     351.9190      54.9620     207.0980       0.1009       3.6380       2.6920
   2883.4082       8.3590      -0.0040      79.4740      57.9370    -999.2500    -999.2500     323.6170      52.8160     261.1250       0.1025       3.6730       2.6840
   2883.5605       8.3500       0.0010      66.0530      59.0940    -999.2500    -999.2500     219.8310      48.1610     191.3120       0.1014       3.7090       2.6540
   2883.7129       8.3410       0.0010      52.6330      59.0940    -999.2500    -999.2500     219.8310      48.1610     191.3120       0.1010       3.7440       2.6540
   2883.8655       8.3110       0.0000      31.5000      55.9690    -999.2500    -999.2500     222.1620      48.5210     244.3300       0.1016       3.7870       2.6590
   2884.0178       8.2810      -0.0020      10.4000      52.8500    -999.2500    -999.2500     224.5150      48.8820     311.9170       0.1006       3.8300       2.6640
   2884.1702       8.3590      -0.0010      14.8630      45.0290    -999.2500    -999.2500     221.7310      47.3620     637.2500       0.0946       3.4650       2.6790
   2884.3225       8.3590      -0.0010      19.3260      37.2090    -999.2500    -999.2500     221.7310      47.3620     637.2500       0.0871       3.4650       2.6950
   2884.4751       8.3200       0.0010      39.2290      32.4640    -999.2500    -999.2500     240.0160      49.2610     599.0790       0.0798       3.5470       2.7100
   2884.6274       8.2810       0.0020      59.1000      27.7260    -999.2500    -999.2500     259.7770      51.2330     563.2500       0.0736       3.6290       2.7250
   2884.7798       8.2810      -0.0050      58.3780      24.4530    -999.2500    -999.2500     316.6050      53.8140     733.2500       0.0700       3.6050       2.6850
   2884.9321       8.2810      -0.0050      57.6570      24.4530    -999.2500    -999.2500     385.8640      56.5240     733.2500       0.0661       3.6050       2.6850
   2885.0845       8.3440      -0.0020      56.5460      25.1870    -999.2500    -999.2500     532.6880      60.6550     596.3660       0.0587       3.6350       2.7150
