#------------------------------------------------------------------------------
#
#   Created by  : [OpenWorks] Log Export Utility (LEXP)
#   Created on  : 2016-05-11 12:13:44
#   Project     : CANT971
#   User        : R5K
#   Interpreter : PEP
#
#------------------------------------------------------------------------------
~VERSION INFORMATION
VERS. 2.0 : CWLS Log ASCII Standard - version 2.0
WRAP.  NO : One line per depth step
~WELL INFORMATION
#MNEMONIC   .UNIT                                           VALUE :DESCRIPTION
#------------------------------------------------------------------------------
STRT        .M                                           727.2530 :START DEPTH
STOP        .M                                          3766.1089 :STOP DEPTH
STEP        .M                                             0.1524 :STEP
NULL        .                                           -999.2500 :NULL VALUE
COMP        .                                   PEMEX EXPL & PROD :COMPANY
WELL        .                                                  99 :WELL
FLD         .                                           CANTARELL :FIELD
LOC         .                                             UNKNOWN :LOCATION
CNTY        .                                      CD. DEL CARMEN :COUNTY
STAT        .                                            CAMPECHE :STATE
CTRY        .                                              MEXICO :COUNTRY
SRVC        .                                             UNKNOWN :SERVICE COMPANY
DATE        .                                             UNKNOWN :LOG DATE
UWI         .                                          3060000617 :UNIQUE WELL ID
XCOORD      .                                       601388.490000 :SURFACE X
YCOORD      .                                      2149874.120000 :SURFACE Y
LAT         .                                           19.441847 :LATITUDE
LON         .                                          -92.034160 :LONGITUDE
ELEV        .M                                            28.0000 :SURFACE ELEV
ELEV_TYPE   .                                                  KB :ELEV TYPE
~CURVE INFORMATION
#MNEMONIC.UNIT        API CODE       : CURVE DESCRIPTION
#------------------------------------------------------------------------------
DEPTH    .M                          : Measured Depth
CALI     .inches      UNKNOWN        : CALI:Import:rC:NONE:v0 (auto-composite)
DRHO     .g/cm3       UNKNOWN        : DRHO:Import:rC:NONE:v0 (auto-composite)
DT       .us/ft       UNKNOWN        : DT:Import:rC:NONE:v0 (auto-composite)
GR       .API         UNKNOWN        : GR:Import:rC:NONE:v0 (auto-composite)
ILD      .ohm.m       UNKNOWN        : ILD:Import:rC:NONE:v0 (auto-composite)
ILM      .ohm.m       UNKNOWN        : ILM:Import:rC:NONE:v0 (auto-composite)
LLD      .ohm.m       UNKNOWN        : LLD:Import:rC:NONE:v0 (auto-composite)
LLS      .ohm.m       UNKNOWN        : LLS:Import:rC:NONE:v0 (auto-composite)
MSFL     .ohm.m       UNKNOWN        : MSFL:Import:rC:NONE:v0 (auto-composite)
NPHI     .v/v_decimal UNKNOWN        : NPHI:Import:rC:NONE:v0 (auto-composite)
PEF      .b/elec      UNKNOWN        : PEF:Import:rC:NONE:v0 (auto-composite)
RHOB     .g/cm3       UNKNOWN        : RHOB:Import:rC:NONE:v0 (auto-composite)
~A     DEPTH         CALI         DRHO           DT           GR          ILD          ILM          LLD          LLS         MSFL         NPHI          PEF         RHOB
# ...
   3148.5842       5.9730       0.0080    -999.2500      15.9030    -999.2500    -999.2500    1786.4670    3054.5869      61.9110       0.0425       3.8590       2.7700
   3148.7366       5.9730       0.0010    -999.2500      14.9810    -999.2500    -999.2500    1565.3149    2465.0791      19.2690       0.0445       3.5300       2.7480
   3148.8889       5.8810      -0.0030    -999.2500      13.8130    -999.2500    -999.2500    1331.3051    1946.5439      19.2820       0.0468       3.1510       2.7360
   3149.0415       5.8810      -0.0030    -999.2500      13.8190    -999.2500    -999.2500    1331.7371    1947.1260      29.4830       0.0502       2.9310       2.7390
   3149.1938       5.9280       0.0000    -999.2500      15.5720    -999.2500    -999.2500    1474.0229    2137.8450      34.7110       0.0555       2.9860       2.7380
   3149.3462       5.9640       0.0000    -999.2500      17.0030    -999.2500    -999.2500    1809.8920    2579.4580      60.6690       0.0598       2.9120       2.7420
   3149.4985       5.9200       0.0070    -999.2500      16.3150    -999.2500    -999.2500    3173.2920    4695.1289      44.2100       0.0605       3.2300       2.7590
   3149.6509       5.9200       0.0070    -999.2500      13.3870    -999.2500    -999.2500    3169.7949    4689.7319      44.2200       0.0590       3.2920       2.7590
   3149.8035       5.9240       0.0010    -999.2500      13.3880    -999.2500    -999.2500    1594.7590    2291.0149      51.1820       0.0563       3.4910       2.7360
   3149.9558       5.9580      -0.0010    -999.2500      13.6470    -999.2500    -999.2500    1028.9000    1581.3700     139.1520       0.0530       3.2390       2.7400
   3150.1082       5.9540       0.0040    -999.2500      14.2190    -999.2500    -999.2500    1230.2740    1856.8770      10.2150       0.0530       3.1630       2.7410
   3150.2605       5.9170       0.0020    -999.2500      16.1270    -999.2500    -999.2500     541.9980     970.1350      11.7410       0.0612       3.0760       2.7360
   3150.4131       5.9170      -0.0010    -999.2500      17.1680    -999.2500    -999.2500     541.9980     970.1350      14.3480       0.0773       2.8750       2.6730
   3150.5654       5.9560       0.0110    -999.2500      18.8310    -999.2500    -999.2500     613.7560    1094.7371      74.6800       0.0935       2.8660       2.6190
   3150.7178       6.0710       0.0160    -999.2500      18.6390    -999.2500    -999.2500     599.9880    1125.5210       4.2040       0.1040       2.7040       2.5930
   3150.8701       6.0430       0.0140    -999.2500      17.5210    -999.2500    -999.2500     643.3440    1162.8070      19.0500       0.1070       2.9950       2.6020
   3151.0227       6.0250       0.0340    -999.2500      17.5230    -999.2500    -999.2500     751.2300    1399.7250     245.6150       0.1023       3.1660       2.6830
   3151.1750       6.0020       0.0460    -999.2500      17.8480    -999.2500    -999.2500     890.8640    1674.8199     245.6150       0.0908       3.3930       2.7310
   3151.3274       5.9680       0.0250    -999.2500      18.9040    -999.2500    -999.2500    1053.0100    1813.4470      50.2970       0.0757       3.2440       2.7370
   3151.4797       5.9990       0.0260    -999.2500      18.6000    -999.2500    -999.2500    1045.0870    1764.0341      24.9870       0.0612       3.0930       2.7370
   3151.6321       6.0800       0.0250    -999.2500      18.1070    -999.2500    -999.2500    1311.8500    2762.5330     138.8540       0.0487       3.0220       2.7570
   3151.7847       6.0300       0.0260    -999.2500      15.3870    -999.2500    -999.2500    1739.6270    2692.0920     138.3680       0.0405       2.9080       2.7800
   3151.9370       6.0300       0.0280    -999.2500      13.8810    -999.2500    -999.2500    1849.9030    2692.0920      66.7450       0.0390       2.9760       2.7830
   3152.0894       6.0300       0.0400    -999.2500      12.5380    -999.2500    -999.2500    2007.7250    2706.5000       5.6840       0.0430       2.7190       2.7760
   3152.2417       6.0190       0.0190    -999.2500      13.1380    -999.2500    -999.2500    2272.6951    3151.9080      11.4650       0.0493       2.8210       2.7150
   3152.3943       6.0850       0.0180    -999.2500      13.8800    -999.2500    -999.2500    1958.6680    2739.1050      77.8930       0.0562       2.7990       2.7080
   3152.5466       6.0450       0.0270    -999.2500      15.6350    -999.2500    -999.2500    2228.4089    2908.0149      77.7820       0.0655       3.0900       2.7430
   3152.6990       5.9900       0.0230    -999.2500      16.2970    -999.2500    -999.2500    2228.0100    3426.6599      18.3470       0.0760       3.0950       2.7580
   3152.8513       5.9620       0.0090    -999.2500      17.5160    -999.2500    -999.2500    1991.7380    3424.7161      43.7760       0.0828       3.0860       2.7380
   3153.0039       5.9620       0.0020    -999.2500      19.6380    -999.2500    -999.2500    1584.1040    2869.3960      43.7760       0.0823       3.0560       2.7000
   3153.1562       6.0350       0.0030    -999.2500      20.0000    -999.2500    -999.2500    1414.8929    2654.7839      25.1830       0.0760       2.7340       2.6830
   3153.3086       6.0350       0.0050    -999.2500      17.2700    -999.2500    -999.2500    1264.4150    2376.5310      32.7100       0.0692       2.7180       2.6640
   3153.4609       5.9680       0.0040    -999.2500      17.2760    -999.2500    -999.2500     965.9660    1480.0480      13.5730       0.0650       2.7100       2.6690
   3153.6133       5.9680       0.0030    -999.2500      21.0510    -999.2500    -999.2500     739.0300    1480.1910      13.5730       0.0620       3.0680       2.7050
   3153.7659       6.0070       0.0040    -999.2500      24.5850    -999.2500    -999.2500     684.1040    1525.4010      13.5990       0.0592       3.0240       2.7500
   3153.9182       6.0850       0.0050    -999.2500      25.9670    -999.2500    -999.2500     837.7530    1986.7870      76.6230       0.0575       3.0300       2.7570
   3154.0706       6.0410       0.0050    -999.2500      21.8370    -999.2500    -999.2500     754.3960    1843.1021      11.5450       0.0570       3.1730       2.7310
   3154.2229       5.9540       0.0050    -999.2500      21.8400    -999.2500    -999.2500     770.8670    1788.6510       6.7990       0.0570       3.2940       2.7170
   3154.3755       5.9540       0.0090    -999.2500      23.9040    -999.2500    -999.2500     659.8140    1641.5630       6.8100       0.0575       3.3430       2.7100
   3154.5278       5.9820       0.0110    -999.2500      27.0700    -999.2500    -999.2500     642.7230    1596.3850      11.3890       0.0605       3.2160       2.6980
   3154.6802       6.0150       0.0020    -999.2500      45.0760    -999.2500    -999.2500     773.2750    1911.7480      87.8340       0.0678       3.0870       2.6790
   3154.8325       5.9610       0.0020    -999.2500      67.2130    -999.2500    -999.2500     855.6910    1768.1689     115.1160       0.0775       3.0870       2.6880
   3154.9851       5.9030       0.0060    -999.2500      67.2130    -999.2500    -999.2500     917.2140    1822.7419     115.1160       0.0823       3.1790       2.7310
   3155.1375       5.9000       0.0060    -999.2500      49.0380    -999.2500    -999.2500     952.0190    1774.4399      83.9010       0.0760       3.2350       2.7360
   3155.2898       5.9910       0.0060    -999.2500      25.6330    -999.2500    -999.2500     678.1380    1288.9330      42.7710       0.0632       3.2140       2.7190
   3155.4421       5.9990       0.0040    -999.2500      16.6850    -999.2500    -999.2500     629.6040    1376.7260       1.1510       0.0542       3.1060       2.6890
   3155.5945       5.9650       0.0090    -999.2500      17.4190    -999.2500    -999.2500     696.2220    1431.3180       1.1690       0.0538       3.1070       2.7220
   3155.7471       5.9340       0.0190    -999.2500      19.0110    -999.2500    -999.2500     696.2220    1656.4490      29.1850       0.0555       3.1670       2.7620
