#------------------------------------------------------------------------------
#
#   Created by  : [OpenWorks] Log Export Utility (LEXP)
#   Created on  : 2016-05-11 12:13:44
#   Project     : CANT971
#   User        : R5K
#   Interpreter : PEP
#
#------------------------------------------------------------------------------
~VERSION INFORMATION
VERS. 2.0 : CWLS Log ASCII Standard - version 2.0
WRAP.  NO : One line per depth step
~WELL INFORMATION
#MNEMONIC   .UNIT                                           VALUE :DESCRIPTION
#------------------------------------------------------------------------------
STRT        .M                                           727.2530 :START DEPTH
STOP        .M                                          3766.1089 :STOP DEPTH
STEP        .M                                             0.1524 :STEP
NULL        .                                           -999.2500 :NULL VALUE
COMP        .                                   PEMEX EXPL & PROD :COMPANY
WELL        .                                                  99 :WELL
FLD         .                                           CANTARELL :FIELD
LOC         .                                             UNKNOWN :LOCATION
CNTY        .                                      CD. DEL CARMEN :COUNTY
STAT        .                                            CAMPECHE :STATE
CTRY        .                                              MEXICO :COUNTRY
SRVC        .                                             UNKNOWN :SERVICE COMPANY
DATE        .                                             UNKNOWN :LOG DATE
UWI         .                                          3060000617 :UNIQUE WELL ID
XCOORD      .                                       601388.490000 :SURFACE X
YCOORD      .                                      2149874.120000 :SURFACE Y
LAT         .                                           19.441847 :LATITUDE
LON         .                                          -92.034160 :LONGITUDE
ELEV        .M                                            28.0000 :SURFACE ELEV
ELEV_TYPE   .                                                  KB :ELEV TYPE
~CURVE INFORMATION
#MNEMONIC.UNIT        API CODE       : CURVE DESCRIPTION
#------------------------------------------------------------------------------
DEPTH    .M                          : Measured Depth
CALI     .inches      UNKNOWN        : CALI:Import:rC:NONE:v0 (auto-composite)
DRHO     .g/cm3       UNKNOWN        : DRHO:Import:rC:NONE:v0 (auto-composite)
DT       .us/ft       UNKNOWN        : DT:Import:rC:NONE:v0 (auto-composite)
GR       .API         UNKNOWN        : GR:Import:rC:NONE:v0 (auto-composite)
ILD      .ohm.m       UNKNOWN        : ILD:Import:rC:NONE:v0 (auto-composite)
ILM      .ohm.m       UNKNOWN        : ILM:Import:rC:NONE:v0 (auto-composite)
LLD      .ohm.m       UNKNOWN        : LLD:Import:rC:NONE:v0 (auto-composite)
LLS      .ohm.m       UNKNOWN        : LLS:Import:rC:NONE:v0 (auto-composite)
MSFL     .ohm.m       UNKNOWN        : MSFL:Import:rC:NONE:v0 (auto-composite)
NPHI     .v/v_decimal UNKNOWN        : NPHI:Import:rC:NONE:v0 (auto-composite)
PEF      .b/elec      UNKNOWN        : PEF:Import:rC:NONE:v0 (auto-composite)
RHOB     .g/cm3       UNKNOWN        : RHOB:Import:rC:NONE:v0 (auto-composite)
~A     DEPTH         CALI         DRHO           DT           GR          ILD          ILM          LLD          LLS         MSFL         NPHI          PEF         RHOB
# ...
   2951.0737       6.3970       0.0020    -999.2500      16.7730    -999.2500    -999.2500    1093.1340    2756.8169     332.9430       0.0625       3.3310       2.6930
   2951.2261       6.4070       0.0000    -999.2500      14.4880    -999.2500    -999.2500    1145.1990    2961.6130    2000.0000       0.0628       3.2990       2.7020
   2951.3787       6.3940       0.0000    -999.2500      14.9980    -999.2500    -999.2500    1284.8480    2961.1201     218.6220       0.0587       3.5230       2.7240
   2951.5310       6.3900       0.0060    -999.2500      16.1670    -999.2500    -999.2500    1215.0470    2586.9160      59.8020       0.0550       3.2960       2.7480
   2951.6833       6.3900       0.0060    -999.2500      20.0540    -999.2500    -999.2500    1215.2450    2587.0891      59.8210       0.0560       3.2170       2.7270
   2951.8357       6.4180       0.0070    -999.2500      24.4200    -999.2500    -999.2500    1278.5560    2642.1111      65.9720       0.0605       2.8890       2.7200
   2951.9883       6.4250       0.0150    -999.2500      26.5680    -999.2500    -999.2500    1531.5980    3216.1130      19.4010       0.0633       2.9240       2.7100
   2952.1406       6.4190       0.0280    -999.2500      25.6260    -999.2500    -999.2500    1530.3500    3213.8899    2000.0000       0.0613       2.7970       2.7400
   2952.2930       6.4190       0.0170    -999.2500      23.6330    -999.2500    -999.2500    1291.4170    2782.8030    1991.3010       0.0562       3.0850       2.7380
   2952.4453       6.4290       0.0130    -999.2500      23.6400    -999.2500    -999.2500    1076.0470    2405.9851      57.3610       0.0522       3.0860       2.7670
   2952.5979       6.4480       0.0230    -999.2500      25.8640    -999.2500    -999.2500     892.1440    1992.0110      57.3610       0.0512       3.2350       2.7710
   2952.7502       6.5130       0.0160    -999.2500      26.3420    -999.2500    -999.2500     770.6520    1800.4399      64.3050       0.0518       3.2600       2.7570
   2952.9026       6.5130       0.0110    -999.2500      27.8090    -999.2500    -999.2500     511.4630    1280.2070     186.2780       0.0513       3.1030       2.7430
   2953.0549       6.5110       0.0230    -999.2500      26.7590    -999.2500    -999.2500     207.5890     535.3130     185.1550       0.0495       2.9430       2.7400
   2953.2073       6.4600       0.0280    -999.2500      26.7590    -999.2500    -999.2500     149.4840     385.8790       4.3010       0.0500       2.8710       2.7380
   2953.3599       6.3740       0.0110    -999.2500      26.8260    -999.2500    -999.2500     128.6430     338.7880       4.0950       0.0562       2.9370       2.7150
   2953.5122       6.3410       0.0040    -999.2500      22.6520    -999.2500    -999.2500      95.8600     244.8260      42.5570       0.0651       2.8560       2.7110
   2953.6646       6.3880       0.0130    -999.2500      22.6520    -999.2500    -999.2500     126.1230     313.5110       2.1550       0.0744       2.8560       2.7120
   2953.8169       6.3860       0.0040    -999.2500      25.4680    -999.2500    -999.2500     124.4560     305.8650       2.1550       0.0854       3.0040       2.6890
   2953.9695       6.3390      -0.0030    -999.2500      25.4620    -999.2500    -999.2500     124.4820     305.9030       2.4340       0.0920       3.2120       2.6720
   2954.1218       6.3170      -0.0060    -999.2500      23.4790    -999.2500    -999.2500     132.8510     318.1360     798.5270       0.0904       3.4670       2.6700
   2954.2742       6.3300      -0.0030    -999.2500      23.2800    -999.2500    -999.2500     167.5520     391.2260     302.4210       0.0829       3.0050       2.6730
   2954.4265       6.4480      -0.0120    -999.2500      26.0130    -999.2500    -999.2500     197.5770     450.0090      63.8080       0.0785       2.9760       2.6660
   2954.5791       6.4480      -0.0150    -999.2500      26.0130    -999.2500    -999.2500     224.4800     502.2000      63.8080       0.0772       2.9250       2.6620
   2954.7314       6.4070      -0.0090    -999.2500      22.8250    -999.2500    -999.2500     256.0640     556.2230      76.5220       0.0743       3.1460       2.6700
   2954.8838       6.4260      -0.0030    -999.2500      22.1510    -999.2500    -999.2500     288.1090     621.8640     168.7620       0.0702       3.1260       2.6960
   2955.0361       6.4040       0.0000    -999.2500      29.3450    -999.2500    -999.2500     376.4790     767.9330     379.1880       0.0702       3.1450       2.7240
   2955.1885       6.4280       0.0040    -999.2500      29.3380    -999.2500    -999.2500     376.1240     767.2910      81.2150       0.0735       3.1740       2.7510
   2955.3411       6.4280       0.0070    -999.2500      27.8620    -999.2500    -999.2500     309.0480     644.8390      81.2150       0.0752       3.1850       2.7540
   2955.4934       6.3790       0.0090    -999.2500      24.4820    -999.2500    -999.2500     268.8450     580.5630     116.3730       0.0750       3.0970       2.7550
   2955.6458       6.3480       0.0080    -999.2500      25.7300    -999.2500    -999.2500     289.9210     623.2440      13.1140       0.0754       3.0310       2.7400
   2955.7981       6.4160       0.0120    -999.2500      36.1770    -999.2500    -999.2500     226.8580     490.9960      45.8320       0.0805       2.8950       2.7350
   2955.9507       6.3950       0.0100    -999.2500      36.1670    -999.2500    -999.2500     109.5740     241.0640      26.1370       0.0895       2.9740       2.6940
   2956.1030       6.3950       0.0120    -999.2500      34.1500    -999.2500    -999.2500      80.5870     173.4420       3.5760       0.1019       2.9770       2.6440
   2956.2554       6.4270       0.0110    -999.2500      29.7400    -999.2500    -999.2500      79.9920     167.5340       3.2950       0.1188       3.0640       2.5790
   2956.4077       6.3930       0.0130    -999.2500      27.1620    -999.2500    -999.2500      96.3250     197.9910      10.4320       0.1315       2.9380       2.5660
   2956.5603       6.4360       0.0270    -999.2500      29.4670    -999.2500    -999.2500     111.1260     227.7790      19.6940       0.1279       2.8600       2.6100
   2956.7126       6.4360       0.0390    -999.2500      29.0740    -999.2500    -999.2500     137.3680     277.3790      18.1640       0.1105       2.8040       2.6720
   2956.8650       6.3820       0.0270    -999.2500      24.2970    -999.2500    -999.2500     154.0120     299.6600      18.6520       0.0958       2.8760       2.6890
   2957.0173       6.3820       0.0140    -999.2500      18.4360    -999.2500    -999.2500     184.9350     359.0450      22.7840       0.0938       3.0640       2.6760
   2957.1697       6.3860       0.0120    -999.2500      14.8740    -999.2500    -999.2500     214.8760     405.6560      33.8450       0.0960       2.9980       2.6820
   2957.3223       6.4320       0.0050    -999.2500      12.1870    -999.2500    -999.2500     251.2710     464.9650     117.1050       0.0960       3.0110       2.6680
   2957.4746       6.3960       0.0050    -999.2500      11.1210    -999.2500    -999.2500     324.3560     566.4860     144.2970       0.0955       3.0270       2.6830
   2957.6270       6.3110       0.0050    -999.2500       9.2660    -999.2500    -999.2500     448.9700     719.2360    2000.0000       0.0941       2.8710       2.6550
   2957.7793       6.3110       0.0070    -999.2500       8.0910    -999.2500    -999.2500     448.6790     718.7590    1975.6940       0.0883       3.0600       2.6380
   2957.9319       6.3510       0.0240    -999.2500       8.0910    -999.2500    -999.2500     366.5970     584.3260      43.5400       0.0807       2.9550       2.5970
   2958.0842       6.4050       0.0360    -999.2500       9.4480    -999.2500    -999.2500     294.8310     497.4660       7.9760       0.0806       3.1800       2.5970
   2958.2366       6.4050       0.0310    -999.2500      11.0110    -999.2500    -999.2500     289.7960     497.4130    2000.0000       0.0899       2.9260       2.6050
