#------------------------------------------------------------------------------
#
#   Created by  : [OpenWorks] Log Export Utility (LEXP)
#   Created on  : 2016-05-11 12:13:44
#   Project     : CANT971
#   User        : R5K
#   Interpreter : PEP
#
#------------------------------------------------------------------------------
~VERSION INFORMATION
VERS. 2.0 : CWLS Log ASCII Standard - version 2.0
WRAP.  NO : One line per depth step
~WELL INFORMATION
#MNEMONIC   .UNIT                                           VALUE :DESCRIPTION
#------------------------------------------------------------------------------
STRT        .M                                           727.2530 :START DEPTH
STOP        .M                                          3766.1089 :STOP DEPTH
STEP        .M                                             0.1524 :STEP
NULL        .                                           -999.2500 :NULL VALUE
COMP        .                                   PEMEX EXPL & PROD :COMPANY
WELL        .                                                  99 :WELL
FLD         .                                           CANTARELL :FIELD
LOC         .                                             UNKNOWN :LOCATION
CNTY        .                                      CD. DEL CARMEN :COUNTY
STAT        .                                            CAMPECHE :STATE
CTRY        .                                              MEXICO :COUNTRY
SRVC        .                                             UNKNOWN :SERVICE COMPANY
DATE        .                                             UNKNOWN :LOG DATE
UWI         .                                          3060000617 :UNIQUE WELL ID
XCOORD      .                                       601388.490000 :SURFACE X
YCOORD      .                                      2149874.120000 :SURFACE Y
LAT         .                                           19.441847 :LATITUDE
LON         .                                          -92.034160 :LONGITUDE
ELEV        .M                                            28.0000 :SURFACE ELEV
ELEV_TYPE   .                                                  KB :ELEV TYPE
~CURVE INFORMATION
#MNEMONIC.UNIT        API CODE       : CURVE DESCRIPTION
#------------------------------------------------------------------------------
DEPTH    .M                          : Measured Depth
CALI     .inches      UNKNOWN        : CALI:Import:rC:NONE:v0 (auto-composite)
DRHO     .g/cm3       UNKNOWN        : DRHO:Import:rC:NONE:v0 (auto-composite)
DT       .us/ft       UNKNOWN        : DT:Import:rC:NONE:v0 (auto-composite)
GR       .API         UNKNOWN        : GR:Import:rC:NONE:v0 (auto-composite)
ILD      .ohm.m       UNKNOWN        : ILD:Import:rC:NONE:v0 (auto-composite)
ILM      .ohm.m       UNKNOWN        : ILM:Import:rC:NONE:v0 (auto-composite)
LLD      .ohm.m       UNKNOWN        : LLD:Import:rC:NONE:v0 (auto-composite)
LLS      .ohm.m       UNKNOWN        : LLS:Import:rC:NONE:v0 (auto-composite)
MSFL     .ohm.m       UNKNOWN        : MSFL:Import:rC:NONE:v0 (auto-composite)
NPHI     .v/v_decimal UNKNOWN        : NPHI:Import:rC:NONE:v0 (auto-composite)
PEF      .b/elec      UNKNOWN        : PEF:Import:rC:NONE:v0 (auto-composite)
RHOB     .g/cm3       UNKNOWN        : RHOB:Import:rC:NONE:v0 (auto-composite)
~A     DEPTH         CALI         DRHO           DT           GR          ILD          ILM          LLD          LLS         MSFL         NPHI          PEF         RHOB
# ...
   3624.0723       6.2250       0.0080    -999.2500      16.8670    -999.2500    -999.2500     221.0610     151.1480     126.1560       0.0580       3.2960       2.7610
   3624.2246       6.1310       0.0040    -999.2500      19.0010    -999.2500    -999.2500     175.9300     127.2530      10.6130       0.0587       3.3230       2.7150
   3624.3770       6.2110       0.0080    -999.2500      25.2450    -999.2500    -999.2500     205.7450     139.7810     102.4650       0.0588       3.3650       2.6930
   3624.5293       6.1520       0.0290    -999.2500      38.9840    -999.2500    -999.2500     204.8150     139.2600     101.7470       0.0580       3.5790       2.6830
   3624.6819       6.1520       0.0150    -999.2500      66.0560    -999.2500    -999.2500      49.8340      43.4250      11.3380       0.0542       3.5630       2.6620
   3624.8342       6.1520       0.0120    -999.2500      94.1430    -999.2500    -999.2500      12.0340       9.1390       0.2440       0.0747       3.4410       2.6760
   3624.9866       6.0340       0.0180    -999.2500      94.0530    -999.2500    -999.2500       9.2330       9.1400       0.2480       0.1419       3.3470       2.7400
   3625.1389       6.0840       0.0230    -999.2500      75.2220    -999.2500    -999.2500       9.2340       9.3220       7.3270       0.2094       2.9660       2.7460
   3625.2915       6.0840      -0.0070    -999.2500      47.8990    -999.2500    -999.2500      10.0150       9.8450      27.9510       0.2138       2.8680       2.4460
   3625.4438       6.0620      -0.0200    -999.2500      36.2430    -999.2500    -999.2500      23.4250      21.1310     139.8560       0.1482       2.6660       2.2510
   3625.5962       6.0300      -0.0160    -999.2500      29.9740    -999.2500    -999.2500     397.7820     223.8110      53.9720       0.0799       2.9710       2.2420
   3625.7485       6.0930       0.0570    -999.2500      28.3040    -999.2500    -999.2500     396.7690     148.9400      20.0540       0.0580       3.2350       2.4290
   3625.9009       6.0350       0.0570    -999.2500      29.5270    -999.2500    -999.2500     233.6190     148.9700      20.0780       0.0613       3.3180       2.7340
   3626.0535       6.0350       0.0270    -999.2500      29.5220    -999.2500    -999.2500     207.7320     148.9140      41.8290       0.0713       3.3960       2.7640
   3626.2058       6.0410       0.0120    -999.2500      27.9730    -999.2500    -999.2500     176.5560     132.4090     100.0700       0.0823       3.3880       2.7570
   3626.3582       6.0690       0.0160    -999.2500      36.9170    -999.2500    -999.2500     213.7350     173.4240      25.9690       0.0847       3.5030       2.7490
   3626.5105       6.0620       0.0160    -999.2500      47.3470    -999.2500    -999.2500     213.3430     173.1000      38.3800       0.0792       3.4470       2.7150
   3626.6631       6.1000       0.0080    -999.2500      47.3470    -999.2500    -999.2500     145.6550     117.3740      30.5430       0.0775       3.3210       2.6740
   3626.8154       6.1160       0.0090    -999.2500      43.4820    -999.2500    -999.2500     138.1210     105.4890      84.0920       0.0873       3.1010       2.6740
   3626.9678       6.0140       0.0150    -999.2500      33.9180    -999.2500    -999.2500     157.1040     117.5880     150.5520       0.1035       2.9380       2.7110
   3627.1201       6.0840       0.0140    -999.2500      23.7470    -999.2500    -999.2500     133.4920      98.7540       3.5890       0.1113       3.2790       2.7470
   3627.2727       6.0710       0.0040    -999.2500      23.7690    -999.2500    -999.2500     173.8190     154.1340       3.6400       0.1010       3.2600       2.7570
   3627.4250       6.0710      -0.0030    -999.2500      28.4060    -999.2500    -999.2500     208.2340     154.1340      69.4910       0.0830       3.5360       2.7720
   3627.5774       6.0740      -0.0070    -999.2500      35.0600    -999.2500    -999.2500     213.1460     154.2390     108.2160       0.0740       3.2010       2.7860
   3627.7297       6.0930      -0.0030    -999.2500      42.1540    -999.2500    -999.2500     468.7940     328.0430      34.3150       0.0788       3.3160       2.7960
   3627.8821       6.0640      -0.0030    -999.2500      38.5700    -999.2500    -999.2500    1413.9830    1033.9670     162.9250       0.0842       3.1110       2.7990
   3628.0347       6.1010       0.0000    -999.2500      29.5330    -999.2500    -999.2500    1410.7440    1031.5389     162.6540       0.0775       3.0130       2.7950
   3628.1870       6.1010       0.0030    -999.2500      17.2720    -999.2500    -999.2500     875.5540     632.6020     114.9820       0.0612       2.8810       2.8010
   3628.3394       6.0930       0.0000    -999.2500      14.3670    -999.2500    -999.2500     697.9670     484.7790      60.7380       0.0467       3.2100       2.7890
   3628.4917       6.0580      -0.0030    -999.2500      20.7510    -999.2500    -999.2500     612.3080     403.9110      49.4760       0.0405       3.3810       2.7960
   3628.6443       6.0320       0.0040    -999.2500      24.4270    -999.2500    -999.2500     563.4100     355.4420      19.5270       0.0413       3.5110       2.7840
   3628.7966       6.0320       0.0020    -999.2500      24.3910    -999.2500    -999.2500     735.2320     449.1050      52.0930       0.0463       3.2310       2.7670
   3628.9490       6.0640       0.0070    -999.2500      16.9380    -999.2500    -999.2500     954.2090     568.4790      24.0360       0.0515       3.4020       2.7480
   3629.1013       6.0930       0.0100    -999.2500      11.5090    -999.2500    -999.2500    1125.7510     646.1770      24.1430       0.0535       3.1170       2.7280
   3629.2539       6.1160       0.0140    -999.2500      11.5090    -999.2500    -999.2500    1614.0649     918.6390      96.5670       0.0543       2.9830       2.7240
   3629.4062       6.1140       0.0130    -999.2500      18.5400    -999.2500    -999.2500    2324.4641    1360.9600     193.1210       0.0567       2.8340       2.7450
   3629.5586       6.1140       0.0290    -999.2500      18.5380    -999.2500    -999.2500    3087.2000    1938.6410     239.8550       0.0587       3.0020       2.7920
   3629.7109       6.1570       0.0290    -999.2500      18.1400    -999.2500    -999.2500    3086.5549    1938.3459     155.6950       0.0562       3.1400       2.7970
   3629.8633       6.1570       0.0170    -999.2500      15.7790    -999.2500    -999.2500    2705.3679    1760.2870     155.7640       0.0512       3.0030       2.7690
   3630.0159       6.0950       0.0130    -999.2500      15.0170    -999.2500    -999.2500    1591.1530    1120.1591     178.8430       0.0500       2.9360       2.7690
   3630.1682       6.0220       0.0200    -999.2500      20.8740    -999.2500    -999.2500     860.1910     641.1940     126.1500       0.0515       3.0250       2.7950
   3630.3206       6.1200       0.0130    -999.2500      24.5890    -999.2500    -999.2500     610.4120     472.6980      38.2120       0.0515       2.9870       2.7800
   3630.4729       6.0720       0.0130    -999.2500      24.5840    -999.2500    -999.2500     448.1620     377.1960      52.9990       0.0513       2.9870       2.7450
   3630.6255       6.0720       0.0160    -999.2500      21.1850    -999.2500    -999.2500     448.3090     377.3460      52.6740       0.0543       3.0900       2.7240
   3630.7778       6.0890       0.0200    -999.2500      19.5090    -999.2500    -999.2500     496.6890     427.2150       7.3250       0.0648       3.2970       2.7190
   3630.9302       6.0930       0.0130    -999.2500      14.0590    -999.2500    -999.2500     608.2260     532.3580      55.3420       0.0777       3.5360       2.7090
   3631.0825       6.0820       0.0150    -999.2500      14.0620    -999.2500    -999.2500     827.2190     723.6350      33.3990       0.0825       3.4320       2.7090
   3631.2351       6.0820       0.0110    -999.2500      14.7750    -999.2500    -999.2500     827.2190     723.6350      33.3990       0.0790       3.2540       2.7140
