#------------------------------------------------------------------------------
#
#   Created by  : [OpenWorks] Log Export Utility (LEXP)
#   Created on  : 2016-05-11 12:13:44
#   Project     : CANT971
#   User        : R5K
#   Interpreter : PEP
#
#------------------------------------------------------------------------------
~VERSION INFORMATION
VERS. 2.0 : CWLS Log ASCII Standard - version 2.0
WRAP.  NO : One line per depth step
~WELL INFORMATION
#MNEMONIC   .UNIT                                           VALUE :DESCRIPTION
#------------------------------------------------------------------------------
STRT        .M                                           727.2530 :START DEPTH
STOP        .M                                          3766.1089 :STOP DEPTH
STEP        .M                                             0.1524 :STEP
NULL        .                                           -999.2500 :NULL VALUE
COMP        .                                   PEMEX EXPL & PROD :COMPANY
WELL        .                                                  99 :WELL
FLD         .                                           CANTARELL :FIELD
LOC         .                                             UNKNOWN :LOCATION
CNTY        .                                      CD. DEL CARMEN :COUNTY
STAT        .                                            CAMPECHE :STATE
CTRY        .                                              MEXICO :COUNTRY
SRVC        .                                             UNKNOWN :SERVICE COMPANY
DATE        .                                             UNKNOWN :LOG DATE
UWI         .                                          3060000617 :UNIQUE WELL ID
XCOORD      .                                       601388.490000 :SURFACE X
YCOORD      .                                      2149874.120000 :SURFACE Y
LAT         .                                           19.441847 :LATITUDE
LON         .                                          -92.034160 :LONGITUDE
ELEV        .M                                            28.0000 :SURFACE ELEV
ELEV_TYPE   .                                                  KB :ELEV TYPE
~CURVE INFORMATION
#MNEMONIC.UNIT        API CODE       : CURVE DESCRIPTION
#------------------------------------------------------------------------------
DEPTH    .M                          : Measured Depth
CALI     .inches      UNKNOWN        : CALI:Import:rC:NONE:v0 (auto-composite)
DRHO     .g/cm3       UNKNOWN        : DRHO:Import:rC:NONE:v0 (auto-composite)
DT       .us/ft       UNKNOWN        : DT:Import:rC:NONE:v0 (auto-composite)
GR       .API         UNKNOWN        : GR:Import:rC:NONE:v0 (auto-composite)
ILD      .ohm.m       UNKNOWN        : ILD:Import:rC:NONE:v0 (auto-composite)
ILM      .ohm.m       UNKNOWN        : ILM:Import:rC:NONE:v0 (auto-composite)
LLD      .ohm.m       UNKNOWN        : LLD:Import:rC:NONE:v0 (auto-composite)
LLS      .ohm.m       UNKNOWN        : LLS:Import:rC:NONE:v0 (auto-composite)
MSFL     .ohm.m       UNKNOWN        : MSFL:Import:rC:NONE:v0 (auto-composite)
NPHI     .v/v_decimal UNKNOWN        : NPHI:Import:rC:NONE:v0 (auto-composite)
PEF      .b/elec      UNKNOWN        : PEF:Import:rC:NONE:v0 (auto-composite)
RHOB     .g/cm3       UNKNOWN        : RHOB:Import:rC:NONE:v0 (auto-composite)
~A     DEPTH         CALI         DRHO           DT           GR          ILD          ILM          LLD          LLS         MSFL         NPHI          PEF         RHOB
# ...
   3755.7458       6.3470       0.0720    -999.2500      10.1970    -999.2500    -999.2500     220.8630     125.7590      24.1180       0.0401       3.3650       2.6940
   3755.8982       6.3850       0.0770    -999.2500      10.1970    -999.2500    -999.2500     237.5500     136.4650      22.0580       0.0430       3.3540       2.7810
   3756.0505       6.6770       0.0660    -999.2500      10.1970    -999.2500    -999.2500     236.6710     136.4070      17.2600       0.0451       3.5810       2.7810
   3756.2029       6.6590       0.0370    -999.2500      10.1970    -999.2500    -999.2500     213.4170     123.8040      29.4080       0.0490       3.5810       2.7630
   3756.3555       6.6590       0.0180    -999.2500      10.1970    -999.2500    -999.2500     213.4300     123.8240      29.4080       0.0532       3.5580       2.7410
   3756.5078       6.7960       0.0160    -999.2500      10.1970    -999.2500    -999.2500     217.6520     130.0570      29.3270       0.0614       3.4730       2.7330
   3756.6602       6.5730       0.0340    -999.2500      10.1970    -999.2500    -999.2500     251.5630     147.3490      17.5360       0.0788       3.2210       2.7260
   3756.8125       6.3360       0.0740    -999.2500      10.1970    -999.2500    -999.2500     219.7360     131.7320      52.9070       0.0898       3.2810       2.7270
   3756.9651       6.3360       0.1090    -999.2500      10.1970    -999.2500    -999.2500     228.4570     135.3430      52.9070       0.0945       3.2910       2.7470
   3757.1174       6.3640       0.1250    -999.2500      10.1970    -999.2500    -999.2500     256.2100     150.0720      28.3190       0.0870       3.5100       2.7490
   3757.2698       6.2520       0.1780    -999.2500      10.1970    -999.2500    -999.2500     274.2460     159.4250      25.8190       0.0800       3.5440       2.7800
   3757.4221       6.2690       0.2200    -999.2500      10.1970    -999.2500    -999.2500     274.7440     159.6610      45.6340       0.0722       3.6640       2.7730
   3757.5747       6.1880       0.1940    -999.2500      10.1970    -999.2500    -999.2500     272.8840     159.3590      45.5150       0.0704       3.3820       2.7200
   3757.7271       6.1880       0.1800    -999.2500      10.1970    -999.2500    -999.2500     272.8840     159.5230      26.4360       0.0789       3.1350       2.6960
   3757.8794       6.2060       0.1710    -999.2500      10.1970    -999.2500    -999.2500     273.1080     159.3930      14.5920       0.0861       3.0380       2.7020
   3758.0317       6.2730       0.1300    -999.2500      10.1970    -999.2500    -999.2500     272.4570     160.1000       9.9370       0.0957       3.2760       2.7070
   3758.1841       6.3220       0.0880    -999.2500      10.1970    -999.2500    -999.2500     272.4570     160.1000      32.8760       0.0988       3.2210       2.7020
   3758.3367       6.3220       0.0890    -999.2500      10.1970    -999.2500    -999.2500     272.4570     160.1000      17.5820       0.0979       3.1570       2.7250
   3758.4890       6.2480       0.0740    -999.2500      10.1970    -999.2500    -999.2500     272.4570     160.1000      17.5820       0.0943       3.0640       2.6990
   3758.6414       6.2330       0.0780    -999.2500      10.1970    -999.2500    -999.2500     272.4570     160.1000      44.7520       0.0963       3.2290       2.7190
   3758.7937       6.2670       0.0850    -999.2500      10.1970    -999.2500    -999.2500     272.4570     160.1000      81.2810       0.1048       3.2300       2.7350
   3758.9463       6.3650       0.0670    -999.2500      10.1970    -999.2500    -999.2500     272.4570     160.1000      55.8500       0.1098       3.1770       2.7210
   3759.0986       6.3650       0.0410    -999.2500      10.1970    -999.2500    -999.2500     272.4570     160.1000      47.4700       0.1100       3.1520       2.6750
   3759.2510       6.3100       0.0280    -999.2500      10.1970    -999.2500    -999.2500     272.4570     160.1000      13.2490       0.1100       2.9860       2.6580
   3759.4033       6.3010       0.0200    -999.2500      10.1970    -999.2500    -999.2500     272.4570     160.1000      34.8300       0.1100       2.9690       2.6340
   3759.5559       6.2910       0.0130    -999.2500      10.1970    -999.2500    -999.2500     272.4570     160.1000      34.8300       0.1110       2.7880       2.6310
   3759.7083       6.2660       0.0080    -999.2500      10.1970    -999.2500    -999.2500     272.4570     160.1000      30.7050       0.1110       2.9120       2.6280
   3759.8606       6.2430       0.0050    -999.2500      10.1970    -999.2500    -999.2500     272.4570     160.1000      30.7170       0.1110       2.7610       2.6530
   3760.0129       6.2880       0.0040    -999.2500      10.1970    -999.2500    -999.2500     272.4570     160.1000      44.9070       0.1110       2.9870       2.6660
   3760.1653       6.2880       0.0060    -999.2500      10.1970    -999.2500    -999.2500     272.4570     160.1000      44.8540       0.1110       2.9990       2.7090
   3760.3179       6.2340       0.0020    -999.2500      10.1970    -999.2500    -999.2500     272.4570     160.1000      30.9100       0.1110       3.1640       2.7280
   3760.4702       6.1870       0.0060    -999.2500      10.1970    -999.2500    -999.2500     272.4570     160.1000     157.2330       0.1110       3.1050       2.7690
   3760.6226       6.1930       0.0050    -999.2500      10.1970    -999.2500    -999.2500     272.4570     160.1000     156.7140       0.1110       3.2020       2.7760
   3760.7749       6.2410       0.0120    -999.2500      10.1970    -999.2500    -999.2500     272.4570     160.1000      22.7120       0.1110       3.2020       2.7760
   3760.9275       6.2410       0.0190    -999.2500      10.1970    -999.2500    -999.2500     272.4570     160.1000      22.7380       0.1110       3.1780       2.7730
   3761.0798       6.1910       0.0420    -999.2500      10.1970    -999.2500    -999.2500     272.4570     160.1000      32.6940       0.1111       3.1980       2.7850
   3761.2322       6.0410       0.0770    -999.2500      10.1970    -999.2500    -999.2500     272.4570     160.1000      24.2030       0.1129       3.1020       2.7730
   3761.3845       6.0410       0.0770    -999.2500      10.1970    -999.2500    -999.2500     272.4570     160.1000      41.1590       0.1129       3.1020       2.7730
   3761.5371       6.0840       0.0730    -999.2500      10.1970    -999.2500    -999.2500     272.4570     160.1000      41.1590       0.1121       3.1480       2.7740
   3761.6895       6.1500       0.0940    -999.2500      10.1970    -999.2500    -999.2500     272.4570     160.1000      22.5480       0.1120       3.1320       2.7760
   3761.8418       6.1380       0.0930    -999.2500      10.1970    -999.2500    -999.2500     272.4570     160.1000     176.8480       0.1119       3.1610       2.7660
   3761.9941       6.2070       0.1060    -999.2500      10.1970    -999.2500    -999.2500     272.4570     160.1000      83.1730       0.1111       3.0490       2.7310
   3762.1465       6.1620       0.1060    -999.2500      10.1970    -999.2500    -999.2500     272.4570     160.1000      69.0540       0.1119       3.0490       2.7600
   3762.2991       6.1790       0.0990    -999.2500      10.1970    -999.2500    -999.2500     272.4570     160.1000      34.6650       0.1119       3.1120       2.7720
   3762.4514       6.2040       0.0690    -999.2500      10.1970    -999.2500    -999.2500     272.4570     160.1000      27.0710       0.1111       3.1550       2.7810
   3762.6038       6.1330       0.0730    -999.2500      10.1970    -999.2500    -999.2500     272.4570     160.1000      34.4650       0.1119       3.1960       2.8100
   3762.7561       6.1000       0.0630    -999.2500      10.1970    -999.2500    -999.2500     272.4570     160.1000      20.5980       0.1120       3.1160       2.7730
   3762.9087       6.0690       0.0350    -999.2500      10.1970    -999.2500    -999.2500     272.4570     160.1000      30.0330       0.1121       3.1760       2.7040
