#------------------------------------------------------------------------------
#
#   Created by  : [OpenWorks] Log Export Utility (LEXP)
#   Created on  : 2016-05-11 12:13:44
#   Project     : CANT971
#   User        : R5K
#   Interpreter : PEP
#
#------------------------------------------------------------------------------
~VERSION INFORMATION
VERS. 2.0 : CWLS Log ASCII Standard - version 2.0
WRAP.  NO : One line per depth step
~WELL INFORMATION
#MNEMONIC   .UNIT                                           VALUE :DESCRIPTION
#------------------------------------------------------------------------------
STRT        .M                                           727.2530 :START DEPTH
STOP        .M                                          3766.1089 :STOP DEPTH
STEP        .M                                             0.1524 :STEP
NULL        .                                           -999.2500 :NULL VALUE
COMP        .                                   PEMEX EXPL & PROD :COMPANY
WELL        .                                                  99 :WELL
FLD         .                                           CANTARELL :FIELD
LOC         .                                             UNKNOWN :LOCATION
CNTY        .                                      CD. DEL CARMEN :COUNTY
STAT        .                                            CAMPECHE :STATE
CTRY        .                                              MEXICO :COUNTRY
SRVC        .                                             UNKNOWN :SERVICE COMPANY
DATE        .                                             UNKNOWN :LOG DATE
UWI         .                                          3060000617 :UNIQUE WELL ID
XCOORD      .                                       601388.490000 :SURFACE X
YCOORD      .                                      2149874.120000 :SURFACE Y
LAT         .                                           19.441847 :LATITUDE
LON         .                                          -92.034160 :LONGITUDE
ELEV        .M                                            28.0000 :SURFACE ELEV
ELEV_TYPE   .                                                  KB :ELEV TYPE
~CURVE INFORMATION
#MNEMONIC.UNIT        API CODE       : CURVE DESCRIPTION
#------------------------------------------------------------------------------
DEPTH    .M                          : Measured Depth
CALI     .inches      UNKNOWN        : CALI:Import:rC:NONE:v0 (auto-composite)
DRHO     .g/cm3       UNKNOWN        : DRHO:Import:rC:NONE:v0 (auto-composite)
DT       .us/ft       UNKNOWN        : DT:Import:rC:NONE:v0 (auto-composite)
GR       .API         UNKNOWN        : GR:Import:rC:NONE:v0 (auto-composite)
ILD      .ohm.m       UNKNOWN        : ILD:Import:rC:NONE:v0 (auto-composite)
ILM      .ohm.m       UNKNOWN        : ILM:Import:rC:NONE:v0 (auto-composite)
LLD      .ohm.m       UNKNOWN        : LLD:Import:rC:NONE:v0 (auto-composite)
LLS      .ohm.m       UNKNOWN        : LLS:Import:rC:NONE:v0 (auto-composite)
MSFL     .ohm.m       UNKNOWN        : MSFL:Import:rC:NONE:v0 (auto-composite)
NPHI     .v/v_decimal UNKNOWN        : NPHI:Import:rC:NONE:v0 (auto-composite)
PEF      .b/elec      UNKNOWN        : PEF:Import:rC:NONE:v0 (auto-composite)
RHOB     .g/cm3       UNKNOWN        : RHOB:Import:rC:NONE:v0 (auto-composite)
~A     DEPTH         CALI         DRHO           DT           GR          ILD          ILM          LLD          LLS         MSFL         NPHI          PEF         RHOB
# ...
   3287.5730       6.2340       0.0080    -999.2500      19.9860    -999.2500    -999.2500     270.9170     198.4900       7.0470       0.0301       3.2070       2.6690
   3287.7253       6.2180       0.0080    -999.2500      19.9990    -999.2500    -999.2500     190.2940     137.8800      73.1630       0.0321       3.0440       2.7020
   3287.8777       6.2180       0.0100    -999.2500      23.9560    -999.2500    -999.2500     175.3210     126.2340      73.1630       0.0389       2.9630       2.7440
   3288.0303       6.2180       0.0060    -999.2500      28.3470    -999.2500    -999.2500     156.2310     111.7380      45.6340       0.0429       3.0860       2.7880
   3288.1826       6.1680       0.0140    -999.2500      27.3240    -999.2500    -999.2500     229.7560     161.2670       5.2970       0.0439       3.1520       2.7920
   3288.3350       6.1340       0.0140    -999.2500      27.5760    -999.2500    -999.2500     212.5710     148.2290       5.3120       0.0420       3.2840       2.7850
   3288.4873       6.1240       0.0100    -999.2500      27.5680    -999.2500    -999.2500     212.6380     148.2740      29.3070       0.0410       3.3200       2.7730
   3288.6399       6.0970       0.0050    -999.2500      25.1640    -999.2500    -999.2500     234.5180     163.0750     156.8960       0.0400       3.1460       2.7620
   3288.7922       6.0930       0.0090    -999.2500      23.9480    -999.2500    -999.2500     270.9940     185.1310      72.3340       0.0380       3.3130       2.7740
   3288.9446       6.0930       0.0040    -999.2500      21.8010    -999.2500    -999.2500     459.8370     299.3430     108.9160       0.0350       3.1390       2.7880
   3289.0969       6.1010      -0.0030    -999.2500      21.7480    -999.2500    -999.2500     459.6770     299.2290     108.8040       0.0320       3.2380       2.7910
   3289.2495       6.1550       0.0010    -999.2500      21.1510    -999.2500    -999.2500     369.9370     236.1690      57.2780       0.0311       2.8180       2.8080
   3289.4019       6.1650       0.0070    -999.2500      20.0240    -999.2500    -999.2500     357.2370     230.2660      45.0280       0.0350       2.8540       2.8130
   3289.5542       6.1410       0.0080    -999.2500      20.3050    -999.2500    -999.2500     296.8610     201.7490       8.6980       0.0390       3.0630       2.8380
   3289.7065       6.1410       0.0070    -999.2500      20.2390    -999.2500    -999.2500     323.7870     223.4590      99.4310       0.0429       3.3550       2.8200
   3289.8589       6.2240       0.0110    -999.2500      21.4150    -999.2500    -999.2500     323.6840     223.3950      66.1030       0.0430       3.3550       2.8130
   3290.0115       6.2240       0.0130    -999.2500      21.6180    -999.2500    -999.2500     265.0780     186.7580      24.4570       0.0439       3.2730       2.8030
   3290.1638       6.2080       0.0130    -999.2500      23.0230    -999.2500    -999.2500     136.6770      99.1460      10.0770       0.0431       3.2150       2.8190
   3290.3162       6.1070       0.0110    -999.2500      22.5970    -999.2500    -999.2500      58.5020      42.5470       0.5480       0.0440       3.2330       2.8180
   3290.4685       6.1290       0.0110    -999.2500      20.2210    -999.2500    -999.2500      58.5110      42.5580       0.5540       0.0460       3.0870       2.8090
   3290.6211       6.1820       0.0130    -999.2500      20.2210    -999.2500    -999.2500      60.3060      44.8010       5.2850       0.0478       3.0440       2.8010
   3290.7734       6.2180       0.0130    -999.2500      22.2280    -999.2500    -999.2500      70.8700      52.6900      49.1740       0.0451       2.9650       2.7950
   3290.9258       6.2180       0.0140    -999.2500      23.5090    -999.2500    -999.2500     112.9070      81.9820     236.9420       0.0455       3.1280       2.7750
   3291.0781       6.2180       0.0120    -999.2500      25.7690    -999.2500    -999.2500     129.6520      97.7510     134.6880       0.0605       3.2470       2.7630
   3291.2305       6.2180       0.0120    -999.2500      24.2460    -999.2500    -999.2500      92.5840      69.8630       7.2680       0.0610       3.2460       2.7630
   3291.3831       6.1960       0.0140    -999.2500      23.8620    -999.2500    -999.2500      80.9280      60.0240       7.2680       0.0596       3.0890       2.7900
   3291.5354       6.1870       0.0170    -999.2500      23.0950    -999.2500    -999.2500      77.5410      57.5750      22.2950       0.0483       3.2960       2.8130
   3291.6877       6.2060       0.0200    -999.2500      23.1900    -999.2500    -999.2500      88.3630      65.6750      25.3560       0.0431       3.2960       2.8020
   3291.8401       6.2510       0.0240    -999.2500      22.7940    -999.2500    -999.2500     125.2200      88.1050      70.0160       0.0421       3.2200       2.7750
   3291.9927       6.2800       0.0340    -999.2500      22.9110    -999.2500    -999.2500     171.5330     117.6490      14.0420       0.0449       3.0560       2.7760
   3292.1450       6.2900       0.0360    -999.2500      24.5700    -999.2500    -999.2500     193.6590     134.0930      14.0420       0.0441       2.9720       2.8070
   3292.2974       6.2940       0.0500    -999.2500      26.5390    -999.2500    -999.2500     201.2770     139.7590      99.2180       0.0449       3.1570       2.8590
   3292.4497       6.2800       0.0330    -999.2500      26.7240    -999.2500    -999.2500     183.2190     122.5500     319.2050       0.0438       3.2360       2.8420
   3292.6023       6.2490       0.0200    -999.2500      24.8370    -999.2500    -999.2500     195.7540     131.6610      43.8870       0.0391       3.1410       2.8060
   3292.7546       6.2490       0.0240    -999.2500      26.5250    -999.2500    -999.2500     195.6950     131.6310       4.2440       0.0372       3.1380       2.7610
   3292.9070       6.2750       0.0220    -999.2500      29.8660    -999.2500    -999.2500     183.7990     113.2270       4.2490       0.0391       3.1830       2.7410
   3293.0593       6.2800       0.0420    -999.2500      28.1320    -999.2500    -999.2500     168.8090     113.2340     180.7480       0.0444       3.2530       2.7290
   3293.2117       6.3110       0.0790    -999.2500      28.1320    -999.2500    -999.2500     168.8090     115.2850     180.7480       0.0585       3.0470       2.7530
   3293.3643       6.3140       0.1150    -999.2500      27.4030    -999.2500    -999.2500     205.3950     139.1050      54.3830       0.0630       2.9960       2.7110
   3293.5166       6.4140       0.0950    -999.2500      27.4070    -999.2500    -999.2500     205.3350     133.9030       1.8710       0.0654       2.9950       2.6850
   3293.6689       6.4140       0.0970    -999.2500      28.2150    -999.2500    -999.2500     193.3020     133.9270      40.0150       0.0555       3.3440       2.7000
   3293.8213       6.2200       0.0860    -999.2500      30.1100    -999.2500    -999.2500     191.5910     150.1680      39.9590       0.0550       3.3690       2.7890
   3293.9739       6.2180       0.0600    -999.2500      32.1360    -999.2500    -999.2500     191.4470     539.0290      25.7420       0.0559       3.3660       2.8090
   3294.1262       6.1870       0.0080    -999.2500      32.7940    -999.2500    -999.2500     184.8960     525.7800      66.6380       0.0538       3.0720       2.7890
   3294.2786       6.1870       0.0020    -999.2500      31.6750    -999.2500    -999.2500     193.1360     550.2970      66.6210       0.0469       3.0720       2.7590
   3294.4309       6.1620       0.0000    -999.2500      32.0820    -999.2500    -999.2500     168.7980     480.2230      28.4990       0.0392       3.1070       2.7520
   3294.5835       6.1620       0.0030    -999.2500      33.2660    -999.2500    -999.2500     132.0490     376.0250      28.5120       0.0359       3.1880       2.7580
   3294.7358       6.1770       0.0060    -999.2500      34.2270    -999.2500    -999.2500     130.9310     373.8290      32.7230       0.0311       3.2110       2.7870
