#------------------------------------------------------------------------------
#
#   Created by  : [OpenWorks] Log Export Utility (LEXP)
#   Created on  : 2016-05-11 12:13:44
#   Project     : CANT971
#   User        : R5K
#   Interpreter : PEP
#
#------------------------------------------------------------------------------
~VERSION INFORMATION
VERS. 2.0 : CWLS Log ASCII Standard - version 2.0
WRAP.  NO : One line per depth step
~WELL INFORMATION
#MNEMONIC   .UNIT                                           VALUE :DESCRIPTION
#------------------------------------------------------------------------------
STRT        .M                                           727.2530 :START DEPTH
STOP        .M                                          3766.1089 :STOP DEPTH
STEP        .M                                             0.1524 :STEP
NULL        .                                           -999.2500 :NULL VALUE
COMP        .                                   PEMEX EXPL & PROD :COMPANY
WELL        .                                                  99 :WELL
FLD         .                                           CANTARELL :FIELD
LOC         .                                             UNKNOWN :LOCATION
CNTY        .                                      CD. DEL CARMEN :COUNTY
STAT        .                                            CAMPECHE :STATE
CTRY        .                                              MEXICO :COUNTRY
SRVC        .                                             UNKNOWN :SERVICE COMPANY
DATE        .                                             UNKNOWN :LOG DATE
UWI         .                                          3060000617 :UNIQUE WELL ID
XCOORD      .                                       601388.490000 :SURFACE X
YCOORD      .                                      2149874.120000 :SURFACE Y
LAT         .                                           19.441847 :LATITUDE
LON         .                                          -92.034160 :LONGITUDE
ELEV        .M                                            28.0000 :SURFACE ELEV
ELEV_TYPE   .                                                  KB :ELEV TYPE
~CURVE INFORMATION
#MNEMONIC.UNIT        API CODE       : CURVE DESCRIPTION
#------------------------------------------------------------------------------
DEPTH    .M                          : Measured Depth
CALI     .inches      UNKNOWN        : CALI:Import:rC:NONE:v0 (auto-composite)
DRHO     .g/cm3       UNKNOWN        : DRHO:Import:rC:NONE:v0 (auto-composite)
DT       .us/ft       UNKNOWN        : DT:Import:rC:NONE:v0 (auto-composite)
GR       .API         UNKNOWN        : GR:Import:rC:NONE:v0 (auto-composite)
ILD      .ohm.m       UNKNOWN        : ILD:Import:rC:NONE:v0 (auto-composite)
ILM      .ohm.m       UNKNOWN        : ILM:Import:rC:NONE:v0 (auto-composite)
LLD      .ohm.m       UNKNOWN        : LLD:Import:rC:NONE:v0 (auto-composite)
LLS      .ohm.m       UNKNOWN        : LLS:Import:rC:NONE:v0 (auto-composite)
MSFL     .ohm.m       UNKNOWN        : MSFL:Import:rC:NONE:v0 (auto-composite)
NPHI     .v/v_decimal UNKNOWN        : NPHI:Import:rC:NONE:v0 (auto-composite)
PEF      .b/elec      UNKNOWN        : PEF:Import:rC:NONE:v0 (auto-composite)
RHOB     .g/cm3       UNKNOWN        : RHOB:Import:rC:NONE:v0 (auto-composite)
~A     DEPTH         CALI         DRHO           DT           GR          ILD          ILM          LLD          LLS         MSFL         NPHI          PEF         RHOB
# ...
   3689.9089       6.2490       0.0360    -999.2500      19.9880    -999.2500    -999.2500     163.3600     100.6570      32.6920       0.0952       3.0020       2.6750
   3690.0613       6.2250       0.0360    -999.2500      18.3000    -999.2500    -999.2500     146.8170      88.5810      32.6110       0.1158       2.9790       2.6830
   3690.2139       6.1700       0.0330    -999.2500      17.5500    -999.2500    -999.2500     146.3920      87.6450      14.9540       0.1264       3.0450       2.6980
   3690.3662       6.1580       0.0090    -999.2500      19.1460    -999.2500    -999.2500     150.8720      89.0090      46.2600       0.1191       3.1820       2.6830
   3690.5186       6.1870       0.0090    -999.2500      26.6250    -999.2500    -999.2500     285.8930     172.9100      46.1650       0.1002       3.1820       2.7060
   3690.6709       6.1840       0.0090    -999.2500      34.0860    -999.2500    -999.2500     285.7710     172.8430      30.1260       0.0969       3.1770       2.7060
   3690.8235       6.1840       0.0070    -999.2500      34.0650    -999.2500    -999.2500     219.0290     135.7800      13.6690       0.1071       3.1500       2.6710
   3690.9758       6.2090       0.0060    -999.2500      27.5250    -999.2500    -999.2500     201.2260     127.1020      10.5100       0.1236       3.2300       2.6450
   3691.1282       6.1840       0.0120    -999.2500      15.9660    -999.2500    -999.2500     181.2610     116.7960      10.9640       0.1316       3.3070       2.6230
   3691.2805       6.2260       0.0160    -999.2500      15.9770    -999.2500    -999.2500     164.3020     108.3930      18.7650       0.1281       3.3070       2.6370
   3691.4331       6.1240       0.0230    -999.2500      18.3570    -999.2500    -999.2500     164.3020     108.3930      18.7650       0.1203       3.2900       2.6610
   3691.5854       6.1060       0.0250    -999.2500      25.5040    -999.2500    -999.2500     171.2420     114.5350       3.5780       0.1173       3.1640       2.6840
   3691.7378       6.1720       0.0170    -999.2500      31.7680    -999.2500    -999.2500     170.7980     113.9520      11.0460       0.1178       3.2110       2.6950
   3691.8901       6.1750       0.0100    -999.2500      35.5000    -999.2500    -999.2500     163.2820     110.0850      25.9080       0.1105       3.1860       2.7200
   3692.0425       6.1240       0.0100    -999.2500      33.6290    -999.2500    -999.2500     163.2850     108.9610      16.6280       0.0947       3.2050       2.7390
   3692.1951       6.1240       0.0100    -999.2500      31.7260    -999.2500    -999.2500     164.0090     108.9610      16.6280       0.0775       3.2110       2.7430
   3692.3474       6.1240       0.0070    -999.2500      26.6660    -999.2500    -999.2500     184.8570     120.0210      19.6520       0.0792       3.3140       2.7080
   3692.4998       6.0890       0.0090    -999.2500      25.7930    -999.2500    -999.2500     269.1490     165.4860      30.6880       0.1000       3.3100       2.6750
   3692.6521       6.0350       0.0110    -999.2500      26.9210    -999.2500    -999.2500     629.2340     345.8370       7.0580       0.1223       3.3340       2.6440
   3692.8047       6.0580       0.0150    -999.2500      26.8340    -999.2500    -999.2500     629.0560     345.6750      19.8300       0.1314       3.0730       2.6480
   3692.9570       6.0520       0.0220    -999.2500      22.2000    -999.2500    -999.2500     593.1130     313.5650      25.8320       0.1266       3.1790       2.6540
   3693.1094       6.1030       0.0140    -999.2500      15.4090    -999.2500    -999.2500     536.4470     273.8070      28.1450       0.1251       3.1060       2.6610
   3693.2617       6.0880       0.0110    -999.2500      13.1380    -999.2500    -999.2500     512.6100     252.3320      36.9740       0.1288       3.1510       2.6400
   3693.4143       6.0230       0.0120    -999.2500      13.7860    -999.2500    -999.2500     517.1110     242.8410      13.7650       0.1321       3.0950       2.6340
   3693.5667       6.1520       0.0120    -999.2500      15.9140    -999.2500    -999.2500     535.3490     243.0160      13.8070       0.1313       3.0580       2.6260
   3693.7190       6.1520       0.0130    -999.2500      18.7400    -999.2500    -999.2500     631.7890     282.3090      27.0140       0.1282       3.1700       2.6380
   3693.8713       6.0910       0.0310    -999.2500      27.2490    -999.2500    -999.2500     785.6910     345.5140      11.9180       0.1263       3.2310       2.6900
   3694.0237       6.0910       0.0350    -999.2500      27.2490    -999.2500    -999.2500     853.2540     369.7150      11.9180       0.1149       3.4970       2.7460
   3694.1763       6.0930       0.0360    -999.2500      26.0270    -999.2500    -999.2500     876.8750     415.8030      17.5200       0.0966       3.2840       2.7740
   3694.3286       6.1870       0.0200    -999.2500      19.6090    -999.2500    -999.2500     835.6900     415.3430      26.9510       0.0774       3.1940       2.7580
   3694.4810       6.1870       0.0100    -999.2500      13.6070    -999.2500    -999.2500     620.7980     329.8420      26.9390       0.0642       3.0340       2.7360
   3694.6333       6.1850       0.0060    -999.2500      13.6150    -999.2500    -999.2500     439.4280     242.1770      11.6250       0.0582       3.2060       2.7320
   3694.7859       6.1280       0.0110    -999.2500      16.2240    -999.2500    -999.2500     321.6370     184.1670      11.6250       0.0592       3.2620       2.7240
   3694.9382       6.1220       0.0170    -999.2500      18.7890    -999.2500    -999.2500     218.5690     128.0370      13.1770       0.0672       3.2100       2.7260
   3695.0906       6.1220       0.0300    -999.2500      18.7760    -999.2500    -999.2500     168.3740      98.0290      13.1800       0.0798       3.2060       2.7410
   3695.2429       6.0300       0.0460    -999.2500      16.1420    -999.2500    -999.2500     168.3850      98.0320      23.0900       0.0878       3.1020       2.7500
   3695.3955       6.0300       0.0590    -999.2500      12.6340    -999.2500    -999.2500     175.4260      99.7860      23.0800       0.0884       3.2320       2.7160
   3695.5479       6.0800       0.0480    -999.2500      11.9720    -999.2500    -999.2500     204.5680     115.8560      20.2620       0.0825       3.3210       2.6710
   3695.7002       6.1120       0.0380    -999.2500      13.5010    -999.2500    -999.2500     243.1890     138.6200      26.4650       0.0791       3.4130       2.6460
   3695.8525       6.0930       0.0420    -999.2500      15.0220    -999.2500    -999.2500     288.1530     160.2850      84.2130       0.0840       3.3180       2.6450
   3696.0049       6.0340       0.0300    -999.2500      22.7340    -999.2500    -999.2500     376.1910     200.5880      36.6510       0.0940       3.1350       2.5870
   3696.1575       6.0340       0.0060    -999.2500      22.7320    -999.2500    -999.2500     507.8640     255.6120      36.6600       0.1172       3.1010       2.5240
   3696.3098       6.0870       0.0050    -999.2500      22.2600    -999.2500    -999.2500     824.1750     393.9270      39.6610       0.1536       3.0420       2.4980
   3696.4622       6.0300       0.0050    -999.2500      14.0710    -999.2500    -999.2500     993.4220     462.3930      26.1890       0.1932       3.0130       2.5230
   3696.6145       6.0300       0.0100    -999.2500      14.0810    -999.2500    -999.2500     798.9430     367.0030      54.1150       0.1971       3.1440       2.5640
   3696.7671       6.0300       0.0300    -999.2500      16.1390    -999.2500    -999.2500     585.4340     271.8540       9.7910       0.1723       3.3310       2.6250
   3696.9194       6.0870       0.0350    -999.2500      23.1470    -999.2500    -999.2500     487.4570     236.6620       2.8950       0.1389       3.6170       2.6380
   3697.0718       6.0950       0.0220    -999.2500      27.9500    -999.2500    -999.2500     438.8230     224.8480     133.7620       0.1176       3.2350       2.6390
