#------------------------------------------------------------------------------
#
#   Created by  : [OpenWorks] Log Export Utility (LEXP)
#   Created on  : 2016-05-11 12:13:44
#   Project     : CANT971
#   User        : R5K
#   Interpreter : PEP
#
#------------------------------------------------------------------------------
~VERSION INFORMATION
VERS. 2.0 : CWLS Log ASCII Standard - version 2.0
WRAP.  NO : One line per depth step
~WELL INFORMATION
#MNEMONIC   .UNIT                                           VALUE :DESCRIPTION
#------------------------------------------------------------------------------
STRT        .M                                           727.2530 :START DEPTH
STOP        .M                                          3766.1089 :STOP DEPTH
STEP        .M                                             0.1524 :STEP
NULL        .                                           -999.2500 :NULL VALUE
COMP        .                                   PEMEX EXPL & PROD :COMPANY
WELL        .                                                  99 :WELL
FLD         .                                           CANTARELL :FIELD
LOC         .                                             UNKNOWN :LOCATION
CNTY        .                                      CD. DEL CARMEN :COUNTY
STAT        .                                            CAMPECHE :STATE
CTRY        .                                              MEXICO :COUNTRY
SRVC        .                                             UNKNOWN :SERVICE COMPANY
DATE        .                                             UNKNOWN :LOG DATE
UWI         .                                          3060000617 :UNIQUE WELL ID
XCOORD      .                                       601388.490000 :SURFACE X
YCOORD      .                                      2149874.120000 :SURFACE Y
LAT         .                                           19.441847 :LATITUDE
LON         .                                          -92.034160 :LONGITUDE
ELEV        .M                                            28.0000 :SURFACE ELEV
ELEV_TYPE   .                                                  KB :ELEV TYPE
~CURVE INFORMATION
#MNEMONIC.UNIT        API CODE       : CURVE DESCRIPTION
#------------------------------------------------------------------------------
DEPTH    .M                          : Measured Depth
CALI     .inches      UNKNOWN        : CALI:Import:rC:NONE:v0 (auto-composite)
DRHO     .g/cm3       UNKNOWN        : DRHO:Import:rC:NONE:v0 (auto-composite)
DT       .us/ft       UNKNOWN        : DT:Import:rC:NONE:v0 (auto-composite)
GR       .API         UNKNOWN        : GR:Import:rC:NONE:v0 (auto-composite)
ILD      .ohm.m       UNKNOWN        : ILD:Import:rC:NONE:v0 (auto-composite)
ILM      .ohm.m       UNKNOWN        : ILM:Import:rC:NONE:v0 (auto-composite)
LLD      .ohm.m       UNKNOWN        : LLD:Import:rC:NONE:v0 (auto-composite)
LLS      .ohm.m       UNKNOWN        : LLS:Import:rC:NONE:v0 (auto-composite)
MSFL     .ohm.m       UNKNOWN        : MSFL:Import:rC:NONE:v0 (auto-composite)
NPHI     .v/v_decimal UNKNOWN        : NPHI:Import:rC:NONE:v0 (auto-composite)
PEF      .b/elec      UNKNOWN        : PEF:Import:rC:NONE:v0 (auto-composite)
RHOB     .g/cm3       UNKNOWN        : RHOB:Import:rC:NONE:v0 (auto-composite)
~A     DEPTH         CALI         DRHO           DT           GR          ILD          ILM          LLD          LLS         MSFL         NPHI          PEF         RHOB
# ...
   2746.2483       8.4530    -999.2500    -999.2500      33.9060       2.0320       1.9500       1.9830       2.9420    -999.2500    -999.2500    -999.2500    -999.2500
   2746.4006       8.4450    -999.2500    -999.2500      31.6740       2.0180       1.9860       2.7450       2.8180    -999.2500    -999.2500    -999.2500    -999.2500
   2746.5530       8.4450    -999.2500    -999.2500      29.4420       2.0030       1.9860       3.8000       2.6990    -999.2500    -999.2500    -999.2500    -999.2500
   2746.7053       8.4450    -999.2500    -999.2500      27.7910       1.9870       1.9580       6.2470       2.5140    -999.2500    -999.2500    -999.2500    -999.2500
   2746.8579       8.4450    -999.2500    -999.2500      26.1370       1.9710       1.9300      10.2770       2.3410    -999.2500    -999.2500    -999.2500    -999.2500
   2747.0103       8.4490    -999.2500    -999.2500      25.8340       1.9400       1.8870      15.7930       2.4700    -999.2500    -999.2500    -999.2500    -999.2500
   2747.1626       8.4530    -999.2500    -999.2500      25.5310       1.9090       1.8440      24.2700       2.6060    -999.2500    -999.2500    -999.2500    -999.2500
   2747.3149       8.4450    -999.2500    -999.2500      31.9220       1.8740       1.8050      12.4830       2.7480    -999.2500    -999.2500    -999.2500    -999.2500
   2747.4673       8.4450    -999.2500    -999.2500      31.9220       1.8390       1.7670       6.4200       2.7480    -999.2500    -999.2500    -999.2500    -999.2500
   2747.6199       8.4450    -999.2500    -999.2500      30.6320       1.8250       1.7520       5.4070       2.6460    -999.2500    -999.2500    -999.2500    -999.2500
   2747.7722       8.4450    -999.2500    -999.2500      29.3440       1.8110       1.7370       4.5540       2.5470    -999.2500    -999.2500    -999.2500    -999.2500
   2747.9246       8.4450    -999.2500    -999.2500      30.1720       1.8130       1.7510       4.0310       2.6110    -999.2500    -999.2500    -999.2500    -999.2500
   2748.0769       8.4450    -999.2500    -999.2500      30.1720       1.8140       1.7640       3.5680       2.6770    -999.2500    -999.2500    -999.2500    -999.2500
   2748.2295       8.4450    -999.2500    -999.2500      28.7490       1.8420       1.7760       2.4230       2.7820    -999.2500    -999.2500    -999.2500    -999.2500
   2748.3818       8.4450    -999.2500    -999.2500      27.3280       1.8690       1.7880       1.6470       2.8920    -999.2500    -999.2500    -999.2500    -999.2500
   2748.5342       8.4450    -999.2500    -999.2500      25.6720       1.9470       1.8010       2.8750       2.8840    -999.2500    -999.2500    -999.2500    -999.2500
   2748.6865       8.4450    -999.2500    -999.2500      25.6720       2.0270       1.8140       2.8750       2.8760    -999.2500    -999.2500    -999.2500    -999.2500
   2748.8391       8.4490    -999.2500    -999.2500      27.5950       2.0860       1.9160       2.7540       2.7800    -999.2500    -999.2500    -999.2500    -999.2500
   2748.9915       8.4520    -999.2500    -999.2500      29.5160       2.1470       2.0240       2.6390       2.6870    -999.2500    -999.2500    -999.2500    -999.2500
   2749.1438       8.4560    -999.2500    -999.2500      28.9280       2.1610       2.4240       3.2930       2.5620    -999.2500    -999.2500    -999.2500    -999.2500
   2749.2961       8.4600    -999.2500    -999.2500      28.3400       2.1750       2.4240       4.1100       2.5620    -999.2500    -999.2500    -999.2500    -999.2500
   2749.4485       8.4600    -999.2500    -999.2500      25.0550       2.3000       2.3800       7.3130       2.5940    -999.2500    -999.2500    -999.2500    -999.2500
   2749.6011       8.4610    -999.2500    -999.2500      21.7660       2.4330       2.3360      13.0230       2.6260    -999.2500    -999.2500    -999.2500    -999.2500
   2749.7534       8.4610    -999.2500    -999.2500      23.1870       2.7030       2.5210       5.2530       2.7250    -999.2500    -999.2500    -999.2500    -999.2500
   2749.9058       8.4610    -999.2500    -999.2500      23.1870       3.0040       2.7200       5.2530       2.7250    -999.2500    -999.2500    -999.2500    -999.2500
   2750.0581       8.4610    -999.2500    -999.2500      22.3380       3.2940       3.1430       9.7050       2.6000    -999.2500    -999.2500    -999.2500    -999.2500
   2750.2107       8.4610    -999.2500    -999.2500      21.4870       3.6140       3.6330      17.9490       2.4800    -999.2500    -999.2500    -999.2500    -999.2500
   2750.3630       8.4610    -999.2500    -999.2500      18.8190       4.0630       4.1280      10.8700       2.5410       0.1610    -999.2500    -999.2500    -999.2500
   2750.5154       8.4610    -999.2500    -999.2500      16.1510       4.5690       4.6910       6.5830       2.6030       0.1610    -999.2500    -999.2500    -999.2500
   2750.6677       8.4640    -999.2500    -999.2500      13.1870       4.7990       5.2150       5.1900       2.8120       0.1580    -999.2500    -999.2500    -999.2500
   2750.8203       8.4670    -999.2500    -999.2500      10.2190       5.0410       5.7980       4.0910       3.0380       0.1550    -999.2500    -999.2500    -999.2500
   2750.9727       8.4680    -999.2500    -999.2500      10.3690       4.5320       5.0950       1.9660       2.9680       0.1600    -999.2500    -999.2500    -999.2500
   2751.1250       8.4690    -999.2500    -999.2500      10.5180       4.0740       4.4780       0.9450       2.8990       0.1650    -999.2500    -999.2500    -999.2500
   2751.2773       8.4690    -999.2500    -999.2500      13.9530       3.4780       3.6940       6.2560       2.8560       0.1680    -999.2500    -999.2500    -999.2500
   2751.4297       8.4690    -999.2500    -999.2500      17.3870       2.9700       3.0470       6.2560       2.8140       0.1700    -999.2500    -999.2500    -999.2500
   2751.5823       8.4690    -999.2500    -999.2500      19.9970       2.5880       2.6220       4.6890       2.7680       0.1720    -999.2500    -999.2500    -999.2500
   2751.7346       8.4690    -999.2500    -999.2500      22.6030       2.2560       2.2570       3.5160       2.7230       0.1740    -999.2500    -999.2500    -999.2500
   2751.8870       8.4690    -999.2500    -999.2500      23.1320       1.9400       2.0820      12.8470       2.6840       0.1690    -999.2500    -999.2500    -999.2500
   2752.0393       8.4690    -999.2500    -999.2500      23.6600       1.9400       1.9210      12.8470       2.6840       0.1650    -999.2500    -999.2500    -999.2500
   2752.1919       8.4790    -999.2500    -999.2500      24.8860       1.9640       1.8840       8.2160       2.8900       0.1590    -999.2500    -999.2500    -999.2500
   2752.3442       8.4880    -999.2500    -999.2500      26.1090       1.9890       1.8470       5.2580       3.1100       0.1530    -999.2500    -999.2500    -999.2500
   2752.4966       8.4900    -999.2500    -999.2500      25.4340       2.1420       1.9230      65.6010       2.7800       0.1630    -999.2500    -999.2500    -999.2500
   2752.6489       8.4920    -999.2500    -999.2500      24.7580       2.3080       2.0020      65.6010       2.7800       0.1630    -999.2500    -999.2500    -999.2500
   2752.8013       8.4920    -999.2500    -999.2500      24.4960       2.6420       2.1990      41.9810       2.7910       0.1620    -999.2500    -999.2500    -999.2500
   2752.9539       8.4920    -999.2500    -999.2500      24.2340       3.0270       2.4160      26.8460       2.8010       0.1610    -999.2500    -999.2500    -999.2500
   2753.1062       8.4920    -999.2500    -999.2500      25.2810       3.6380       2.8470       1.4830       2.2590       0.1610    -999.2500    -999.2500    -999.2500
   2753.2585       8.4920    -999.2500    -999.2500      25.2810       4.3740       3.3540       1.4830       2.2590       0.1610    -999.2500    -999.2500    -999.2500
   2753.4109       8.4890    -999.2500    -999.2500      23.2330       5.3800       4.1320       2.4940       2.6580       0.1610    -999.2500    -999.2500    -999.2500
