#------------------------------------------------------------------------------
#
#   Created by  : [OpenWorks] Log Export Utility (LEXP)
#   Created on  : 2016-05-11 12:13:44
#   Project     : CANT971
#   User        : R5K
#   Interpreter : PEP
#
#------------------------------------------------------------------------------
~VERSION INFORMATION
VERS. 2.0 : CWLS Log ASCII Standard - version 2.0
WRAP.  NO : One line per depth step
~WELL INFORMATION
#MNEMONIC   .UNIT                                           VALUE :DESCRIPTION
#------------------------------------------------------------------------------
STRT        .M                                           727.2530 :START DEPTH
STOP        .M                                          3766.1089 :STOP DEPTH
STEP        .M                                             0.1524 :STEP
NULL        .                                           -999.2500 :NULL VALUE
COMP        .                                   PEMEX EXPL & PROD :COMPANY
WELL        .                                                  99 :WELL
FLD         .                                           CANTARELL :FIELD
LOC         .                                             UNKNOWN :LOCATION
CNTY        .                                      CD. DEL CARMEN :COUNTY
STAT        .                                            CAMPECHE :STATE
CTRY        .                                              MEXICO :COUNTRY
SRVC        .                                             UNKNOWN :SERVICE COMPANY
DATE        .                                             UNKNOWN :LOG DATE
UWI         .                                          3060000617 :UNIQUE WELL ID
XCOORD      .                                       601388.490000 :SURFACE X
YCOORD      .                                      2149874.120000 :SURFACE Y
LAT         .                                           19.441847 :LATITUDE
LON         .                                          -92.034160 :LONGITUDE
ELEV        .M                                            28.0000 :SURFACE ELEV
ELEV_TYPE   .                                                  KB :ELEV TYPE
~CURVE INFORMATION
#MNEMONIC.UNIT        API CODE       : CURVE DESCRIPTION
#------------------------------------------------------------------------------
DEPTH    .M                          : Measured Depth
CALI     .inches      UNKNOWN        : CALI:Import:rC:NONE:v0 (auto-composite)
DRHO     .g/cm3       UNKNOWN        : DRHO:Import:rC:NONE:v0 (auto-composite)
DT       .us/ft       UNKNOWN        : DT:Import:rC:NONE:v0 (auto-composite)
GR       .API         UNKNOWN        : GR:Import:rC:NONE:v0 (auto-composite)
ILD      .ohm.m       UNKNOWN        : ILD:Import:rC:NONE:v0 (auto-composite)
ILM      .ohm.m       UNKNOWN        : ILM:Import:rC:NONE:v0 (auto-composite)
LLD      .ohm.m       UNKNOWN        : LLD:Import:rC:NONE:v0 (auto-composite)
LLS      .ohm.m       UNKNOWN        : LLS:Import:rC:NONE:v0 (auto-composite)
MSFL     .ohm.m       UNKNOWN        : MSFL:Import:rC:NONE:v0 (auto-composite)
NPHI     .v/v_decimal UNKNOWN        : NPHI:Import:rC:NONE:v0 (auto-composite)
PEF      .b/elec      UNKNOWN        : PEF:Import:rC:NONE:v0 (auto-composite)
RHOB     .g/cm3       UNKNOWN        : RHOB:Import:rC:NONE:v0 (auto-composite)
~A     DEPTH         CALI         DRHO           DT           GR          ILD          ILM          LLD          LLS         MSFL         NPHI          PEF         RHOB
# ...
   3214.4209       6.0910       0.0140    -999.2500      29.1370    -999.2500    -999.2500     350.4870     964.8940      79.2800       0.0638       3.1070       2.7340
   3214.5735       6.0910       0.0130    -999.2500      29.1300    -999.2500    -999.2500     312.3070     924.1770      78.9240       0.0655       3.2020       2.7220
   3214.7258       6.0110       0.0130    -999.2500      26.7910    -999.2500    -999.2500     236.5600     729.8710      19.3580       0.0605       3.1290       2.7270
   3214.8782       6.0270       0.0050    -999.2500      23.8460    -999.2500    -999.2500     225.0480     685.6210      50.8630       0.0482       2.9640       2.7570
   3215.0305       5.9990       0.0050    -999.2500      19.7100    -999.2500    -999.2500     236.2810     740.6320       7.9250       0.0446       2.9650       2.7840
   3215.1831       5.9990       0.0060    -999.2500      17.9670    -999.2500    -999.2500     304.1060     916.0470     342.7210       0.0472       3.1430       2.8120
   3215.3354       5.9990       0.0060    -999.2500      16.6530    -999.2500    -999.2500     597.0020    1756.8920     626.8550       0.0502       3.2340       2.8040
   3215.4878       6.0170       0.0070    -999.2500      18.6840    -999.2500    -999.2500    1176.4919    3711.8540     291.1360       0.0498       3.0960       2.7930
   3215.6401       6.0270       0.0140    -999.2500      21.9920    -999.2500    -999.2500     699.3930    2950.8870      69.4870       0.0454       2.8540       2.7770
   3215.7925       6.0340       0.0360    -999.2500      21.9840    -999.2500    -999.2500     699.7620    1931.7209      74.3290       0.0406       2.8180       2.7930
   3215.9451       6.0910       0.0370    -999.2500      20.3050    -999.2500    -999.2500     780.8530    1931.7209     119.3220       0.0364       2.6930       2.7800
   3216.0974       6.1470       0.0340    -999.2500      19.3580    -999.2500    -999.2500     982.0090    2339.5449     640.4010       0.0374       2.6580       2.7420
   3216.2498       6.0910       0.0370    -999.2500      18.3970    -999.2500    -999.2500     784.8470    2247.6580     501.9660       0.0452       2.8940       2.7130
   3216.4021       6.0930       0.0440    -999.2500      18.8710    -999.2500    -999.2500     719.0560    2127.0210       3.1310       0.0568       3.1500       2.6990
   3216.5547       6.0090       0.0590    -999.2500      19.9010    -999.2500    -999.2500     691.0530    1618.0420    1231.1910       0.0635       3.3200       2.7030
   3216.7070       6.0090       0.0680    -999.2500      22.4730    -999.2500    -999.2500     624.0150    1618.0420    1231.1910       0.0618       3.2300       2.7210
   3216.8594       6.0210       0.0700    -999.2500      25.0420    -999.2500    -999.2500     560.0290    2014.6320     118.5020       0.0574       3.2810       2.7280
   3217.0117       6.0040       0.0530    -999.2500      26.2750    -999.2500    -999.2500     815.5710    2658.5220    1654.6140       0.0552       3.1470       2.7350
   3217.1643       5.9990       0.0470    -999.2500      24.4370    -999.2500    -999.2500    1554.0861    4417.1860      25.3600       0.0560       3.0300       2.7470
   3217.3167       6.1910       0.0300    -999.2500      20.2270    -999.2500    -999.2500    1373.4370    4414.2168      25.4040       0.0560       2.9110       2.7550
   3217.4690       6.1910       0.0380    -999.2500      16.2080    -999.2500    -999.2500    1394.7260    3838.2080      86.8720       0.0580       2.9050       2.7790
   3217.6213       6.0880       0.0420    -999.2500      17.2750    -999.2500    -999.2500    1394.2810    3774.2429      85.7120       0.0612       2.7560       2.7830
   3217.7737       6.0880       0.0550    -999.2500      17.2750    -999.2500    -999.2500    1262.1310    3596.6411       1.2930       0.0642       2.8510       2.7880
   3217.9263       6.0910       0.0490    -999.2500      16.4860    -999.2500    -999.2500     993.5130    2890.9790       0.6270       0.0644       2.9820       2.7980
   3218.0786       6.1120       0.0370    -999.2500      16.7410    -999.2500    -999.2500     946.0920    2890.0581      49.6260       0.0628       3.2430       2.7860
   3218.2310       6.1840       0.0130    -999.2500      18.6040    -999.2500    -999.2500     840.4370    2704.2671      49.5790       0.0644       3.2740       2.7790
   3218.3833       6.2160       0.0050    -999.2500      20.7760    -999.2500    -999.2500     731.1400    2368.3879      27.4300       0.0718       3.3860       2.7620
   3218.5359       6.2180       0.0030    -999.2500      21.7770    -999.2500    -999.2500     459.8710    1543.9430       4.1990       0.0816       3.4130       2.7670
   3218.6882       6.2330       0.0020    -999.2500      21.9890    -999.2500    -999.2500     276.7220     786.6110      46.4880       0.0864       3.2570       2.7170
   3218.8406       6.1870       0.0010    -999.2500      24.7690    -999.2500    -999.2500     231.0710     786.6130      21.5170       0.0828       3.1020       2.7000
   3218.9929       6.1870       0.0050    -999.2500      32.9470    -999.2500    -999.2500     231.0920     787.2510      21.5570       0.0712       2.9900       2.7080
   3219.1455       6.1870       0.0100    -999.2500      32.9390    -999.2500    -999.2500     244.4680     821.6020      68.4180       0.0582       3.2900       2.7570
   3219.2979       6.1870       0.0120    -999.2500      30.4570    -999.2500    -999.2500     303.4830    1006.4920     113.8610       0.0478       3.4330       2.7980
   3219.4502       6.1550       0.0010    -999.2500      27.3440    -999.2500    -999.2500     430.1560    1404.7180     220.0270       0.0424       3.3520       2.8140
   3219.6025       6.1550       0.0010    -999.2500      28.9820    -999.2500    -999.2500     651.6660    2127.2639      18.8670       0.0382       3.1070       2.8140
   3219.7549       6.1930       0.0010    -999.2500      28.9820    -999.2500    -999.2500     793.6860    2795.2129      18.9110       0.0374       3.1070       2.8070
   3219.9075       6.2220       0.0130    -999.2500      28.8840    -999.2500    -999.2500     869.3220    2794.8269      79.9710       0.0414       3.1320       2.7840
   3220.0598       6.2360       0.0120    -999.2500      28.5930    -999.2500    -999.2500     893.1520    2676.6299     227.3540       0.0550       3.3470       2.7540
   3220.2122       6.2080       0.0100    -999.2500      26.7270    -999.2500    -999.2500     798.7590    2394.7280      11.5300       0.0723       3.3610       2.7400
   3220.3645       6.1240       0.0160    -999.2500      24.4120    -999.2500    -999.2500     798.8690    2181.7671    2000.0000       0.0748       3.3600       2.7590
   3220.5171       6.1210       0.0250    -999.2500      21.3190    -999.2500    -999.2500     822.1660    2181.7671    2000.0000       0.0654       3.1440       2.7990
   3220.6694       6.1180       0.0060    -999.2500      18.2370    -999.2500    -999.2500     893.6970    2320.9961     119.7340       0.0526       3.3660       2.7980
   3220.8218       6.1190       0.0100    -999.2500      16.5480    -999.2500    -999.2500     906.5970    2303.5161      81.9700       0.0426       3.2940       2.8070
   3220.9741       6.1490       0.0160    -999.2500      14.6300    -999.2500    -999.2500    1081.5710    2787.8821      11.3040       0.0390       3.2210       2.7930
   3221.1267       6.1350       0.0270    -999.2500      15.9750    -999.2500    -999.2500    1035.1960    2786.7000     119.5670       0.0398       3.2210       2.8040
   3221.2791       6.1240       0.0310    -999.2500      18.9920    -999.2500    -999.2500    1035.1960    2551.6001      68.4060       0.0410       3.2740       2.8060
   3221.4314       6.1120       0.0360    -999.2500      28.2800    -999.2500    -999.2500    1042.2300    2313.0859      49.8020       0.0412       3.3680       2.8260
   3221.5837       6.0580       0.0340    -999.2500      35.6870    -999.2500    -999.2500     964.7030    2047.5129     226.3410       0.0398       3.2870       2.8280
