#------------------------------------------------------------------------------
#
#   Created by  : [OpenWorks] Log Export Utility (LEXP)
#   Created on  : 2016-05-23 11:56:43
#   Project     : CANT971
#   User        : R5K
#   Interpreter : PEP
#
#------------------------------------------------------------------------------
~VERSION INFORMATION
VERS. 2.0 : CWLS Log ASCII Standard - version 2.0
WRAP.  NO : One line per depth step
~WELL INFORMATION
#MNEMONIC   .UNIT                                           VALUE :DESCRIPTION
#------------------------------------------------------------------------------
STRT        .M                                           650.2150 :START DEPTH
STOP        .M                                          2618.6135 :STOP DEPTH
STEP        .M                                             0.1524 :STEP
NULL        .                                           -999.2500 :NULL VALUE
COMP        .                                   PEMEX EXPL & PROD :COMPANY
WELL        .                                                  4D :WELL
FLD         .                                           CANTARELL :FIELD
LOC         .                                             UNKNOWN :LOCATION
CNTY        .                                      CD. DEL CARMEN :COUNTY
STAT        .                                            CAMPECHE :STATE
CTRY        .                                              MEXICO :COUNTRY
SRVC        .                                             UNKNOWN :SERVICE COMPANY
DATE        .                                             UNKNOWN :LOG DATE
UWI         .                                          3060000662 :UNIQUE WELL ID
XCOORD      .                                       598468.500000 :SURFACE X
YCOORD      .                                      2145023.700000 :SURFACE Y
LAT         .                                           19.398162 :LATITUDE
LON         .                                          -92.062225 :LONGITUDE
ELEV        .M                                            26.5400 :SURFACE ELEV
ELEV_TYPE   .                                                  KB :ELEV TYPE
~CURVE INFORMATION
#MNEMONIC.UNIT        API CODE       : CURVE DESCRIPTION
#------------------------------------------------------------------------------
DEPTH    .M                          : Measured Depth
CAL      .inches      UNKNOWN        : CAL:UNKNOWN:rC:NONE:v0 (auto-composite)
CGR      .UNKNOWN     UNKNOWN        : CGR:UNKNOWN:rC:NONE:v0 (auto-composite)
DRHO     .UNKNOWN     UNKNOWN        : DRHO:UNKNOWN:rC:NONE:v0 (auto-composite)
DT       .us/ft       UNKNOWN        : DT:DT:rC:NONE:v0 (auto-composite)
GR       .API         UNKNOWN        : GR:UNKNOWN:rC:NONE:v0 (auto-composite)
ILD      .UNKNOWN     UNKNOWN        : ILD:UNKNOWN:rC:NONE:v0 (auto-composite)
ILM      .UNKNOWN     UNKNOWN        : ILM:UNKNOWN:rC:NONE:v0 (auto-composite)
LLD      .UNKNOWN     UNKNOWN        : LLD:UNKNOWN:rC:NONE:v0 (auto-composite)
LLS      .UNKNOWN     UNKNOWN        : LLS:UNKNOWN:rC:NONE:v0 (auto-composite)
MSFL     .UNKNOWN     UNKNOWN        : MSFL:UNKNOWN:rC:NONE:v0 (auto-composite)
NPHI     .v/v_decimal UNKNOWN        : NPHI:PETROWORKS:rC:NONE:v1 
PEF      .UNKNOWN     UNKNOWN        : PEF:UNKNOWN:rC:NONE:v0 (auto-composite)
POTA     .UNKNOWN     UNKNOWN        : POTA:UNKNOWN:rC:NONE:v0 (auto-composite)
RHOB     .UNKNOWN     UNKNOWN        : RHOB:UNKNOWN:rC:NONE:v0 (auto-composite)
THOR     .UNKNOWN     UNKNOWN        : THOR:UNKNOWN:rC:NONE:v0 (auto-composite)
URAN     .UNKNOWN     UNKNOWN        : URAN:UNKNOWN:rC:NONE:v0 (auto-composite)
~A     DEPTH          CAL          CGR         DRHO           DT           GR          ILD          ILM          LLD          LLS         MSFL         NPHI          PEF         POTA         RHOB         THOR         URAN
# ...
   2550.4907       6.8489       1.9848       0.0254      60.4256      16.5648    -999.2500    -999.2500     177.0868     116.7509      43.8683       0.1027       3.3759       0.0011       2.6050      -0.1781       1.7296
   2550.6431       6.9530       2.6450       0.0334      58.5029      15.1899    -999.2500    -999.2500     159.4199     104.0464      20.4599       0.0964       3.4564       0.0016       2.6570      -0.2431       1.5867
   2550.7954       7.0897       3.0594       0.0376      56.5890      14.1784    -999.2500    -999.2500     143.1216      92.8150       3.4662       0.0901       3.5378       0.0019       2.7018      -0.2790       1.4621
   2550.9478       7.3826       2.2731       0.0236      54.7173      14.9026    -999.2500    -999.2500     133.5085      88.6990      17.8095       0.0846       3.6233       0.0014       2.7123      -0.1729       1.4276
   2551.1003       7.5906       1.7719       0.0125      53.0102      15.3200    -999.2500    -999.2500     128.9338      87.8314      27.2351       0.0774       3.6720       0.0011       2.7241      -0.0667       1.4014
   2551.2527       7.3910       2.6560       0.0155      52.0944      14.2635    -999.2500    -999.2500     148.8437     102.5730      12.7624       0.0665       3.5445       0.0016       2.7421       0.0402       1.4154
   2551.4050       7.1950       3.8970       0.0194      51.4434      14.2615    -999.2500    -999.2500     169.6009     117.2542       9.0541       0.0573       3.4323       0.0022       2.7582       0.1620       1.4496
   2551.5574       7.0155       6.8831       0.0274      52.0587      19.3577    -999.2500    -999.2500     194.5011     131.6430      57.9792       0.0576       3.3939       0.0032       2.7652       0.3560       1.5826
   2551.7097       6.8722       9.4665       0.0345      52.8562      23.7339    -999.2500    -999.2500     213.6619     142.0998      92.4628       0.0625       3.3593       0.0041       2.7662       0.5304       1.6972
   2551.8623       6.9022      10.0913       0.0375      54.5303      24.5677    -999.2500    -999.2500     204.9061     133.6462      56.7026       0.0762       3.3438       0.0046       2.7382       0.6089       1.7217
   2552.0146       6.9345      10.2502       0.0409      55.8497      24.7494    -999.2500    -999.2500     199.9822     127.7197      38.5031       0.0889       3.3441       0.0048       2.7153       0.6488       1.7256
   2552.1670       6.9780       8.1551       0.0459      55.4718      21.8456    -999.2500    -999.2500     213.5993     133.8846     105.2758       0.0884       3.4201       0.0038       2.7173       0.5019       1.6296
   2552.3193       7.0303       6.4639       0.0517      55.3861      19.5815    -999.2500    -999.2500     222.7929     137.9206     148.1302       0.0869       3.4599       0.0030       2.7218       0.3851       1.5602
   2552.4719       7.1254       6.7390       0.0617      56.7066      20.3622    -999.2500    -999.2500     210.4514     131.7093      74.5426       0.0833       3.3253       0.0030       2.7378       0.4151       1.6203
   2552.6243       7.2060       6.8005       0.0692      58.0158      20.7574    -999.2500    -999.2500     194.4562     122.6407      87.9904       0.0802       3.2060       0.0030       2.7496       0.4112       1.6602
   2552.7766       7.2175       5.8274       0.0647      59.2707      19.3067    -999.2500    -999.2500     160.7662      99.8885     522.9546       0.0812       3.1595       0.0030       2.7416       0.2427       1.6033
   2552.9290       7.2062       5.6222       0.0613      60.9455      19.1362    -999.2500    -999.2500     130.8898      80.1253     813.0170       0.0849       3.1308       0.0032       2.7311       0.1601       1.6074
   2553.0815       7.0852       9.1591       0.0628      64.6429      25.2041    -999.2500    -999.2500     119.5957      74.7628     397.0200       0.0949       3.1878       0.0042       2.7086       0.4952       1.9090
   2553.2339       6.9941      11.6673       0.0649      66.6600      29.6060    -999.2500    -999.2500     110.0983      70.2479      63.5154       0.1029       3.2421       0.0048       2.6948       0.7332       2.1330
   2553.3862       7.0465       9.1899       0.0704      60.6236      25.8400    -999.2500    -999.2500     109.3106      69.7956     129.8793       0.1022       3.2831       0.0038       2.7228       0.5003       1.9811
   2553.5386       7.0954       7.0842       0.0747      57.5826      22.6108    -999.2500    -999.2500     106.6873      68.4678     175.2069       0.0988       3.3433       0.0031       2.7486       0.2952       1.8463
   2553.6909       7.1269       6.7916       0.0732      68.9858      21.9126    -999.2500    -999.2500      95.1116      62.9183     117.9408       0.0893       3.4963       0.0036       2.7636       0.2256       1.7953
   2553.8435       7.1625       6.7061       0.0712      77.1763      21.5260    -999.2500    -999.2500      84.2822      57.2177      65.1493       0.0825       3.6419       0.0040       2.7718       0.2020       1.7570
   2553.9958       7.2175       7.6252       0.0667      69.9544      22.6171    -999.2500    -999.2500      77.0743      50.7925      34.0672       0.0828       3.7514       0.0040       2.7473       0.4009       1.7805
   2554.1482       7.2680       8.7278       0.0614      66.0385      23.9225    -999.2500    -999.2500      70.5543      45.0249       9.7435       0.0867       3.8309       0.0041       2.7235       0.5946       1.8072
   2554.3005       7.2970      10.7260       0.0524      78.0790      26.2620    -999.2500    -999.2500      67.3916      42.4314      18.4097       0.1022       3.7669       0.0046       2.7030       0.7626       1.8497
   2554.4531       7.3078      12.5627       0.0415      86.7039      28.2976    -999.2500    -999.2500      64.4172      40.0270      24.0498       0.1157       3.6833       0.0051       2.6749       0.9138       1.8746
   2554.6055       7.2313      13.6153       0.0210      78.9296      28.8571    -999.2500    -999.2500      62.3571      38.5301      14.9952       0.1256       3.5052       0.0056       2.6104       0.9827       1.8136
   2554.7578       7.1712      14.5774       0.0055      71.8231      29.4381    -999.2500    -999.2500      61.5714      37.8399      10.2180       0.1311       3.3511       0.0060       2.5710       1.0612       1.7663
   2554.9102       7.1897      15.0976       0.0140      67.9073      30.1193    -999.2500    -999.2500      67.0119      41.0461      26.3390       0.1201       3.3111       0.0060       2.6520       1.1863       1.7858
   2555.0627       7.2097      15.2133       0.0203      65.4090      30.0946    -999.2500    -999.2500      72.0431      43.7765      37.7683       0.1123       3.2666       0.0059       2.7171       1.2562       1.7673
   2555.2151       7.2372      13.3631       0.0163      69.7226      26.7522    -999.2500    -999.2500      75.0853      44.2208      26.3952       0.1110       3.2006       0.0054       2.7061       1.0583       1.5639
   2555.3674       7.2552      11.6150       0.0120      73.2017      23.7350    -999.2500    -999.2500      76.8257      44.1334      15.8524       0.1116       3.1693       0.0049       2.6922       0.8870       1.4050
   2555.5198       7.2272      10.3666       0.0066      72.6915      22.2727    -999.2500    -999.2500      72.2005      41.4749       9.3700       0.1145       3.3037       0.0044       2.6648       0.8454       1.4640
   2555.6721       7.1958       9.4351       0.0046      73.1987      21.2530    -999.2500    -999.2500      67.4938      38.7711       4.5049       0.1160       3.4302       0.0040       2.6323       0.8234       1.5173
   2555.8247       7.1483      10.0453       0.0196      78.6002      22.3625    -999.2500    -999.2500      62.3905      35.8490       7.5071       0.1135       3.5182       0.0040       2.5758       0.8958       1.5428
   2555.9771       7.0915      10.3864       0.0336      81.5015      23.3604    -999.2500    -999.2500      57.9499      33.2353      12.2974       0.1180       3.5673       0.0039       2.5311       0.9534       1.5785
