#------------------------------------------------------------------------------
#
#   Created by  : [OpenWorks] Log Export Utility (LEXP)
#   Created on  : 2016-05-23 11:53:49
#   Project     : CANT971
#   User        : R5K
#   Interpreter : PEP
#
#------------------------------------------------------------------------------
~VERSION INFORMATION
VERS. 2.0 : CWLS Log ASCII Standard - version 2.0
WRAP.  NO : One line per depth step
~WELL INFORMATION
#MNEMONIC   .UNIT                                           VALUE :DESCRIPTION
#------------------------------------------------------------------------------
STRT        .M                                           293.9797 :START DEPTH
STOP        .M                                          2713.7869 :STOP DEPTH
STEP        .M                                             0.1524 :STEP
NULL        .                                           -999.2500 :NULL VALUE
COMP        .                                   PEMEX EXPL & PROD :COMPANY
WELL        .                                                  28 :WELL
FLD         .                                           CANTARELL :FIELD
LOC         .                                             UNKNOWN :LOCATION
CNTY        .                                      CD. DEL CARMEN :COUNTY
STAT        .                                            CAMPECHE :STATE
CTRY        .                                              MEXICO :COUNTRY
SRVC        .                                             UNKNOWN :SERVICE COMPANY
DATE        .                                             UNKNOWN :LOG DATE
UWI         .                                          3060000156 :UNIQUE WELL ID
XCOORD      .                                       598450.720000 :SURFACE X
YCOORD      .                                      2145024.710000 :SURFACE Y
LAT         .                                           19.398172 :LATITUDE
LON         .                                          -92.062394 :LONGITUDE
ELEV        .M                                            26.5400 :SURFACE ELEV
ELEV_TYPE   .                                                  KB :ELEV TYPE
~CURVE INFORMATION
#MNEMONIC.UNIT        API CODE       : CURVE DESCRIPTION
#------------------------------------------------------------------------------
DEPTH    .M                          : Measured Depth
CALI     .inches      UNKNOWN        : CALI:Import:rC:NONE:v0 (auto-composite)
DRHO     .g/cm3       UNKNOWN        : DRHO:Import:rC:NONE:v0 (auto-composite)
DT       .us/ft       UNKNOWN        : DT:Import:rC:NONE:v0 (auto-composite)
GR       .API         UNKNOWN        : GR:Import:rC:NONE:v0 (auto-composite)
ILD      .ohm.m       UNKNOWN        : ILD:Import:rC:NONE:v0 (auto-composite)
LLD      .ohm.m       UNKNOWN        : LLD:Import:rC:NONE:v0 (auto-composite)
LLS      .ohm.m       UNKNOWN        : LLS:Import:rC:NONE:v0 (auto-composite)
MSFL     .ohm.m       UNKNOWN        : MSFL:Import:rC:NONE:v0 (auto-composite)
NPHI     .v/v_decimal UNKNOWN        : NPHI:Import:rC:NONE:v0 (auto-composite)
PEF      .b/elec      UNKNOWN        : PEF:Import:rC:NONE:v0 (auto-composite)
RHOB     .g/cm3       UNKNOWN        : RHOB:Import:rC:NONE:v0 (auto-composite)
~A     DEPTH         CALI         DRHO           DT           GR          ILD          LLD          LLS         MSFL         NPHI          PEF         RHOB
# ...
   2132.5332       8.5215       0.0085      63.9498      39.9030    -999.2500    3113.3108    1512.4961      32.0664       0.0734       4.3714       2.6955
   2132.6858       8.5270       0.0110      61.8500      38.1963    -999.2500    3298.2830    1650.8070      55.9130       0.0720       4.3430       2.7040
   2132.8381       8.5195       0.0120      63.3783      36.5000    -999.2500    3217.7800    1646.7396      90.5750       0.0682       4.2747       2.7095
   2132.9905       8.5120       0.0130      64.9000      39.4698    -999.2500    3137.8840    1642.7030     125.0310       0.0640       4.2070       2.7150
   2133.1428       8.5080       0.0210      63.5461      42.4220    -999.2500    2931.9766    1580.5024      88.0799       0.0565       4.5156       2.7230
   2133.2952       8.5040       0.0290      62.2000      44.1851    -999.2500    2727.5950    1518.7629      51.3440       0.0499       4.8220       2.7310
   2133.4478       8.5296       0.0431      62.2752      45.9380    -999.2500    2565.2471    1453.8347     131.3306       0.0559       4.5164       2.7491
   2133.6001       8.5550       0.0570      62.3500      45.0053    -999.2500    2404.0830    1389.3800     210.7340       0.0623       4.2130       2.7670
   2133.7524       8.5490       0.0364      62.0632      44.0780    -999.2500    2492.7183    1441.4108     286.4822       0.0601       4.3676       2.7640
   2133.9048       8.5430       0.0160      61.7780      45.2768    -999.2500    2580.7190    1493.0690     361.6880       0.0568       4.5210       2.7610
   2134.0574       8.5490       0.0160      59.8858      46.4690    -999.2500    2753.2329    1568.5498     354.5303       0.0509       4.5205       2.7615
   2134.2097       8.5550       0.0160      58.0040      44.4470    -999.2500    2924.5320    1643.4990     347.4230       0.0451       4.5200       2.7620
   2134.3621       8.5510       0.0190      57.5257      42.4360    -999.2500    3031.0913    1662.0160     249.4825       0.0430       4.5130       2.7760
   2134.5144       8.5470       0.0220      57.0500      41.9432    -999.2500    3136.9141    1680.4050     152.2190       0.0420       4.5060       2.7900
   2134.6670       8.5470       0.0290      55.4503      41.4530    -999.2500    3203.9250    1785.7910     166.4388       0.0480       4.4794       2.7930
   2134.8193       8.5470       0.0360      53.8590      42.6045    -999.2500    3270.4810    1890.4611     180.5620       0.0543       4.4530       2.7960
   2134.9717       8.5470       0.0315      53.6790      43.7500    -999.2500    3443.0051    2019.0063     110.8066       0.0565       4.3385       2.7583
   2135.1240       8.5470       0.0270      53.5000      46.3972    -999.2500    3614.3799    2146.6951      41.5160       0.0575       4.2250       2.7210
   2135.2764       8.5470       0.0375      54.0408      49.0310    -999.2500    3301.8394    1941.6853      83.6814       0.0488       4.2697       2.7486
   2135.4290       8.5470       0.0480      54.5790      46.4255    -999.2500    2991.3440    1738.0170     125.5710       0.0400       4.3140       2.7760
   2135.5813       8.5450       0.0415      56.2185      43.8370    -999.2500    2636.7524    1541.0870     157.7637       0.0405       4.3466       2.7921
   2135.7336       8.5430       0.0350      57.8500      37.6487    -999.2500    2284.4351    1345.4200     189.7500       0.0428       4.3790       2.8080
   2135.8860       8.5450       0.0365      55.1186      31.5000    -999.2500    2829.6311    1641.2921     162.1005       0.0590       4.2896       2.7653
   2136.0386       8.5470       0.0380      52.4000      34.1910    -999.2500    3371.3960    1935.3020     134.6250       0.0751       4.2010       2.7230
   2136.1909       8.5470       0.0355      52.5869      36.8650    -999.2500    3356.5371    1935.0096     223.3650       0.0759       4.2527       2.7230
   2136.3433       8.5470       0.0330      52.7730      40.1521    -999.2500    3341.7700    1934.7190     311.5580       0.0754       4.3040       2.7230
   2136.4956       8.5470       0.0325      53.8890      43.4190    -999.2500    3255.6589    1932.9767     394.5298       0.0731       4.6132       2.7235
   2136.6482       8.5470       0.0320      55.0000      50.6218    -999.2500    3170.0681    1931.2450     477.0000       0.0707       4.9200       2.7240
   2136.8005       8.5490       0.0215      56.3018      57.7810    -999.2500    2864.6406    1791.2889     300.1328       0.0669       4.7649       2.7195
   2136.9529       8.5510       0.0110      57.5980      66.4316    -999.2500    2561.5071    1652.3840     124.5940       0.0627       4.6110       2.7150
   2137.1052       8.5545       0.0215      57.7996      75.0310    -999.2500    2326.2229    1506.7124     266.3983       0.0525       4.4700       2.7471
   2137.2576       8.5580       0.0320      58.0000      64.7186    -999.2500    2092.6750    1362.1160     407.1560       0.0424       4.3300       2.7790
   2137.4102       8.5600       0.0295      57.0453      54.4660    -999.2500    1848.2180    1195.3234     219.7140       0.0380       4.4369       2.7584
   2137.5625       8.5620       0.0270      56.0960      45.6300    -999.2500    1605.5360    1029.7419      33.6330       0.0344       4.5430       2.7380
   2137.7148       8.5635       0.0365      55.4216      36.8440    -999.2500    1805.6405    1155.6007     100.9771       0.0341       4.4988       2.7786
   2137.8672       8.5650       0.0460      54.7510      37.5881    -999.2500    2004.3180    1280.5620     167.8410       0.0354       4.4550       2.8190
   2138.0198       8.5660       0.0259      53.5472      38.3280    -999.2500    3519.5779    2144.2983     717.5979       0.0556       4.6236       2.7202
   2138.1721       8.5670       0.0060      52.3500      36.9337    -999.2500    5024.2129    3001.9780    1263.5000       0.0749       4.7910       2.6220
   2138.3245       8.5685       0.0075      53.7146      35.5470    -999.2500    4902.4985    2921.1453     700.6885       0.0633       4.4865       2.6832
   2138.4768       8.5700       0.0090      55.0720      37.1638    -999.2500    4781.6221    2840.8689     141.7500       0.0509       4.1840       2.7440
   2138.6294       8.5705       0.0180      63.9339      38.7720    -999.2500    4217.0479    2493.0850     142.1559       0.0551       4.3611       2.7355
   2138.7817       8.5710       0.0270      72.7500      39.1615    -999.2500    3656.2910    2147.6531     142.5590       0.0602       4.5370       2.7270
   2138.9341       8.5770       0.0426      63.4014      39.5490    -999.2500    3042.8662    1875.3571     146.4293       0.0600       4.5300       2.7275
   2139.0864       8.5830       0.0580      54.1000      41.2082    -999.2500    2433.5100    1604.8669     150.2740       0.0595       4.5230       2.7280
   2139.2388       8.6020       0.0575      54.1311      42.8590    -999.2500    2181.3499    1449.3611     163.1213       0.0595       4.3212       2.7441
   2139.3914       8.6210       0.0570      54.1620      42.7993    -999.2500    1930.8320    1294.8680     175.8850       0.0596       4.1210       2.7600
   2139.5437       8.6270       0.0455      55.2336      42.7400    -999.2500    1624.8606    1089.8748     185.1912       0.0607       4.0562       2.7675
   2139.6960       8.6330       0.0340      56.3000      40.6839    -999.2500    1320.8420     886.1900     194.4380       0.0622       3.9920       2.7750
   2139.8484       8.6405       0.0230      56.7761      38.6410    -999.2500    1425.3162     953.5118     200.5827       0.0678       4.1536       2.7353
   2140.0010       8.6480       0.0120      57.2500      36.2440    -999.2500    1529.1360    1020.4120     206.6890       0.0732       4.3140       2.6960
   2140.1533       8.6069       0.0276      53.9675      33.8620    -999.2500    2620.1724    1600.9307    1010.5597       0.0721       4.4219       2.7116
   2140.3057       8.5660       0.0430      50.7000      33.0104    -999.2500    3704.5171    2177.8889    1809.5000       0.0699       4.5290       2.7270
