#------------------------------------------------------------------------------
#
#   Created by  : [OpenWorks] Log Export Utility (LEXP)
#   Created on  : 2016-05-23 11:56:24
#   Project     : CANT971
#   User        : R5K
#   Interpreter : PEP
#
#------------------------------------------------------------------------------
~VERSION INFORMATION
VERS. 2.0 : CWLS Log ASCII Standard - version 2.0
WRAP.  NO : One line per depth step
~WELL INFORMATION
#MNEMONIC   .UNIT                                           VALUE :DESCRIPTION
#------------------------------------------------------------------------------
STRT        .M                                           741.4294 :START DEPTH
STOP        .M                                          2768.5020 :STOP DEPTH
STEP        .M                                             0.1524 :STEP
NULL        .                                           -999.2500 :NULL VALUE
COMP        .                                             UNKNOWN :COMPANY
WELL        .                                                 470 :WELL
FLD         .                                             UNKNOWN :FIELD
LOC         .                                             UNKNOWN :LOCATION
CNTY        .                                             UNKNOWN :COUNTY
STAT        .                                             UNKNOWN :STATE
CTRY        .                                             UNKNOWN :COUNTRY
SRVC        .                                             UNKNOWN :SERVICE COMPANY
DATE        .                                             UNKNOWN :LOG DATE
UWI         .                                                 470 :UNIQUE WELL ID
XCOORD      .                                       598706.890000 :SURFACE X
YCOORD      .                                      2143306.000000 :SURFACE Y
LAT         .                                           19.382628 :LATITUDE
LON         .                                          -92.060044 :LONGITUDE
ELEV        .M                                             0.0000 :SURFACE ELEV
ELEV_TYPE   .                                                  NA :ELEV TYPE
~CURVE INFORMATION
#MNEMONIC.UNIT        API CODE       : CURVE DESCRIPTION
#------------------------------------------------------------------------------
DEPTH    .M                          : Measured Depth
CALI     .inches      UNKNOWN        : CALI:litodensidad:rC:NONE:v0 (auto-composite)
CGR      .API         UNKNOWN        : CGR:PETROWORKS:rC:NONE:v1 
DRHO     .g/cm3       UNKNOWN        : DRHO:litodensidad:rC:NONE:v0 (auto-composite)
DT       .us/ft       UNKNOWN        : DT:PETROWORKS:rC:NONE:v1 
GR       .API         UNKNOWN        : GR:PETROWORKS:rC:NONE:v8 
ILD      .ohm.m       UNKNOWN        : ILD:PETROWORKS:rC:NONE:v1 
ILM      .ohm.m       UNKNOWN        : ILM:PETROWORKS:rC:NONE:v1 
LLD      .ohm.m       UNKNOWN        : LLD:resistivos:rC:NONE:v0 (auto-composite)
LLS      .ohm.m       UNKNOWN        : LLS:resistivos:rC:NONE:v0 (auto-composite)
MSFL     .ohm.m       UNKNOWN        : MSFL:resistivos:rC:NONE:v0 (auto-composite)
NPHI     .v/v_decimal UNKNOWN        : NPHI:PETROWORKS:rC:NONE:v1 
PEF      .UNKNOWN     UNKNOWN        : PEF:litodensidad:rC:NONE:v0 (auto-composite)
POTA     .wtpercent   UNKNOWN        : POTA:PETROWORKS:rC:NONE:v1 
RHOB     .g/cm3       UNKNOWN        : RHOB:litodensidad:rC:NONE:v0 (auto-composite)
THOR     .ppm         UNKNOWN        : THOR:PETROWORKS:rC:NONE:v1 
URAN     .ppm         UNKNOWN        : URAN:PETROWORKS:rC:NONE:v1 
~A     DEPTH         CALI          CGR         DRHO           DT           GR          ILD          ILM          LLD          LLS         MSFL         NPHI          PEF         POTA         RHOB         THOR         URAN
# ...
   2021.4370    -999.2500      15.9653    -999.2500    -999.2500      39.4368       1.9486       1.7835    -999.2500    -999.2500    -999.2500       0.0181    -999.2500       0.0061    -999.2500       1.4285       2.9196
   2021.5895    -999.2500      13.6133    -999.2500    -999.2500      39.3696       1.9014       1.5921    -999.2500    -999.2500    -999.2500       0.0077    -999.2500       0.0053    -999.2500       1.1848       2.7025
   2021.7418    -999.2500      14.5187    -999.2500    -999.2500      40.3144       1.9033       1.6364    -999.2500    -999.2500    -999.2500       0.0021    -999.2500       0.0054    -999.2500       1.3318       2.6881
   2021.8943    -999.2500      16.9604    -999.2500    -999.2500      39.3106       1.9258       1.7110    -999.2500    -999.2500    -999.2500      -0.0012    -999.2500       0.0066    -999.2500       1.4728       2.7116
   2022.0466    -999.2500      17.2432    -999.2500    -999.2500      36.9688       1.9579       1.8535    -999.2500    -999.2500    -999.2500      -0.0027    -999.2500       0.0071    -999.2500       1.3280       2.6166
   2022.1991    -999.2500      18.2666    -999.2500    -999.2500      40.5091       2.0626       2.0954    -999.2500    -999.2500    -999.2500      -0.0027    -999.2500       0.0077    -999.2500       1.3364       2.5923
   2022.3514    -999.2500      18.9288    -999.2500    -999.2500      43.6781       2.7090       2.6279    -999.2500    -999.2500    -999.2500       0.0028    -999.2500       0.0076    -999.2500       1.5168       2.6559
   2022.5038    -999.2500      15.1268    -999.2500    -999.2500      46.3037       2.7936       2.5113    -999.2500    -999.2500    -999.2500       0.0112    -999.2500       0.0062    -999.2500       1.1731       2.4644
   2022.6562    -999.2500      17.7247    -999.2500    -999.2500      46.8271       2.9129       2.5272    -999.2500    -999.2500    -999.2500       0.0190    -999.2500       0.0070    -999.2500       1.4933       2.6060
   2022.8086    -999.2500      19.9804    -999.2500    -999.2500      45.9375       2.8953       2.6889    -999.2500    -999.2500    -999.2500       0.0250    -999.2500       0.0078    -999.2500       1.6811       2.7024
   2022.9611    -999.2500      22.4993    -999.2500    -999.2500      44.2343       3.0085       3.0106    -999.2500    -999.2500    -999.2500       0.0261    -999.2500       0.0088    -999.2500       1.8895       2.8061
   2023.1134    -999.2500      23.4767    -999.2500    -999.2500      42.5324       3.1366       3.2312    -999.2500    -999.2500    -999.2500       0.0275    -999.2500       0.0093    -999.2500       1.9610       2.8216
   2023.2659    -999.2500      23.2827    -999.2500    -999.2500      43.2879       3.4060       3.3650    -999.2500    -999.2500    -999.2500       0.0244    -999.2500       0.0093    -999.2500       1.9133       2.7675
   2023.4182    -999.2500      22.8135    -999.2500    -999.2500      45.5466       3.6456       3.4175    -999.2500    -999.2500    -999.2500       0.0228    -999.2500       0.0093    -999.2500       1.7932       2.6587
   2023.5707    -999.2500      20.9986    -999.2500    -999.2500      47.0715       3.7164       3.6571    -999.2500    -999.2500    -999.2500       0.0188    -999.2500       0.0087    -999.2500       1.5749       2.5941
   2023.7230    -999.2500      20.5705    -999.2500    -999.2500      50.3011       3.9063       3.8336    -999.2500    -999.2500    -999.2500       0.0170    -999.2500       0.0085    -999.2500       1.5443       2.5981
   2023.8755    -999.2500      22.5011    -999.2500    -999.2500      52.6269       3.1528       3.2777    -999.2500    -999.2500    -999.2500       0.0135    -999.2500       0.0091    -999.2500       1.7739       2.7333
   2024.0278    -999.2500      22.9637    -999.2500    -999.2500      53.9566       3.1528       3.2777    -999.2500    -999.2500    -999.2500       0.0132    -999.2500       0.0092    -999.2500       1.8354       2.7562
   2024.1803    -999.2500      25.0246    -999.2500    -999.2500      55.4644       3.3510       3.3817    -999.2500    -999.2500    -999.2500       0.0161    -999.2500       0.0100    -999.2500       2.0305       2.9011
   2024.3326    -999.2500      27.2790    -999.2500    -999.2500      55.8240       3.6487       3.5505    -999.2500    -999.2500    -999.2500       0.0222    -999.2500       0.0109    -999.2500       2.2120       3.0080
   2024.4850    -999.2500      27.7863    -999.2500    -999.2500      57.5317       3.8836       3.9854    -999.2500    -999.2500    -999.2500       0.0274    -999.2500       0.0113    -999.2500       2.1914       3.0284
   2024.6375    -999.2500      29.8686    -999.2500    -999.2500      55.4926       4.2769       4.5314    -999.2500    -999.2500    -999.2500       0.0286    -999.2500       0.0122    -999.2500       2.3000       3.0945
   2024.7898    -999.2500      29.9077    -999.2500    -999.2500      50.3283       4.3001       4.8548    -999.2500    -999.2500    -999.2500       0.0290    -999.2500       0.0125    -999.2500       2.1846       3.0005
   2024.9423    -999.2500      31.9438    -999.2500    -999.2500      47.3662       4.4119       5.3578    -999.2500    -999.2500    -999.2500       0.0285    -999.2500       0.0135    -999.2500       2.3005       3.0646
   2025.0946    -999.2500      31.8821    -999.2500    -999.2500      45.3838       4.5547       5.6399    -999.2500    -999.2500    -999.2500       0.0288    -999.2500       0.0136    -999.2500       2.2228       3.0695
   2025.2471    -999.2500      27.3774    -999.2500    -999.2500      43.6308       4.4849       5.7071    -999.2500    -999.2500    -999.2500       0.0286    -999.2500       0.0117    -999.2500       1.9164       2.8809
   2025.3994    -999.2500      24.7647    -999.2500    -999.2500      42.5059       4.4804       5.4322    -999.2500    -999.2500    -999.2500       0.0281    -999.2500       0.0106    -999.2500       1.7097       2.7946
   2025.5519    -999.2500      23.1071    -999.2500    -999.2500      41.5263       4.5013       5.2151    -999.2500    -999.2500    -999.2500       0.0289    -999.2500       0.0098    -999.2500       1.6302       2.7276
   2025.7042    -999.2500      22.1225    -999.2500    -999.2500      38.9698       4.2741       4.7848    -999.2500    -999.2500    -999.2500       0.0300    -999.2500       0.0093    -999.2500       1.6231       2.6644
   2025.8567    -999.2500      20.7089    -999.2500    -999.2500      41.0035       4.1306       4.4634    -999.2500    -999.2500    -999.2500       0.0307    -999.2500       0.0087    -999.2500       1.4937       2.5662
   2026.0090    -999.2500      21.3934    -999.2500    -999.2500      41.7748       3.8390       4.1180    -999.2500    -999.2500    -999.2500       0.0278    -999.2500       0.0091    -999.2500       1.5232       2.6155
   2026.1615    -999.2500      17.7686    -999.2500    -999.2500      42.1053       3.6066       3.8310    -999.2500    -999.2500    -999.2500       0.0265    -999.2500       0.0080    -999.2500       1.0681       2.4343
   2026.3138    -999.2500      19.4542    -999.2500    -999.2500      43.5797       3.3737       3.5058    -999.2500    -999.2500    -999.2500       0.0268    -999.2500       0.0086    -999.2500       1.2195       2.5457
   2026.4662    -999.2500      20.0135    -999.2500    -999.2500      46.7635       3.2357       3.0468    -999.2500    -999.2500    -999.2500       0.0304    -999.2500       0.0088    -999.2500       1.2697       2.5823
   2026.6187    -999.2500      20.0061    -999.2500    -999.2500      46.2858       3.1182       2.7080    -999.2500    -999.2500    -999.2500       0.0357    -999.2500       0.0090    -999.2500       1.1978       2.6530
   2026.7710    -999.2500      19.8609    -999.2500    -999.2500      46.0458       2.9890       2.4742    -999.2500    -999.2500    -999.2500       0.0386    -999.2500       0.0089    -999.2500       1.2274       2.6495
   2026.9235    -999.2500      22.0366    -999.2500    -999.2500      47.7441       2.8227       2.4415    -999.2500    -999.2500    -999.2500       0.0359    -999.2500       0.0093    -999.2500       1.5991       2.9607
