#------------------------------------------------------------------------------
#
#   Created by  : [OpenWorks] Log Export Utility (LEXP)
#   Created on  : 2016-05-23 11:52:25
#   Project     : CANT971
#   User        : R5K
#   Interpreter : PEP
#
#------------------------------------------------------------------------------
~VERSION INFORMATION
VERS. 2.0 : CWLS Log ASCII Standard - version 2.0
WRAP.  NO : One line per depth step
~WELL INFORMATION
#MNEMONIC   .UNIT                                           VALUE :DESCRIPTION
#------------------------------------------------------------------------------
STRT        .M                                           940.1293 :START DEPTH
STOP        .M                                          2672.0029 :STOP DEPTH
STEP        .M                                             0.1524 :STEP
NULL        .                                           -999.2500 :NULL VALUE
COMP        .                                   PEMEX EXPL & PROD :COMPANY
WELL        .                                               2071D :WELL
FLD         .                                           CANTARELL :FIELD
LOC         .                                             UNKNOWN :LOCATION
CNTY        .                                      CD. DEL CARMEN :COUNTY
STAT        .                                            CAMPECHE :STATE
CTRY        .                                              MEXICO :COUNTRY
SRVC        .                                             UNKNOWN :SERVICE COMPANY
DATE        .                                             UNKNOWN :LOG DATE
UWI         .                                          3060000679 :UNIQUE WELL ID
XCOORD      .                                       601713.940000 :SURFACE X
YCOORD      .                                      2142372.000000 :SURFACE Y
LAT         .                                           19.374038 :LATITUDE
LON         .                                          -92.031462 :LONGITUDE
ELEV        .M                                            30.0000 :SURFACE ELEV
ELEV_TYPEF  .b/elec                                            KB :ELEV TYPE
~CURVE INFORMATION
#MNEMONIC.UNIT        API CODE       : CURVE DESCRIPTION
#------------------------------------------------------------------------------
DEPTH    .M                          : Measured Depth
CALI     .in          UNKNOWN        : CALI:UNKNOWN:rC:NONE:v0 (auto-composite)
DRHO     .g/cm3       UNKNOWN        : DRHO:UNKNOWN:rC:NONE:v0 (auto-composite)
DT       .us/ft       UNKNOWN        : DT:DT:rC:NONE:v0 (auto-composite)
GR       .API         UNKNOWN        : GR:UNKNOWN:rC:NONE:v0 (auto-composite)
ILD      .ohmm        UNKNOWN        : ILD:UNKNOWN:rC:NONE:v0 (auto-composite)
ILM      .ohmm        UNKNOWN        : ILM:UNKNOWN:rC:NONE:v0 (auto-composite)
LLD      .ohmm        UNKNOWN        : LLD:UNKNOWN:rC:NONE:v0 (auto-composite)
LLS      .ohmm        UNKNOWN        : LLS:UNKNOWN:rC:NONE:v0 (auto-composite)
MSFL     .ohmm        UNKNOWN        : MSFL:UNKNOWN:rC:NONE:v0 (auto-composite)
NPHI     .v/v_decimal UNKNOWN        : NPHI:UNKNOWN:rC:NONE:v0 (auto-composite)
PEF      .b/elec      UNKNOWN        : PEF:UNKNOWN:rC:NONE:v0 (auto-composite)
RHOB     .g/cm3       UNKNOWN        : RHOB:UNKNOWN:rC:NONE:v0 (auto-composite)
~A     DEPTH         CALI         DRHO           DT           GR          ILD          ILM          LLD          LLS         MSFL         NPHI          PEF         RHOB
# ...
   2271.4958      11.8800       0.0490      53.7310      26.7946    -999.2500    -999.2500     308.1945     154.4134       0.3665       0.0356       3.2970       2.7475
   2271.6482      11.8940       0.0500      52.9900      26.2390    -999.2500    -999.2500     323.6860     159.8380       0.3600       0.0387       3.3180       2.7430
   2271.8005      11.9080       0.0450      54.8840      26.5047    -999.2500    -999.2500     373.8765     175.3495       0.3755       0.0354       3.3735       2.7485
   2271.9529      11.9220       0.0400      56.7780      26.7700    -999.2500    -999.2500     423.9890     190.8370       0.3910       0.0322       3.4290       2.7540
   2272.1052      11.8960       0.0370      63.0980      27.1796    -999.2500    -999.2500     457.4153     199.1576       0.3880       0.0297       3.4060       2.7625
   2272.2578      11.8700       0.0340      69.4190      27.5900    -999.2500    -999.2500     490.9010     207.4930       0.3850       0.0272       3.3830       2.7710
   2272.4102      11.8445       0.0385      66.6219      29.3036    -999.2500    -999.2500     465.2653     194.0427       0.3485       0.0283       3.2849       2.7800
   2272.5625      11.8190       0.0430      63.8240      31.0150    -999.2500    -999.2500     439.6630     180.6100       0.3120       0.0295       3.1870       2.7890
   2272.7148      11.8902       0.0395      65.6701      33.1699    -999.2500    -999.2500     425.2114     166.0576       0.3391       0.0309       3.1499       2.7735
   2272.8674      11.9610       0.0360      67.5170      35.3120    -999.2500    -999.2500     410.8460     151.5920       0.3660       0.0323       3.1130       2.7580
   2273.0198      11.9335       0.0450      62.9498      36.1496    -999.2500    -999.2500     449.5598     156.6312       0.3855       0.0350       3.1485       2.7500
   2273.1721      11.9060       0.0540      58.3800      36.9850    -999.2500    -999.2500     488.1710     161.6570       0.4050       0.0378       3.1840       2.7420
   2273.3245      11.9400       0.0590      59.3700      34.6863    -999.2500    -999.2500     554.1072     166.8213       0.3825       0.0352       3.2665       2.7635
   2273.4771      11.9740       0.0640      60.3590      32.3860    -999.2500    -999.2500     620.0880     171.9890       0.3600       0.0326       3.3490       2.7850
   2273.6294      11.9795       0.0675      63.0131      30.6450    -999.2500    -999.2500     578.0032     149.6582       0.3700       0.0346       3.3841       2.7940
   2273.7817      11.9850       0.0710      65.6650      28.9110    -999.2500    -999.2500     536.0870     127.4170       0.3800       0.0365       3.4190       2.8030
   2273.9341      12.0372       0.0610      60.0911      29.6457    -999.2500    -999.2500     426.5626     100.2310       0.4046       0.0382       3.3944       2.7854
   2274.0864      12.0890       0.0510      54.5210      30.3740    -999.2500    -999.2500     317.9850      73.2800       0.4290       0.0399       3.3700       2.7680
   2274.2390      12.1241       0.0560      56.8701      31.0277    -999.2500    -999.2500     224.8320      56.6757       0.3949       0.0432       3.3885       2.7710
   2274.3914      12.1590       0.0610      59.2180      31.6780    -999.2500    -999.2500     132.1760      40.1600       0.3610       0.0466       3.4070       2.7740
   2274.5437      12.3797       0.0590      58.3868      28.8316    -999.2500    -999.2500      89.4598      32.0768       0.2819       0.0491       3.3519       2.7805
   2274.6960      12.6000       0.0570      57.5560      25.9910    -999.2500    -999.2500      46.8300      24.0100       0.2030       0.0515       3.2970       2.7870
   2274.8486      13.9112       0.1095      59.1217      22.3190    -999.2500    -999.2500      33.4335      19.0878       0.1870       0.0700       3.1520       2.8135
   2275.0010      15.2220       0.1620      60.6870      18.6480    -999.2500    -999.2500      20.0410      14.1670       0.1710       0.0885       3.0070       2.8400
   2275.1533      16.0354       0.0816      58.9754      17.8666    -999.2500    -999.2500      16.6534      12.1040       0.2804       0.1348       2.3670       2.3019
   2275.3057      16.8500       0.0010      57.2640      17.0840    -999.2500    -999.2500      13.2610      10.0380       0.3900       0.1812       1.7260       1.7630
   2275.4583      16.3566       0.0656      64.3822      19.2128    -999.2500    -999.2500      13.7969       9.7067       0.5031       0.2123       1.6084       1.6154
   2275.6106      15.8640       0.1300      71.5000      21.3380    -999.2500    -999.2500      14.3320       9.3760       0.6160       0.2434       1.4910       1.4680
   2275.7629      14.5945       0.1235      73.7184      22.1299    -999.2500    -999.2500      18.9469      12.5991       0.4907       0.2647       1.8879       1.5236
   2275.9153      13.3310       0.1170      75.9370      22.9180    -999.2500    -999.2500      23.5400      15.8070       0.3660       0.2860       2.2830       1.5790
   2276.0676      13.0336       0.1325      70.9005      22.4363    -999.2500    -999.2500      44.9150      29.9116       0.3585       0.2159       2.8433       1.7883
   2276.2202      12.7370       0.1480      65.8630      21.9560    -999.2500    -999.2500      66.2260      43.9740       0.3510       0.1460       3.4020       1.9970
   2276.3726      12.5389       0.1205      62.8995      21.4011    -999.2500    -999.2500     145.9812      57.9129       0.3340       0.1325       3.5756       2.1716
   2276.5249      12.3410       0.0930      59.9350      20.8470    -999.2500    -999.2500     225.6350      71.8340       0.3170       0.1191       3.7490       2.3460
   2276.6772      12.1157       0.0855      61.3513      20.9958    -999.2500    -999.2500     222.7964      69.3321       0.3385       0.0911       3.5162       2.4824
   2276.8298      11.8900       0.0780      62.7660      21.1450    -999.2500    -999.2500     219.9520      66.8250       0.3600       0.0630       3.2830       2.6190
   2276.9822      11.8342       0.0989      58.9426      20.9505    -999.2500    -999.2500     266.6938      83.7578       0.3465       0.0570       3.3533       2.6883
   2277.1345      11.7780       0.1200      55.1230      20.7550    -999.2500    -999.2500     313.6880     100.7820       0.3330       0.0510       3.4240       2.7580
   2277.2869      11.6605       0.0895      57.0904      20.7140    -999.2500    -999.2500     295.4310     104.6386       0.3220       0.0459       3.3575       2.7615
   2277.4395      11.5430       0.0590      59.0560      20.6730    -999.2500    -999.2500     277.1610     108.4980       0.3110       0.0408       3.2910       2.7650
   2277.5918      11.5260       0.0770      63.2146      20.1725    -999.2500    -999.2500     225.2842      81.7154       0.2895       0.0387       3.2184       2.7810
   2277.7441      11.5090       0.0950      67.3700      19.6740    -999.2500    -999.2500     173.6130      55.0390       0.2680       0.0365       3.1460       2.7970
   2277.8965      11.4545       0.1120      60.8874      20.9004    -999.2500    -999.2500     166.5157      58.9418       0.2815       0.0484       3.4211       2.7370
   2278.0488      11.4000       0.1290      54.4090      22.1260    -999.2500    -999.2500     159.4230      62.8420       0.2950       0.0604       3.6960       2.6770
   2278.2014      11.2881       0.1265      58.1660      23.9610    -999.2500    -999.2500     194.4155      75.8036       0.3175       0.0667       3.6815       2.6695
   2278.3538      11.1760       0.1240      61.9210      25.8010    -999.2500    -999.2500     229.5020      88.8000       0.3400       0.0731       3.6670       2.6620
   2278.5061      11.1460       0.1405      57.5231      25.7419    -999.2500    -999.2500     267.8103     107.3826       0.3655       0.0534       3.8322       2.7571
   2278.6584      11.1160       0.1570      53.1270      25.6830    -999.2500    -999.2500     306.0420     125.9280       0.3910       0.0337       3.9970       2.8520
