#------------------------------------------------------------------------------
#
#   Created by  : [OpenWorks] Log Export Utility (LEXP)
#   Created on  : 2016-05-11 12:45:43
#   Project     : CANT971
#   User        : R5K
#   Interpreter : PEP
#
#------------------------------------------------------------------------------
~VERSION INFORMATION
VERS. 2.0 : CWLS Log ASCII Standard - version 2.0
WRAP.  NO : One line per depth step
~WELL INFORMATION
#MNEMONIC   .UNIT                                           VALUE :DESCRIPTION
#------------------------------------------------------------------------------
STRT        .M                                            80.3144 :START DEPTH
STOP        .M                                          1350.4160 :STOP DEPTH
STEP        .M                                             0.1524 :STEP
NULL        .                                           -999.2500 :NULL VALUE
COMP        .                                   PEMEX EXPL & PROD :COMPANY
WELL        .                                         CANTARELL-3 :WELL
FLD         .                                           CANTARELL :FIELD
LOC         .                                             UNKNOWN :LOCATION
CNTY        .                                      CD. DEL CARMEN :COUNTY
STAT        .                                            CAMPECHE :STATE
CTRY        .                                              MEXICO :COUNTRY
SRVC        .                                             UNKNOWN :SERVICE COMPANY
DATE        .                                             UNKNOWN :LOG DATE
UWI         .                                          3060000139 :UNIQUE WELL ID
XCOORD      .                                       600825.370000 :SURFACE X
YCOORD      .                                      2145118.460000 :SURFACE Y
LAT         .                                           19.398901 :LATITUDE
LON         .                                          -92.039777 :LONGITUDE
ELEV        .M                                            27.7000 :SURFACE ELEV
ELEV_TYPE   .                                                  KB :ELEV TYPE
~CURVE INFORMATION
#MNEMONIC.UNIT        API CODE       : CURVE DESCRIPTION
#------------------------------------------------------------------------------
DEPTH    .M                          : Measured Depth
CALI     .inches      UNKNOWN        : CALI:Import:rC:NONE:v0 (auto-composite)
DRHO     .g/cm3       UNKNOWN        : DRHO:Import:rC:NONE:v0 (auto-composite)
DT       .us/ft       UNKNOWN        : DT:Import:rC:NONE:v0 (auto-composite)
GR       .API         UNKNOWN        : GR:Import:rC:NONE:v0 (auto-composite)
ILD      .ohm.m       UNKNOWN        : ILD:Import:rC:NONE:v0 (auto-composite)
NPHI     .v/v_decimal UNKNOWN        : NPHI:Import:rC:NONE:v0 (auto-composite)
RHOB     .g/cm3       UNKNOWN        : RHOB:Import:rC:NONE:v0 (auto-composite)
SP       .mV          UNKNOWN        : SP:Import:rC:NONE:v0 (auto-composite)
~A     DEPTH         CALI         DRHO           DT           GR          ILD         NPHI         RHOB           SP
# ...
    174.9548      15.1220       0.0580     147.2997    -999.2500    -999.2500    -999.2500       1.7650    -999.2500
    175.1072      15.1420       0.0580     154.0350    -999.2500    -999.2500    -999.2500       1.7695    -999.2500
    175.2596      15.1620       0.0580     159.8692    -999.2500    -999.2500    -999.2500       1.7740    -999.2500
    175.4120      15.1465       0.0595     165.7010    -999.2500    -999.2500    -999.2500       1.7780    -999.2500
    175.5644      15.1310       0.0610     171.1926    -999.2500    -999.2500    -999.2500       1.7820    -999.2500
    175.7168      15.0351       0.0660     176.6820    -999.2500    -999.2500    -999.2500       1.7885    -999.2500
    175.8692      14.9390       0.0710     174.2160    -999.2500    -999.2500    -999.2500       1.7950    -999.2500
    176.0216      14.7302       0.0740     171.7510    -999.2500    -999.2500    -999.2500       1.8005    -999.2500
    176.1740      14.5210       0.0770     157.9354    -999.2500    -999.2500    -999.2500       1.8060    -999.2500
    176.3264      14.3107       0.0810     144.1260    -999.2500    -999.2500    -999.2500       1.8155    -999.2500
    176.4788      14.1000       0.0850     124.4733    -999.2500    -999.2500    -999.2500       1.8250    -999.2500
    176.6312      13.9651       0.0935     104.8290    -999.2500    -999.2500    -999.2500       1.8240    -999.2500
    176.7836      13.8300       0.1020     106.4968    -999.2500    -999.2500    -999.2500       1.8230    -999.2500
    176.9360      13.6891       0.1015     108.1640    -999.2500    -999.2500    -999.2500       1.8180    -999.2500
    177.0884      13.5480       0.1010     119.6701    -999.2500    -999.2500    -999.2500       1.8130    -999.2500
    177.2408      13.1250       0.0960     131.1720    -999.2500    -999.2500    -999.2500       1.7975    -999.2500
    177.3932      12.7010       0.0910     130.4334    -999.2500    -999.2500    -999.2500       1.7820    -999.2500
    177.5456      12.7090       0.0920     129.6950    -999.2500    -999.2500    -999.2500       1.7820    -999.2500
    177.6980      12.7170       0.0930     130.0821    -999.2500    -999.2500    -999.2500       1.7820    -999.2500
    177.8504      12.8389       0.1020     130.4690    -999.2500    -999.2500    -999.2500       1.7835    -999.2500
    178.0028      12.9610       0.1110     134.2908    -999.2500    -999.2500    -999.2500       1.7850    -999.2500
    178.1552      13.3401       0.1105     138.1110    -999.2500    -999.2500    -999.2500       1.7895    -999.2500
    178.3076      13.7200       0.1100     148.8100    -999.2500    -999.2500    -999.2500       1.7940    -999.2500
    178.4600      14.0042       0.1080     159.5050    -999.2500    -999.2500    -999.2500       1.7940    -999.2500
    178.6124      14.2890       0.1060     169.0606    -999.2500    -999.2500    -999.2500       1.7940    -999.2500
    178.7648      14.2840       0.1075     178.6120    -999.2500    -999.2500    -999.2500       1.7915    -999.2500
    178.9172      14.2790       0.1090     177.1557    -999.2500    -999.2500    -999.2500       1.7890    -999.2500
    179.0696      14.2365       0.1135     175.7000    -999.2500    -999.2500    -999.2500       1.7830    -999.2500
    179.2220      14.1940       0.1180     170.3019    -999.2500    -999.2500    -999.2500       1.7770    -999.2500
    179.3744      13.9403       0.1205     164.9060    -999.2500    -999.2500    -999.2500       1.7685    -999.2500
    179.5268      13.6860       0.1230     160.7165    -999.2500    -999.2500    -999.2500       1.7600    -999.2500
    179.6792      13.7120       0.1230     156.5290    -999.2500    -999.2500    -999.2500       1.7510    -999.2500
    179.8316      13.7380       0.1230     152.0440    -999.2500    -999.2500    -999.2500       1.7420    -999.2500
    179.9840      13.8784       0.1215     147.5610    -999.2500    -999.2500    -999.2500       1.7325    -999.2500
    180.1364      14.0190       0.1200     142.9910    -999.2500    -999.2500    -999.2500       1.7230    -999.2500
    180.2888      14.2762       0.1075     138.4230    -999.2500    -999.2500    -999.2500       1.7120    -999.2500
    180.4412      14.5340       0.0950     134.5272    -999.2500    -999.2500    -999.2500       1.7010    -999.2500
    180.5936      14.4945       0.0960     130.6330    -999.2500    -999.2500    -999.2500       1.6915    -999.2500
    180.7460      14.4550       0.0970     127.0518    -999.2500    -999.2500    -999.2500       1.6820    -999.2500
    180.8984      14.2502       0.1030     123.4720    -999.2500    -999.2500    -999.2500       1.6735    -999.2500
    181.0508      14.0450       0.1090     117.8162    -999.2500    -999.2500    -999.2500       1.6650    -999.2500
    181.2032      13.6764       0.1205     112.1630    -999.2500    -999.2500    -999.2500       1.6600    -999.2500
    181.3556      13.3070       0.1320     106.1818    -999.2500    -999.2500    -999.2500       1.6550    -999.2500
    181.5080      12.8365       0.1420     100.2030    -999.2500    -999.2500    -999.2500       1.6500    -999.2500
    181.6604      12.3650       0.1520      93.0271    -999.2500    -999.2500    -999.2500       1.6450    -999.2500
    181.8128      11.8296       0.1515      85.8540    -999.2500    -999.2500    -999.2500       1.6365    -999.2500
    181.9652      11.2930       0.1510      80.2517    -999.2500    -999.2500    -999.2500       1.6280    -999.2500
    182.1176      10.8410       0.1460      74.6520    -999.2500    -999.2500    -999.2500       1.6135    -999.2500
    182.2700      10.3880       0.1410      70.2270    -999.2500    -999.2500    -999.2500       1.5990    -999.2500
    182.4224      10.1552       0.1410      65.8040    -999.2500    -999.2500    -999.2500       1.6000    -999.2500
    182.5748       9.9220       0.1410      63.4050    -999.2500    -999.2500    -999.2500       1.6010    -999.2500
    182.7272       9.9230       0.1425      61.0070    -999.2500    -999.2500    -999.2500       1.6065    -999.2500
    182.8796       9.9240       0.1440      59.8367    -999.2500    -999.2500    -999.2500       1.6120    -999.2500
    183.0320       9.9470       0.1435      58.6670    -999.2500    -999.2500    -999.2500       1.6165    -999.2500
    183.1844       9.9700       0.1430      59.4772    -999.2500    -999.2500    -999.2500       1.6210    -999.2500
    183.3368      10.0749       0.1395      60.2870    -999.2500    -999.2500    -999.2500       1.6235    -999.2500
    183.4892      10.1800       0.1360      68.8854    -999.2500    -999.2500    -999.2500       1.6260    -999.2500
    183.6416      10.3508       0.1370      77.4800    -999.2500    -999.2500    -999.2500       1.6365    -999.2500
    183.7940      10.5220       0.1380     115.6899    -999.2500    -999.2500    -999.2500       1.6470    -999.2500
    183.9464      10.6768       0.1430     153.8840    -999.2500    -999.2500    -999.2500       1.6615    -999.2500
    184.0988      10.8320       0.1480     153.1399    -999.2500    -999.2500    -999.2500       1.6760    -999.2500
    184.2512      11.0707       0.1550     152.3960    -999.2500    -999.2500    -999.2500       1.6975    -999.2500
    184.4036      11.3100       0.1620     147.2503    -999.2500    -999.2500    -999.2500       1.7190    -999.2500
    184.5560      11.6252       0.1690     142.1070    -999.2500    -999.2500    -999.2500       1.7355    -999.2500
    184.7084      11.9410       0.1760     142.9602    -999.2500    -999.2500    -999.2500       1.7520    -999.2500
    184.8608      12.3546       0.1760     143.8130    -999.2500    -999.2500    -999.2500       1.7635    -999.2500
    185.0132      12.7690       0.1760     148.8095    -999.2500    -999.2500    -999.2500       1.7750    -999.2500
    185.1656      12.6002       0.1740     153.8040    -999.2500    -999.2500    -999.2500       1.7830    -999.2500
    185.3180      12.4310       0.1720     163.3973    -999.2500    -999.2500    -999.2500       1.7910    -999.2500
