#------------------------------------------------------------------------------
#
#   Created by  : [OpenWorks] Log Export Utility (LEXP)
#   Created on  : 2016-05-23 11:57:10
#   Project     : CANT971
#   User        : R5K
#   Interpreter : PEP
#
#------------------------------------------------------------------------------
~VERSION INFORMATION
VERS. 2.0 : CWLS Log ASCII Standard - version 2.0
WRAP.  NO : One line per depth step
~WELL INFORMATION
#MNEMONIC   .UNIT                                           VALUE :DESCRIPTION
#------------------------------------------------------------------------------
STRT        .M                                           345.0980 :START DEPTH
STOP        .M                                          2040.8528 :STOP DEPTH
STEP        .M                                             0.1524 :STEP
NULL        .                                           -999.2500 :NULL VALUE
COMP        .                                   PEMEX EXPL & PROD :COMPANY
WELL        .                                                  71 :WELL
FLD         .                                           CANTARELL :FIELD
LOC         .                                             UNKNOWN :LOCATION
CNTY        .                                      CD. DEL CARMEN :COUNTY
STAT        .                                            CAMPECHE :STATE
CTRY        .                                              MEXICO :COUNTRY
SRVC        .                                             UNKNOWN :SERVICE COMPANY
DATE        .                                             UNKNOWN :LOG DATE
UWI         .                                          3060000175 :UNIQUE WELL ID
XCOORD      .                                       599724.470000 :SURFACE X
YCOORD      .                                      2147216.900000 :SURFACE Y
LAT         .                                           19.417919 :LATITUDE
LON         .                                          -92.050150 :LONGITUDE
ELEV        .M                                            27.8000 :SURFACE ELEV
ELEV_TYPE   .                                                  KB :ELEV TYPE
~CURVE INFORMATION
#MNEMONIC.UNIT        API CODE       : CURVE DESCRIPTION
#------------------------------------------------------------------------------
DEPTH    .M                          : Measured Depth
DT       .us/ft       UNKNOWN        : DT:DT:rC:NONE:v0 (auto-composite)
GR       .UNKNOWN     UNKNOWN        : GR:GR-Load:rC:NONE:v0 (auto-composite)
ILD      .UNKNOWN     UNKNOWN        : ILD:ILD-Load:rC:NONE:v0 (auto-composite)
NPHI     .v/v_decimal UNKNOWN        : NPHI:NPHI:rC:NONE:v0 (auto-composite)
RG       .UNKNOWN     UNKNOWN        : RG:RG-Loader:rC:NONE:v0 (auto-composite)
RHOB     .UNKNOWN     UNKNOWN        : RHOB:RHOB-Load:rC:NONE:v0 (auto-composite)
~A     DEPTH           DT           GR          ILD         NPHI           RG         RHOB
# ...
   1498.4612    -999.2500      23.5926      20.2253       9.1953    -999.2500    -999.2500
   1498.6136    -999.2500      25.4336      20.2283       9.2128    -999.2500    -999.2500
   1498.7660    -999.2500      25.8492      20.2313       9.4932    -999.2500    -999.2500
   1498.9185    -999.2500      24.3022      20.2343      10.1367    -999.2500    -999.2500
   1499.0708    -999.2500      23.6754      20.2373      10.4783    -999.2500    -999.2500
   1499.2233    -999.2500      24.3159      20.2403      10.4028    -999.2500    -999.2500
   1499.3756    -999.2500      24.2813      20.2437      10.2671    -999.2500    -999.2500
   1499.5281    -999.2500      23.3169      20.2477      10.0481    -999.2500    -999.2500
   1499.6804    -999.2500      22.0730      20.1889       9.9357    -999.2500    -999.2500
   1499.8328    -999.2500      20.4440      20.0439       9.9707    -999.2500    -999.2500
   1499.9852    -999.2500      19.5845      19.9608       9.8471    -999.2500    -999.2500
   1500.1376    -999.2500      19.7855      19.9628       9.5041    -999.2500    -999.2500
   1500.2900    -999.2500      20.2248      19.9653       9.3503    -999.2500    -999.2500
   1500.4424    -999.2500      20.9926      19.9683       9.4583    -999.2500    -999.2500
   1500.5948    -999.2500      21.8188      19.9713       9.5848    -999.2500    -999.2500
   1500.7472    -999.2500      22.7252      19.9743       9.7368    -999.2500    -999.2500
   1500.8997    -999.2500      23.0936      19.9773       9.6784    -999.2500    -999.2500
   1501.0520    -999.2500      22.7221      19.9803       9.3289    -999.2500    -999.2500
   1501.2045    -999.2500      22.2369      19.9831       8.9937    -999.2500    -999.2500
   1501.3568    -999.2500      21.5954      19.9856       8.6782    -999.2500    -999.2500
   1501.5093    -999.2500      21.0308      19.9883       8.6827    -999.2500    -999.2500
   1501.6616    -999.2500      20.5718      19.9913       9.1301    -999.2500    -999.2500
   1501.8140    -999.2500      19.7319      19.9943       9.3061    -999.2500    -999.2500
   1501.9664    -999.2500      18.3680      19.9973       9.1061    -999.2500    -999.2500
   1502.1188    -999.2500      18.5347      20.0003       8.8409    -999.2500    -999.2500
   1502.2712    -999.2500      20.8082      20.0033       8.4853    -999.2500    -999.2500
   1502.4236    -999.2500      22.0270      20.0063       8.3409    -999.2500    -999.2500
   1502.5760    -999.2500      21.7940      20.0093       8.4884    -999.2500    -999.2500
   1502.7284    -999.2500      21.3456      20.0123       8.8291    -999.2500    -999.2500
   1502.8809    -999.2500      20.6006      20.0153       9.4366    -999.2500    -999.2500
   1503.0332    -999.2500      19.8561      20.0183       9.7873    -999.2500    -999.2500
   1503.1857    -999.2500      19.1121      20.0213       9.7833    -999.2500    -999.2500
   1503.3380    -999.2500      18.4720      20.0243       9.6494    -999.2500    -999.2500
   1503.4905    -999.2500      17.9750      20.0273       9.3359    -999.2500    -999.2500
   1503.6428    -999.2500      17.9889      20.0303       9.1836    -999.2500    -999.2500
   1503.7952    -999.2500      18.7069      20.0333       9.2541    -999.2500    -999.2500
   1503.9476    -999.2500      19.3946      20.0363       9.2010    -999.2500    -999.2500
   1504.1000    -999.2500      20.0406      20.0393       8.9770    -999.2500    -999.2500
   1504.2524    -999.2500      20.8194      20.0423       8.8804    -999.2500    -999.2500
   1504.4048    -999.2500      21.7812      20.0453       8.9599    -999.2500    -999.2500
   1504.5573    -999.2500      23.0697      20.0483       9.2795    -999.2500    -999.2500
   1504.7096    -999.2500      24.8071      20.0513       9.9315    -999.2500    -999.2500
   1504.8621    -999.2500      25.0126      20.0541      10.5352    -999.2500    -999.2500
   1505.0144    -999.2500      23.1116      20.0566      11.0722    -999.2500    -999.2500
   1505.1669    -999.2500      21.0581      20.0593      11.3458    -999.2500    -999.2500
   1505.3192    -999.2500      18.7947      20.0623      11.2548    -999.2500    -999.2500
   1505.4717    -999.2500      17.5615      20.0653      11.1664    -999.2500    -999.2500
   1505.6240    -999.2500      17.7454      20.0683      11.0814    -999.2500    -999.2500
   1505.7764    -999.2500      18.0915      20.0713      10.9962    -999.2500    -999.2500
   1505.9288    -999.2500      18.6605      20.0743      10.9107    -999.2500    -999.2500
   1506.0812    -999.2500      19.6462      20.0773      10.9241    -999.2500    -999.2500
   1506.2336    -999.2500      21.2057      20.0803      11.0747    -999.2500    -999.2500
   1506.3860    -999.2500      21.2719      20.0833      11.2149    -999.2500    -999.2500
   1506.5385    -999.2500      19.2825      20.0863      11.3409    -999.2500    -999.2500
   1506.6908    -999.2500      16.7815      20.0893      11.0867    -999.2500    -999.2500
   1506.8433    -999.2500      13.5761      20.0923      10.3072    -999.2500    -999.2500
   1506.9956    -999.2500      11.9617      20.0953       9.5592    -999.2500    -999.2500
   1507.1481    -999.2500      12.5387      20.0983       8.8548    -999.2500    -999.2500
   1507.3004    -999.2500      13.1577      20.1017       8.4529    -999.2500    -999.2500
   1507.4529    -999.2500      13.8347      20.1057       8.4694    -999.2500    -999.2500
   1507.6052    -999.2500      14.0889      20.1095       8.4030    -999.2500    -999.2500
   1507.7576    -999.2500      13.7604      20.1130       8.2220    -999.2500    -999.2500
   1507.9100    -999.2500      13.5914      20.1163       8.2274    -999.2500    -999.2500
   1508.0624    -999.2500      13.6424      20.1193       8.4904    -999.2500    -999.2500
   1508.2148    -999.2500      13.3795      20.1223       8.7158    -999.2500    -999.2500
   1508.3672    -999.2500      12.6838      20.1253       8.8893    -999.2500    -999.2500
   1508.5197    -999.2500      13.0373      20.1283       9.0663    -999.2500    -999.2500
   1508.6720    -999.2500      14.8332      20.1313       9.2483    -999.2500    -999.2500
   1508.8245    -999.2500      16.9096      20.1343       9.2414    -999.2500    -999.2500
   1508.9768    -999.2500      19.3715      20.1373       8.9729    -999.2500    -999.2500
   1509.1293    -999.2500      20.2544      20.1403       8.9621    -999.2500    -999.2500
   1509.2816    -999.2500      18.9654      20.1433       9.3081    -999.2500    -999.2500
   1509.4341    -999.2500      18.9061      20.1463       9.7314    -999.2500    -999.2500
   1509.5864    -999.2500      20.5386      20.1493      10.2619    -999.2500    -999.2500
   1509.7388    -999.2500      21.4653      20.1521      10.6579    -999.2500    -999.2500
   1509.8912    -999.2500      21.4208      20.1546      10.8674    -999.2500    -999.2500
   1510.0436    -999.2500      20.9441      20.1573      11.0125    -999.2500    -999.2500
   1510.1960    -999.2500      19.8727      20.1603      11.0685    -999.2500    -999.2500
   1510.3484    -999.2500      18.3992      20.1633      11.1380    -999.2500    -999.2500
   1510.5009    -999.2500      16.3723      20.1663      11.2260    -999.2500    -999.2500
   1510.6532    -999.2500      14.6858      20.1693      11.3305    -999.2500    -999.2500
   1510.8057    -999.2500      13.4684      20.1723      11.4580    -999.2500    -999.2500
   1510.9580    -999.2500      12.2707      20.1753      11.5855    -999.2500    -999.2500
   1511.1105    -999.2500      11.1002      20.1783      11.7130    -999.2500    -999.2500
   1511.2628    -999.2500      11.0187      20.1813      11.5354    -999.2500    -999.2500
   1511.4153    -999.2500      12.4377      20.1843      10.9359    -999.2500    -999.2500
   1511.5676    -999.2500      13.6817      20.1873      10.7317    -999.2500    -999.2500
   1511.7200    -999.2500      14.6847      20.1903      11.0742    -999.2500    -999.2500
