#------------------------------------------------------------------------------
#
#   Created by  : [OpenWorks] Log Export Utility (LEXP)
#   Created on  : 2016-05-12 17:01:14
#   Project     : CANT971
#   User        : R5K
#   Interpreter : PEP
#
#------------------------------------------------------------------------------
~VERSION INFORMATION
VERS. 2.0 : CWLS Log ASCII Standard - version 2.0
WRAP.  NO : One line per depth step
~WELL INFORMATION
#MNEMONIC   .UNIT                                           VALUE :DESCRIPTION
#------------------------------------------------------------------------------
STRT        .M                                          1708.0991 :START DEPTH
STOP        .M                                          2834.0303 :STOP DEPTH
STEP        .M                                             0.1524 :STEP
NULL        .                                           -999.2500 :NULL VALUE
COMP        .                                             UNKNOWN :COMPANY
WELL        .                                                3016 :WELL
FLD         .                                           CANTARELL :FIELD
LOC         .                                             UNKNOWN :LOCATION
CNTY        .                                             UNKNOWN :COUNTY
STAT        .                                            CAMPECHE :STATE
CTRY        .                                              MEXICO :COUNTRY
SRVC        .                                             UNKNOWN :SERVICE COMPANY
DATE        .                                             UNKNOWN :LOG DATE
UWI         .                                                3016 :UNIQUE WELL ID
XCOORD      .                                       192548.498000 :SURFACE X
YCOORD      .                                        92151.948000 :SURFACE Y
LAT         .                                            0.832805 :LATITUDE
LON         .                                          -95.762171 :LONGITUDE
ELEV        .M                                            46.0000 :SURFACE ELEV
ELEV_TYPE   .                                                  KB :ELEV TYPE
~CURVE INFORMATION
#MNEMONIC.UNIT        API CODE       : CURVE DESCRIPTION
#------------------------------------------------------------------------------
DEPTH    .M                          : Measured Depth
CALI     .inches      UNKNOWN        : CALI:litodensidad:rC:NONE:v0 (auto-composite)
CGR      .API         UNKNOWN        : CGR:Espectrometria:rC:NONE:v0 (auto-composite)
DRHO     .g/cm3       UNKNOWN        : DRHO:litodensidad:rC:NONE:v0 (auto-composite)
DT       .us/ft       UNKNOWN        : DT:DT-Load:rC:NONE:v0 (auto-composite)
GR       .API         UNKNOWN        : GR:PETROWORKS:rC:NONE:v1 
GR-LWD   .API         UNKNOWN        : GR-LWD:PETROWORKS:rC:NONE:v1 
ILD-LWD  .ohm.m       UNKNOWN        : ILD-LWD:PETROWORKS:rC:NONE:v1 
ILM-LWD  .ohm.m       UNKNOWN        : ILM-LWD:PETROWORKS:rC:NONE:v1 
LLD      .ohm.m       UNKNOWN        : LLD:Resistivos:rC:NONE:v0 (auto-composite)
LLS      .ohm.m       UNKNOWN        : LLS:Resistivos:rC:NONE:v0 (auto-composite)
MSFL     .ohm.m       UNKNOWN        : MSFL:Resistivos:rC:NONE:v0 (auto-composite)
NPHI     .v/v_decimal UNKNOWN        : NPHI:Porosidad:rC:NONE:v0 (auto-composite)
PEF      .UNKNOWN     UNKNOWN        : PEF:litodensidad:rC:NONE:v0 (auto-composite)
POTA     .wtpercent   UNKNOWN        : POTA:Espectrometria:rC:NONE:v0 (auto-composite)
RHOB     .g/cm3       UNKNOWN        : RHOB:litodensidad:rC:NONE:v0 (auto-composite)
SP       .mV          UNKNOWN        : SP:SP-Load:rC:NONE:v0 (auto-composite)
THOR     .ppm         UNKNOWN        : THOR:Espectrometria:rC:NONE:v0 (auto-composite)
URAN     .ppm         UNKNOWN        : URAN:Espectrometria:rC:NONE:v0 (auto-composite)
~A     DEPTH         CALI          CGR         DRHO           DT           GR       GR-LWD      ILD-LWD      ILM-LWD          LLD          LLS         MSFL         NPHI          PEF         POTA         RHOB           SP         THOR         URAN
# ...
   2583.1799       8.9612      20.4785       0.0320      58.9981      45.2514    -999.2500    -999.2500    -999.2500      41.2065      20.1600      12.7779       0.1226       3.1449       0.0089       2.6410    -102.3750       1.3626       3.2424
   2583.3323       8.9684      20.5039       0.0244      60.4549      45.3043    -999.2500    -999.2500    -999.2500      37.2880      17.9466      12.7751       0.1348       3.0615       0.0091       2.6473    -102.3750       1.2269       3.2167
   2583.4846       8.9636      21.6299       0.0174      65.1287      47.9192    -999.2500    -999.2500    -999.2500      38.4602      17.6107      12.8784       0.1579       2.8604       0.0098       2.6294    -102.2500       1.1874       3.3536
   2583.6372       8.9900      22.9188       0.0119      66.8296      49.9736    -999.2500    -999.2500    -999.2500      35.2574      17.0866      13.3063       0.1618       3.1613       0.0104       2.6117    -101.8125       1.2255       3.4442
   2583.7896       9.0762      26.9880       0.0056      67.8310      53.4703    -999.2500    -999.2500    -999.2500      36.9185      18.8168      12.0865       0.1642       3.0591       0.0122       2.5880    -101.1250       1.4875       3.4189
   2583.9419       9.0259      28.0302       0.0055      68.5316      53.6770    -999.2500    -999.2500    -999.2500      41.1260      20.4304      15.8421       0.1533       3.3127       0.0124       2.5944    -102.1875       1.6992       3.3466
   2584.0942       9.0403      25.1894       0.0053      67.1697      49.2614    -999.2500    -999.2500    -999.2500      38.0971      20.1157      15.9795       0.1477       3.0777       0.0111       2.5971    -102.6875       1.5537       3.0429
   2584.2468       9.0043      21.5815       0.0046      68.5237      41.9638    -999.2500    -999.2500    -999.2500      39.6184      20.0021      12.4879       0.1398       3.0082       0.0096       2.6066    -102.9375       1.3081       2.6237
   2584.3992       9.0187      18.5728       0.0034      69.1693      36.6072    -999.2500    -999.2500    -999.2500      34.2520      19.7394      13.5474       0.1417       2.8477       0.0087       2.6041    -102.5625       0.8750       2.2482
   2584.5515       8.9900      18.3833       0.0100      68.9720      36.0520    -999.2500    -999.2500    -999.2500      33.1160      16.6813      13.5291       0.1418       3.0643       0.0087       2.6013    -100.2500       0.8004       2.2421
   2584.7039       9.0547      18.4840       0.0070      68.8927      36.0882    -999.2500    -999.2500    -999.2500      31.9289      15.9197      31.0397       0.1403       3.2853       0.0085       2.5671    -100.0625       0.9544       2.2848
   2584.8562       9.0547      17.8180       0.0034      67.4645      36.7141    -999.2500    -999.2500    -999.2500      31.7396      15.9106      27.5771       0.1467       3.2568       0.0084       2.5471    -100.8750       0.8077       2.4151
   2585.0088       9.0187      19.8949       0.0037      66.6317      38.7604    -999.2500    -999.2500    -999.2500      32.2760      16.5922      11.1999       0.1577       3.0508       0.0085       2.5521    -100.2500       1.3948       2.4436
   2585.1611       8.9828      21.7262       0.0047      67.8219      41.7861    -999.2500    -999.2500    -999.2500      37.9667      18.9573      17.7157       0.1534       3.0747       0.0090       2.5670     -97.9375       1.7021       2.6936
   2585.3135       9.0115      23.1188       0.0067      65.9700      45.1589    -999.2500    -999.2500    -999.2500      49.4449      24.0356      26.5978       0.1319       3.0569       0.0096       2.5561     -97.3750       1.7855       2.9399
   2585.4658       9.0978      23.1861       0.0125      61.5741      47.4695    -999.2500    -999.2500    -999.2500      74.7008      35.3248      28.8452       0.1097       3.1624       0.0094       2.5342     -98.5000       1.9062       3.2367
   2585.6184       9.1769      22.5323       0.0200      58.5135      47.7944    -999.2500    -999.2500    -999.2500      86.0329      36.1610       5.2200       0.1049       3.4037       0.0089       2.4132     -97.0625       1.9791       3.3162
   2585.7708       9.1122      23.4652       0.0390      56.8663      47.9546    -999.2500    -999.2500    -999.2500      88.2151      36.0746      66.3828       0.1164       3.5569       0.0093       2.3237     -97.0625       2.0839       3.2770
   2585.9231       9.1122      23.1514       0.0750      56.8153      47.2239    -999.2500    -999.2500    -999.2500     120.9398      46.0852       1.0487       0.1453       2.6710       0.0090       2.2349     -97.0625       2.1536       3.1783
   2586.0754       9.1050      23.7216       0.1100      52.7140      50.7409    -999.2500    -999.2500    -999.2500     126.0842      49.4255       1.1084       0.1773       2.3294       0.0091       2.1793     -97.1875       2.2540       3.5543
   2586.2280       9.2056      24.8070       0.1032      53.7587      52.4991    -999.2500    -999.2500    -999.2500     132.1445      53.3712       8.8296       0.2009       2.0382       0.0092       2.1565     -97.8750       2.5468       3.5842
   2586.3804       9.2631      25.8451       0.1230      54.5856      51.9519    -999.2500    -999.2500    -999.2500     139.8451      57.2957       1.0884       0.2023       2.3097       0.0095       2.2654     -99.0625       2.7361       3.3938
   2586.5327       9.1553      25.5413       0.1308      55.4126      49.8374    -999.2500    -999.2500    -999.2500     144.6058      60.0838      39.5072       0.2150       2.6053       0.0092       2.4798     -98.2500       2.7729       3.1068
   2586.6851       9.0331      23.0377       0.1059      53.6258      47.6736    -999.2500    -999.2500    -999.2500     130.2575      55.7460       2.1932       0.1897       2.6484       0.0089       2.6304     -97.5625       2.1875       3.1429
   2586.8374       9.0475      23.7995       0.0292      55.8548      50.4849    -999.2500    -999.2500    -999.2500      90.0418      38.4358       1.5617       0.1519       2.6857       0.0093       2.6146     -97.3125       2.1839       3.3026
   2586.9900       8.9900      23.2402       0.0636      56.1453      49.6520    -999.2500    -999.2500    -999.2500      87.7025      37.6787      10.7585       0.1048       2.6558       0.0085       2.6487     -97.8750       2.4840       3.2708
   2587.1423       8.9684      22.1481       0.0324      53.2164      49.2647    -999.2500    -999.2500    -999.2500      90.2626      38.0346       2.4177       0.0982       2.8557       0.0082       2.6113     -98.3750       2.2771       3.3497
   2587.2947       9.0834      20.5089       0.0328      55.3490      46.1678    -999.2500    -999.2500    -999.2500      91.6500      35.9028     281.4357       0.1027       2.9282       0.0078       2.5982     -98.1875       1.9730       3.1554
   2587.4470       9.2272      19.3933       0.0445      55.8260      45.8868    -999.2500    -999.2500    -999.2500     127.7163      48.1557     176.7548       0.1109       2.9413       0.0074       2.6221     -97.0625       1.8891       3.2734
   2587.5996      10.6578      18.2427       0.0695      55.7321      44.4354    -999.2500    -999.2500    -999.2500     143.0988      53.6388     140.2713       0.0929       3.1835       0.0073       2.7007     -97.1250       1.5426       3.1757
   2587.7520       9.6657      17.4428       0.0278      55.0089      43.4373    -999.2500    -999.2500    -999.2500     153.3414      56.4293     173.6240       0.0988       3.2274       0.0069       2.6925     -99.1875       1.5527       3.1951
   2587.9043       9.9677      14.7160       0.0159      53.4929      39.5879    -999.2500    -999.2500    -999.2500     196.8259      73.3030      58.4784       0.0793       3.4805       0.0059       2.7076     -99.8125       1.2705       3.1329
   2588.0566       9.9964      11.9566       0.0137      55.4365      37.2008    -999.2500    -999.2500    -999.2500     234.1896      90.6027      39.8297       0.0737       3.4990       0.0052       2.7024     -99.5625       0.7818       3.0944
