#------------------------------------------------------------------------------
#
#   Created by  : [OpenWorks] Log Export Utility (LEXP)
#   Created on  : 2016-05-23 11:57:02
#   Project     : CANT971
#   User        : R5K
#   Interpreter : PEP
#
#------------------------------------------------------------------------------
~VERSION INFORMATION
VERS. 2.0 : CWLS Log ASCII Standard - version 2.0
WRAP.  NO : One line per depth step
~WELL INFORMATION
#MNEMONIC   .UNIT                                           VALUE :DESCRIPTION
#------------------------------------------------------------------------------
STRT        .M                                           493.3184 :START DEPTH
STOP        .M                                          2467.0508 :STOP DEPTH
STEP        .M                                             0.1524 :STEP
NULL        .                                           -999.2500 :NULL VALUE
COMP        .                                   PEMEX EXPL & PROD :COMPANY
WELL        .                                                  63 :WELL
FLD         .                                           CANTARELL :FIELD
LOC         .                                             UNKNOWN :LOCATION
CNTY        .                                      CD. DEL CARMEN :COUNTY
STAT        .                                            CAMPECHE :STATE
CTRY        .                                              MEXICO :COUNTRY
SRVC        .                                             UNKNOWN :SERVICE COMPANY
DATE        .                                             UNKNOWN :LOG DATE
UWI         .                                          3060000615 :UNIQUE WELL ID
XCOORD      .                                       601716.240000 :SURFACE X
YCOORD      .                                      2142344.800000 :SURFACE Y
LAT         .                                           19.373792 :LATITUDE
LON         .                                          -92.031441 :LONGITUDE
ELEV        .M                                            24.0000 :SURFACE ELEV
ELEV_TYPE   .                                                  KB :ELEV TYPE
~CURVE INFORMATION
#MNEMONIC.UNIT        API CODE       : CURVE DESCRIPTION
#------------------------------------------------------------------------------
DEPTH    .M                          : Measured Depth
CALI     .inches      UNKNOWN        : CALI:Import:rC:NONE:v0 (auto-composite)
DRHO     .g/cm3       UNKNOWN        : DRHO:Import:rC:NONE:v0 (auto-composite)
DT       .us/ft       UNKNOWN        : DT:Import:rC:NONE:v0 (auto-composite)
GR       .API         UNKNOWN        : GR:Import:rC:NONE:v0 (auto-composite)
ILD      .ohm.m       UNKNOWN        : ILD:Import:rC:NONE:v0 (auto-composite)
ILM      .ohm.m       UNKNOWN        : ILM:Import:rC:NONE:v0 (auto-composite)
LLD      .ohm.m       UNKNOWN        : LLD:Import:rC:NONE:v0 (auto-composite)
LLS      .ohm.m       UNKNOWN        : LLS:Import:rC:NONE:v0 (auto-composite)
MSFL     .ohm.m       UNKNOWN        : MSFL:Import:rC:NONE:v0 (auto-composite)
NPHI     .v/v_decimal UNKNOWN        : NPHI:Import:rC:NONE:v0 (auto-composite)
PEF      .b/elec      UNKNOWN        : PEF:Import:rC:NONE:v0 (auto-composite)
RHOB     .g/cm3       UNKNOWN        : RHOB:Import:rC:NONE:v0 (auto-composite)
~A     DEPTH         CALI         DRHO           DT           GR          ILD          ILM          LLD          LLS         MSFL         NPHI          PEF         RHOB
# ...
   2080.7168       6.2005       0.1100      56.5810      16.9116    -999.2500    -999.2500     342.6378      94.9965     262.7848       0.0547       3.4845       2.7815
   2080.8691       6.2240       0.1050      56.5620      17.1620    -999.2500    -999.2500     364.8160      94.9780      80.0230       0.0589       3.4930       2.7660
   2081.0215       6.2800       0.0905      55.8811      18.5017    -999.2500    -999.2500     373.3798      94.3246      48.2330       0.0641       3.5265       2.7385
   2081.1741       6.3360       0.0760      55.2000      19.8440    -999.2500    -999.2500     381.9460      93.6700      16.3830       0.0688       3.5600       2.7110
   2081.3264       6.3360       0.0790      55.2250      21.3305    -999.2500    -999.2500     372.0215      88.7365      15.2152       0.0707       3.7025       2.7130
   2081.4788       6.3360       0.0820      55.2500      22.8200    -999.2500    -999.2500     362.0930      83.8010      14.0470       0.0723       3.8450       2.7150
   2081.6311       6.3360       0.0910      54.7001      21.4625    -999.2500    -999.2500     370.0904      92.8756      54.4308       0.0758       3.8745       2.7255
   2081.7834       6.3360       0.1000      54.1500      20.1020    -999.2500    -999.2500     378.0920     101.9550      94.8360       0.0808       3.9040       2.7360
   2081.9360       6.3360       0.0870      55.6400      21.9709    -999.2500    -999.2500     428.0141     101.6206      83.3403       0.0917       3.6646       2.7180
   2082.0884       6.3360       0.0740      57.1310      23.8440    -999.2500    -999.2500     477.9690     101.2860      71.8370       0.1012       3.4250       2.7000
   2082.2407       6.3360       0.0765      57.3654      23.4050    -999.2500    -999.2500     472.0923      99.6991      49.5797       0.0974       3.3410       2.7250
   2082.3931       6.3360       0.0790      57.6000      22.9650    -999.2500    -999.2500     466.2110      98.1110      27.3050       0.0920       3.2570       2.7500
   2082.5457       6.3360       0.0790      57.5985      20.7468    -999.2500    -999.2500     467.9002      98.3549      27.3175       0.0919       3.2385       2.7490
   2082.6980       6.3360       0.0790      57.5970      18.5230    -999.2500    -999.2500     469.5910      98.5990      27.3300       0.0926       3.2200       2.7480
   2082.8503       6.3360       0.0780      57.5285      18.5585    -999.2500    -999.2500     497.3127     102.4855      27.9317       0.0926       3.2130       2.7335
   2083.0027       6.3360       0.0770      57.4600      18.5940    -999.2500    -999.2500     525.0630     106.3760      28.5340       0.0921       3.2060       2.7190
   2083.1553       6.3360       0.0740      56.7548      19.1477    -999.2500    -999.2500     564.1389     110.9798      37.0436       0.0897       3.1300       2.7150
   2083.3076       6.3360       0.0710      56.0500      19.7030    -999.2500    -999.2500     603.2600     115.5890      45.5630       0.0861       3.0540       2.7110
   2083.4600       6.3360       0.0595      55.6194      20.2572    -999.2500    -999.2500     585.4500     113.1356      39.1526       0.0774       3.1389       2.7145
   2083.6123       6.3360       0.0480      55.1890      20.8130    -999.2500    -999.2500     567.6170     110.6790      32.7340       0.0680       3.2240       2.7180
   2083.7646       6.3640       0.0555      53.7734      20.4585    -999.2500    -999.2500     528.2798     102.7366      44.4367       0.0595       3.2895       2.7070
   2083.9172       6.3920       0.0630      52.3580      20.1030    -999.2500    -999.2500     488.8870      94.7830      56.1560       0.0524       3.3550       2.6960
   2084.0696       6.5279       0.0760      52.1460      19.8529    -999.2500    -999.2500     497.1656      92.6786      45.1195       0.0519       3.4509       2.6925
   2084.2219       6.6640       0.0890      51.9340      19.6020    -999.2500    -999.2500     505.4570      90.5710      34.0660       0.0524       3.5470       2.6890
   2084.3743       6.6455       0.0980      51.7340      19.1807    -999.2500    -999.2500     492.9439      88.6126      28.2134       0.0513       3.4990       2.7280
   2084.5269       6.6270       0.1070      51.5340      18.7580    -999.2500    -999.2500     480.4100      86.6510      22.3510       0.0499       3.4510       2.7670
   2084.6792       6.5635       0.0845      50.7671      19.5886    -999.2500    -999.2500     470.9759      87.1061      20.7140       0.0487       3.4805       2.7615
   2084.8315       6.5000       0.0620      50.0000      20.4220    -999.2500    -999.2500     461.5400      87.5620      19.0740       0.0481       3.5100       2.7560
   2084.9839       6.5000       0.0490      50.2250      18.8650    -999.2500    -999.2500     494.0894      91.6346      25.8940       0.0508       3.6875       2.7395
   2085.1365       6.5000       0.0360      50.4500      17.3050    -999.2500    -999.2500     526.6490      95.7150      32.7270       0.0537       3.8650       2.7230
   2085.2888       6.4985       0.0380      50.4055      17.4429    -999.2500    -999.2500     501.1996      92.4997      32.4516       0.0542       3.6460       2.7235
   2085.4412       6.4970       0.0400      50.3610      17.5810    -999.2500    -999.2500     475.7390      89.2830      32.1760       0.0544       3.4270       2.7240
   2085.5935       6.4780       0.0445      49.8806      19.0739    -999.2500    -999.2500     426.8268      80.7434      29.4738       0.0552       3.4190       2.7280
   2085.7458       6.4590       0.0490      49.4000      20.5700    -999.2500    -999.2500     377.8870      72.1990      26.7700       0.0555       3.4110       2.7320
   2085.8984       6.4815       0.0475      48.7002      22.7120    -999.2500    -999.2500     395.2470      73.4511      22.3300       0.0527       3.4360       2.7515
   2086.0508       6.5040       0.0460      48.0000      24.8590    -999.2500    -999.2500     412.6190      74.7040      17.8870       0.0494       3.4610       2.7710
   2086.2031       6.4200       0.0490      48.4728      24.8255    -999.2500    -999.2500     480.5319      87.4028      18.7477       0.0465       3.4980       2.7820
   2086.3555       6.3360       0.0520      48.9460      24.7920    -999.2500    -999.2500     548.5000     100.1120      19.6090       0.0435       3.5350       2.7930
   2086.5081       6.3360       0.0680      49.2773      24.3556    -999.2500    -999.2500     573.2159     109.1248      19.0058       0.0401       3.5490       2.8070
   2086.6604       6.3360       0.0840      49.6090      23.9180    -999.2500    -999.2500     597.9550     118.1460      18.4020       0.0372       3.5630       2.8210
   2086.8127       6.3300       0.1070      50.9809      23.5720    -999.2500    -999.2500     567.2214     112.2436      16.3956       0.0374       3.7169       2.8175
   2086.9651       6.3240       0.1300      52.3520      23.2250    -999.2500    -999.2500     536.4550     106.3350      14.3870       0.0409       3.8710       2.8140
   2087.1177       6.3885       0.1655      56.2018      22.4800    -999.2500    -999.2500     433.8951      88.0839      23.1298       0.0616       3.8275       2.7910
   2087.2700       6.4530       0.2010      60.0500      21.7330    -999.2500    -999.2500     331.2130      69.8110      31.8830       0.0821       3.7840       2.7680
   2087.4224       6.4515       0.1960      59.9645      20.9486    -999.2500    -999.2500     337.0971      71.0097      27.4289       0.0847       3.8515       2.7770
   2087.5747       6.4500       0.1910      59.8790      20.1620    -999.2500    -999.2500     342.9890      72.2100      22.9690       0.0840       3.9190       2.7860
   2087.7271       6.4385       0.1540      59.2259      20.0342    -999.2500    -999.2500     393.7524      82.4926      30.7174       0.0816       3.8720       2.7760
   2087.8796       6.4270       0.1170      58.5730      19.9060    -999.2500    -999.2500     444.5890      92.7900      38.4770       0.0779       3.8250       2.7660
