#------------------------------------------------------------------------------
#
#   Created by  : [OpenWorks] Log Export Utility (LEXP)
#   Created on  : 2016-05-23 11:57:27
#   Project     : CANT971
#   User        : R5K
#   Interpreter : PEP
#
#------------------------------------------------------------------------------
~VERSION INFORMATION
VERS. 2.0 : CWLS Log ASCII Standard - version 2.0
WRAP.  NO : One line per depth step
~WELL INFORMATION
#MNEMONIC   .UNIT                                           VALUE :DESCRIPTION
#------------------------------------------------------------------------------
STRT        .M                                           813.0000 :START DEPTH
STOP        .M                                          2589.2219 :STOP DEPTH
STEP        .M                                             0.1524 :STEP
NULL        .                                           -999.2500 :NULL VALUE
COMP        .                                   PEMEX EXPL & PROD :COMPANY
WELL        .                                                  84 :WELL
FLD         .                                           CANTARELL :FIELD
LOC         .                                             UNKNOWN :LOCATION
CNTY        .                                      CD. DEL CARMEN :COUNTY
STAT        .                                            CAMPECHE :STATE
CTRY        .                                              MEXICO :COUNTRY
SRVC        .                                             UNKNOWN :SERVICE COMPANY
DATE        .                                             UNKNOWN :LOG DATE
UWI         .                                          3060000616 :UNIQUE WELL ID
XCOORD      .                                       601709.550000 :SURFACE X
YCOORD      .                                      2142344.590000 :SURFACE Y
LAT         .                                           19.373791 :LATITUDE
LON         .                                          -92.031505 :LONGITUDE
ELEV        .M                                            24.0000 :SURFACE ELEV
ELEV_TYPE   .                                                  KB :ELEV TYPE
~CURVE INFORMATION
#MNEMONIC.UNIT        API CODE       : CURVE DESCRIPTION
#------------------------------------------------------------------------------
DEPTH    .M                          : Measured Depth
CALI     .in          UNKNOWN        : CALI:UNKNOWN:rC:NONE:v0 (auto-composite)
DRHO     .g/cm3       UNKNOWN        : DRHO:UNKNOWN:rC:NONE:v0 (auto-composite)
DT       .us/ft       UNKNOWN        : DT:DT:rC:NONE:v0 (auto-composite)
ILD      .ohmm        UNKNOWN        : ILD:UNKNOWN:rC:NONE:v0 (auto-composite)
ILM      .ohmm        UNKNOWN        : ILM:UNKNOWN:rC:NONE:v0 (auto-composite)
LLD      .ohmm        UNKNOWN        : LLD:UNKNOWN:rC:NONE:v0 (auto-composite)
LLS      .ohmm        UNKNOWN        : LLS:UNKNOWN:rC:NONE:v0 (auto-composite)
MSFL     .ohmm        UNKNOWN        : MSFL:UNKNOWN:rC:NONE:v0 (auto-composite)
NPHI     .v/v_decimal UNKNOWN        : NPHI:NPHI:rC:NONE:v0 (auto-composite)
PEF      .b/elec      UNKNOWN        : PEF:UNKNOWN:rC:NONE:v0 (auto-composite)
RG       .UNKNOWN     UNKNOWN        : RG:UNKNOWN:rC:NONE:v0 (auto-composite)
RHOB     .g/cm3       UNKNOWN        : RHOB:UNKNOWN:rC:NONE:v0 (auto-composite)
~A     DEPTH         CALI         DRHO           DT          ILD          ILM          LLD          LLS         MSFL         NPHI          PEF           RG         RHOB
# ...
   2232.1487       9.3441       0.0070      57.9795       0.0000       0.0000      49.8831      31.9372       1.3540      10.2373       3.3563      23.5445       2.7124
   2232.3013       9.3065       0.0090      57.9480       0.0000       0.0000      49.4228      32.2651       1.6438       9.7605       3.3091      28.3152       2.6974
   2232.4536       9.2842       0.0105      58.8552       0.0000       0.0000      55.1591      35.8698       1.5904       9.1335       3.2671      30.1493       2.6854
   2232.6060       9.2766       0.0115      60.2671       0.0000       0.0000      66.8645      42.6310       1.2063       8.4253       3.2300      29.1546       2.6764
   2232.7583       9.3109       0.0148      61.8138       0.0000       0.0000      70.0040      45.7308       1.2369       7.9433       3.2817      28.4097       2.6764
   2232.9109       9.3847       0.0204      63.4334       0.0000       0.0000      65.0728      45.3808       1.6580       7.5835       3.4171      27.9003       2.6849
   2233.0632       9.4526       0.0267      62.8725       0.0000       0.0000      57.7750      42.0442       1.7812       6.9574       3.4744      28.0271       2.6840
   2233.2156       9.5153       0.0337      61.1383       0.0000       0.0000      48.2962      35.9553       1.6298       6.1871       3.4599      28.7400       2.6745
   2233.3679       9.5513       0.0354      60.0457       0.0000       0.0000      40.3147      30.2677       1.5527       5.9845       3.4533      28.7199       2.6668
   2233.5205       9.5633       0.0324      59.2970       0.0000       0.0000      33.6826      24.9417       1.5427       6.0885       3.4538      28.0391       2.6608
   2233.6729       9.5544       0.0228      58.4952       0.0000       0.0000      32.1570      23.5207       1.5396       6.4075       3.4824      28.8896       2.6623
   2233.8252       9.5268       0.0072      57.6649       0.0000       0.0000      35.1614      25.5639       1.5426       6.8432       3.5361      31.0988       2.6703
   2233.9775       9.4863      -0.0024      57.4693       0.0000       0.0000      42.0194      30.8341       1.5362       7.5252       3.5940      33.1487       2.6837
   2234.1299       9.4347      -0.0069      57.6143       0.0000       0.0000      52.2206      38.9040       1.5217       8.3403       3.6557      35.0605       2.7017
   2234.2825       9.4134       0.0035      57.9930       0.0000       0.0000      71.2016      48.8542       1.4928       8.7995       3.7510      34.8866       2.7225
   2234.4348       9.4180       0.0265      58.4977       0.0000       0.0000      97.6313      60.3997       1.4516       9.0656       3.8748      32.9432       2.7455
   2234.5872       9.4200       0.0395      59.9842       0.0000       0.0000     100.4981      64.1952       1.5363       9.3832       3.9324      33.7747       2.7596
   2234.7395       9.4200       0.0440      61.9978       0.0000       0.0000      83.8154      61.5609       1.7253       9.7285       3.9349      36.9084       2.7661
   2234.8921       9.4197       0.0463      63.3683       0.0000       0.0000      68.9840      55.7235       1.6147      10.2339       3.9047      37.5428       2.7552
   2235.0444       9.4192       0.0468      64.3922       0.0000       0.0000      55.6548      47.2874       1.2610      10.8261       3.8481      36.1496       2.7301
   2235.1968       9.4151       0.0434      63.5750       0.0000       0.0000      47.2984      41.2225       1.1216      11.1333       3.8461      35.0083       2.7143
   2235.3491       9.4081       0.0369      61.7687       0.0000       0.0000      42.9128      37.0509       1.1532      11.2864       3.8878      34.0682       2.7057
   2235.5017       9.4180       0.0298      60.7288       0.0000       0.0000      45.2225      38.4142       1.2819      10.9646       3.8911      34.5976       2.7104
   2235.6541       9.4410       0.0223      60.1021       0.0000       0.0000      52.7594      44.0984       1.4864      10.3869       3.8645      36.2742       2.7255
   2235.8064       9.4160       0.0150      58.8343       0.0000       0.0000      56.2614      41.7199       1.4743       9.3363       3.7774      38.5016       2.7323
   2235.9587       9.3544       0.0080      57.2220       0.0000       0.0000      56.6836      33.1873       1.2968       8.0298       3.6440      41.1495       2.7328
   2236.1111       9.3355       0.0050      55.0020       0.0000       0.0000      46.1285      26.4193       1.4005       8.1255       3.6912      45.3676       2.6934
   2236.2637       9.3485       0.0050      52.4540       0.0000       0.0000      27.3821      20.9682       1.7138       8.9776       3.8732      50.7576       2.6242
   2236.4160       9.3670       0.0082      52.5918       0.0000       0.0000      18.6630      18.8206       1.9596       9.3610       4.1283      51.4455       2.5863
   2236.5684       9.3896       0.0137      54.1739       0.0000       0.0000      17.2586      19.0828       2.1562       9.4906       4.4366      48.7034       2.5713
   2236.7207       9.4043       0.0166      56.4827       0.0000       0.0000      36.0642      24.6600       1.8645       9.2267       4.6554      45.6704       2.5808
   2236.8733       9.4133       0.0176      59.1810       0.0000       0.0000      69.2807      34.0270       1.2248       8.7504       4.8102      42.4300       2.6078
   2237.0256       9.3849       0.0148      59.4756       0.0000       0.0000      79.5885      42.7463       1.2619       7.6721       4.8949      39.4179       2.6237
   2237.1780       9.3302       0.0092      58.4767       0.0000       0.0000      73.8246      51.0112       1.7738       6.2676       4.9305      36.5660       2.6317
   2237.3303       9.2958       0.0103      56.1140       0.0000       0.0000      74.0737      59.4040       2.1557       5.8665       4.9736      37.2002       2.6317
   2237.4829       9.2752       0.0158      53.0198       0.0000       0.0000      78.4458      67.8845       2.4485       6.0075       5.0217      40.2246       2.6262
   2237.6353       9.2730       0.0267      54.1776       0.0000       0.0000      74.3300      67.2673       2.0865       6.5750       5.0344      42.5918       2.6321
   2237.7876       9.2830       0.0412      57.6243       0.0000       0.0000      64.5268      60.5542       1.2858       7.3738       5.0234      44.5186       2.6456
   2237.9399       9.3109       0.0512      60.1443       0.0000       0.0000      55.1760      50.9289       1.2347       6.9246       4.9614      48.4531       2.6583
   2238.0923       9.3505       0.0583      62.1669       0.0000       0.0000      46.1215      39.3969       1.6745       5.8011       4.8662      53.7022       2.6703
   2238.2449       9.3794       0.0583      61.0464       0.0000       0.0000      37.0930      30.6092       1.7595       4.7931       4.8559      57.3541       2.6719
   2238.3972       9.4015       0.0537      58.2329       0.0000       0.0000      28.0812      23.5768       1.6178       3.8478       4.9000      59.9843       2.6669
   2238.5496       9.4008       0.0462      57.6360       0.0000       0.0000      25.0876      21.2765       1.4504       3.3739       4.8995      57.7974       2.6484
   2238.7019       9.3857       0.0366      58.2292       0.0000       0.0000      25.8803      21.9534       1.2669       3.1550       4.8709      52.5800       2.6213
   2238.8545       9.3601       0.0324      58.3356       0.0000       0.0000      38.0254      30.9216       1.6460       3.2589       4.9379      54.8347       2.6101
   2239.0068       9.3280       0.0314      58.1795       0.0000       0.0000      57.1474      44.9856       2.3711       3.5380       5.0638      61.6817       2.6086
   2239.1592       9.3085       0.0269      59.3442       0.0000       0.0000      60.5777      45.6445       2.3886       3.8288       5.2454      65.6405       2.6067
   2239.3115       9.2964       0.0204      61.2184       0.0000       0.0000      54.5891      38.2571       1.9815       4.1259       5.4605      67.8657       2.6047
