#------------------------------------------------------------------------------
#
#   Created by  : [OpenWorks] Log Export Utility (LEXP)
#   Created on  : 2016-05-23 11:57:09
#   Project     : CANT971
#   User        : R5K
#   Interpreter : PEP
#
#------------------------------------------------------------------------------
~VERSION INFORMATION
VERS. 2.0 : CWLS Log ASCII Standard - version 2.0
WRAP.  NO : One line per depth step
~WELL INFORMATION
#MNEMONIC   .UNIT                                           VALUE :DESCRIPTION
#------------------------------------------------------------------------------
STRT        .M                                           143.0270 :START DEPTH
STOP        .M                                          2096.0330 :STOP DEPTH
STEP        .M                                             0.1524 :STEP
NULL        .                                           -999.2500 :NULL VALUE
COMP        .                                   PEMEX EXPL & PROD :COMPANY
WELL        .                                                   7 :WELL
FLD         .                                           CANTARELL :FIELD
LOC         .                                             UNKNOWN :LOCATION
CNTY        .                                      CD. DEL CARMEN :COUNTY
STAT        .                                            CAMPECHE :STATE
CTRY        .                                              MEXICO :COUNTRY
SRVC        .                                             UNKNOWN :SERVICE COMPANY
DATE        .                                             UNKNOWN :LOG DATE
UWI         .                                            W-C-0007 :UNIQUE WELL ID
XCOORD      .                                       603360.340000 :SURFACE X
YCOORD      .                                      2145093.880000 :SURFACE Y
LAT         .                                           19.398550 :LATITUDE
LON         .                                          -92.015638 :LONGITUDE
ELEV        .M                                            27.1400 :SURFACE ELEV
ELEV_TYPE   .                                                  KB :ELEV TYPE
~CURVE INFORMATION
#MNEMONIC.UNIT        API CODE       : CURVE DESCRIPTION
#------------------------------------------------------------------------------
DEPTH    .M                          : Measured Depth
CAL      .inches      UNKNOWN        : CAL:UNKNOWN:rC:NONE:v0 (auto-composite)
DRHO     .g/cm3       UNKNOWN        : DRHO:UNKNOWN:rC:NONE:v0 (auto-composite)
DT       .us/ft       UNKNOWN        : DT:UNKNOWN:rC:NONE:v0 (auto-composite)
GR       .api         UNKNOWN        : GR:UNKNOWN:rC:NONE:v0 (auto-composite)
ILD      .ohmm        UNKNOWN        : ILD:UNKNOWN:rC:NONE:v0 (auto-composite)
NPHI     .v/v_decimal UNKNOWN        : NPHI:UNKNOWN:rC:NONE:v0 (auto-composite)
RHOB     .g/cm3       UNKNOWN        : RHOB:UNKNOWN:rC:NONE:v0 (auto-composite)
~A     DEPTH          CAL         DRHO           DT           GR          ILD         NPHI         RHOB
# ...
    659.3582       0.0000       0.2500      40.0000       0.0000       1.2185      -0.1500       1.9500
    659.5106       0.0000       0.2500      40.0000       0.0000       1.2166      -0.1500       1.9500
    659.6630       0.0000       0.2500      40.0000       0.0000       1.2170      -0.1500       1.9500
    659.8154       0.0000       0.2500      40.0000       0.0000       1.2185      -0.1500       1.9500
    659.9678       0.0000       0.2500      40.0000       0.0000       1.2175      -0.1500       1.9500
    660.1202       0.0000       0.2500      40.0000       0.0000       1.2150      -0.1500       1.9500
    660.2726       0.0000       0.2500      40.0000       0.0000       1.2132      -0.1500       1.9500
    660.4250       0.0000       0.2500      40.0000       0.0000       1.2117      -0.1500       1.9500
    660.5774       0.0000       0.2500      40.0000       0.0000       1.2105      -0.1500       1.9500
    660.7298       0.0000       0.2500      40.0000       0.0000       1.2095      -0.1500       1.9500
    660.8822       0.0000       0.2500      40.0000       0.0000       1.2083      -0.1500       1.9500
    661.0346       0.0000       0.2500      40.0000       0.0000       1.2069      -0.1500       1.9500
    661.1870       0.0000       0.2500      40.0000       0.0000       1.2062      -0.1500       1.9500
    661.3394       0.0000       0.2500      40.0000       0.0000       1.2067      -0.1500       1.9500
    661.4918       0.0000       0.2500      40.0000       0.0000       1.2076      -0.1500       1.9500
    661.6442       0.0000       0.2500      40.0000       0.0000       1.2096      -0.1500       1.9500
    661.7966       0.0000       0.2500      40.0000       0.0000       1.2115      -0.1500       1.9500
    661.9490       0.0000       0.2500      40.0000       0.0000       1.2135      -0.1500       1.9500
    662.1014       0.0000       0.2500      40.0000       0.0000       1.2142      -0.1500       1.9500
    662.2538       0.0000       0.2500      40.0000       0.0000       1.2103      -0.1500       1.9500
    662.4062       0.0000       0.2500      40.0000       0.0000       1.2043      -0.1500       1.9500
    662.5586       0.0000       0.2500      40.0000       0.0000       1.1863      -0.1500       1.9500
    662.7110       0.0000       0.2500      40.0000       0.0000       1.1696      -0.1500       1.9500
    662.8634       0.0000       0.2500      40.0000       0.0000       1.1652      -0.1500       1.9500
    663.0158       0.0000       0.2500      40.0000       0.0000       1.1612      -0.1500       1.9500
    663.1682       0.0000       0.2500      40.0000       0.0000       1.1665      -0.1500       1.9500
    663.3206       0.0000       0.2500      40.0000       0.0000       1.1718      -0.1500       1.9500
    663.4730       0.0000       0.2500      40.0000       0.0000       1.1833      -0.1500       1.9500
    663.6254       0.0000       0.2500      40.0000       0.0000       1.1950      -0.1500       1.9500
    663.7778       0.0000       0.2500      40.0000       0.0000       1.2172      -0.1500       1.9500
    663.9302       0.0000       0.2500      40.0000       0.0000       1.2405      -0.1500       1.9500
    664.0826       0.0000       0.2500      40.0000       0.0000       1.2786      -0.1500       1.9500
    664.2350       0.0000       0.2500      40.0000       0.0000       1.3194      -0.1500       1.9500
    664.3874       0.0000       0.2500      40.0000       0.0000       1.3652      -0.1500       1.9500
    664.5398       0.0000       0.2500      40.0000       0.0000       1.4123      -0.1500       1.9500
    664.6922       0.0000       0.2500      40.0000       0.0000       1.4554      -0.1500       1.9500
    664.8446       0.0000       0.2500      40.0000       0.0000       1.4972      -0.1500       1.9500
    664.9970       0.0000       0.2500      40.0000       0.0000       1.5418      -0.1500       1.9500
    665.1494       0.0000       0.2500      40.0000       0.0000       1.5880      -0.1500       1.9500
    665.3018       0.0000       0.2500      40.0000       0.0000       1.6409      -0.1500       1.9500
    665.4542       0.0000       0.2500      40.0000       0.0000       1.6981      -0.1500       1.9500
    665.6066       0.0000       0.2500      40.0000       0.0000       1.7559      -0.1500       1.9500
    665.7590       0.0000       0.2500      40.0000       0.0000       1.8142      -0.1500       1.9500
    665.9114       0.0000       0.2500      40.0000       0.0000       1.8438      -0.1500       1.9500
    666.0638       0.0000       0.2500      40.0000       0.0000       1.8433      -0.1500       1.9500
    666.2162       0.0000       0.2500      40.0000       0.0000       1.8328      -0.1500       1.9500
    666.3686       0.0000       0.2500      40.0000       0.0000       1.8091      -0.1500       1.9500
    666.5210       0.0000       0.2500      40.0000       0.0000       1.7851      -0.1500       1.9500
    666.6734       0.0000       0.2500      40.0000       0.0000       1.7608      -0.1500       1.9500
    666.8258       0.0000       0.2500      40.0000       0.0000       1.7322      -0.1500       1.9500
    666.9782       0.0000       0.2500      40.0000       0.0000       1.6939      -0.1500       1.9500
    667.1306       0.0000       0.2500      40.0000       0.0000       1.6584      -0.1500       1.9500
    667.2830       0.0000       0.2500      40.0000       0.0000       1.6317      -0.1500       1.9500
    667.4354       0.0000       0.2500      40.0000       0.0000       1.6060      -0.1500       1.9500
    667.5878       0.0000       0.2500      40.0000       0.0000       1.5847      -0.1500       1.9500
    667.7402       0.0000       0.2500      40.0000       0.0000       1.5649      -0.1500       1.9500
    667.8926       0.0000       0.2500      40.0000       0.0000       1.5562      -0.1500       1.9500
    668.0450       0.0000       0.2500      40.0000       0.0000       1.5478      -0.1500       1.9500
    668.1974       0.0000       0.2500      40.0000       0.0000       1.5449      -0.1500       1.9500
    668.3498       0.0000       0.2500      40.0000       0.0000       1.5420      -0.1500       1.9500
    668.5022       0.0000       0.2500      40.0000       0.0000       1.5327      -0.1500       1.9500
    668.6546       0.0000       0.2500      40.0000       0.0000       1.5235      -0.1500       1.9500
    668.8070       0.0000       0.2500      40.0000       0.0000       1.5193      -0.1500       1.9500
    668.9594       0.0000       0.2500      40.0000       0.0000       1.5154      -0.1500       1.9500
    669.1118       0.0000       0.2500      40.0000       0.0000       1.5274      -0.1500       1.9500
    669.2642       0.0000       0.2500      40.0000       0.0000       1.5415      -0.1500       1.9500
    669.4166       0.0000       0.2500      40.0000       0.0000       1.5564      -0.1500       1.9500
    669.5690       0.0000       0.2500      40.0000       0.0000       1.5714      -0.1500       1.9500
    669.7214       0.0000       0.2500      40.0000       0.0000       1.5846      -0.1500       1.9500
    669.8738       0.0000       0.2500      40.0000       0.0000       1.5973      -0.1500       1.9500
    670.0262       0.0000       0.2500      40.0000       0.0000       1.6075      -0.1500       1.9500
    670.1786       0.0000       0.2500      40.0000       0.0000       1.6167      -0.1500       1.9500
    670.3310       0.0000       0.2500      40.0000       0.0000       1.6184      -0.1500       1.9500
    670.4834       0.0000       0.2500      40.0000       0.0000       1.6160      -0.1500       1.9500
    670.6358       0.0000       0.2500      40.0000       0.0000       1.6105      -0.1500       1.9500
    670.7882       0.0000       0.2500      40.0000       0.0000       1.6027      -0.1500       1.9500
    670.9406       0.0000       0.2500      40.0000       0.0000       1.5927      -0.1500       1.9500
