#------------------------------------------------------------------------------
#
#   Created by  : [OpenWorks] Log Export Utility (LEXP)
#   Created on  : 2016-05-23 11:50:15
#   Project     : CANT971
#   User        : R5K
#   Interpreter : PEP
#
#------------------------------------------------------------------------------
~VERSION INFORMATION
VERS. 2.0 : CWLS Log ASCII Standard - version 2.0
WRAP.  NO : One line per depth step
~WELL INFORMATION
#MNEMONIC   .UNIT                                           VALUE :DESCRIPTION
#------------------------------------------------------------------------------
STRT        .M                                          2144.1199 :START DEPTH
STOP        .M                                          3100.2776 :STOP DEPTH
STEP        .M                                             0.1524 :STEP
NULL        .                                           -999.2500 :NULL VALUE
COMP        .                                   PEMEX EXPL & PROD :COMPANY
WELL        .                                               1004D :WELL
FLD         .                                           CANTARELL :FIELD
LOC         .                                             UNKNOWN :LOCATION
CNTY        .                                      CD. DEL CARMEN :COUNTY
STAT        .                                            CAMPECHE :STATE
CTRY        .                                              MEXICO :COUNTRY
SRVC        .                                             UNKNOWN :SERVICE COMPANY
DATE        .                                             UNKNOWN :LOG DATE
UWI         .                                               1004D :UNIQUE WELL ID
XCOORD      .                                       594534.600000 :SURFACE X
YCOORD      .                                      2142053.350000 :SURFACE Y
LAT         .                                           19.371510 :LATITUDE
LON         .                                          -92.099834 :LONGITUDE
ELEV        .M                                            30.0000 :SURFACE ELEV
ELEV_TYPE   .                                                  KB :ELEV TYPE
~CURVE INFORMATION
#MNEMONIC.UNIT        API CODE       : CURVE DESCRIPTION
#------------------------------------------------------------------------------
DEPTH    .M                          : Measured Depth
CALI     .in          UNKNOWN        : CALI:litodensidad:rC:NONE:v0 (auto-composite)
DRHO     .g/cm3       UNKNOWN        : DRHO:litodensidad:rC:NONE:v0 (auto-composite)
DT       .us/ft       UNKNOWN        : DT:DT-Load:rC:NONE:v0 (auto-composite)
GR       .API         UNKNOWN        : GR:TMDL:rC:NONE:v0 (auto-composite)
GR-LWD   .API         UNKNOWN        : GR-LWD:PETROWORKS:rC:NONE:v1 
ILD-LWD  .ohm.m       UNKNOWN        : ILD-LWD:resistivos-LWD:rC:NONE:v0 (auto-composite)
ILM-LWD  .ohm.m       UNKNOWN        : ILM-LWD:resistivos-LWD:rC:NONE:v0 (auto-composite)
LLD-LWD  .ohm.m       UNKNOWN        : LLD-LWD:resistivos-LWD:rC:NONE:v0 (auto-composite)
LLS      .ohm.m       UNKNOWN        : LLS:resistivos:rC:NONE:v0 (auto-composite)
LLS-LWD  .ohm.m       UNKNOWN        : LLS-LWD:resistivos-LWD:rC:NONE:v0 (auto-composite)
MSFL     .ohm.m       UNKNOWN        : MSFL:resistivos:rC:NONE:v0 (auto-composite)
MSFL-LWD .ohm.m       UNKNOWN        : MSFL-LWD:resistivos-LWD:rC:NONE:v0 (auto-composite)
NPHI     .v/v_decimal UNKNOWN        : NPHI:PETROWORKS:rC:NONE:v2 
PEF      .b/elec      UNKNOWN        : PEF:litodensidad:rC:NONE:v0 (auto-composite)
RHOB     .g/cm3       UNKNOWN        : RHOB:litodensidad:rC:NONE:v0 (auto-composite)
~A     DEPTH         CALI         DRHO           DT           GR       GR-LWD      ILD-LWD      ILM-LWD      LLD-LWD          LLS      LLS-LWD         MSFL     MSFL-LWD         NPHI          PEF         RHOB
# ...
   3041.6035       8.7519       0.0312      48.9813      35.5890    -999.2500    -999.2500    -999.2500    -999.2500  100000.0000    -999.2500     528.1408    -999.2500       0.0250       3.3702       2.7752
   3041.7559       8.7333       0.0254      51.2268      39.2393    -999.2500    -999.2500    -999.2500    -999.2500   94590.3125    -999.2500     525.3649    -999.2500       0.0288       3.2884       2.7621
   3041.9082       8.7201       0.0166      49.6938      40.7590    -999.2500    -999.2500    -999.2500    -999.2500   46162.9688    -999.2500     544.7018    -999.2500       0.0322       3.2107       2.7351
   3042.0608       8.7462       0.0261      51.0071      39.5223    -999.2500    -999.2500    -999.2500    -999.2500   38245.3359    -999.2500    1981.9817    -999.2500       0.0401       3.2169       2.6902
   3042.2131       8.7519       0.0636      51.8418      38.0611    -999.2500    -999.2500    -999.2500    -999.2500   57466.0977    -999.2500     305.4430    -999.2500       0.0478       3.2810       2.6835
   3042.3655       8.7146       0.0905      53.3517      39.6836    -999.2500    -999.2500    -999.2500    -999.2500   58394.6680    -999.2500     295.4627    -999.2500       0.0517       3.3227       2.7081
   3042.5178       8.7630       0.0762      50.8008      42.3865    -999.2500    -999.2500    -999.2500    -999.2500   35790.5039    -999.2500     271.2371    -999.2500       0.0416       3.2881       2.7457
   3042.6702       8.7184       0.0403      52.6044      39.3185    -999.2500    -999.2500    -999.2500    -999.2500   24179.0859    -999.2500     601.8953    -999.2500       0.0342       3.2415       2.7640
   3042.8228       8.6416       0.0126      51.2848      35.0081    -999.2500    -999.2500    -999.2500    -999.2500   15196.8994    -999.2500     278.1502    -999.2500       0.0282       3.1955       2.7608
   3042.9751       8.6563       0.0054      53.4580      35.0293    -999.2500    -999.2500    -999.2500    -999.2500   24375.2441    -999.2500     317.6602    -999.2500       0.0293       3.1682       2.7466
   3043.1274       8.6807       0.0160      53.7518      38.1245    -999.2500    -999.2500    -999.2500    -999.2500   42848.7578    -999.2500     679.5652    -999.2500       0.0292       3.0916       2.7316
   3043.2798       8.6658       0.0287      54.4145      38.7258    -999.2500    -999.2500    -999.2500    -999.2500   25476.6152    -999.2500    1767.8473    -999.2500       0.0333       2.9351       2.7020
   3043.4324       8.6620       0.0268      58.0954      39.6200    -999.2500    -999.2500    -999.2500    -999.2500   19888.7715    -999.2500    1873.3868    -999.2500       0.0377       2.7405       2.6708
   3043.5847       8.6247       0.0132      57.5092      47.0311    -999.2500    -999.2500    -999.2500    -999.2500   20722.5781    -999.2500    1999.9547    -999.2500       0.0418       2.6703       2.6517
   3043.7371       8.6171      -0.0031      59.2796      47.5039    -999.2500    -999.2500    -999.2500    -999.2500   23773.6094    -999.2500    1975.1328    -999.2500       0.0495       2.8517       2.6563
   3043.8894       8.5984      -0.0045      57.6790      45.6557    -999.2500    -999.2500    -999.2500    -999.2500   28684.2695    -999.2500    1910.2194    -999.2500       0.0537       3.0967       2.6736
   3044.0420       8.6506      -0.0030      57.9135      50.5488    -999.2500    -999.2500    -999.2500    -999.2500   26270.0664    -999.2500    1910.2177    -999.2500       0.0475       3.2235       2.6988
   3044.1943       8.7181       0.0002      57.4232      50.1375    -999.2500    -999.2500    -999.2500    -999.2500   38569.8516    -999.2500     723.8574    -999.2500       0.0326       3.2093       2.7264
   3044.3467       8.7668       0.0049      57.4712      45.1589    -999.2500    -999.2500    -999.2500    -999.2500   48142.5000    -999.2500     700.6989    -999.2500       0.0228       3.1859       2.7592
   3044.4990       8.7184       0.0068      56.3209      43.4390    -999.2500    -999.2500    -999.2500    -999.2500   57687.0391    -999.2500     786.5676    -999.2500       0.0265       3.2191       2.7615
   3044.6514       8.7070       0.0078      58.1520      38.8950    -999.2500    -999.2500    -999.2500    -999.2500   84843.2266    -999.2500     985.0919    -999.2500       0.0371       3.1976       2.7466
   3044.8040       8.7443       0.0070      57.4401      39.2130    -999.2500    -999.2500    -999.2500    -999.2500  100000.0000    -999.2500     700.7777    -999.2500       0.0431       3.1757       2.7251
   3044.9563       8.8265       0.0036      58.8175      40.6092    -999.2500    -999.2500    -999.2500    -999.2500   67614.8672    -999.2500     686.4086    -999.2500       0.0423       3.1584       2.7090
   3045.1086       8.8232       0.0103      61.7585      42.8520    -999.2500    -999.2500    -999.2500    -999.2500   32908.7539    -999.2500     523.9861    -999.2500       0.0483       3.2118       2.7218
   3045.2610       8.7633       0.0168      62.3088      47.2012    -999.2500    -999.2500    -999.2500    -999.2500   55487.3242    -999.2500     653.6757    -999.2500       0.0610       3.2535       2.7214
   3045.4136       8.6959       0.0173      61.4282      55.5068    -999.2500    -999.2500    -999.2500    -999.2500  100207.3203    -999.2500     795.4285    -999.2500       0.0889       3.2573       2.6935
   3045.5659       8.6845       0.0077      61.9111      61.5572    -999.2500    -999.2500    -999.2500    -999.2500   15570.2471    -999.2500    1936.2108    -999.2500       0.0984       3.2752       2.6414
   3045.7183       8.7219      -0.0026      61.9931      61.8889    -999.2500    -999.2500    -999.2500    -999.2500    2651.4004    -999.2500     678.1983    -999.2500       0.0893       3.3044       2.6194
   3045.8706       8.7295      -0.0032      59.2329      60.6428    -999.2500    -999.2500    -999.2500    -999.2500    4089.3496    -999.2500     423.8944    -999.2500       0.0524       3.3414       2.6621
   3046.0232       8.8695      -0.0018      57.8079      65.5271    -999.2500    -999.2500    -999.2500    -999.2500   12845.2627    -999.2500     325.0041    -999.2500       0.0308       3.3261       2.7262
   3046.1755       8.7579       0.0007      56.5262      61.4844    -999.2500    -999.2500    -999.2500    -999.2500   36545.0273    -999.2500     387.3817    -999.2500       0.0255       3.2695       2.7717
   3046.3279       8.6735      -0.0028      57.0611      15.0926    -999.2500    -999.2500    -999.2500    -999.2500   28177.2188    -999.2500     585.7299    -999.2500       0.0331       3.2197       2.7690
   3046.4802       8.7833      -0.0038      59.0967       0.9839    -999.2500    -999.2500    -999.2500    -999.2500   10369.1387    -999.2500     833.2152    -999.2500       0.0421       3.2034       2.7310
   3046.6326       8.7428       0.0072      61.1243    -999.2500    -999.2500    -999.2500    -999.2500    -999.2500    1444.2058    -999.2500    1223.4065    -999.2500       0.0681       3.2445       2.6841
   3046.7852       8.7108       0.0276      62.7165    -999.2500    -999.2500    -999.2500    -999.2500    -999.2500     386.3588    -999.2500      39.6775    -999.2500       0.0998       3.3170       2.6379
   3046.9375       8.6696       0.0544      61.5892    -999.2500    -999.2500    -999.2500    -999.2500    -999.2500     159.6416    -999.2500      37.1660    -999.2500       0.1144       3.3688       2.6468
   3047.0898       8.6433       0.0654      58.9125    -999.2500    -999.2500    -999.2500    -999.2500    -999.2500     116.7113    -999.2500      14.1213    -999.2500       0.0931       3.3925       2.6798
   3047.2422       8.7143       0.0572      52.3185    -999.2500    -999.2500    -999.2500    -999.2500    -999.2500     837.3242    -999.2500      21.0326    -999.2500       0.0545       3.3823       2.7358
   3047.3948       8.7108       0.0375      50.2150    -999.2500    -999.2500    -999.2500    -999.2500    -999.2500    6147.4160    -999.2500      29.6433    -999.2500       0.0273       3.3611       2.7783
