#------------------------------------------------------------------------------
#
#   Created by  : [OpenWorks] Log Export Utility (LEXP)
#   Created on  : 2016-05-12 17:01:28
#   Project     : CANT971
#   User        : R5K
#   Interpreter : PEP
#
#------------------------------------------------------------------------------
~VERSION INFORMATION
VERS. 2.0 : CWLS Log ASCII Standard - version 2.0
WRAP.  NO : One line per depth step
~WELL INFORMATION
#MNEMONIC   .UNIT                                           VALUE :DESCRIPTION
#------------------------------------------------------------------------------
STRT        .M                                           350.5962 :START DEPTH
STOP        .M                                          2218.5630 :STOP DEPTH
STEP        .M                                             0.1524 :STEP
NULL        .                                           -999.2500 :NULL VALUE
COMP        .                                   PEMEX EXPL & PROD :COMPANY
WELL        .                                                  79 :WELL
FLD         .                                           CANTARELL :FIELD
LOC         .                                             UNKNOWN :LOCATION
CNTY        .                                      CD. DEL CARMEN :COUNTY
STAT        .                                            CAMPECHE :STATE
CTRY        .                                              MEXICO :COUNTRY
SRVC        .                                             UNKNOWN :SERVICE COMPANY
DATE        .                                             UNKNOWN :LOG DATE
UWI         .                                          3060000183 :UNIQUE WELL ID
XCOORD      .                                       602154.470000 :SURFACE X
YCOORD      .                                      2147172.410000 :SURFACE Y
LAT         .                                           19.417394 :LATITUDE
LON         .                                          -92.027010 :LONGITUDE
ELEV        .M                                            28.1700 :SURFACE ELEV
ELEV_TYPE   .                                                  KB :ELEV TYPE
~CURVE INFORMATION
#MNEMONIC.UNIT        API CODE       : CURVE DESCRIPTION
#------------------------------------------------------------------------------
DEPTH    .M                          : Measured Depth
CALI     .inches      UNKNOWN        : CALI:CALI-Load:rC:NONE:v0 (auto-composite)
DT       .us/ft       UNKNOWN        : DT:DT:rC:NONE:v0 (auto-composite)
GR       .UNKNOWN     UNKNOWN        : GR:GR-Load:rC:NONE:v0 (auto-composite)
ILD      .UNKNOWN     UNKNOWN        : ILD:ILD-Load:rC:NONE:v0 (auto-composite)
LLD      .UNKNOWN     UNKNOWN        : LLD:LLD-Load:rC:NONE:v0 (auto-composite)
LLS      .UNKNOWN     UNKNOWN        : LLS:LLS-Load:rC:NONE:v0 (auto-composite)
MSFL     .UNKNOWN     UNKNOWN        : MSFL:MSFL-Load:rC:NONE:v0 (auto-composite)
NPHI     .v/v_decimal UNKNOWN        : NPHI:NPHI:rC:NONE:v0 (auto-composite)
RG       .API         UNKNOWN        : RG:UNKNOWN:rC:NONE:v0 (auto-composite)
RHOB     .UNKNOWN     UNKNOWN        : RHOB:RHOB-Load:rC:NONE:v0 (auto-composite)
SP       .UNKNOWN     UNKNOWN        : SP:SP-Load:rC:NONE:v0 (auto-composite)
~A     DEPTH         CALI           DT           GR          ILD          LLD          LLS         MSFL         NPHI           RG         RHOB           SP
# ...
   1777.0602      18.8876    -999.2500      58.9812       1.1560    -999.2500    -999.2500    -999.2500       0.3349       0.0000       2.2405      47.0889
   1777.2126      18.9625    -999.2500      58.5502       1.1380    -999.2500    -999.2500    -999.2500       0.3406       0.0000       2.2535      46.9489
   1777.3650      18.2731    -999.2500      57.1879       1.1135    -999.2500    -999.2500    -999.2500       0.3352       0.0000       2.2728      46.7313
   1777.5173      16.8212    -999.2500      54.8964       1.0825    -999.2500    -999.2500    -999.2500       0.3188       0.0000       2.2983      46.4363
   1777.6698      15.7406    -999.2500      53.9953       1.0670    -999.2500    -999.2500    -999.2500       0.3033       0.0000       2.3215      46.2890
   1777.8221      15.0306    -999.2500      54.4813       1.0670    -999.2500    -999.2500    -999.2500       0.2886       0.0000       2.3425      46.2890
   1777.9746      14.6287    -999.2500      55.7683       1.0770    -999.2500    -999.2500    -999.2500       0.2830       0.0000       2.3427      46.1721
   1778.1270      14.5342    -999.2500      57.8547       1.0970    -999.2500    -999.2500    -999.2500       0.2865       0.0000       2.3222      45.9386
   1778.2794      14.4026    -999.2500      58.0147       1.1058    -999.2500    -999.2500    -999.2500       0.2939       0.0000       2.3170      45.6275
   1778.4318      14.2341    -999.2500      56.2515       1.1033    -999.2500    -999.2500    -999.2500       0.3053       0.0000       2.3270      45.2389
   1778.5842      14.1923    -999.2500      53.9019       1.0993    -999.2500    -999.2500    -999.2500       0.3136       0.0000       2.3390      45.1618
   1778.7366      14.2768    -999.2500      50.9684       1.0938    -999.2500    -999.2500    -999.2500       0.3190       0.0000       2.3530      45.3948
   1778.8890      14.3611    -999.2500      50.8181       1.0910    -999.2500    -999.2500    -999.2500       0.3122       0.0000       2.3552      45.8069
   1779.0414      14.4451    -999.2500      53.4385       1.0910    -999.2500    -999.2500    -999.2500       0.2932       0.0000       2.3457      46.3974
   1779.1938      14.5950    -999.2500      55.9485       1.0828    -999.2500    -999.2500    -999.2500       0.2978       0.0000       2.3219      46.8947
   1779.3462      14.8105    -999.2500      58.3484       1.0663    -999.2500    -999.2500    -999.2500       0.3260       0.0000       2.2839      47.2992
   1779.4985      15.2659    -999.2500      59.2549       1.0470    -999.2500    -999.2500    -999.2500       0.3499       0.0000       2.2560      47.6022
   1779.6510      15.9604    -999.2500      58.6740       1.0250    -999.2500    -999.2500    -999.2500       0.3696       0.0000       2.2380      47.8042
   1779.8033      16.5622    -999.2500      58.1496       1.0165    -999.2500    -999.2500    -999.2500       0.3856       0.0000       2.2355      47.8429
   1779.9558      17.0717    -999.2500      57.6816       1.0215    -999.2500    -999.2500    -999.2500       0.3979       0.0000       2.2485      47.7189
   1780.1082      17.3946    -999.2500      58.0610       1.0387    -999.2500    -999.2500    -999.2500       0.4035       0.0000       2.2530      47.6570
   1780.2606      17.5316    -999.2500      59.2850       1.0682    -999.2500    -999.2500    -999.2500       0.4023       0.0000       2.2490      47.6570
   1780.4130      17.6486    -999.2500      59.5492       1.1042    -999.2500    -999.2500    -999.2500       0.3997       0.0000       2.2395      47.6570
   1780.5654      17.7456    -999.2500      58.8567       1.1467    -999.2500    -999.2500    -999.2500       0.3957       0.0000       2.2245      47.6570
   1780.7178      18.2712    -999.2500      57.9642       1.1865    -999.2500    -999.2500    -999.2500       0.3929       0.0000       2.2107      47.6570
   1780.8702      19.2242    -999.2500      56.8722       1.2235    -999.2500    -999.2500    -999.2500       0.3913       0.0000       2.1982      47.6570
   1781.0226      19.6437    -999.2500      55.8351       1.2505    -999.2500    -999.2500    -999.2500       0.3832       0.0000       2.1948      47.6570
   1781.1750      19.5312    -999.2500      54.8526       1.2675    -999.2500    -999.2500    -999.2500       0.3685       0.0000       2.2003      47.6570
   1781.3274      19.3388    -999.2500      53.7020       1.2775    -999.2500    -999.2500    -999.2500       0.3511       0.0000       2.2178      47.6570
   1781.4797      19.0668    -999.2500      52.3835       1.2805    -999.2500    -999.2500    -999.2500       0.3310       0.0000       2.2473      47.6570
   1781.6322      18.4665    -999.2500      51.0195       1.2835    -999.2500    -999.2500    -999.2500       0.3225       0.0000       2.2763      47.6570
   1781.7845      17.5385    -999.2500      49.6100       1.2865    -999.2500    -999.2500    -999.2500       0.3255       0.0000       2.3048      47.6570
   1781.9370      17.3127    -999.2500      49.0747       1.2848    -999.2500    -999.2500    -999.2500       0.3327       0.0000       2.3225      47.6570
   1782.0894      17.7877    -999.2500      49.4116       1.2783    -999.2500    -999.2500    -999.2500       0.3441       0.0000       2.3295      47.6570
   1782.2418      17.8435    -999.2500      50.0576       1.2653    -999.2500    -999.2500    -999.2500       0.3558       0.0000       2.3197      47.6570
   1782.3942      17.4809    -999.2500      51.0119       1.2458    -999.2500    -999.2500    -999.2500       0.3676       0.0000       2.2932      47.6570
   1782.5466      17.4441    -999.2500      52.5692       1.2218    -999.2500    -999.2500    -999.2500       0.3726       0.0000       2.2750      47.6570
   1782.6990      17.7316    -999.2500      54.7267       1.1933    -999.2500    -999.2500    -999.2500       0.3706       0.0000       2.2650      47.6570
   1782.8514      17.6964    -999.2500      56.9888       1.1673    -999.2500    -999.2500    -999.2500       0.3659       0.0000       2.2555      47.5946
   1783.0038      17.3399    -999.2500      59.3552       1.1438    -999.2500    -999.2500    -999.2500       0.3587       0.0000       2.2465      47.4701
   1783.1562      17.0979    -999.2500      61.0390       1.1255    -999.2500    -999.2500    -999.2500       0.3508       0.0000       2.2428      47.4548
   1783.3086      16.9699    -999.2500      62.0430       1.1125    -999.2500    -999.2500    -999.2500       0.3421       0.0000       2.2443      47.5483
   1783.4609      16.8920    -999.2500      62.0187       1.1035    -999.2500    -999.2500    -999.2500       0.3411       0.0000       2.2465      47.7505
   1783.6134      16.8640    -999.2500      60.9703       1.0985    -999.2500    -999.2500    -999.2500       0.3478       0.0000       2.2495      48.0610
   1783.7657      16.8500    -999.2500      59.7836       1.0960    -999.2500    -999.2500    -999.2500       0.3612       0.0000       2.2467      48.3094
   1783.9182      16.8500    -999.2500      58.4591       1.0960    -999.2500    -999.2500    -999.2500       0.3814       0.0000       2.2382      48.4959
   1784.0706      16.8876    -999.2500      58.1984       1.1000    -999.2500    -999.2500    -999.2500       0.3861       0.0000       2.2400      48.6048
   1784.2230      16.9626    -999.2500      58.9979       1.1080    -999.2500    -999.2500    -999.2500       0.3752       0.0000       2.2520      48.6363
   1784.3754      16.8560    -999.2500      58.3086       1.1260    -999.2500    -999.2500    -999.2500       0.3619       0.0000       2.2613      48.6520
   1784.5278      16.5685    -999.2500      56.1352       1.1540    -999.2500    -999.2500    -999.2500       0.3459       0.0000       2.2678      48.6520
   1784.6802      16.6315    -999.2500      55.0688       1.1837    -999.2500    -999.2500    -999.2500       0.3322       0.0000       2.2700      48.6520
   1784.8326      17.0440    -999.2500      55.1063       1.2152    -999.2500    -999.2500    -999.2500       0.3207       0.0000       2.2680      48.6520
