#------------------------------------------------------------------------------
#
#   Created by  : [OpenWorks] Log Export Utility (LEXP)
#   Created on  : 2016-05-23 11:50:15
#   Project     : CANT971
#   User        : R5K
#   Interpreter : PEP
#
#------------------------------------------------------------------------------
~VERSION INFORMATION
VERS. 2.0 : CWLS Log ASCII Standard - version 2.0
WRAP.  NO : One line per depth step
~WELL INFORMATION
#MNEMONIC   .UNIT                                           VALUE :DESCRIPTION
#------------------------------------------------------------------------------
STRT        .M                                          2144.1199 :START DEPTH
STOP        .M                                          3100.2776 :STOP DEPTH
STEP        .M                                             0.1524 :STEP
NULL        .                                           -999.2500 :NULL VALUE
COMP        .                                   PEMEX EXPL & PROD :COMPANY
WELL        .                                               1004D :WELL
FLD         .                                           CANTARELL :FIELD
LOC         .                                             UNKNOWN :LOCATION
CNTY        .                                      CD. DEL CARMEN :COUNTY
STAT        .                                            CAMPECHE :STATE
CTRY        .                                              MEXICO :COUNTRY
SRVC        .                                             UNKNOWN :SERVICE COMPANY
DATE        .                                             UNKNOWN :LOG DATE
UWI         .                                               1004D :UNIQUE WELL ID
XCOORD      .                                       594534.600000 :SURFACE X
YCOORD      .                                      2142053.350000 :SURFACE Y
LAT         .                                           19.371510 :LATITUDE
LON         .                                          -92.099834 :LONGITUDE
ELEV        .M                                            30.0000 :SURFACE ELEV
ELEV_TYPE   .                                                  KB :ELEV TYPE
~CURVE INFORMATION
#MNEMONIC.UNIT        API CODE       : CURVE DESCRIPTION
#------------------------------------------------------------------------------
DEPTH    .M                          : Measured Depth
CALI     .in          UNKNOWN        : CALI:litodensidad:rC:NONE:v0 (auto-composite)
DRHO     .g/cm3       UNKNOWN        : DRHO:litodensidad:rC:NONE:v0 (auto-composite)
DT       .us/ft       UNKNOWN        : DT:DT-Load:rC:NONE:v0 (auto-composite)
GR       .API         UNKNOWN        : GR:TMDL:rC:NONE:v0 (auto-composite)
GR-LWD   .API         UNKNOWN        : GR-LWD:PETROWORKS:rC:NONE:v1 
ILD-LWD  .ohm.m       UNKNOWN        : ILD-LWD:resistivos-LWD:rC:NONE:v0 (auto-composite)
ILM-LWD  .ohm.m       UNKNOWN        : ILM-LWD:resistivos-LWD:rC:NONE:v0 (auto-composite)
LLD-LWD  .ohm.m       UNKNOWN        : LLD-LWD:resistivos-LWD:rC:NONE:v0 (auto-composite)
LLS      .ohm.m       UNKNOWN        : LLS:resistivos:rC:NONE:v0 (auto-composite)
LLS-LWD  .ohm.m       UNKNOWN        : LLS-LWD:resistivos-LWD:rC:NONE:v0 (auto-composite)
MSFL     .ohm.m       UNKNOWN        : MSFL:resistivos:rC:NONE:v0 (auto-composite)
MSFL-LWD .ohm.m       UNKNOWN        : MSFL-LWD:resistivos-LWD:rC:NONE:v0 (auto-composite)
NPHI     .v/v_decimal UNKNOWN        : NPHI:PETROWORKS:rC:NONE:v2 
PEF      .b/elec      UNKNOWN        : PEF:litodensidad:rC:NONE:v0 (auto-composite)
RHOB     .g/cm3       UNKNOWN        : RHOB:litodensidad:rC:NONE:v0 (auto-composite)
~A     DEPTH         CALI         DRHO           DT           GR       GR-LWD      ILD-LWD      ILM-LWD      LLD-LWD          LLS      LLS-LWD         MSFL     MSFL-LWD         NPHI          PEF         RHOB
# ...
   3089.1523       8.6319       0.0200      61.1622    -999.2500    -999.2500    -999.2500    -999.2500    -999.2500    1673.9474    -999.2500     255.0579    -999.2500       0.0416       3.1451       2.6871
   3089.3047       8.7841       0.0043      61.1622    -999.2500    -999.2500    -999.2500    -999.2500    -999.2500    1674.1021    -999.2500     976.4081    -999.2500       0.0401       3.1752       2.6653
   3089.4570       8.7251      -0.0046      61.1622    -999.2500    -999.2500    -999.2500    -999.2500    -999.2500    1671.5974    -999.2500     414.2291    -999.2500       0.0408       3.2192       2.6263
   3089.6094       8.6945       0.0061      61.1622    -999.2500    -999.2500    -999.2500    -999.2500    -999.2500    1671.3979    -999.2500     336.3210    -999.2500       0.0408       3.2135       2.6244
   3089.7620       8.6745       0.0362      61.1622    -999.2500    -999.2500    -999.2500    -999.2500    -999.2500    1674.5059    -999.2500     355.5650    -999.2500       0.0409       3.1614       2.6653
   3089.9143       8.6542       0.0655      61.1622    -999.2500    -999.2500    -999.2500    -999.2500    -999.2500    1668.6613    -999.2500    1999.9513    -999.2500       0.0417       3.0834       2.7237
   3090.0667       8.6462       0.0782      61.1622    -999.2500    -999.2500    -999.2500    -999.2500    -999.2500    1671.7070    -999.2500    1999.9496    -999.2500       0.0415       3.0681       2.7508
   3090.2190       8.6499       0.0700      61.1622    -999.2500    -999.2500    -999.2500    -999.2500    -999.2500    1670.6923    -999.2500    1999.9496    -999.2500       0.0415       3.0738       2.7472
   3090.3716       8.6414       0.0631      61.1622    -999.2500    -999.2500    -999.2500    -999.2500    -999.2500    1668.1919    -999.2500    1999.9496    -999.2500       0.0414       3.0984       2.7414
   3090.5239       8.6442       0.0609      61.1622    -999.2500    -999.2500    -999.2500    -999.2500    -999.2500    1669.9047    -999.2500    1999.9496    -999.2500       0.0416       3.1107       2.7378
   3090.6763       8.6405       0.0625      61.1622    -999.2500    -999.2500    -999.2500    -999.2500    -999.2500    1668.8580    -999.2500    1999.9496    -999.2500       0.0415       3.0926       2.7388
   3090.8286       8.6442       0.0620      61.1622    -999.2500    -999.2500    -999.2500    -999.2500    -999.2500    1673.2015    -999.2500    1999.9496    -999.2500       0.0415       3.0614       2.7469
   3090.9810       8.6499       0.0568      61.1622    -999.2500    -999.2500    -999.2500    -999.2500    -999.2500    1677.4327    -999.2500    1999.9496    -999.2500       0.0415       3.0323       2.7536
   3091.1335       8.6476       0.0534      61.1622    -999.2500    -999.2500    -999.2500    -999.2500    -999.2500    1677.4310    -999.2500    1999.9496    -999.2500       0.0415       3.0271       2.7596
   3091.2859       8.6532       0.0539      61.1622    -999.2500    -999.2500    -999.2500    -999.2500    -999.2500    1677.4767    -999.2500    1999.9496    -999.2500       0.0414       3.0476       2.7609
   3091.4382       8.6514       0.0545      61.1622    -999.2500    -999.2500    -999.2500    -999.2500    -999.2500    1677.4487    -999.2500    1999.9496    -999.2500       0.0415       3.0731       2.7587
   3091.5906       8.6461       0.0523      61.1622    -999.2500    -999.2500    -999.2500    -999.2500    -999.2500    1677.2615    -999.2500    1999.9496    -999.2500       0.0414       3.0789       2.7526
   3091.7432       8.6545       0.0538      61.1622    -999.2500    -999.2500    -999.2500    -999.2500    -999.2500    1677.2279    -999.2500    1999.9496    -999.2500       0.0416       3.0760       2.7468
   3091.8955       8.6471       0.0599      61.1622    -999.2500    -999.2500    -999.2500    -999.2500    -999.2500    1677.1520    -999.2500    1999.9496    -999.2500       0.0416       3.0872       2.7460
   3092.0479       8.6452       0.0656      61.1622    -999.2500    -999.2500    -999.2500    -999.2500    -999.2500    1677.2047    -999.2500    1999.9496    -999.2500       0.0415       3.1125       2.7433
   3092.2002       8.6452       0.0691      61.1622    -999.2500    -999.2500    -999.2500    -999.2500    -999.2500    1677.3391    -999.2500    1999.9496    -999.2500       0.0415       3.1320       2.7467
   3092.3528       8.6499       0.0697      61.1622    -999.2500    -999.2500    -999.2500    -999.2500    -999.2500    1677.3599    -999.2500    1999.9496    -999.2500       0.0416       3.1350       2.7481
   3092.5051       8.6461       0.0701      61.1622    -999.2500    -999.2500    -999.2500    -999.2500    -999.2500    1677.3575    -999.2500    1999.9496    -999.2500       0.0415       3.1312       2.7506
   3092.6575       8.6452       0.0650      61.1622    -999.2500    -999.2500    -999.2500    -999.2500    -999.2500    1677.5199    -999.2500    1999.9496    -999.2500       0.0414       3.1221       2.7464
   3092.8098       8.6499       0.0631      61.1622    -999.2500    -999.2500    -999.2500    -999.2500    -999.2500    1677.6055    -999.2500    1999.9496    -999.2500       0.0415       3.1059       2.7481
   3092.9622       8.6508       0.0592      61.1622    -999.2500    -999.2500    -999.2500    -999.2500    -999.2500    1677.4967    -999.2500    1999.9496    -999.2500       0.0414       3.0880       2.7480
   3093.1147       8.6461       0.0564      61.1622    -999.2500    -999.2500    -999.2500    -999.2500    -999.2500    1677.5366    -999.2500    1999.9496    -999.2500       0.0414       3.0779       2.7515
   3093.2671       8.6452       0.0530      61.1622    -999.2500    -999.2500    -999.2500    -999.2500    -999.2500    1677.4438    -999.2500    1999.9496    -999.2500       0.0415       3.0834       2.7468
   3093.4194       8.6452       0.0525      61.1622    -999.2500    -999.2500    -999.2500    -999.2500    -999.2500    1677.2896    -999.2500    1999.9496    -999.2500       0.0414       3.0836       2.7462
   3093.5718       8.6405       0.0542      61.1622    -999.2500    -999.2500    -999.2500    -999.2500    -999.2500    1677.2759    -999.2500    1999.9496    -999.2500       0.0416       3.0739       2.7437
   3093.7244       8.6457       0.0538      61.1622    -999.2500    -999.2500    -999.2500    -999.2500    -999.2500    1677.1448    -999.2500    1999.9496    -999.2500       0.0415       3.0567       2.7459
   3093.8767       8.6455       0.0560      61.1622    -999.2500    -999.2500    -999.2500    -999.2500    -999.2500    1677.2727    -999.2500    1999.9496    -999.2500       0.0415       3.0518       2.7492
   3094.0291       8.6498       0.0586      61.1622    -999.2500    -999.2500    -999.2500    -999.2500    -999.2500    1677.3433    -999.2500    1999.9496    -999.2500       0.0415       3.0575       2.7493
   3094.1814       8.6461       0.0605      61.1622    -999.2500    -999.2500    -999.2500    -999.2500    -999.2500    1677.3367    -999.2500    1999.9496    -999.2500       0.0414       3.0669       2.7472
   3094.3340       8.6452       0.0576      61.1622    -999.2500    -999.2500    -999.2500    -999.2500    -999.2500    1677.3911    -999.2500    1999.9496    -999.2500       0.0415       3.0709       2.7354
   3094.4863       8.6499       0.0547      61.1622    -999.2500    -999.2500    -999.2500    -999.2500    -999.2500    1677.2975    -999.2500    1999.9496    -999.2500       0.0416       3.0757       2.7314
   3094.6387       8.6476       0.0552      61.1286    -999.2500    -999.2500    -999.2500    -999.2500    -999.2500    1677.2855    -999.2500    1999.9496    -999.2500       0.0415       3.0865       2.7304
   3094.7910       8.6502       0.0554      60.4813    -999.2500    -999.2500    -999.2500    -999.2500    -999.2500    1677.4303    -999.2500    1999.9496    -999.2500       0.0415       3.1021       2.7357
   3094.9434       8.6555       0.0521      59.8559    -999.2500    -999.2500    -999.2500    -999.2500    -999.2500    1677.3433    -999.2500    1999.9496    -999.2500       0.0415       3.1122       2.7316
