#------------------------------------------------------------------------------
#
#   Created by  : [OpenWorks] Log Export Utility (LEXP)
#   Created on  : 2016-05-12 17:01:16
#   Project     : CANT971
#   User        : R5K
#   Interpreter : PEP
#
#------------------------------------------------------------------------------
~VERSION INFORMATION
VERS. 2.0 : CWLS Log ASCII Standard - version 2.0
WRAP.  NO : One line per depth step
~WELL INFORMATION
#MNEMONIC   .UNIT                                           VALUE :DESCRIPTION
#------------------------------------------------------------------------------
STRT        .M                                          4907.2798 :START DEPTH
STOP        .M                                          5813.7549 :STOP DEPTH
STEP        .M                                             0.1524 :STEP
NULL        .                                           -999.2500 :NULL VALUE
COMP        .                                   PEMEX EXPL & PROD :COMPANY
WELL        .                                            3026D_ST :WELL
FLD         .                                           CANTARELL :FIELD
LOC         .                                             UNKNOWN :LOCATION
CNTY        .                                      CD. DEL CARMEN :COUNTY
STAT        .                                            CAMPECHE :STATE
CTRY        .                                              MEXICO :COUNTRY
SRVC        .                                             UNKNOWN :SERVICE COMPANY
DATE        .                                             UNKNOWN :LOG DATE
UWI         .                                      3060000820D_ST :UNIQUE WELL ID
XCOORD      .                                       601717.200000 :SURFACE X
YCOORD      .                                      2148573.570000 :SURFACE Y
LAT         .                                           19.430078 :LATITUDE
LON         .                                          -92.031099 :LONGITUDE
ELEV        .M                                            30.0000 :SURFACE ELEV
ELEV_TYPE   .                                                  KB :ELEV TYPE
~CURVE INFORMATION
#MNEMONIC.UNIT        API CODE       : CURVE DESCRIPTION
#------------------------------------------------------------------------------
DEPTH    .M                          : Measured Depth
CALI     .inches      UNKNOWN        : CALI:registros:rC:NONE:v0 (auto-composite)
CGR      .API         UNKNOWN        : CGR:registros:rC:NONE:v0 (auto-composite)
DRHO     .g/cm3       UNKNOWN        : DRHO:registros:rC:NONE:v0 (auto-composite)
DT       .us/ft       UNKNOWN        : DT:registros:rC:NONE:v0 (auto-composite)
GR       .API         UNKNOWN        : GR:registros:rC:NONE:v0 (auto-composite)
ILD      .ohm.m       UNKNOWN        : ILD:registros:rC:NONE:v0 (auto-composite)
ILM      .ohm.m       UNKNOWN        : ILM:registros:rC:NONE:v0 (auto-composite)
NPHI     .UNKNOWN     UNKNOWN        : NPHI:registros:rC:NONE:v0 (auto-composite)
PEF      .b/elec      UNKNOWN        : PEF:registros:rC:NONE:v0 (auto-composite)
POTA     .UNKNOWN     UNKNOWN        : POTA:registros:rC:NONE:v0 (auto-composite)
RHOB     .g/cm3       UNKNOWN        : RHOB:registros:rC:NONE:v0 (auto-composite)
THOR     .ppm         UNKNOWN        : THOR:registros:rC:NONE:v0 (auto-composite)
URAN     .ppm         UNKNOWN        : URAN:registros:rC:NONE:v0 (auto-composite)
~A     DEPTH         CALI          CGR         DRHO           DT           GR          ILD          ILM         NPHI          PEF         POTA         RHOB         THOR         URAN
# ...
   5041.3916       9.2171      79.0493       0.0162      75.3663      97.0908       3.5142       3.4329       0.3050      13.9737       0.0301       2.6430      11.0618       2.6296
   5041.5439       9.2518      82.6888       0.0103      74.8945     103.3047       3.5063       3.4236       0.3151      12.9598       0.0313       2.6292      11.6371       3.0048
   5041.6968       8.8413      82.6322       0.0070      74.4227     103.5433       3.6999       3.6120       0.3071      10.7310       0.0313       2.6265      11.6025       3.0478
   5041.8491       8.9346      81.9118       0.0077      72.1451     102.7018       3.8783       3.7825       0.3018       8.8887       0.0310       2.6343      11.5100       3.0301
   5042.0015       8.7736      80.3715       0.0084      72.2342     100.7364       3.9005       3.8065       0.2689       8.4987       0.0304       2.6421      11.3116       2.9682
   5042.1538       8.5341      78.9052       0.0082      70.0306      99.3071       3.9790       3.8831       0.2529       7.8641       0.0296       2.6819      11.1896       2.9736
   5042.3062       8.5432      73.8434       0.0027      68.4583      94.5330       4.2668       4.1616       0.2397       7.2886       0.0275       2.7184      10.5879       3.0155
   5042.4585       8.7316      73.7081       0.0010      68.6206      94.9398       4.2750       4.1789       0.2447       6.6577       0.0274       2.7007      10.5692       3.0945
   5042.6108       8.4982      72.4069       0.0007      68.7829      93.4565       4.1769       4.0939       0.2549       6.9926       0.0269       2.6904      10.3800       3.0680
   5042.7632       8.1647      73.5971       0.0019      68.3187      95.2851       4.0629       3.9920       0.2595       7.4533       0.0274       2.6795      10.5335       3.1610
   5042.9160       8.0509      71.7097       0.0048      67.8545      92.8764       4.0186       3.9569       0.2599       8.5063       0.0266       2.6768      10.3085       3.0850
   5043.0684       8.0905      70.9344       0.0071      66.4191      92.3061       3.9934       3.9367       0.2526       9.2635       0.0263       2.6768      10.1985       3.1149
   5043.2207       8.1358      72.6677       0.0093      65.5479      94.3228       3.9752       3.9217       0.2531       9.4727       0.0271       2.6767      10.3922       3.1562
   5043.3730       8.1408      72.0219       0.0104      66.3858      94.2393       3.8968       3.8456       0.2495       8.2307       0.0271       2.6846      10.1867       3.2382
   5043.5254       8.1230      71.3775       0.0090      67.5221      93.8107       3.8174       3.7672       0.2496       6.9072       0.0269       2.6881      10.0766       3.2696
   5043.6777       8.0299      73.6831       0.0041      69.1918      97.3415       3.8364       3.7830       0.2483       6.3991       0.0278       2.6880      10.4199       3.4482
   5043.8301       8.0204      71.3907       0.0003      69.6355      93.9402       3.9388       3.8787       0.2511       7.7336       0.0268       2.6873      10.1139       3.2866
   5043.9824       7.9721      72.3309      -0.0029      70.0792      95.5989       4.0377       3.9660       0.2654      11.5077       0.0273       2.6849      10.2010       3.3913
   5044.1348       7.8487      70.0730      -0.0029      69.1963      92.0088       4.6574       4.5537       0.2690      12.5424       0.0266       2.6797       9.8189       3.1971
   5044.2876       7.7308      69.3202      -0.0024      68.3133      91.3571       5.6871       5.5593       0.2508       8.6559       0.0266       2.6979       9.5828       3.2119
   5044.4399       7.7129      68.4256      -0.0034      66.1865      90.1482       5.8630       5.7166       0.2000       5.9827       0.0264       2.7132       9.4218       3.1661
   5044.5923       7.7677      53.9910      -0.0043      63.0454      74.9948       5.6075       5.4715       0.1539       5.5269       0.0252       2.7285       5.5784       3.0613
   5044.7446       7.6046      40.8347      -0.0003      60.5611      62.8585       5.6423       5.5272       0.1310       5.3260       0.0164       2.7837       5.3365       3.2100
   5044.8970       7.6107      30.7309      -0.0052      52.9938      53.4731       5.2332       5.1379       0.1284       5.1985       0.0128       2.7756       3.8067       3.3147
   5045.0493       7.6158      26.7930      -0.0068      54.9092      48.4473       5.2071       5.1333       0.1248       4.7147       0.0114       2.7585       3.2380       3.1561
   5045.2017       7.6097      27.3497      -0.0046      58.5326      49.2348       5.8965       5.8137       0.1154       4.3293       0.0119       2.7775       3.1934       3.1898
   5045.3540       7.6180      26.3835       0.0037      60.9654      47.7074       6.2926       6.2257       0.1079       4.6590       0.0117       2.8187       2.9694       3.1080
   5045.5063       7.6327      26.1942       0.0061      65.1615      47.2763       5.5460       5.5274       0.1252       5.4932       0.0117       2.8130       2.9051       3.0727
   5045.6592       7.5984      33.5537       0.0061      69.3575      54.3567       4.0050       3.9937       0.1665       7.0742       0.0141       2.7632       4.1133       3.0320
   5045.8115       7.8106      45.6033       0.0074      71.1002      67.8599       3.1999       3.1872       0.2076       6.7429       0.0196       2.7401       5.4065       3.2439
   5045.9639       7.9589      54.2941       0.0087      73.5400      77.7193       3.2740       3.2649       0.2374       6.4557       0.0226       2.7171       6.7710       3.4142
   5046.1162       8.0327      76.5616       0.0087      74.1659      97.8135       3.3069       3.2945       0.2519       5.9752       0.0281       2.6944      11.1448       3.0975
   5046.2686       8.0853      79.2322       0.0053      77.2992     101.0231       3.2415       3.2217       0.2628       5.7264       0.0293       2.6952      11.4364       3.1760
   5046.4209       8.1203      79.9977       0.0001      77.5163     101.2898       3.3067       3.2783       0.2576       5.7883       0.0299       2.6994      11.4017       3.1033
   5046.5732       8.3203      80.9687      -0.0047      76.8994     102.1230       3.4905       3.4553       0.2511       5.5380       0.0304       2.6847      11.4728       3.0832
   5046.7256       8.3885      83.7150      -0.0023      77.2674     105.5845       3.6952       3.6331       0.2561       5.6910       0.0317       2.6738      11.7536       3.1875
   5046.8784       8.3010      82.8294      -0.0021      77.6355     103.7338       3.7731       3.7079       0.2600       5.7643       0.0317       2.6373      11.4914       3.0468
   5047.0308       8.4737      83.4261      -0.0000      77.0948     104.3136       3.8727       3.7865       0.2576       6.9741       0.0321       2.6322      11.5185       3.0444
   5047.1831       8.6634      84.2837       0.0020      75.3997     105.3601       4.2309       4.1036       0.2499       7.3843       0.0324       2.6270      11.6205       3.0719
   5047.3354       8.7037      82.6022       0.0035      72.3648     102.6662       4.7083       4.5330       0.2556       7.4802       0.0317       2.6231      11.4331       2.9243
   5047.4878       8.7066      80.9234       0.0046      72.5356      99.9746       4.4938       4.3348       0.2568       6.4351       0.0309       2.6494      11.2580       2.7767
   5047.6401       8.6375      79.8004       0.0061      69.3730      98.1698       4.7658       4.5532       0.2512       6.3012       0.0303       2.7030      11.1903       2.6773
   5047.7925       8.4840      79.0740       0.0017      67.0385      97.1560       4.7624       4.5363       0.2466       6.8978       0.0297       2.7037      11.2333       2.6355
   5047.9448       8.2840      80.0436       0.0043      70.0636      98.6750       4.7020       4.4946       0.2428       7.5137       0.0299       2.6963      11.4348       2.7155
