#------------------------------------------------------------------------------
#
#   Created by  : [OpenWorks] Log Export Utility (LEXP)
#   Created on  : 2016-05-23 11:50:53
#   Project     : CANT971
#   User        : R5K
#   Interpreter : PEP
#
#------------------------------------------------------------------------------
~VERSION INFORMATION
VERS. 2.0 : CWLS Log ASCII Standard - version 2.0
WRAP.  NO : One line per depth step
~WELL INFORMATION
#MNEMONIC   .UNIT                                           VALUE :DESCRIPTION
#------------------------------------------------------------------------------
STRT        .M                                           494.4622 :START DEPTH
STOP        .M                                          2707.4626 :STOP DEPTH
STEP        .M                                             0.1524 :STEP
NULL        .                                           -999.2500 :NULL VALUE
COMP        .                                   PEMEX EXPL & PROD :COMPANY
WELL        .                                                1042 :WELL
FLD         .                                           CANTARELL :FIELD
LOC         .                                             UNKNOWN :LOCATION
CNTY        .                                      CD. DEL CARMEN :COUNTY
STAT        .                                            CAMPECHE :STATE
CTRY        .                                              MEXICO :COUNTRY
SRVC        .                                             UNKNOWN :SERVICE COMPANY
DATE        .                                             UNKNOWN :LOG DATE
UWI         .                                          3060000495 :UNIQUE WELL ID
XCOORD      .                                       596162.680000 :SURFACE X
YCOORD      .                                      2150604.600000 :SURFACE Y
LAT         .                                           19.448706 :LATITUDE
LON         .                                          -92.083900 :LONGITUDE
ELEV        .M                                            30.0000 :SURFACE ELEV
ELEV_TYPE   .                                                  KB :ELEV TYPE
~CURVE INFORMATION
#MNEMONIC.UNIT        API CODE       : CURVE DESCRIPTION
#------------------------------------------------------------------------------
DEPTH    .M                          : Measured Depth
CALI     .inches      UNKNOWN        : CALI:litodensidad:rC:NONE:v0 (auto-composite)
DT       .us/ft       UNKNOWN        : DT:DT:rC:NONE:v0 (auto-composite)
GR       .API         UNKNOWN        : GR:GR-Load:rC:NONE:v0 (auto-composite)
ILD      .ohmm        UNKNOWN        : ILD:UNKNOWN:rC:NONE:v0 (auto-composite)
LLD      .ohmm        UNKNOWN        : LLD:UNKNOWN:rC:NONE:v0 (auto-composite)
LLS      .ohmm        UNKNOWN        : LLS:UNKNOWN:rC:NONE:v0 (auto-composite)
MSFL     .ohmm        UNKNOWN        : MSFL:UNKNOWN:rC:NONE:v0 (auto-composite)
NPHI     .v/v_decimal UNKNOWN        : NPHI:NPHI:rC:NONE:v0 (auto-composite)
~A     DEPTH         CALI           DT           GR          ILD          LLD          LLS         MSFL         NPHI
# ...
   2176.9583    -999.2500    -999.2500      27.9256       0.2000     337.7133     196.1316      84.2688       0.0616
   2177.1106    -999.2500    -999.2500      32.6065       0.2000     327.9944     200.3392      80.4464       0.0528
   2177.2629    -999.2500    -999.2500      36.9877       0.2000     310.7531     198.3036      70.2637       0.0456
   2177.4155    -999.2500    -999.2500      41.0677       0.2000     294.3571     195.7161      58.7369       0.0399
   2177.5679    -999.2500    -999.2500      41.1251       0.2000     282.4095     190.2249      40.1373       0.0384
   2177.7202    -999.2500    -999.2500      37.1549       0.2000     271.7364     185.6314      86.3526       0.0411
   2177.8726    -999.2500    -999.2500      33.6293       0.2000     267.5021     185.5732     460.0179       0.0457
   2178.0251    -999.2500    -999.2500      30.5507       0.2000     268.4776     189.5048     727.4968       0.0521
   2178.1775    -999.2500    -999.2500      28.5102       0.2000     294.7494     212.8087     479.3757       0.0575
   2178.3298    -999.2500    -999.2500      27.5096       0.2000     320.9405     236.9825     254.8578       0.0617
   2178.4822    -999.2500    -999.2500      28.9780       0.2000     346.7505     265.2649     141.8295       0.0668
   2178.6348    -999.2500    -999.2500      32.9285       0.2000     376.2143     293.8239      47.1075       0.0728
   2178.7871    -999.2500    -999.2500      34.7068       0.2000     422.2930     323.6411      35.6327       0.1440
   2178.9395    -999.2500    -999.2500      34.3080       0.2000     480.6190     367.7905      25.5019       0.2802
   2179.0918    -999.2500    -999.2500      31.9983       0.2000     592.6114     474.7430      21.2607       0.4078
   2179.2441    -999.2500    -999.2500      27.7668       0.2000     666.6660     556.6674      19.5502       0.5269
   2179.3967    -999.2500    -999.2500      25.8901       0.2000     580.3948     532.8233      28.5346       0.5665
   2179.5491    -999.2500    -999.2500      26.3748       0.2000     510.1927     516.5504      37.1188       0.5270
   2179.7014    -999.2500    -999.2500      27.4769       0.2000     505.5338     531.1594      44.0705       0.4450
   2179.8538    -999.2500    -999.2500      29.2000       0.2000     494.2924     535.5803      46.0302       0.3207
   2180.0063    -999.2500    -999.2500      30.0615       0.2000     457.1176     499.8624      28.3223       0.2070
   2180.1587    -999.2500    -999.2500      30.0585       0.2000     419.9683     464.7712      14.4187       0.1038
   2180.3110    -999.2500    -999.2500      27.9718       0.2000     382.9171     432.0901      15.1442       0.0529
   2180.4634    -999.2500    -999.2500      23.8006       0.2000     341.4692     394.4096      16.4719       0.0538
   2180.6160    -999.2500    -999.2500      23.3954       0.2000     283.6715     338.1382      20.0388       0.0545
   2180.7683    -999.2500    -999.2500      26.7707       0.2000     226.5151     280.4158      22.9878       0.0550
   2180.9207    -999.2500    -999.2500      31.7672       0.2000     171.6666     217.4729      23.7133       0.0554
   2181.0730    -999.2500    -999.2500      38.3863       0.2000     119.0600     155.5647      31.6836       0.0557
   2181.2253    -999.2500    -999.2500      39.2442       0.2000      74.2643      97.2621      64.8952       0.0564
   2181.3779    -999.2500    -999.2500      34.3158       0.2000      44.0282      57.3561      86.3393       0.0577
   2181.5303    -999.2500    -999.2500      30.9150       0.2000      62.9344      79.5433      68.0653       0.0576
   2181.6826    -999.2500    -999.2500      29.0438       0.2000     507.7831     768.8203      49.3328       0.0563
   2181.8350    -999.2500    -999.2500      27.2473       0.2000    2358.7019    3660.2139      29.0867       0.0547
   2181.9875    -999.2500    -999.2500      25.5256       0.2000    3801.8469    5771.5522      13.9923       0.0529
   2182.1399    -999.2500    -999.2500      24.9781       0.2000    3939.7456    5386.0073      15.3881       0.0530
   2182.2922    -999.2500    -999.2500      25.6068       0.2000    3698.4231    4622.1118      39.5722       0.0550
   2182.4446    -999.2500    -999.2500      25.5673       0.2000    2279.5068    2683.3276     134.5204       0.0680
   2182.5972    -999.2500    -999.2500      24.8561       0.2000    1200.4077    1159.8937     192.8223       0.0919
   2182.7495    -999.2500    -999.2500      24.8005       0.2000    1145.4960     888.2972     140.6742       0.1035
   2182.9019    -999.2500    -999.2500      25.4023       0.2000    1149.2543     715.5557      91.8765       0.1028
   2183.0542    -999.2500    -999.2500      26.4773       0.2000    1324.7137     832.1183      52.8839       0.0949
   2183.2065    -999.2500    -999.2500      28.0284       0.2000    1478.3575     935.7100     122.4314       0.0797
   2183.3591    -999.2500    -999.2500      28.1128       0.2000    1569.9822    1002.4265     500.5472       0.0651
   2183.5115    -999.2500    -999.2500      26.7264       0.2000    1593.7701    1021.2200     712.9520       0.0509
   2183.6638    -999.2500    -999.2500      26.7752       0.2000    1428.5957     906.5215     463.7608       0.0456
   2183.8162    -999.2500    -999.2500      28.2682       0.2000    1289.0499     802.7300     249.4874       0.0492
   2183.9688    -999.2500    -999.2500      28.7286       0.2000    1218.8995     728.4717     129.7625       0.0601
   2184.1211    -999.2500    -999.2500      28.1529       0.2000    1253.7961     705.6523      61.5052       0.0782
   2184.2734    -999.2500    -999.2500      27.0867       0.2000    1565.2877     818.2745     128.7646       0.1018
   2184.4258    -999.2500    -999.2500      25.5299       0.2000    1890.0630     940.1304     198.5259       0.1306
   2184.5784    -999.2500    -999.2500      24.8805       0.2000    2248.8628    1085.6367     274.6950       0.1416
   2184.7307    -999.2500    -999.2500      25.1421       0.2000    2462.3945    1168.2770     404.4750       0.1350
   2184.8831    -999.2500    -999.2500      25.8273       0.2000    2313.8662    1094.2314     667.8726       0.1174
   2185.0354    -999.2500    -999.2500      26.9363       0.2000    2164.0657    1015.3281     742.3642       0.0889
   2185.1877    -999.2500    -999.2500      27.3997       0.2000    2011.1549     924.5475     354.9919       0.0657
   2185.3403    -999.2500    -999.2500      27.2146       0.2000    1798.8401     819.2003      74.3066       0.0478
   2185.4927    -999.2500    -999.2500      26.6428       0.2000    1445.1210     679.1791      47.5765       0.0366
   2185.6450    -999.2500    -999.2500      25.6837       0.2000    1091.7820     536.2962      27.2991       0.0321
   2185.7974    -999.2500    -999.2500      25.2968       0.2000     739.3240     386.7792      21.9804       0.0319
   2185.9500    -999.2500    -999.2500      25.4849       0.2000     465.0435     269.5169      18.0766       0.0359
   2186.1023    -999.2500    -999.2500      30.6030       0.2000     367.3076     225.0938      17.3681       0.0403
   2186.2546    -999.2500    -999.2500      40.6606       0.2000     294.9022     191.0494      16.9529       0.0450
   2186.4070    -999.2500    -999.2500      45.3017       0.2000     278.2350     179.8428      17.1830       0.0480
   2186.5596    -999.2500    -999.2500      44.4969       0.2000     259.6824     165.5809      19.8906       0.0494
   2186.7119    -999.2500    -999.2500      47.5024       0.2000     237.0864     144.7664      27.9114       0.0538
   2186.8643    -999.2500    -999.2500      54.3274       0.2000     209.8298     124.3368      31.3363       0.0611
   2187.0166    -999.2500    -999.2500      52.5110       0.2000     172.7576     104.7179      25.0815       0.0677
   2187.1689    -999.2500    -999.2500      42.0021       0.2000     140.0047      87.3827      19.7979       0.0736
   2187.3215    -999.2500    -999.2500      34.8204       0.2000     116.1220      74.7372      16.5087       0.0778
