#------------------------------------------------------------------------------
#
#   Created by  : [OpenWorks] Log Export Utility (LEXP)
#   Created on  : 2016-05-23 11:52:02
#   Project     : CANT971
#   User        : R5K
#   Interpreter : PEP
#
#------------------------------------------------------------------------------
~VERSION INFORMATION
VERS. 2.0 : CWLS Log ASCII Standard - version 2.0
WRAP.  NO : One line per depth step
~WELL INFORMATION
#MNEMONIC   .UNIT                                           VALUE :DESCRIPTION
#------------------------------------------------------------------------------
STRT        .M                                           300.3808 :START DEPTH
STOP        .M                                          2575.7129 :STOP DEPTH
STEP        .M                                             0.1524 :STEP
NULL        .                                           -999.2500 :NULL VALUE
COMP        .                                   PEMEX EXPL & PROD :COMPANY
WELL        .                                                  19 :WELL
FLD         .                                           CANTARELL :FIELD
LOC         .                                             UNKNOWN :LOCATION
CNTY        .                                      CD. DEL CARMEN :COUNTY
STAT        .                                            CAMPECHE :STATE
CTRY        .                                              MEXICO :COUNTRY
SRVC        .                                             UNKNOWN :SERVICE COMPANY
DATE        .                                             UNKNOWN :LOG DATE
UWI         .                                          3060000151 :UNIQUE WELL ID
XCOORD      .                                       603362.598000 :SURFACE X
YCOORD      .                                      2145096.350000 :SURFACE Y
LAT         .                                           19.398572 :LATITUDE
LON         .                                          -92.015617 :LONGITUDE
ELEV        .M                                            27.1400 :SURFACE ELEV
ELEV_TYPE   .                                                  KB :ELEV TYPE
~CURVE INFORMATION
#MNEMONIC.UNIT        API CODE       : CURVE DESCRIPTION
#------------------------------------------------------------------------------
DEPTH    .M                          : Measured Depth
CALI     .inches      UNKNOWN        : CALI:Import:rC:NONE:v0 (auto-composite)
DRHO     .g/cm3       UNKNOWN        : DRHO:Import:rC:NONE:v0 (auto-composite)
DT       .us/ft       UNKNOWN        : DT:Import:rC:NONE:v0 (auto-composite)
GR       .API         UNKNOWN        : GR:Import:rC:NONE:v0 (auto-composite)
ILD      .ohm.m       UNKNOWN        : ILD:Import:rC:NONE:v0 (auto-composite)
LLD      .ohm.m       UNKNOWN        : LLD:Import:rC:NONE:v0 (auto-composite)
LLS      .ohm.m       UNKNOWN        : LLS:Import:rC:NONE:v0 (auto-composite)
NPHI     .v/v_decimal UNKNOWN        : NPHI:Import:rC:NONE:v0 (auto-composite)
RHOB     .g/cm3       UNKNOWN        : RHOB:RHOB-Load:rC:NONE:v0 (auto-composite)
~A     DEPTH         CALI         DRHO           DT           GR          ILD          LLD          LLS         NPHI         RHOB
# ...
   2558.6440      16.6670    -999.2500    -999.2500      27.5266       0.0010    2093.1719    1599.0649       0.4500    -999.2500
   2558.7964      16.6670    -999.2500    -999.2500      27.2770       0.0010    1728.4750    1521.4150       0.4500    -999.2500
   2558.9487      16.6670    -999.2500    -999.2500      29.8747       0.0010    1448.8715    1293.0328       0.4500    -999.2500
   2559.1013      16.6670    -999.2500    -999.2500      32.4650       0.0010    1170.0580    1064.9310       0.4500    -999.2500
   2559.2537      16.6670    -999.2500    -999.2500      32.9687       0.0010     929.2136     851.0972       0.4500    -999.2500
   2559.4060      16.6670    -999.2500    -999.2500      33.4710       0.0010     689.0200     637.4990       0.4500    -999.2500
   2559.5583      16.6670    -999.2500    -999.2500      31.2692       0.0010     551.1595     502.1549       0.4500    -999.2500
   2559.7107      16.6670    -999.2500    -999.2500      29.0730       0.0010     413.6540     366.9430       0.4500    -999.2500
   2559.8633      16.6670    -999.2500    -999.2500      29.2382       0.0010     349.2190     313.0311       0.4500    -999.2500
   2560.0156      16.6670    -999.2500    -999.2500      29.4030       0.0010     284.9420     259.1650       0.4500    -999.2500
   2560.1680      16.6670    -999.2500    -999.2500      29.8754       0.0010     274.4088     244.4076       0.4500    -999.2500
   2560.3203      16.6670    -999.2500    -999.2500      30.3460       0.0010     263.9000     229.6610       0.4500    -999.2500
   2560.4729      16.6670    -999.2500    -999.2500      27.9650       0.0010     280.6104     239.4388       0.4500    -999.2500
   2560.6252      16.6670    -999.2500    -999.2500      25.5930       0.0010     297.2840     249.1950       0.4500    -999.2500
   2560.7776      16.6670    -999.2500    -999.2500      24.8882       0.0010     317.3453     261.8356       0.4500    -999.2500
   2560.9299      16.6670    -999.2500    -999.2500      24.1860       0.0010     337.3650     274.4500       0.4500    -999.2500
   2561.0825      16.6670    -999.2500    -999.2500      24.1314       0.0010     437.7949     250.0788       0.4500    -999.2500
   2561.2349      16.6670    -999.2500    -999.2500      24.0770       0.0010     538.0290     225.7550       0.4500    -999.2500
   2561.3872      16.6670    -999.2500    -999.2500      24.6465       0.0010     947.0213     316.1584       0.4500    -999.2500
   2561.5396      16.6670    -999.2500    -999.2500      25.2140       0.0010    1355.2679     406.3970       0.4500    -999.2500
   2561.6919      16.6670    -999.2500    -999.2500      25.8320       0.0010    2179.4131     732.5942       0.4500    -999.2500
   2561.8445      16.6670    -999.2500    -999.2500      26.4480       0.0010    3002.1580    1058.2371       0.4500    -999.2500
   2561.9968      16.6670    -999.2500    -999.2500      24.9616       0.0010    3574.5293    1228.5560       0.4500    -999.2500
   2562.1492      16.6670    -999.2500    -999.2500      23.4800       0.0010    4145.0850    1398.6071       0.4500    -999.2500
   2562.3015      16.6670    -999.2500    -999.2500      22.3933       0.0010    3208.1812    1099.7776       0.4500    -999.2500
   2562.4541      16.6670    -999.2500    -999.2500      21.3100       0.0010    2274.1299     801.3810       0.4500    -999.2500
   2562.6064      16.6670    -999.2500    -999.2500      21.2649       0.0010    1346.4722     496.9273       0.4500    -999.2500
   2562.7588      16.6670    -999.2500    -999.2500      21.2200       0.0010     421.5250     192.8760       0.4500    -999.2500
   2562.9111      16.6670    -999.2500    -999.2500      22.4652       0.0010     363.6186     155.5296       0.4500    -999.2500
   2563.0635      16.6670    -999.2500    -999.2500      23.7070       0.0010     305.8740     118.2280       0.4500    -999.2500
   2563.2161      16.6670    -999.2500    -999.2500      23.8827       0.0010     636.5983     215.8698       0.4500    -999.2500
   2563.3684      16.6670    -999.2500    -999.2500      24.0580       0.0010     966.4390     313.4070       0.4500    -999.2500
   2563.5208      16.6670    -999.2500    -999.2500      24.3033       0.0010    1096.1636     433.5489       0.4500    -999.2500
   2563.6731      16.6670    -999.2500    -999.2500      24.5480       0.0010    1225.5580     553.5770       0.4500    -999.2500
   2563.8257      16.6670    -999.2500    -999.2500      25.0271       0.0010    1023.0814     599.5374       0.4500    -999.2500
   2563.9780      16.6670    -999.2500    -999.2500      25.5050       0.0010     821.0950     645.4600       0.4500    -999.2500
   2564.1304      16.6670    -999.2500    -999.2500      24.2460       0.0010     786.3862     525.1307       0.4500    -999.2500
   2564.2827      16.6670    -999.2500    -999.2500      22.9920       0.0010     751.7570     404.8850       0.4500    -999.2500
   2564.4353      16.6670    -999.2500    -999.2500      22.6073       0.0010     765.4539     315.2513       0.4500    -999.2500
   2564.5876      16.6670    -999.2500    -999.2500      22.2240       0.0010     779.1210     225.8120       0.4500    -999.2500
   2564.7400      16.6670    -999.2500    -999.2500      21.7481       0.0010     700.4311     225.3480       0.4500    -999.2500
   2564.8923      16.6670    -999.2500    -999.2500      21.2740       0.0010     621.9020     224.8850       0.4500    -999.2500
   2565.0447      16.6670    -999.2500    -999.2500      21.0261       0.0010     479.8542     236.2254       0.4500    -999.2500
   2565.1973      16.6670    -999.2500    -999.2500      20.7790       0.0010     338.0790     247.5440       0.4500    -999.2500
   2565.3496      16.6670    -999.2500    -999.2500      22.6968       0.0010     549.4819     211.6934       0.4500    -999.2500
   2565.5020      16.6670    -999.2500    -999.2500      24.6080       0.0010     760.5060     175.9070       0.4500    -999.2500
   2565.6543      16.6670    -999.2500    -999.2500      23.6054       0.0010     760.4890     129.4412       0.4500    -999.2500
   2565.8069      16.6670    -999.2500    -999.2500      22.6060       0.0010     760.4720      83.0530       0.4500    -999.2500
   2565.9592      16.6670    -999.2500    -999.2500      23.5835       0.0010     755.7947      54.3879       0.4500    -999.2500
   2566.1116      16.6670    -999.2500    -999.2500      24.5580       0.0010     751.1320      25.7670       0.4500    -999.2500
   2566.2639      16.6670    -999.2500    -999.2500      24.1339       0.0010     516.0282      16.6891       0.4500    -999.2500
   2566.4165      16.6670    -999.2500    -999.2500      23.7110       0.0010     281.6330       7.6240       0.4500    -999.2500
   2566.5688      16.6670    -999.2500    -999.2500      24.4245       0.0010     165.8085       4.6166       0.4500    -999.2500
   2566.7212      16.6670    -999.2500    -999.2500      25.1360       0.0010      50.3190       1.6130       0.4500    -999.2500
   2566.8735      16.6670    -999.2500    -999.2500      25.1355       0.0010      27.7223       0.9981       0.4500    -999.2500
   2567.0259      16.6670    -999.2500    -999.2500      25.1350       0.0010       5.1880       0.3840       0.4500    -999.2500
   2567.1785      16.6670    -999.2500    -999.2500      25.0564       0.0010       3.0066       0.3060       0.4500    -999.2500
   2567.3308      16.6670    -999.2500    -999.2500      24.9780       0.0010       0.8310       0.2280       0.4500    -999.2500
   2567.4832      16.6670    -999.2500    -999.2500      23.7695       0.0010       0.5727       0.2175       0.4500    -999.2500
   2567.6355      16.6670    -999.2500    -999.2500      22.5640       0.0010       0.3150       0.2070       0.4500    -999.2500
   2567.7881      16.6670    -999.2500    -999.2500      22.9410       0.0010       0.2724       0.2035       0.4500    -999.2500
   2567.9404      16.6670    -999.2500    -999.2500      23.3170       0.0010       0.2300       0.2000       0.4500    -999.2500
