#------------------------------------------------------------------------------
#
#   Created by  : [OpenWorks] Log Export Utility (LEXP)
#   Created on  : 2016-05-23 11:57:04
#   Project     : CANT971
#   User        : R5K
#   Interpreter : PEP
#
#------------------------------------------------------------------------------
~VERSION INFORMATION
VERS. 2.0 : CWLS Log ASCII Standard - version 2.0
WRAP.  NO : One line per depth step
~WELL INFORMATION
#MNEMONIC   .UNIT                                           VALUE :DESCRIPTION
#------------------------------------------------------------------------------
STRT        .M                                           125.9451 :START DEPTH
STOP        .M                                          3005.5432 :STOP DEPTH
STEP        .M                                             0.1524 :STEP
NULL        .                                           -999.2500 :NULL VALUE
COMP        .                                   PEMEX EXPL & PROD :COMPANY
WELL        .                                                 66A :WELL
FLD         .                                           CANTARELL :FIELD
LOC         .                                             UNKNOWN :LOCATION
CNTY        .                                      CD. DEL CARMEN :COUNTY
STAT        .                                            CAMPECHE :STATE
CTRY        .                                              MEXICO :COUNTRY
SRVC        .                                             UNKNOWN :SERVICE COMPANY
DATE        .                                             UNKNOWN :LOG DATE
UWI         .                                          3060000173 :UNIQUE WELL ID
XCOORD      .                                       599692.990000 :SURFACE X
YCOORD      .                                      2143036.380000 :SURFACE Y
LAT         .                                           19.380143 :LATITUDE
LON         .                                          -92.050669 :LONGITUDE
ELEV        .M                                            26.7400 :SURFACE ELEV
ELEV_TYPE   .                                                  KB :ELEV TYPE
~CURVE INFORMATION
#MNEMONIC.UNIT        API CODE       : CURVE DESCRIPTION
#------------------------------------------------------------------------------
DEPTH    .M                          : Measured Depth
CALI     .UNKNOWN     UNKNOWN        : CALI:UNKNOWN:rC:NONE:v0 (auto-composite)
DT       .us/ft       UNKNOWN        : DT:DT:rC:NONE:v0 (auto-composite)
GR       .API         UNKNOWN        : GR:UNKNOWN:rC:NONE:v0 (auto-composite)
GR-ENT   .API         UNKNOWN        : GR-ENT:porosidad-entubado:rC:NONE:v0 (auto-composite)
GR-LWD   .UNKNOWN     UNKNOWN        : GR-LWD:GR-LWD:rC:NONE:v0 (auto-composite)
ILD      .UNKNOWN     UNKNOWN        : ILD:UNKNOWN:rC:NONE:v0 (auto-composite)
LLD      .UNKNOWN     UNKNOWN        : LLD:UNKNOWN:rC:NONE:v0 (auto-composite)
LLD-LWD  .UNKNOWN     UNKNOWN        : LLD-LWD:LLD-LWD:rC:NONE:v0 (auto-composite)
LLS      .UNKNOWN     UNKNOWN        : LLS:UNKNOWN:rC:NONE:v0 (auto-composite)
LLS-LWD  .UNKNOWN     UNKNOWN        : LLS-LWD:LLS-LWD:rC:NONE:v0 (auto-composite)
MSFL     .UNKNOWN     UNKNOWN        : MSFL:UNKNOWN:rC:NONE:v0 (auto-composite)
MSFL-LWD .UNKNOWN     UNKNOWN        : MSFL-LWD:MSFL-LWD:rC:NONE:v0 (auto-composite)
NPHI     .v/v_decimal UNKNOWN        : NPHI:PETROWORKS:rC:NONE:v1 
NPHI-ENT .UNKNOWN     UNKNOWN        : NPHI-ENT:porosidad-entubado:rC:NONE:v0 (auto-composite)
RHOB     .g/cm3       UNKNOWN        : RHOB:UNKNOWN:rC:NONE:v0 (auto-composite)
~A     DEPTH         CALI           DT           GR       GR-ENT       GR-LWD          ILD          LLD      LLD-LWD          LLS      LLS-LWD         MSFL     MSFL-LWD         NPHI     NPHI-ENT         RHOB
# ...
   2449.8926       5.8660      67.0865      33.4713      25.6134      21.0500    -999.2500     231.7624      24.5880      94.2951      23.0986      36.8883      16.1232       0.1228       0.1380       2.5839
   2450.0452       5.8764      63.9140      36.5339      26.0057      22.0457    -999.2500     303.6951      20.9739     124.5150      18.2265      17.2977      14.1203       0.1093       0.1270       2.6040
   2450.1975       5.9014      61.1297      41.8753      26.0952      21.7918    -999.2500     423.1274      19.8496     171.9610      16.8883      20.5372      13.7100       0.0990       0.1186       2.6204
   2450.3499       5.9229      59.1045      44.0068      25.8073      20.4613    -999.2500     545.8549      19.2251     218.7822      16.4702      28.2698      13.8802       0.0917       0.1140       2.6498
   2450.5022       5.9394      58.1557      41.5574      25.5194      16.6846    -999.2500     673.2854      20.3914     264.7119      18.8029      42.4146      15.7785       0.0877       0.1115       2.6788
   2450.6548       5.9502      57.3295      40.4314      25.5284      18.9032    -999.2500     840.3344      21.6793     321.9343      19.8499      59.9688      16.2434       0.0836       0.1053       2.6939
   2450.8071       5.9532      56.6768      41.2011      26.3365      22.2099    -999.2500    1064.1272      23.4476     395.3307      20.2100      82.4060      15.7375       0.0792       0.1021       2.7000
   2450.9595       5.9456      56.1307      41.4403      27.5690      19.4144    -999.2500    1190.2836      23.0930     435.0069      20.2100      94.3005      16.2345       0.0773       0.1009       2.6850
   2451.1118       5.9231      55.7349      40.9370      28.2100      18.8252    -999.2500    1179.7592      22.4735     427.4781      19.8828      91.4362      16.2257       0.0780       0.1000       2.6593
   2451.2644       5.9135      55.4299      40.7026      28.2149      19.7900    -999.2500    1167.9331      20.5429     419.9621      18.4676      79.8749      15.0485       0.0803       0.0985       2.6447
   2451.4167       5.9220      55.2533      40.8459      27.0443      19.0760    -999.2500    1154.2784      20.5306     412.4638      18.7059      56.0952      15.4978       0.0842       0.0987       2.5852
   2451.5691       5.9387      55.2404      40.5590      25.2568      19.6714    -999.2500    1070.2130      21.5920     380.7459      19.5056      39.7446      16.3655       0.0895       0.1006       2.5908
   2451.7214       5.9666      55.4583      39.6614      24.4001      23.2607    -999.2500     886.2190      25.2962     314.6550      21.0812      33.9377      17.5018       0.0963       0.1036       2.5950
   2451.8738       5.9865      55.9499      38.8016      24.5470      24.3203    -999.2500     709.6266      23.0205     254.9023      18.8085      47.9524      15.0252       0.1042       0.1098       2.6383
   2452.0264       5.9950      56.8287      37.9959      25.3566      23.6448    -999.2500     543.5764      18.9370     204.1772      15.1885      90.1990      11.2954       0.1128       0.1100       2.6689
   2452.1787       6.0033      57.9411      37.6973      26.3089      18.1660    -999.2500     453.6727      16.6420     179.3827      12.6529     111.5498       9.7133       0.1140       0.1084       2.6841
   2452.3311       6.0113      59.3830      38.1046      27.2796      19.7848    -999.2500     469.7757      18.9960     190.6873      14.5221     103.8106      10.9368       0.1037       0.1035       2.6966
   2452.4834       6.0208      59.9423      38.3345      28.0572      22.0149    -999.2500     507.1859      27.3823     210.5545      22.0039      90.3783      15.7523       0.0954       0.1006       2.7104
   2452.6360       6.0323      59.2520      38.3165      28.6897      24.4518    -999.2500     574.3640      40.5469     242.3842      41.7670      68.9922      28.3721       0.0898       0.0970       2.7115
   2452.7883       6.0473      59.1921      38.2961      29.1897      28.9585    -999.2500     628.0577      43.0698     270.7340      46.5504      61.2514      31.6557       0.0879       0.0971       2.7086
   2452.9407       6.0673      60.0217      38.2721      29.6462      26.7503    -999.2500     662.7203      31.1008     294.1724      31.4994      72.7689      22.8964       0.0911       0.0987       2.6923
   2453.0930       6.0998      60.5070      37.8390      29.7074      22.1314    -999.2500     714.1397      32.3257     322.4184      39.6473      71.2035      27.4431       0.0945       0.0998       2.6985
   2453.2456       6.1498      60.5045      36.8264      29.5828      20.2415    -999.2500     789.2933      35.4972     357.4738      47.4774      51.1077      32.3707       0.0978       0.1016       2.7015
   2453.3979       6.1651      60.5011      36.0417      29.0893      33.7900    -999.2500     815.7626      42.1200     364.5883      51.6600      36.5093      37.4600       0.1037       0.1084       2.6463
   2453.5503       6.1315      60.4966      35.5809      28.3044      33.0783    -999.2500     773.0305      39.8330     331.9869      46.6158      29.7253      36.3628       0.1129       0.1192       2.6125
   2453.7026       6.1003      61.1417      35.2481      27.6776      27.3131    -999.2500     697.6353      35.7587     291.2087      39.2028      24.9714      34.0530       0.1242       0.1427       2.5841
   2453.8550       6.0723      62.7073      35.0978      27.8648      27.8198    -999.2500     575.6459      38.3417     238.7664      36.1802      23.1138      32.6249       0.1377       0.1654       2.5484
   2454.0076       6.0350      63.3189      34.9451      28.7463      30.8555    -999.2500     468.5378      42.0256     195.3637      33.0448      20.5691      27.2871       0.1446       0.1860       2.5405
   2454.1599       5.9845      62.5827      34.7892      29.7410      33.1263    -999.2500     382.3161      46.1379     164.6485      29.8441      17.0601      20.4681       0.1416       0.1825       2.5546
   2454.3123       5.9760      61.6214      34.8997      30.6626      32.1488    -999.2500     338.4770      51.6084     151.0673      34.8459      15.7532      21.8423       0.1392       0.1734       2.5635
   2454.4646       6.0265      60.3409      35.3855      30.9493      29.4736    -999.2500     354.3347      47.4954     161.6198      32.3873      17.5479      21.6891       0.1379       0.1679       2.6007
   2454.6172       6.0910      59.1885      35.8261      30.9629      29.2730    -999.2500     379.4477      34.6973     177.0089      24.4971      24.5916      18.1746       0.1320       0.1599       2.6278
   2454.7695       6.1750      58.2172      36.2030      30.5765      28.8653    -999.2500     417.6437      26.6075     199.2347      18.6968      39.0548      13.6725       0.1206       0.1453       2.6428
   2454.9219       6.1994      56.9364      36.3645      29.8139      25.0979    -999.2500     449.2111      29.7212     216.8114      25.0619      55.5679      18.7664       0.1103       0.1303       2.6563
   2455.0742       6.1405      55.2197      36.2207      29.2251      24.7297    -999.2500     471.3753      31.7802     227.7929      31.0122      74.9890      23.0079       0.1023       0.1221       2.6829
   2455.2268       6.0700      53.9629      36.6580      28.8909      24.9870    -999.2500     480.2634      32.3264     232.6843      32.6328      76.6233      24.2500       0.0955       0.1122       2.6856
   2455.3792       5.9835      53.3567      37.9279      28.6444      27.6304    -999.2500     470.1258      32.7880     228.8479      30.7041      52.7676      24.2500       0.0903       0.1058       2.6797
   2455.5315       5.9191      53.3052      38.4010      28.6703      30.2148    -999.2500     449.3322      35.2169     219.5388      35.3182      34.4874      27.6923       0.0872       0.1018       2.6522
   2455.6838       5.8856      54.0359      37.7282      28.3355      29.1723    -999.2500     413.2131      36.8367     202.3587      35.2470      24.2260      27.9590       0.0873       0.1039       2.6392
