#------------------------------------------------------------------------------
#
#   Created by  : [OpenWorks] Log Export Utility (LEXP)
#   Created on  : 2016-05-23 11:55:46
#   Project     : CANT971
#   User        : R5K
#   Interpreter : PEP
#
#------------------------------------------------------------------------------
~VERSION INFORMATION
VERS. 2.0 : CWLS Log ASCII Standard - version 2.0
WRAP.  NO : One line per depth step
~WELL INFORMATION
#MNEMONIC   .UNIT                                           VALUE :DESCRIPTION
#------------------------------------------------------------------------------
STRT        .M                                           292.5192 :START DEPTH
STOP        .M                                          2727.7188 :STOP DEPTH
STEP        .M                                             0.1524 :STEP
NULL        .                                           -999.2500 :NULL VALUE
COMP        .                                   PEMEX EXPL & PROD :COMPANY
WELL        .                                                  39 :WELL
FLD         .                                           CANTARELL :FIELD
LOC         .                                             UNKNOWN :LOCATION
CNTY        .                                      CD. DEL CARMEN :COUNTY
STAT        .                                            CAMPECHE :STATE
CTRY        .                                              MEXICO :COUNTRY
SRVC        .                                             UNKNOWN :SERVICE COMPANY
DATE        .                                             UNKNOWN :LOG DATE
UWI         .                                          3060000161 :UNIQUE WELL ID
XCOORD      .                                       603360.280000 :SURFACE X
YCOORD      .                                      2145098.760000 :SURFACE Y
LAT         .                                           19.398594 :LATITUDE
LON         .                                          -92.015639 :LONGITUDE
ELEV        .M                                            27.1400 :SURFACE ELEV
ELEV_TYPE   .                                                  KB :ELEV TYPE
~CURVE INFORMATION
#MNEMONIC.UNIT        API CODE       : CURVE DESCRIPTION
#------------------------------------------------------------------------------
DEPTH    .M                          : Measured Depth
CALI     .inches      UNKNOWN        : CALI:Import:rC:NONE:v0 (auto-composite)
DRHO     .g/cm3       UNKNOWN        : DRHO:Import:rC:NONE:v0 (auto-composite)
DT       .us/ft       UNKNOWN        : DT:Import:rC:NONE:v0 (auto-composite)
GR       .API         UNKNOWN        : GR:Import:rC:NONE:v0 (auto-composite)
ILD      .ohm.m       UNKNOWN        : ILD:Import:rC:NONE:v0 (auto-composite)
LLD      .ohm.m       UNKNOWN        : LLD:Import:rC:NONE:v0 (auto-composite)
LLS      .ohm.m       UNKNOWN        : LLS:Import:rC:NONE:v0 (auto-composite)
MSFL     .ohm.m       UNKNOWN        : MSFL:Import:rC:NONE:v0 (auto-composite)
NPHI     .v/v_decimal UNKNOWN        : NPHI:Import:rC:NONE:v0 (auto-composite)
RHOB     .g/cm3       UNKNOWN        : RHOB:Import:rC:NONE:v0 (auto-composite)
~A     DEPTH         CALI         DRHO           DT           GR          ILD          LLD          LLS         MSFL         NPHI         RHOB
# ...
    941.1336       0.0000       0.0000      40.0000       0.0000       0.2000       0.2000       0.2000       0.2000      -0.1500       2.0000
    941.2860       0.0000       0.0000      40.0000       0.0000       0.2000       0.2000       0.2000       0.2000      -0.1500       2.0000
    941.4384       0.0000       0.0000      40.0000       0.0000       0.2000       0.2000       0.2000       0.2000      -0.1500       2.0000
    941.5908       0.0000       0.0000      40.0000       0.0000       0.2000       0.2000       0.2000       0.2000      -0.1500       2.0000
    941.7432       0.0000       0.0000      40.0000       0.0000       0.2000       0.2000       0.2000       0.2000      -0.1500       2.0000
    941.8956       0.0000       0.0000      40.0000       0.0000       0.2000       0.2000       0.2000       0.2000      -0.1500       2.0000
    942.0480       0.0000       0.0000      40.0000       0.0000       0.2000       0.2000       0.2000       0.2000      -0.1500       2.0000
    942.2004       0.0000       0.0000      40.0000       0.0000       0.2000       0.2000       0.2000       0.2000      -0.1500       2.0000
    942.3528       0.0000       0.0000      40.0000       0.0000       0.2000       0.2000       0.2000       0.2000      -0.1500       2.0000
    942.5052       0.0000       0.0000      40.0000       0.0000       0.2000       0.2000       0.2000       0.2000      -0.1500       2.0000
    942.6576       0.0000       0.0000      40.0000       0.0000       0.2000       0.2000       0.2000       0.2000      -0.1500       2.0000
    942.8100       0.0000       0.0000      40.0000       0.0000       0.2000       0.2000       0.2000       0.2000      -0.1500       2.0000
    942.9624       0.0000       0.0000      40.0000       0.0000       0.2000       0.2000       0.2000       0.2000      -0.1500       2.0000
    943.1148       0.0000       0.0000      40.0000       0.0000       0.2000       0.2000       0.2000       0.2000      -0.1500       2.0000
    943.2672       0.0000       0.0000      40.0000       0.0000       0.2000       0.2000       0.2000       0.2000      -0.1500       2.0000
    943.4196       0.0000       0.0000      40.0000       0.0000       0.2000       0.2000       0.2000       0.2000      -0.1500       2.0000
    943.5720       0.0000       0.0000      40.0000       0.0000       0.2000       0.2000       0.2000       0.2000      -0.1500       2.0000
    943.7244       0.0000       0.0000      40.0000       0.0000       0.2000       0.2000       0.2000       0.2000      -0.1500       2.0000
    943.8768       0.0000       0.0000      40.0000       0.0000       0.2000       0.2000       0.2000       0.2000      -0.1500       2.0000
    944.0292       0.0000       0.0000      40.0000       0.0000       0.2000       0.2000       0.2000       0.2000      -0.1500       2.0000
    944.1816       0.0000       0.0000      40.0000       0.0000       0.2000       0.2000       0.2000       0.2000      -0.1500       2.0000
    944.3340       0.0000       0.0000      40.0000       0.0000       0.2000       0.2000       0.2000       0.2000      -0.1500       2.0000
    944.4864       0.0000       0.0000      40.0000       0.0000       0.2000       0.2000       0.2000       0.2000      -0.1500       2.0000
    944.6388       0.0000       0.0000      40.0000       0.0000       0.2000       0.2000       0.2000       0.2000      -0.1500       2.0000
    944.7912       0.0000       0.0000      40.0000       0.0000       0.2000       0.2000       0.2000       0.2000      -0.1500       2.0000
    944.9436       0.0000       0.0000      40.0000       0.0000       0.2000       0.2000       0.2000       0.2000      -0.1500       2.0000
    945.0960       0.0000       0.0000      40.0000       0.0000       0.2000       0.2000       0.2000       0.2000      -0.1500       2.0000
    945.2484       0.0000       0.0000      40.0000       0.0000       0.2000       0.2000       0.2000       0.2000      -0.1500       2.0000
    945.4008       0.0000       0.0000      40.0000       0.0000       0.2000       0.2000       0.2000       0.2000      -0.1500       2.0000
    945.5532       0.0000       0.0000      40.0000       0.0000       0.2000       0.2000       0.2000       0.2000      -0.1500       2.0000
    945.7056       0.0000       0.0000      40.0000       0.0000       0.2000       0.2000       0.2000       0.2000      -0.1500       2.0000
    945.8580       0.0000       0.0000      40.0000       0.0000       0.2000       0.2000       0.2000       0.2000      -0.1500       2.0000
    946.0104       0.0000       0.0000      40.0000       0.0000       0.2000       0.2000       0.2000       0.2000      -0.1500       2.0000
    946.1628       0.0000       0.0000      40.0000       0.0000       0.2000       0.2000       0.2000       0.2000      -0.1500       2.0000
    946.3152       0.0000       0.0000      40.0000       0.0000       0.2000       0.2000       0.2000       0.2000      -0.1500       2.0000
    946.4676       0.0000       0.0000      40.0000       0.0000       0.2000       0.2000       0.2000       0.2000      -0.1500       2.0000
    946.6200       0.0000       0.0000      40.0000       0.0000       0.2000       0.2000       0.2000       0.2000      -0.1500       2.0000
    946.7724       0.0000       0.0000      40.0000       0.0000       0.2000       0.2000       0.2000       0.2000      -0.1500       2.0000
    946.9248       0.0000       0.0000      40.0000       0.0000       0.2000       0.2000       0.2000       0.2000      -0.1500       2.0000
    947.0772       0.0000       0.0000      40.0000       0.0000       0.2000       0.2000       0.2000       0.2000      -0.1500       2.0000
    947.2296       0.0000       0.0000      40.0000       0.0000       0.2000       0.2000       0.2000       0.2000      -0.1500       2.0000
    947.3820       0.0000       0.0000      40.0000       0.0000       0.2000       0.2000       0.2000       0.2000      -0.1500       2.0000
    947.5344       0.0000       0.0000      40.0000       0.0000       0.2000       0.2000       0.2000       0.2000      -0.1500       2.0000
    947.6868       0.0000       0.0000      40.0000       0.0000       0.2000       0.2000       0.2000       0.2000      -0.1500       2.0000
    947.8392       0.0000       0.0000      40.0000       0.0000       0.2000       0.2000       0.2000       0.2000      -0.1500       2.0000
    947.9916       0.0000       0.0000      40.0000       0.0000       0.2000       0.2000       0.2000       0.2000      -0.1500       2.0000
    948.1440       0.0000       0.0000      40.0000       0.0000       0.2000       0.2000       0.2000       0.2000      -0.1500       2.0000
    948.2964       0.0000       0.0000      40.0000       0.0000       0.2000       0.2000       0.2000       0.2000      -0.1500       2.0000
    948.4488       0.0000       0.0000      40.0000       0.0000       0.2000       0.2000       0.2000       0.2000      -0.1500       2.0000
    948.6012       0.0000       0.0000      40.0000       0.0000       0.2000       0.2000       0.2000       0.2000      -0.1500       2.0000
    948.7536       0.0000       0.0000      40.0000       0.0000       0.2000       0.2000       0.2000       0.2000      -0.1500       2.0000
    948.9060       0.0000       0.0000      40.0000       0.0000       0.2000       0.2000       0.2000       0.2000      -0.1500       2.0000
    949.0584       0.0000       0.0000      40.0000       0.0000       0.2000       0.2000       0.2000       0.2000      -0.1500       2.0000
    949.2108       0.0000       0.0000      40.0000       0.0000       0.2000       0.2000       0.2000       0.2000      -0.1500       2.0000
    949.3632       0.0000       0.0000      40.0000       0.0000       0.2000       0.2000       0.2000       0.2000      -0.1500       2.0000
    949.5156       0.0000       0.0000      40.0000       0.0000       0.2000       0.2000       0.2000       0.2000      -0.1500       2.0000
