#------------------------------------------------------------------------------
#
#   Created by  : [OpenWorks] Log Export Utility (LEXP)
#   Created on  : 2016-05-23 11:57:02
#   Project     : CANT971
#   User        : R5K
#   Interpreter : PEP
#
#------------------------------------------------------------------------------
~VERSION INFORMATION
VERS. 2.0 : CWLS Log ASCII Standard - version 2.0
WRAP.  NO : One line per depth step
~WELL INFORMATION
#MNEMONIC   .UNIT                                           VALUE :DESCRIPTION
#------------------------------------------------------------------------------
STRT        .M                                           493.3184 :START DEPTH
STOP        .M                                          2467.0508 :STOP DEPTH
STEP        .M                                             0.1524 :STEP
NULL        .                                           -999.2500 :NULL VALUE
COMP        .                                   PEMEX EXPL & PROD :COMPANY
WELL        .                                                  63 :WELL
FLD         .                                           CANTARELL :FIELD
LOC         .                                             UNKNOWN :LOCATION
CNTY        .                                      CD. DEL CARMEN :COUNTY
STAT        .                                            CAMPECHE :STATE
CTRY        .                                              MEXICO :COUNTRY
SRVC        .                                             UNKNOWN :SERVICE COMPANY
DATE        .                                             UNKNOWN :LOG DATE
UWI         .                                          3060000615 :UNIQUE WELL ID
XCOORD      .                                       601716.240000 :SURFACE X
YCOORD      .                                      2142344.800000 :SURFACE Y
LAT         .                                           19.373792 :LATITUDE
LON         .                                          -92.031441 :LONGITUDE
ELEV        .M                                            24.0000 :SURFACE ELEV
ELEV_TYPE   .                                                  KB :ELEV TYPE
~CURVE INFORMATION
#MNEMONIC.UNIT        API CODE       : CURVE DESCRIPTION
#------------------------------------------------------------------------------
DEPTH    .M                          : Measured Depth
CALI     .inches      UNKNOWN        : CALI:Import:rC:NONE:v0 (auto-composite)
DRHO     .g/cm3       UNKNOWN        : DRHO:Import:rC:NONE:v0 (auto-composite)
DT       .us/ft       UNKNOWN        : DT:Import:rC:NONE:v0 (auto-composite)
GR       .API         UNKNOWN        : GR:Import:rC:NONE:v0 (auto-composite)
ILD      .ohm.m       UNKNOWN        : ILD:Import:rC:NONE:v0 (auto-composite)
ILM      .ohm.m       UNKNOWN        : ILM:Import:rC:NONE:v0 (auto-composite)
LLD      .ohm.m       UNKNOWN        : LLD:Import:rC:NONE:v0 (auto-composite)
LLS      .ohm.m       UNKNOWN        : LLS:Import:rC:NONE:v0 (auto-composite)
MSFL     .ohm.m       UNKNOWN        : MSFL:Import:rC:NONE:v0 (auto-composite)
NPHI     .v/v_decimal UNKNOWN        : NPHI:Import:rC:NONE:v0 (auto-composite)
PEF      .b/elec      UNKNOWN        : PEF:Import:rC:NONE:v0 (auto-composite)
RHOB     .g/cm3       UNKNOWN        : RHOB:Import:rC:NONE:v0 (auto-composite)
~A     DEPTH         CALI         DRHO           DT           GR          ILD          ILM          LLD          LLS         MSFL         NPHI          PEF         RHOB
# ...
   2453.7920       3.2290       0.2115    -999.2500      33.2500    -999.2500    -999.2500     315.9392     249.7450       1.8790       0.0640       2.5075       2.5420
   2453.9443       3.2290       0.2090    -999.2500      33.2500    -999.2500    -999.2500     320.0770     250.0380       1.8780       0.0636       2.5330       2.5380
   2454.0967       3.2290       0.2050    -999.2500      33.2500    -999.2500    -999.2500     318.5516     250.1254       1.8810       0.0639       2.5325       2.5320
   2454.2493       3.2290       0.2010    -999.2500      33.2500    -999.2500    -999.2500     317.0210     250.2130       1.8840       0.0645       2.5320       2.5260
   2454.4016       3.2290       0.2015    -999.2500      33.2500    -999.2500    -999.2500     317.4133     250.1651       1.8830       0.0648       2.5255       2.5290
   2454.5540       3.2290       0.2020    -999.2500      33.2500    -999.2500    -999.2500     317.8070     250.1170       1.8820       0.0650       2.5190       2.5320
   2454.7063       3.2290       0.2030    -999.2500      33.2500    -999.2500    -999.2500     318.6355     250.1385       1.8825       0.0653       2.5245       2.5340
   2454.8586       3.2290       0.2040    -999.2500      33.2500    -999.2500    -999.2500     319.4670     250.1600       1.8830       0.0657       2.5300       2.5360
   2455.0112       3.2290       0.2080    -999.2500      33.2500    -999.2500    -999.2500     313.9680     250.1595       1.8835       0.0660       2.5844       2.5390
   2455.1636       3.2290       0.2120    -999.2500      33.2500    -999.2500    -999.2500     308.4480     250.1590       1.8840       0.0660       2.6390       2.5420
   2455.3159       3.2290       0.2050    -999.2500      28.6793    -999.2500    -999.2500     154.5031     125.3247       1.0430       0.0651       2.6105       2.5305
   2455.4683       3.2290       0.1980    -999.2500      24.0980    -999.2500    -999.2500       0.2000       0.2000       0.2000       0.0643       2.5820       2.5190
   2455.6208       3.2290       0.1925    -999.2500      23.6720    -999.2500    -999.2500       0.1905       0.1905       0.1905       0.0646       2.6050       2.5155
   2455.7732       3.2290       0.1870    -999.2500      23.2450    -999.2500    -999.2500       0.1810       0.1810       0.1810       0.0652       2.6280       2.5120
   2455.9255       3.2290       0.1860    -999.2500      22.1474    -999.2500    -999.2500       0.1810       0.1810       0.1810       0.0655       2.6310       2.5090
   2456.0779       3.2290       0.1850    -999.2500      21.0470    -999.2500    -999.2500    -999.2500    -999.2500    -999.2500       0.0654       2.6340       2.5060
   2456.2305       3.2290       0.1935    -999.2500      18.0570    -999.2500    -999.2500    -999.2500    -999.2500    -999.2500       0.0650       2.5621       2.5160
   2456.3828       3.2290       0.2020    -999.2500      15.0590    -999.2500    -999.2500    -999.2500    -999.2500    -999.2500       0.0647       2.4900       2.5260
   2456.5352       3.2290       0.2115    -999.2500      18.3933    -999.2500    -999.2500    -999.2500    -999.2500    -999.2500       0.0647       2.5015       2.5405
   2456.6875       3.2290       0.2210    -999.2500      21.7370    -999.2500    -999.2500    -999.2500    -999.2500    -999.2500       0.0648       2.5130       2.5550
   2456.8398       3.2290       0.2250    -999.2500      23.3386    -999.2500    -999.2500    -999.2500    -999.2500    -999.2500       0.0650       2.5215       2.5565
   2456.9924       3.2290       0.2290    -999.2500      24.9450    -999.2500    -999.2500    -999.2500    -999.2500    -999.2500       0.0651       2.5300       2.5580
   2457.1448       3.2290       0.2205    -999.2500      23.9311    -999.2500    -999.2500    -999.2500    -999.2500    -999.2500       0.0647       2.5360       2.5480
   2457.2971       3.2290       0.2120    -999.2500      22.9140    -999.2500    -999.2500    -999.2500    -999.2500    -999.2500       0.0642       2.5420       2.5380
   2457.4495       3.2290       0.2000    -999.2500      23.3029    -999.2500    -999.2500    -999.2500    -999.2500    -999.2500       0.0636       2.4437       2.5210
   2457.6021       3.2290       0.1880    -999.2500      23.6930    -999.2500    -999.2500    -999.2500    -999.2500    -999.2500       0.0634       2.3450       2.5040
   2457.7544       3.2290       0.1905    -999.2500      23.9086    -999.2500    -999.2500    -999.2500    -999.2500    -999.2500       0.0639       2.4169       2.5200
   2457.9067       3.2290       0.1930    -999.2500      24.1250    -999.2500    -999.2500    -999.2500    -999.2500    -999.2500       0.0648       2.4890       2.5360
   2458.0591       3.2290       0.1975    -999.2500      24.0906    -999.2500    -999.2500    -999.2500    -999.2500    -999.2500       0.0655       2.4885       2.5355
   2458.2117       3.2290       0.2020    -999.2500      24.0560    -999.2500    -999.2500    -999.2500    -999.2500    -999.2500       0.0661       2.4880       2.5350
   2458.3640       3.2290       0.2120    -999.2500      23.3143    -999.2500    -999.2500    -999.2500    -999.2500    -999.2500       0.0662       2.4321       2.5355
   2458.5164       3.2290       0.2220    -999.2500      22.5700    -999.2500    -999.2500    -999.2500    -999.2500    -999.2500       0.0660       2.3760       2.5360
   2458.6687       3.2290       0.2220    -999.2500      22.5905    -999.2500    -999.2500    -999.2500    -999.2500    -999.2500       0.0655       2.3765       2.5425
   2458.8210       3.2290       0.2220    -999.2500      22.6110    -999.2500    -999.2500    -999.2500    -999.2500    -999.2500       0.0646       2.3770       2.5490
   2458.9736       3.2290       0.2220    -999.2500      23.3122    -999.2500    -999.2500    -999.2500    -999.2500    -999.2500       0.0634       2.3905       2.5510
   2459.1260       3.2290       0.2220    -999.2500      24.0160    -999.2500    -999.2500    -999.2500    -999.2500    -999.2500       0.0629       2.4040       2.5530
   2459.2783       3.2290       0.2175    -999.2500      23.9616    -999.2500    -999.2500    -999.2500    -999.2500    -999.2500       0.0640       2.4654       2.5480
   2459.4307       3.2290       0.2130    -999.2500      23.9070    -999.2500    -999.2500    -999.2500    -999.2500    -999.2500       0.0656       2.5270       2.5430
   2459.5833       3.2290       0.2145    -999.2500      23.3447    -999.2500    -999.2500    -999.2500    -999.2500    -999.2500       0.0667       2.5859       2.5435
   2459.7356       3.2290       0.2160    -999.2500      22.7810    -999.2500    -999.2500    -999.2500    -999.2500    -999.2500       0.0668       2.6450       2.5440
   2459.8879       3.2290       0.2160    -999.2500      23.3508    -999.2500    -999.2500    -999.2500    -999.2500    -999.2500       0.0658       2.6400       2.5415
   2460.0403       3.2290       0.2160    -999.2500      23.9220    -999.2500    -999.2500    -999.2500    -999.2500    -999.2500       0.0645       2.6350       2.5390
   2460.1929       3.2290       0.2155    -999.2500      23.7502    -999.2500    -999.2500    -999.2500    -999.2500    -999.2500       0.0642       2.5791       2.5445
   2460.3452       3.2290       0.2150    -999.2500      23.5780    -999.2500    -999.2500    -999.2500    -999.2500    -999.2500       0.0647       2.5230       2.5500
   2460.4976       3.2290       0.2135    -999.2500      23.5780    -999.2500    -999.2500    -999.2500    -999.2500    -999.2500       0.0659       2.5445       2.5495
   2460.6499       3.2290       0.2120    -999.2500      23.5780    -999.2500    -999.2500    -999.2500    -999.2500    -999.2500       0.0670       2.5660       2.5490
   2460.8022       3.2290       0.2070    -999.2500      23.5780    -999.2500    -999.2500    -999.2500    -999.2500    -999.2500       0.0674       2.5650       2.5415
   2460.9548       3.2290       0.2020    -999.2500      23.5780    -999.2500    -999.2500    -999.2500    -999.2500    -999.2500       0.0673       2.5640       2.5340
