#------------------------------------------------------------------------------
#
#   Created by  : [OpenWorks] Log Export Utility (LEXP)
#   Created on  : 2016-05-11 12:45:47
#   Project     : CANT971
#   User        : R5K
#   Interpreter : PEP
#
#------------------------------------------------------------------------------
~VERSION INFORMATION
VERS. 2.0 : CWLS Log ASCII Standard - version 2.0
WRAP.  NO : One line per depth step
~WELL INFORMATION
#MNEMONIC   .UNIT                                           VALUE :DESCRIPTION
#------------------------------------------------------------------------------
STRT        .M                                           801.4664 :START DEPTH
STOP        .M                                          3402.1724 :STOP DEPTH
STEP        .M                                             0.1524 :STEP
NULL        .                                           -999.2500 :NULL VALUE
COMP        .                                   PEMEX EXPL & PROD :COMPANY
WELL        .                                        CANTARELL-85 :WELL
FLD         .                                           CANTARELL :FIELD
LOC         .                                             UNKNOWN :LOCATION
CNTY        .                                      CD. DEL CARMEN :COUNTY
STAT        .                                            CAMPECHE :STATE
CTRY        .                                              MEXICO :COUNTRY
SRVC        .                                             UNKNOWN :SERVICE COMPANY
DATE        .                                             UNKNOWN :LOG DATE
UWI         .                                          3060000185 :UNIQUE WELL ID
XCOORD      .                                       604541.690000 :SURFACE X
YCOORD      .                                      2141649.620000 :SURFACE Y
LAT         .                                           19.367365 :LATITUDE
LON         .                                          -92.004578 :LONGITUDE
ELEV        .M                                            30.0000 :SURFACE ELEV
ELEV_TYPE   .                                                  KB :ELEV TYPE
~CURVE INFORMATION
#MNEMONIC.UNIT        API CODE       : CURVE DESCRIPTION
#------------------------------------------------------------------------------
DEPTH    .M                          : Measured Depth
CALI     .inches      UNKNOWN        : CALI:Import:rC:NONE:v0 (auto-composite)
DRHO     .g/cm3       UNKNOWN        : DRHO:Import:rC:NONE:v0 (auto-composite)
DT       .us/ft       UNKNOWN        : DT:Import:rC:NONE:v0 (auto-composite)
GR       .API         UNKNOWN        : GR:Import:rC:NONE:v0 (auto-composite)
ILD      .ohm.m       UNKNOWN        : ILD:Import:rC:NONE:v0 (auto-composite)
ILM      .ohm.m       UNKNOWN        : ILM:Import:rC:NONE:v0 (auto-composite)
NPHI     .v/v_decimal UNKNOWN        : NPHI:Import:rC:NONE:v0 (auto-composite)
RHOB     .g/cm3       UNKNOWN        : RHOB:Import:rC:NONE:v0 (auto-composite)
SN       .ohm.m       UNKNOWN        : SN:Import:rC:NONE:v0 (auto-composite)
SP       .mV          UNKNOWN        : SP:Import:rC:NONE:v0 (auto-composite)
~A     DEPTH         CALI         DRHO           DT           GR          ILD          ILM         NPHI         RHOB           SN           SP
# ...
   3156.9607       6.6840      -0.0355      68.3582       9.2197    1744.6692    -999.2500      -1.2448       2.0775    -999.2500    -999.2500
   3157.1133       6.6840      -0.0350      68.3522       8.8328    1747.6808    -999.2500      -1.2498       2.0780    -999.2500    -999.2500
   3157.2656       6.6840      -0.0306      68.2852       8.2764    1747.7729    -999.2500      -1.2403       2.0804    -999.2500    -999.2500
   3157.4180       6.6840      -0.0261      68.2163       7.7146    1747.7729    -999.2500      -1.2303       2.0829    -999.2500    -999.2500
   3157.5703       6.6840      -0.0270      68.3471       7.6960    1747.7729    -999.2500      -1.2310       2.0859    -999.2500    -999.2500
   3157.7227       6.6840      -0.0280      68.4843       7.6960    1747.7729    -999.2500      -1.2320       2.0889    -999.2500    -999.2500
   3157.8752       6.6840      -0.0328      68.4739       7.4296    1747.7729    -999.2500      -1.2368       2.0880    -999.2500    -999.2500
   3158.0276       6.6840      -0.0378      68.4585       7.1538    1747.7729    -999.2500      -1.2418       2.0870    -999.2500    -999.2500
   3158.1799       6.6869      -0.0361      68.4004       7.1581    1747.7729    -999.2500      -1.2555       2.0831    -999.2500    -999.2500
   3158.3323       6.6899      -0.0341      68.3410       7.1706    1747.7729    -999.2500      -1.2695       2.0791    -999.2500    -999.2500
   3158.4849       6.7050      -0.0345      68.1695       7.2859    1739.9897    -999.2500      -1.2700       2.0795    -999.2500    -999.2500
   3158.6372       6.7205      -0.0350      67.9949       7.4042    1731.9722    -999.2500      -1.2700       2.0800    -999.2500    -999.2500
   3158.7896       6.7394      -0.0389      68.0374       7.6863    1732.6805    -999.2500      -1.2690       2.0810    -999.2500    -999.2500
   3158.9419       6.7584      -0.0429      68.0873       7.9736    1733.6747    -999.2500      -1.2680       2.0820    -999.2500    -999.2500
   3159.0945       6.7590      -0.0425      68.0405       8.5207    1737.5916    -999.2500      -1.2632       2.0868    -999.2500    -999.2500
   3159.2468       6.7590      -0.0420      67.9907       9.0764    1741.6068    -999.2500      -1.2582       2.0918    -999.2500    -999.2500
   3159.3992       6.7590      -0.0410      68.0011       9.0039    1752.5177    -999.2500      -1.2445       2.0910    -999.2500    -999.2500
   3159.5515       6.7590      -0.0400      68.0136       8.9096    1763.6671    -999.2500      -1.2306       2.0900    -999.2500    -999.2500
   3159.7039       6.7590      -0.0385      68.1471       8.1249    1756.1111    -999.2500      -1.2494       2.0934    -999.2500    -999.2500
   3159.8564       6.7590      -0.0370      68.2843       7.3204    1748.0186    -999.2500      -1.2693       2.0969    -999.2500    -999.2500
   3160.0088       6.7469      -0.0331      68.2769       7.3445    1747.7729    -999.2500      -1.2700       2.0970    -999.2500    -999.2500
   3160.1611       6.7344      -0.0291      68.2644       7.3944    1747.7729    -999.2500      -1.2700       2.0970    -999.2500    -999.2500
   3160.3135       6.7340      -0.0295      68.1429       8.4607    1747.7729    -999.2500      -1.2666       2.0946    -999.2500    -999.2500
   3160.4661       6.7340      -0.0300      68.0183       9.5597    1747.7729    -999.2500      -1.2631       2.0921    -999.2500    -999.2500
   3160.6184       6.7369      -0.0319      68.0232       9.5350    1751.6924    -999.2500      -1.2519       2.0847    -999.2500    -999.2500
   3160.7708       6.7399      -0.0339      68.0327       9.4730    1755.7416    -999.2500      -1.2404       2.0772    -999.2500    -999.2500
   3160.9231       6.7526      -0.0379      68.0601       9.1197    1751.9497    -999.2500      -1.2386       2.0780    -999.2500    -999.2500
   3161.0757       6.7656      -0.0419      68.0880       8.7565    1747.8906    -999.2500      -1.2371       2.0790    -999.2500    -999.2500
   3161.2280       6.7752      -0.0357      68.1375       8.8911    1755.6372    -999.2500      -1.2336       2.0892    -999.2500    -999.2500
   3161.3804       6.7847      -0.0292      68.1873       9.0405    1763.7362    -999.2500      -1.2300       2.0997    -999.2500    -999.2500
   3161.5327       6.7850      -0.0338      68.1769       8.9970    1762.0154    -999.2500      -1.2106       2.0995    -999.2500    -999.2500
   3161.6851       6.7850      -0.0388      68.1644       8.9475    1759.9922    -999.2500      -1.1907       2.0990    -999.2500    -999.2500
   3161.8376       6.7724      -0.0342      68.1820       9.7442    1750.1597    -999.2500      -1.1910       2.1034    -999.2500    -999.2500
   3161.9900       6.7594      -0.0292      68.2004      10.5677    1740.0796    -999.2500      -1.1920       2.1079    -999.2500    -999.2500
   3162.1423       6.7590      -0.0368      68.2920      10.5351    1740.7061    -999.2500      -1.1983       2.1036    -999.2500    -999.2500
   3162.2947       6.7590      -0.0448      68.3857      10.4731    1741.7002    -999.2500      -1.2048       2.0991    -999.2500    -999.2500
   3162.4473       6.7469      -0.0445      68.2437       9.6356    1744.6588    -999.2500      -1.2171       2.0845    -999.2500    -999.2500
   3162.5996       6.7344      -0.0440      68.0941       8.7707    1747.6866    -999.2500      -1.2295       2.0695    -999.2500    -999.2500
   3162.7520       6.7340      -0.0382      68.1375       8.7460    1748.7543    -999.2500      -1.2154       2.0816    -999.2500    -999.2500
   3162.9043       6.7340      -0.0322      68.1873       8.7460    1749.7643    -999.2500      -1.2005       2.0946    -999.2500    -999.2500
   3163.0569       6.7311      -0.0325      68.1861       8.1886    1752.7416    -999.2500      -1.2097       2.0950    -999.2500    -999.2500
   3163.2092       6.7281      -0.0330      68.1831       7.6143    1755.7783    -999.2500      -1.2197       2.0950    -999.2500    -999.2500
   3163.3616       6.7067      -0.0359      68.1011       7.5960    1759.7958    -999.2500      -1.2103       2.0906    -999.2500    -999.2500
   3163.5139       6.6847      -0.0389      68.0169       7.5960    1763.8456    -999.2500      -1.2003       2.0861    -999.2500    -999.2500
   3163.6663       6.6840      -0.0385      68.0866       7.6501    1760.0607    -999.2500      -1.2010       2.0889    -999.2500    -999.2500
   3163.8188       6.6840      -0.0380      68.1614       7.7061    1756.0110    -999.2500      -1.2020       2.0919    -999.2500    -999.2500
   3163.9712       6.6840      -0.0365      68.1335       7.9387    1756.8572    -999.2500      -1.2073       2.0920    -999.2500    -999.2500
   3164.1235       6.6840      -0.0350      68.1021       8.1773    1757.8735    -999.2500      -1.2128       2.0920    -999.2500    -999.2500
   3164.2759       6.6714      -0.0360      67.9499       9.1359    1760.8512    -999.2500      -1.2260       2.0872    -999.2500    -999.2500
   3164.4285       6.6584      -0.0370      67.7943      10.1151    1763.8855    -999.2500      -1.2395       2.0822    -999.2500    -999.2500
   3164.5808       6.6609      -0.0409      67.8011       9.9512    1760.0518    -999.2500      -1.2376       2.0820    -999.2500    -999.2500
   3164.7332       6.6639      -0.0449      67.8136       9.7513    1756.0020    -999.2500      -1.2351       2.0820    -999.2500    -999.2500
   3164.8855       6.6737      -0.0397      67.9108       9.7629    1759.7979    -999.2500      -1.2253       2.0902    -999.2500    -999.2500
   3165.0381       6.6837      -0.0342      68.0106       9.7814    1763.8475    -999.2500      -1.2153       2.0987    -999.2500    -999.2500
   3165.1904       6.6840      -0.0355      67.9534       9.8850    1763.0034    -999.2500      -1.2053       2.0980    -999.2500    -999.2500
   3165.3428       6.6840      -0.0370      67.8911       9.9915    1761.9963    -999.2500      -1.1953       2.0970    -999.2500    -999.2500
