#------------------------------------------------------------------------------
#
#   Created by  : [OpenWorks] Log Export Utility (LEXP)
#   Created on  : 2016-05-23 11:53:41
#   Project     : CANT971
#   User        : R5K
#   Interpreter : PEP
#
#------------------------------------------------------------------------------
~VERSION INFORMATION
VERS. 2.0 : CWLS Log ASCII Standard - version 2.0
WRAP.  NO : One line per depth step
~WELL INFORMATION
#MNEMONIC   .UNIT                                           VALUE :DESCRIPTION
#------------------------------------------------------------------------------
STRT        .M                                           901.1412 :START DEPTH
STOP        .M                                          2449.6777 :STOP DEPTH
STEP        .M                                             0.1524 :STEP
NULL        .                                           -999.2500 :NULL VALUE
COMP        .                                   PEMEX EXPL & PROD :COMPANY
WELL        .                                                  25 :WELL
FLD         .                                           CANTARELL :FIELD
LOC         .                                             UNKNOWN :LOCATION
CNTY        .                                      CD. DEL CARMEN :COUNTY
STAT        .                                            CAMPECHE :STATE
CTRY        .                                              MEXICO :COUNTRY
SRVC        .                                             UNKNOWN :SERVICE COMPANY
DATE        .                                             UNKNOWN :LOG DATE
UWI         .                                          3060000154 :UNIQUE WELL ID
XCOORD      .                                       603358.080000 :SURFACE X
YCOORD      .                                      2145091.420000 :SURFACE Y
LAT         .                                           19.398528 :LATITUDE
LON         .                                          -92.015660 :LONGITUDE
ELEV        .M                                            27.1400 :SURFACE ELEV
ELEV_TYPE   .                                                  KB :ELEV TYPE
~CURVE INFORMATION
#MNEMONIC.UNIT        API CODE       : CURVE DESCRIPTION
#------------------------------------------------------------------------------
DEPTH    .M                          : Measured Depth
CALI     .in          UNKNOWN        : CALI:registros:rC:NONE:v0 (auto-composite)
DRHO     .g/cm3       UNKNOWN        : DRHO:registros:rC:NONE:v0 (auto-composite)
DT       .us/ft       UNKNOWN        : DT:registros:rC:NONE:v0 (auto-composite)
GR       .api         UNKNOWN        : GR:registros:rC:NONE:v0 (auto-composite)
ILD      .ohmm        UNKNOWN        : ILD:registros:rC:NONE:v0 (auto-composite)
LLD      .ohmm        UNKNOWN        : LLD:registros:rC:NONE:v0 (auto-composite)
LLS      .ohmm        UNKNOWN        : LLS:registros:rC:NONE:v0 (auto-composite)
MSFL     .ohmm        UNKNOWN        : MSFL:registros:rC:NONE:v0 (auto-composite)
NPHI     .v/v_decimal UNKNOWN        : NPHI:registros:rC:NONE:v0 (auto-composite)
PEF      .b/elec      UNKNOWN        : PEF:registros:rC:NONE:v0 (auto-composite)
RHOB     .g/cm3       UNKNOWN        : RHOB:registros:rC:NONE:v0 (auto-composite)
~A     DEPTH         CALI         DRHO           DT           GR          ILD          LLD          LLS         MSFL         NPHI          PEF         RHOB
# ...
   1709.4708       9.3477       0.0365    -999.2500      38.9349    -999.2500      58.4443      19.0243      41.9596       0.1569    -999.2500       2.5815
   1709.6233       9.5010       0.0430    -999.2500      36.1500    -999.2500      58.6960      19.1000      46.1390       0.1690    -999.2500       2.5800
   1709.7756       9.6947       0.0544    -999.2500      35.2767    -999.2500      61.0265      19.7970      68.9874       0.1685    -999.2500       2.5651
   1709.9280       9.8880       0.0660    -999.2500      34.4000    -999.2500      63.3700      20.4980      91.9640       0.1679    -999.2500       2.5500
   1710.0804       9.8780       0.0784    -999.2500      34.6620    -999.2500      67.2603      21.2937      90.5904       0.1625    -999.2500       2.5510
   1710.2328       9.8680       0.0910    -999.2500      34.9250    -999.2500      71.1730      22.0940      89.2090       0.1571    -999.2500       2.5520
   1710.3853       9.6347       0.0880    -999.2500      37.0898    -999.2500      69.9296      21.8602      67.7534       0.1471    -999.2500       2.5699
   1710.5376       9.4020       0.0850    -999.2500      39.2620    -999.2500      68.6790      21.6250      46.1720       0.1371    -999.2500       2.5880
   1710.6901       9.4080       0.0636    -999.2500      41.0975    -999.2500      70.8256      21.9670      46.1999       0.1300    -999.2500       2.5875
   1710.8424       9.4140       0.0420    -999.2500      42.9380    -999.2500      72.9850      22.3110      46.2280       0.1229    -999.2500       2.5870
   1710.9949       9.4741       0.0370    -999.2500      40.2060    -999.2500      72.9391      22.2228      46.9353       0.1180    -999.2500       2.5855
   1711.1472       9.5340       0.0320    -999.2500      37.4660    -999.2500      72.8930      22.1340      47.6470       0.1130    -999.2500       2.5840
   1711.2997       9.6816       0.0295    -999.2500      37.4700    -999.2500      71.9880      21.3217      46.9768       0.1132    -999.2500       2.5830
   1711.4520       9.8290       0.0270    -999.2500      37.4740    -999.2500      71.0780      20.5050      46.3030       0.1134    -999.2500       2.5820
   1711.6045       9.9597       0.0250    -999.2500      37.7411    -999.2500      66.7388      19.1487      41.2286       0.1156    -999.2500       2.5730
   1711.7568      10.0900       0.0230    -999.2500      38.0090    -999.2500      62.3790      17.7860      36.1300       0.1177    -999.2500       2.5640
   1711.9092      10.0605       0.0220    -999.2500      39.9818    -999.2500      58.2391      17.8334      30.8748       0.1231    -999.2500       2.5331
   1712.0616      10.0310       0.0210    -999.2500      41.9610    -999.2500      54.0790      17.8810      25.5940       0.1284    -999.2500       2.5020
   1712.2140      10.0455       0.0150    -999.2500      44.1123    -999.2500      54.0900      18.2975      21.6973       0.1368    -999.2500       2.4532
   1712.3665      10.0600       0.0090    -999.2500      46.2710    -999.2500      54.1010      18.7160      17.7810       0.1453    -999.2500       2.4040
   1712.5188      10.1832       0.0095    -999.2500      48.0638    -999.2500      54.4800      19.4342      17.9127       0.1543    -999.2500       2.3467
   1712.6713      10.3060       0.0100    -999.2500      49.8630    -999.2500      54.8610      20.1560      18.0450       0.1633    -999.2500       2.2890
   1712.8236      10.4827       0.0150    -999.2500      56.4005    -999.2500      57.1744      21.6700      19.7754       0.1843    -999.2500       2.2108
   1712.9761      10.6590       0.0200    -999.2500      62.9620    -999.2500      59.5000      23.1920      21.5150       0.2054    -999.2500       2.1320
   1713.1284      10.8427       0.0334    -999.2500      61.9444    -999.2500      60.5377      24.0088      30.3163       0.2054    -999.2500       2.1340
   1713.2809      11.0260       0.0470    -999.2500      60.9230    -999.2500      61.5810      24.8300      39.1650       0.2053    -999.2500       2.1360
   1713.4332      10.9865       0.0589    -999.2500      53.5160    -999.2500      64.3658      26.5817      62.8347       0.2028    -999.2500       2.1594
   1713.5857      10.9470       0.0710    -999.2500      46.0800    -999.2500      67.1660      28.3430      86.6350       0.2004    -999.2500       2.1830
   1713.7380      10.6386       0.0705    -999.2500      41.9908    -999.2500      84.0159      37.2937     319.3047       0.1831    -999.2500       2.2468
   1713.8904      10.3310       0.0700    -999.2500      37.8850    -999.2500     100.9610      46.2950     553.2880       0.1657    -999.2500       2.3110
   1714.0428       9.9901       0.0670    -999.2500      35.7849    -999.2500     138.4827      64.6984     368.8184       0.1461    -999.2500       2.3812
   1714.1952       9.6500       0.0640    -999.2500      33.6760    -999.2500     176.2210      83.2080     183.2840       0.1264    -999.2500       2.4520
   1714.3477       9.8682       0.0311    -999.2500      33.7249    -999.2500     174.3595     101.6945     186.7981       0.1146    -999.2500       2.5108
   1714.5000      10.0860      -0.0020    -999.2500      33.7740    -999.2500     172.4870     120.2900     190.3330       0.1026    -999.2500       2.5700
   1714.6525      10.0570      -0.0015    -999.2500      34.0866    -999.2500     177.0014     132.1582     221.2209       0.1036    -999.2500       2.5695
   1714.8048      10.0280      -0.0010    -999.2500      34.4000    -999.2500     181.5430     144.0980     252.2950       0.1045    -999.2500       2.5690
   1714.9573       9.7963       0.0025    -999.2500      34.4774    -999.2500     180.7466     142.6878     241.2361       0.1112    -999.2500       2.5630
   1715.1096       9.5650       0.0060    -999.2500      34.5550    -999.2500     179.9460     141.2700     230.1180       0.1179    -999.2500       2.5570
   1715.2621       9.2497       0.0115    -999.2500      35.2829    -999.2500     172.3103     130.3156     147.8584       0.1230    -999.2500       2.5391
   1715.4144       8.9350       0.0170    -999.2500      36.0130    -999.2500     164.6390     119.3100      65.2150       0.1281    -999.2500       2.5210
   1715.5669       8.8264       0.0155    -999.2500      37.8012    -999.2500     139.2957     103.1792      65.4514       0.1339    -999.2500       2.5065
   1715.7192       8.7180       0.0140    -999.2500      39.5950    -999.2500     113.8310      86.9710      65.6890       0.1398    -999.2500       2.4920
   1715.8716       8.7275       0.0016    -999.2500      41.7594    -999.2500     115.8236      75.7855      71.6074       0.1391    -999.2500       2.4780
   1716.0240       8.7370      -0.0110    -999.2500      43.9310    -999.2500     117.8260      64.5450      77.5550       0.1385    -999.2500       2.4640
   1716.1764       8.8016      -0.0075    -999.2500      42.3203    -999.2500     135.0695      66.0482     187.6363       0.1333    -999.2500       2.4670
   1716.3289       8.8660      -0.0040    -999.2500      40.7040    -999.2500     152.4000      67.5590     298.2730       0.1281    -999.2500       2.4700
   1716.4812       8.9126      -0.0040    -999.2500      40.9865    -999.2500     181.6653      80.5569     295.7615       0.1196    -999.2500       2.4899
   1716.6337       8.9590      -0.0040    -999.2500      41.2700    -999.2500     211.0820      93.6220     293.2370       0.1110    -999.2500       2.5100
   1716.7860       9.0051      -0.0040    -999.2500      41.2106    -999.2500     242.4783     113.3712     269.0241       0.1033    -999.2500       2.5269
   1716.9385       9.0510      -0.0040    -999.2500      41.1510    -999.2500     274.0410     133.2250     244.6830       0.0955    -999.2500       2.5440
   1717.0908       9.1451      -0.0030    -999.2500      40.6040    -999.2500     351.6296     155.2867     192.3923       0.0956    -999.2500       2.5570
   1717.2433       9.2390      -0.0020    -999.2500      40.0550    -999.2500     429.6390     177.4680     139.8180       0.0957    -999.2500       2.5700
