#------------------------------------------------------------------------------
#
#   Created by  : [OpenWorks] Log Export Utility (LEXP)
#   Created on  : 2016-05-23 11:56:14
#   Project     : CANT971
#   User        : R5K
#   Interpreter : PEP
#
#------------------------------------------------------------------------------
~VERSION INFORMATION
VERS. 2.0 : CWLS Log ASCII Standard - version 2.0
WRAP.  NO : One line per depth step
~WELL INFORMATION
#MNEMONIC   .UNIT                                           VALUE :DESCRIPTION
#------------------------------------------------------------------------------
STRT        .M                                          1862.0000 :START DEPTH
STOP        .M                                          3052.8535 :STOP DEPTH
STEP        .M                                             0.1524 :STEP
NULL        .                                           -999.2500 :NULL VALUE
COMP        .                                   PEMEX EXPL & PROD :COMPANY
WELL        .                                                446D :WELL
FLD         .                                           CANTARELL :FIELD
LOC         .                                             UNKNOWN :LOCATION
CNTY        .                                      CD. DEL CARMEN :COUNTY
STAT        .                                            CAMPECHE :STATE
CTRY        .                                              MEXICO :COUNTRY
SRVC        .                                             UNKNOWN :SERVICE COMPANY
DATE        .                                             UNKNOWN :LOG DATE
UWI         .                                            W-C-446D :UNIQUE WELL ID
XCOORD      .                                       598705.170000 :SURFACE X
YCOORD      .                                      2143305.170000 :SURFACE Y
LAT         .                                           19.382621 :LATITUDE
LON         .                                          -92.060061 :LONGITUDE
ELEV        .M                                            28.0000 :SURFACE ELEV
ELEV_TYPE   .                                                  KB :ELEV TYPE
~CURVE INFORMATION
#MNEMONIC.UNIT        API CODE       : CURVE DESCRIPTION
#------------------------------------------------------------------------------
DEPTH    .M                          : Measured Depth
CALI     .inches      UNKNOWN        : CALI:litodensidad:rC:NONE:v0 (auto-composite)
CGR      .API         UNKNOWN        : CGR:CGR-Load:rC:NONE:v0 (auto-composite)
DRHO     .g/cm3       UNKNOWN        : DRHO:litodensidad:rC:NONE:v0 (auto-composite)
DT       .us/ft       UNKNOWN        : DT:DT-Load:rC:NONE:v0 (auto-composite)
GR       .UNKNOWN     UNKNOWN        : GR:PETROWORKS:rC:NONE:v1 
LLD      .ohm.m       UNKNOWN        : LLD:PETROWORKS:rC:NONE:v1 
LLS      .UNKNOWN     UNKNOWN        : LLS:PETROWORKS:rC:NONE:v1 
MSFL     .UNKNOWN     UNKNOWN        : MSFL:PETROWORKS:rC:NONE:v1 
NPHI     .v/v_decimal UNKNOWN        : NPHI:PETROWORKS:rC:NONE:v2 
PEF      .UNKNOWN     UNKNOWN        : PEF:litodensidad:rC:NONE:v0 (auto-composite)
POTA     .UNKNOWN     UNKNOWN        : POTA:radioactividad:rC:NONE:v0 (auto-composite)
RHOB     .g/cm3       UNKNOWN        : RHOB:litodensidad:rC:NONE:v0 (auto-composite)
THOR     .ppm         UNKNOWN        : THOR:radioactividad:rC:NONE:v0 (auto-composite)
URAN     .ppm         UNKNOWN        : URAN:radioactividad:rC:NONE:v0 (auto-composite)
~A     DEPTH         CALI          CGR         DRHO           DT           GR          LLD          LLS         MSFL         NPHI          PEF         POTA         RHOB         THOR         URAN
# ...
   2732.5088       6.9535       5.4336      -0.0026      62.5336      23.9876    1921.5240    1227.4067     966.6918       0.0138       3.5962       0.0027       2.8105       0.0738       1.9866
   2732.6611       6.9713       5.3637      -0.0017      63.0013      23.5818    1904.1991    1183.0332     846.7198       0.0128       3.4470       0.0026       2.8070       0.0811       1.9104
   2732.8137       6.9324       5.4633      -0.0002      63.4394      23.8196    1877.7278    1169.6506     575.1780       0.0124       3.4201       0.0023       2.8127       0.2157       1.9678
   2732.9661       6.8796       3.6115       0.0012      63.2453      21.7541    1944.5615    1208.9465     439.5571       0.0124       3.4836       0.0015       2.8107       0.1588       1.8990
   2733.1184       6.9412       4.1739       0.0004      64.7263      21.9784    1931.3477    1231.5731     250.4427       0.0121       3.5970       0.0017       2.8190       0.1838       1.8944
   2733.2708       6.9861       4.3077      -0.0005      66.0177      22.1192    1833.1576    1161.0565     250.7279       0.0119       3.5214       0.0018       2.8183       0.2128       1.8853
   2733.4231       6.9650       4.2904      -0.0014      68.0241      21.9868    1504.6300     981.5569     189.5777       0.0120       3.4412       0.0018       2.8226       0.2155       1.8676
   2733.5757       6.9627       4.2048       0.0000      70.4296      22.2687    1103.6791     759.4415     296.3005       0.0129       3.3871       0.0014       2.8228       0.3526       1.9122
   2733.7280       7.0118       2.9867      -0.0004      70.7151      21.2468     932.4208     626.6942     290.7727       0.0140       3.5253       0.0007       2.8165       0.3694       1.8804
   2733.8804       7.1446       4.8855       0.0014      69.8518      23.5489     864.3453     586.8271     370.0887       0.0153       3.4867       0.0010       2.8080       0.6473       1.9751
   2734.0327       7.1022       5.6374       0.0022      71.9905      24.6031     860.7756     588.7261     217.2874       0.0163       3.4066       0.0008       2.8042       0.8998       2.0249
   2734.1853       6.9261       4.9083       0.0031      72.0181      24.0661     908.3365     625.6869      86.6918       0.0178       3.3601       0.0005       2.8108       0.8601       2.0276
   2734.3376       6.9261       5.2657       0.0034      71.2283      24.8428     942.9406     661.3010     195.0066       0.0179       3.3768       0.0006       2.8161       0.9032       2.0779
   2734.4900       6.9476       5.7399       0.0025      70.9304      25.5736     906.2608     640.6829     242.6379       0.0192       3.4826       0.0009       2.8028       0.8701       2.0992
   2734.6423       6.8896       6.6309      -0.0013      71.6634      27.1401     768.2939     562.6507     203.1899       0.0259       3.3314       0.0017       2.7701       0.7676       2.1612
   2734.7949       6.8586       8.3759      -0.0023      70.9514      29.4820     677.1715     491.3273     114.1061       0.0350       3.3904       0.0026       2.7486       0.7490       2.2339
   2734.9473       6.9090       9.4279      -0.0013      68.2532      31.5886     623.7110     456.7701     164.2774       0.0404       3.3421       0.0029       2.7397       0.8688       2.3607
   2735.0996       6.9646       9.8450       0.0000      67.5880      32.5923     602.6465     438.9056     663.7981       0.0375       3.4087       0.0031       2.7448       0.8846       2.4074
   2735.2520       6.9639      13.3867      -0.0009      69.2037      36.9840     590.2175     426.0916     690.6647       0.0364       3.3504       0.0052       2.7456       0.7913       2.4788
   2735.4043       6.9199      20.0512       0.0000      69.0758      43.2135     549.3508     395.8937     339.7545       0.0386       3.3904       0.0081       2.7485       1.0387       2.4754
   2735.5569       6.9743      19.0887       0.0020      70.9522      41.6033     460.7547     344.3581     272.2085       0.0412       3.4258       0.0078       2.7450       0.9592       2.3450
   2735.7092       6.9558      19.5000       0.0017      70.4508      41.4898     417.2408     307.3174     213.8253       0.0416       3.3935       0.0080       2.7364       1.0113       2.3256
   2735.8616       6.9370      20.6434       0.0056      69.7911      42.5408     397.6645     295.5045     120.6535       0.0399       3.3096       0.0081       2.7397       1.1885       2.3420
   2736.0139       6.9562      19.9637       0.0100      69.8697      41.1459     388.6133     295.9359      45.7644       0.0399       3.2733       0.0079       2.7490       1.1248       2.2214
   2736.1665       6.9601      20.6532       0.0114      69.2211      41.1197     423.8334     320.7511      96.9013       0.0405       3.3190       0.0080       2.7489       1.2580       2.1976
   2736.3188       6.9439      17.4693       0.0086      69.6094      37.1258     477.5492     357.1859     124.6794       0.0434       3.3900       0.0068       2.7390       1.0444       2.0453
   2736.4712       7.0084      16.0500       0.0090      71.6505      34.9661     495.3305     377.0119     222.4128       0.0445       3.3989       0.0064       2.7333       0.8820       2.0154
   2736.6235       7.1636      10.8917       0.0077      71.3214      30.5812     529.9362     384.3577     297.4557       0.0466       3.2859       0.0042       2.7391       0.6541       2.0259
   2736.7759       7.0894      10.2804       0.0067      71.9637      29.8675     515.1052     369.5669     174.9163       0.0506       3.2566       0.0038       2.7444       0.6917       2.0734
   2736.9285       7.0175       9.6879       0.0054      72.3547      29.5420     471.9949     338.8258     153.9395       0.0543       3.2914       0.0035       2.7429       0.6524       2.0477
   2737.0808       6.8864      12.4234       0.0029      72.4000      32.6571     473.5686     334.8676     134.7527       0.0580       3.3648       0.0048       2.7311       0.7700       2.1418
   2737.2332       6.8581      12.7669       0.0023      71.1279      33.3105     509.9089     358.0495      81.1348       0.0580       3.2492       0.0051       2.7181       0.7222       2.1441
   2737.3855       6.8742      14.3483       0.0051      69.6274      35.1961     604.9814     426.0161     102.4397       0.0547       3.1540       0.0054       2.7082       0.9009       2.2064
   2737.5381       6.8665      12.4060       0.0058      71.2673      31.5540     820.1049     508.7326     210.0924       0.0527       3.1884       0.0049       2.6964       0.6990       2.0699
   2737.6904       6.8827      10.9067       0.0044      71.8548      24.0693     664.0289     471.7217     154.0614       0.0543       3.4088       0.0050       2.6801       0.3299       1.3934
   2737.8428       6.9272      12.3681       0.0044      71.2215      24.7516     623.2974     404.5066     198.1189       0.0582       3.5306       0.0055       2.6842       0.4280       1.3071
   2737.9951       6.9242      14.6821       0.0019      71.3969      27.3111     632.4451     410.3018     232.6166       0.0606       3.4339       0.0063       2.6916       0.6359       1.3366
   2738.1477       6.8761      14.5741      -0.0031      71.8319      26.7861     662.0362     423.0390     110.5719       0.0625       3.1660       0.0061       2.7027       0.6990       1.3329
   2738.3000       6.8624      11.7828      -0.0048      69.8623      22.9712     769.1569     481.2459     117.0552       0.0631       3.1021       0.0058       2.7032       0.1861       1.1842
   2738.4524       6.8992      12.6951      -0.0045      70.9417      24.7498    1129.6022     597.1819     200.9938       0.0635       3.1262       0.0059       2.6940       0.3459       1.3218
   2738.6047       6.9303      11.6253      -0.0033      72.5571      24.2738    1236.2963     651.9513     260.9420       0.0630       3.2600       0.0053       2.6853       0.3767       1.3385
   2738.7571       6.9304       9.9707      -0.0009      72.4182      22.8442    1270.8219     623.0281     169.0820       0.0651       3.2494       0.0044       2.6875       0.4139       1.3381
