#------------------------------------------------------------------------------
#
#   Created by  : [OpenWorks] Log Export Utility (LEXP)
#   Created on  : 2016-05-23 11:52:51
#   Project     : CANT971
#   User        : R5K
#   Interpreter : PEP
#
#------------------------------------------------------------------------------
~VERSION INFORMATION
VERS. 2.0 : CWLS Log ASCII Standard - version 2.0
WRAP.  NO : One line per depth step
~WELL INFORMATION
#MNEMONIC   .UNIT                                           VALUE :DESCRIPTION
#------------------------------------------------------------------------------
STRT        .M                                           691.4386 :START DEPTH
STOP        .M                                          2836.4685 :STOP DEPTH
STEP        .M                                             0.1524 :STEP
NULL        .                                           -999.2500 :NULL VALUE
COMP        .                                   PEMEX EXPL & PROD :COMPANY
WELL        .                                                2094 :WELL
FLD         .                                           CANTARELL :FIELD
LOC         .                                             UNKNOWN :LOCATION
CNTY        .                                      CD. DEL CARMEN :COUNTY
STAT        .                                            CAMPECHE :STATE
CTRY        .                                              MEXICO :COUNTRY
SRVC        .                                             UNKNOWN :SERVICE COMPANY
DATE        .                                             UNKNOWN :LOG DATE
UWI         .                                          3060000525 :UNIQUE WELL ID
XCOORD      .                                       601711.170000 :SURFACE X
YCOORD      .                                      2142342.970000 :SURFACE Y
LAT         .                                           19.373776 :LATITUDE
LON         .                                          -92.031490 :LONGITUDE
ELEV        .M                                            24.0000 :SURFACE ELEV
ELEV_TYPE   .                                                  KB :ELEV TYPE
~CURVE INFORMATION
#MNEMONIC.UNIT        API CODE       : CURVE DESCRIPTION
#------------------------------------------------------------------------------
DEPTH    .M                          : Measured Depth
CALI     .in          UNKNOWN        : CALI:registros:rC:NONE:v0 (auto-composite)
DRHO     .g/cm3       UNKNOWN        : DRHO:registros:rC:NONE:v0 (auto-composite)
DT       .us/ft       UNKNOWN        : DT:registros:rC:NONE:v0 (auto-composite)
GR       .API         UNKNOWN        : GR:registros:rC:NONE:v0 (auto-composite)
ILD      .ohm.m       UNKNOWN        : ILD:registros:rC:NONE:v0 (auto-composite)
ILM      .ohm.m       UNKNOWN        : ILM:registros:rC:NONE:v0 (auto-composite)
LLD      .ohm.m       UNKNOWN        : LLD:registros:rC:NONE:v0 (auto-composite)
LLS      .ohm.m       UNKNOWN        : LLS:registros:rC:NONE:v0 (auto-composite)
MSFL     .ohm.m       UNKNOWN        : MSFL:registros:rC:NONE:v0 (auto-composite)
NPHI     .v/v_decimal UNKNOWN        : NPHI:registros:rC:NONE:v0 (auto-composite)
PEF      .b/elec      UNKNOWN        : PEF:registros:rC:NONE:v0 (auto-composite)
RHOB     .g/cm3       UNKNOWN        : RHOB:registros:rC:NONE:v0 (auto-composite)
~A     DEPTH         CALI         DRHO           DT           GR          ILD          ILM          LLD          LLS         MSFL         NPHI          PEF         RHOB
# ...
   2300.7827       8.9165       0.0105      67.7120      51.1844    -999.2500    -999.2500     182.3983     176.9182     248.4334       0.1050       4.2192       2.5600
   2300.9351       8.9206       0.0124      67.8615      52.4220    -999.2500    -999.2500     201.7630     194.6270     266.1300       0.1058       4.0664       2.5670
   2301.0874       8.9235       0.0155      68.2377      51.5285    -999.2500    -999.2500     214.4436     205.6472     313.6486       0.1096       3.9267       2.5740
   2301.2397       8.9237       0.0178      68.5830      50.6420    -999.2500    -999.2500     227.0260     216.5820     360.8750       0.1134       3.8272       2.5774
   2301.3921       8.9180       0.0170      68.6264      47.9673    -999.2500    -999.2500     223.0027     211.1940     330.4939       0.1147       3.8185       2.5715
   2301.5447       8.9109       0.0149      68.5103      45.3130    -999.2500    -999.2500     219.0100     205.8470     300.2960       0.1154       3.8651       2.5628
   2301.6970       8.9060       0.0125      68.2843      46.3634    -999.2500    -999.2500     191.1225     182.4056     209.2442       0.1115       3.9638       2.5560
   2301.8494       8.9038       0.0111      68.0510      47.4060    -999.2500    -999.2500     163.4440     159.1400     118.8750       0.1076       4.0992       2.5532
   2302.0017       8.9060       0.0125      67.9079      47.2243    -999.2500    -999.2500     165.4444     161.2217     697.6942       0.1089       4.2767       2.5585
   2302.1543       8.9082       0.0143      67.7853      47.0440    -999.2500    -999.2500     167.4300     163.2880    1272.2500       0.1104       4.4282       2.5636
   2302.3066       8.9060       0.0145      67.6249      45.2736    -999.2500    -999.2500     204.0758     201.6364    1272.1290       0.1105       4.4710       2.5600
   2302.4590       8.9029       0.0141      67.4906      43.5160    -999.2500    -999.2500     240.4560     239.7070    1272.0090       0.1104       4.4435       2.5545
   2302.6113       8.9020       0.0140      67.4600      43.5190    -999.2500    -999.2500     240.4414     239.6929    1136.7291       0.1080       4.3458       2.5530
   2302.7639       8.9038       0.0144      68.9225      43.5220    -999.2500    -999.2500     240.4270     239.6790    1002.4120       0.1055       4.2066       2.5543
   2302.9163       8.9100       0.0160      74.0675      45.6906    -999.2500    -999.2500     231.0975     230.4790     703.7862       0.1038       4.0329       2.5590
   2303.0686       8.9188       0.0184      79.8178      47.8440    -999.2500    -999.2500     221.8480     221.3580     407.2500       0.1025       3.8752       2.5664
   2303.2209       8.9295       0.0220      83.4513      49.1530    -999.2500    -999.2500     206.6949     207.8257     473.6028       0.1062       3.7931       2.5775
   2303.3733       8.9440       0.0247      88.7360      50.4530    -999.2500    -999.2500     191.6700     194.4080     539.5000       0.1103       3.7575       2.5857
   2303.5259       8.9660       0.0240     100.3029      49.4105    -999.2500    -999.2500     195.3242     195.6552     483.5457       0.1170       3.7635       2.5830
   2303.6782       8.9864       0.0216     117.0501      48.3750    -999.2500    -999.2500     198.9480     196.8920     427.9690       0.1242       3.7851       2.5760
   2303.8306       8.9955       0.0180     140.6060      49.4499    -999.2500    -999.2500     231.4555     226.2807     377.8813       0.1353       3.8045       2.5690
   2303.9829       9.0228       0.0147     159.9671      50.5160    -999.2500    -999.2500     263.6960     255.4280     328.1250       0.1458       3.8055       2.5631
   2304.1355       9.1073       0.0130     162.0869      50.0908    -999.2500    -999.2500     288.1122     278.6338     337.3660       0.1428       3.7626       2.5600
   2304.2878       9.1885       0.0119     153.5521      49.6690    -999.2500    -999.2500     312.3310     301.6520     346.5470       0.1414       3.6965       2.5500
   2304.4402       9.2040       0.0105     135.5753      47.6695    -999.2500    -999.2500     370.9580     357.7835    1175.9143       0.1805       3.6161       2.5201
   2304.5925       9.1749       0.0080     114.9278      45.6860    -999.2500    -999.2500     429.1180     413.4680    2000.0000       0.2199       3.5379       2.4687
   2304.7451       9.1007       0.0030      96.9309      44.3457    -999.2500    -999.2500     475.1970     432.7786    1333.0413       0.2211       3.4791       2.3842
   2304.8975       9.0472      -0.0027      83.9142      43.0160    -999.2500    -999.2500     520.9150     451.9380     670.2500       0.2183       3.3974       2.3015
   2305.0498       9.0909      -0.0075      80.4779      43.0301    -999.2500    -999.2500     520.5461     451.7944     674.6996       0.1878       3.2393       2.2570
   2305.2021       9.7523      -0.0140      83.8871      43.0440    -999.2500    -999.2500     520.1800     451.6520     679.1220       0.1564       2.9022       2.1848
   2305.3545      11.8450      -0.0255      94.6441      43.5002    -999.2500    -999.2500     508.6191     447.0862     858.0978       0.1368       2.1986       2.0058
   2305.5071      14.5065      -0.0335     106.4063      43.9530    -999.2500    -999.2500     497.1460     442.5550    1036.0000       0.1196       1.5024       1.7710
   2305.6594      17.1422      -0.0280     113.4054      44.5256    -999.2500    -999.2500     507.0796     448.9960     904.6346       0.1316       1.1902       1.5054
   2305.8118      19.2667      -0.0164     107.8744      45.0940    -999.2500    -999.2500     516.9390     455.3890     774.2500       0.1570       1.0587       1.2706
   2305.9641      20.1652      -0.0035      76.4883      43.0550    -999.2500    -999.2500     534.6973     467.3263     469.8837       0.3937       0.9851       1.1422
   2306.1167      19.8497       0.0062      47.7597      41.0310    -999.2500    -999.2500     552.2970     479.1570     167.7500       0.6292       0.9919       1.0900
   2306.2690      17.7872       0.0065      51.1958      41.0456    -999.2500    -999.2500     622.3236     529.1796     716.2289       0.6264       1.1381       1.1184
   2306.4214      15.1472       0.0074      65.1232      41.0600    -999.2500    -999.2500     691.7340     578.7620    1260.7500       0.6075       1.3965       1.2052
   2306.5737      12.8444       0.0190      72.6802      41.5859    -999.2500    -999.2500     684.1415     571.4734     862.4012       0.5337       1.7897       1.3542
   2306.7263      11.0195       0.0314      75.8888      42.1080    -999.2500    -999.2500     676.6150     564.2480     466.8750       0.4555       2.2498       1.6094
   2306.8787      10.0146       0.0350      74.9459      44.8606    -999.2500    -999.2500     698.6417     568.4585     720.5712       0.3554       2.7378       2.0607
   2307.0310       9.4357       0.0348      72.9945      47.5940    -999.2500    -999.2500     720.4800     572.6330     972.5000       0.2567       3.1248       2.4736
   2307.1833       9.0696       0.0340      72.7244      47.5182    -999.2500    -999.2500     716.7302     570.0702     945.1083       0.2112       3.2365       2.5940
   2307.3357       8.8510       0.0314      74.4896      47.4430    -999.2500    -999.2500     713.0120     567.5290     917.9040       0.1700       3.2260       2.5895
   2307.4883       8.7765       0.0250      79.4824      46.3112    -999.2500    -999.2500     661.4771     531.9036     651.9026       0.1594       3.1960       2.5765
   2307.6406       8.7653       0.0194      85.2221      45.1870    -999.2500    -999.2500     610.3700     496.5740     387.6880       0.1506       3.1590       2.5661
   2307.7930       8.7620       0.0195      89.5795      45.0695    -999.2500    -999.2500     588.3454     482.4984     487.5479       0.1482       3.1240       2.5705
   2307.9453       8.7562       0.0214      90.6232      44.9530    -999.2500    -999.2500     566.5010     468.5380     586.7500       0.1462       3.0871       2.5816
