#------------------------------------------------------------------------------
#
#   Created by  : [OpenWorks] Log Export Utility (LEXP)
#   Created on  : 2016-05-23 11:50:40
#   Project     : CANT971
#   User        : R5K
#   Interpreter : PEP
#
#------------------------------------------------------------------------------
~VERSION INFORMATION
VERS. 2.0 : CWLS Log ASCII Standard - version 2.0
WRAP.  NO : One line per depth step
~WELL INFORMATION
#MNEMONIC   .UNIT                                           VALUE :DESCRIPTION
#------------------------------------------------------------------------------
STRT        .M                                           697.2303 :START DEPTH
STOP        .M                                          3650.8948 :STOP DEPTH
STEP        .M                                             0.1524 :STEP
NULL        .                                           -999.2500 :NULL VALUE
COMP        .                                   PEMEX EXPL & PROD :COMPANY
WELL        .                                                1026 :WELL
FLD         .                                           CANTARELL :FIELD
LOC         .                                             UNKNOWN :LOCATION
CNTY        .                                      CD. DEL CARMEN :COUNTY
STAT        .                                            CAMPECHE :STATE
CTRY        .                                              MEXICO :COUNTRY
SRVC        .                                             UNKNOWN :SERVICE COMPANY
DATE        .                                             UNKNOWN :LOG DATE
UWI         .                                          3060000491 :UNIQUE WELL ID
XCOORD      .                                       596159.330000 :SURFACE X
YCOORD      .                                      2150607.710000 :SURFACE Y
LAT         .                                           19.448735 :LATITUDE
LON         .                                          -92.083932 :LONGITUDE
ELEV        .M                                            30.0000 :SURFACE ELEV
ELEV_TYPE   .                                                  KB :ELEV TYPE
~CURVE INFORMATION
#MNEMONIC.UNIT        API CODE       : CURVE DESCRIPTION
#------------------------------------------------------------------------------
DEPTH    .M                          : Measured Depth
CALI     .inches      UNKNOWN        : CALI:registros:rC:NONE:v0 (auto-composite)
DRHO     .g/cm3       UNKNOWN        : DRHO:registros:rC:NONE:v0 (auto-composite)
DT       .us/ft       UNKNOWN        : DT:registros:rC:NONE:v0 (auto-composite)
GR       .API         UNKNOWN        : GR:registros:rC:NONE:v0 (auto-composite)
ILD      .ohm.m       UNKNOWN        : ILD:registros:rC:NONE:v0 (auto-composite)
ILM      .ohm.m       UNKNOWN        : ILM:registros:rC:NONE:v0 (auto-composite)
LLD      .ohm.m       UNKNOWN        : LLD:registros:rC:NONE:v0 (auto-composite)
LLS      .ohm.m       UNKNOWN        : LLS:registros:rC:NONE:v0 (auto-composite)
MSFL     .ohm.m       UNKNOWN        : MSFL:registros:rC:NONE:v0 (auto-composite)
NPHI     .v/v_decimal UNKNOWN        : NPHI:registros:rC:NONE:v0 (auto-composite)
PEF      .b/elec      UNKNOWN        : PEF:registros:rC:NONE:v0 (auto-composite)
RHOB     .g/cm3       UNKNOWN        : RHOB:registros:rC:NONE:v0 (auto-composite)
~A     DEPTH         CALI         DRHO           DT           GR          ILD          ILM          LLD          LLS         MSFL         NPHI          PEF         RHOB
# ...
   3089.3008      12.8635       0.0685      58.7815      36.8898    -999.2500    -999.2500      14.6120      16.7490       1.9297       0.0626       4.4792       2.3320
   3089.4531      12.8130       0.0750      59.0000      37.9370    -999.2500    -999.2500      18.3070      20.9960       3.1640       0.0423       4.2340       2.3390
   3089.6055      12.8750       0.1035      58.6250      37.4534    -999.2500    -999.2500      16.5945      19.2129       2.5430       0.0473       4.3005       2.3895
   3089.7578      12.9370       0.1320      58.2500      36.9690    -999.2500    -999.2500      14.8850      17.4330       1.9230       0.0678       4.3670       2.4400
   3089.9104      12.9020       0.2234      58.4425      37.5710    -999.2500    -999.2500       9.4646      11.0698       1.2910       0.1057       4.2540       2.5565
   3090.0627      12.8670       0.3150      58.6350      38.1740    -999.2500    -999.2500       4.0530       4.7170       0.6600       0.1402       4.1410       2.6730
   3090.2151      13.0115       0.3115      59.7484      42.8016    -999.2500    -999.2500       4.4418       5.1253       0.6365       0.1471       4.1410       2.6525
   3090.3674      13.1560       0.3080      60.8620      47.4370    -999.2500    -999.2500       4.8300       5.5330       0.6130       0.1450       4.1410       2.6320
   3090.5198      13.1445       0.2970      62.4933      47.0155    -999.2500    -999.2500       4.7138       5.3372       0.6150       0.1452       4.1605       2.6610
   3090.6724      13.1330       0.2860      64.1250      46.5940    -999.2500    -999.2500       4.5980       5.1420       0.6170       0.1523       4.1800       2.6900
   3090.8247      13.1420       0.2790      64.0940      48.2812    -999.2500    -999.2500       3.9411       4.3599       0.5609       0.1759       3.9335       2.6800
   3090.9771      13.1510       0.2720      64.0630      49.9690    -999.2500    -999.2500       3.2860       3.5800       0.5050       0.1989       3.6870       2.6700
   3091.1294      13.1835       0.2735      68.0963      47.1257    -999.2500    -999.2500       3.4517       3.7047       0.5566       0.2039       3.7440       2.6485
   3091.2820      13.2160       0.2750      72.1250      44.2810    -999.2500    -999.2500       3.6170       3.8290       0.6080       0.1998       3.8010       2.6270
   3091.4343      13.2810       0.2585      72.0310      44.4684    -999.2500    -999.2500       3.2685       3.5196       0.5614       0.1894       3.9764       2.6000
   3091.5867      13.3460       0.2420      71.9370      44.6560    -999.2500    -999.2500       2.9210       3.2110       0.5150       0.1732       4.1520       2.5730
   3091.7390      13.4735       0.1231      71.9580      44.0467    -999.2500    -999.2500       3.1032       3.3817       0.5150       0.1482       4.0505       2.3666
   3091.8916      13.6010       0.0040      71.9790      43.4370    -999.2500    -999.2500       3.2850       3.5520       0.5150       0.1275       3.9490       2.1600
   3092.0439      13.7366       0.0125      72.3942      43.5779    -999.2500    -999.2500       5.6678       5.3201       0.5495       0.1278       3.7146       2.2345
   3092.1963      13.8720       0.0210      72.8090      43.7190    -999.2500    -999.2500       8.0450       7.0840       0.5840       0.1437       3.4800       2.3090
   3092.3486      14.2621       0.0405      73.8323      43.4062    -999.2500    -999.2500       7.1755       6.3942       0.4824       0.1811       3.1901       2.1735
   3092.5010      14.6520       0.0600      74.8550      43.0930    -999.2500    -999.2500       6.3080       5.7060       0.3810       0.2295       2.9000       2.0380
   3092.6536      16.8185       0.1004      77.5217      42.1095    -999.2500    -999.2500       4.9506       4.6003       0.3810       0.2861       3.1424       2.1060
   3092.8059      18.9840       0.1410      80.1870      41.1250    -999.2500    -999.2500       3.5960       3.4970       0.3810       0.3320       3.3850       2.1740
   3092.9583      18.8160       0.1395      78.7167      41.6812    -999.2500    -999.2500       3.3227       3.2538       0.4175       0.3410       3.2696       2.1565
   3093.1106      18.6480       0.1380      77.2470      42.2380    -999.2500    -999.2500       3.0500       3.0110       0.4540       0.3317       3.1540       2.1390
   3093.2632      17.7769       0.1250      68.9660      43.8629    -999.2500    -999.2500       3.1701       3.1371       0.4495       0.3110       2.7912       1.8670
   3093.4155      16.9060       0.1120      60.6870      45.4900    -999.2500    -999.2500       3.2900       3.2630       0.4450       0.2919       2.4280       1.5950
   3093.5679      17.7421       0.0830      64.3362      46.6971    -999.2500    -999.2500       3.5592       3.5507       0.4330       0.2884       2.5109       1.6065
   3093.7202      18.5780       0.0540      67.9850      47.9060    -999.2500    -999.2500       3.8280       3.8380       0.4210       0.2922       2.5940       1.6180
   3093.8728      18.2655       0.0605      81.0240      47.5723    -999.2500    -999.2500       3.8740       3.8825       0.4100       0.2995       2.7985       1.7010
   3094.0251      17.9530       0.0670      94.0630      47.2380    -999.2500    -999.2500       3.9200       3.9270       0.3990       0.3115       3.0030       1.7840
   3094.1775      16.7971       0.0975      91.8371      46.5616    -999.2500    -999.2500       4.2608       4.1987       0.3825       0.3326       3.1120       1.9450
   3094.3298      15.6410       0.1280      89.6110      45.8840    -999.2500    -999.2500       4.6010       4.4700       0.3660       0.3458       3.2210       2.1060
   3094.4822      15.6410       0.1275      85.0181      45.4486    -999.2500    -999.2500       4.5384       4.4625       0.4146       0.3292       3.5960       2.1960
   3094.6348      15.6410       0.1270      80.4240      45.0130    -999.2500    -999.2500       4.4760       4.4550       0.4630       0.3092       3.9710       2.2860
   3094.7871      15.7855       0.1405      78.2732      42.4600    -999.2500    -999.2500       4.1961       4.2963       0.4104       0.3107       3.9245       2.3080
   3094.9395      15.9300       0.1540      76.1250      39.9060    -999.2500    -999.2500       3.9170       4.1380       0.3580       0.3171       3.8780       2.3300
   3095.0918      16.8083       0.2079      77.4372      40.9682    -999.2500    -999.2500       3.9771       4.1871       0.3635       0.3148       3.7615       2.3125
   3095.2444      17.6870       0.2620      78.7480      42.0310    -999.2500    -999.2500       4.0370       4.2360       0.3690       0.3040       3.6450       2.2950
   3095.3967      17.4359       0.2530      81.7150      41.8151    -999.2500    -999.2500       4.1662       4.3577       0.4346       0.2800       4.1678       2.2540
   3095.5491      17.1850       0.2440      84.6790      41.5990    -999.2500    -999.2500       4.2950       4.4790       0.5000       0.2586       4.6910       2.2130
   3095.7014      16.2796       0.2090      85.7209      40.7998    -999.2500    -999.2500       4.5563       4.6337       0.4584       0.2569       4.6795       2.1780
   3095.8540      15.3750       0.1740      86.7620      40.0000    -999.2500    -999.2500       4.8170       4.7880       0.4170       0.2646       4.6680       2.1430
   3096.0063      15.3750       0.1261      91.6013      40.9816    -999.2500    -999.2500       4.8090       5.0353       0.4816       0.2770       4.5126       2.0635
   3096.1587      15.3750       0.0780      96.4370      41.9640    -999.2500    -999.2500       4.8010       5.2820       0.5460       0.2862       4.3570       1.9840
   3096.3110      15.5030       0.0830      95.2922      45.6831    -999.2500    -999.2500       4.7369       5.2344       0.5220       0.2824       4.0252       1.9875
   3096.4634      15.6310       0.0880      94.1480      49.4060    -999.2500    -999.2500       4.6730       5.1870       0.4980       0.2715       3.6930       1.9910
