#------------------------------------------------------------------------------
#
#   Created by  : [OpenWorks] Log Export Utility (LEXP)
#   Created on  : 2016-05-23 11:50:37
#   Project     : CANT971
#   User        : R5K
#   Interpreter : PEP
#
#------------------------------------------------------------------------------
~VERSION INFORMATION
VERS. 2.0 : CWLS Log ASCII Standard - version 2.0
WRAP.  NO : One line per depth step
~WELL INFORMATION
#MNEMONIC   .UNIT                                           VALUE :DESCRIPTION
#------------------------------------------------------------------------------
STRT        .M                                           690.6770 :START DEPTH
STOP        .M                                          3400.6538 :STOP DEPTH
STEP        .M                                             0.1524 :STEP
NULL        .                                           -999.2500 :NULL VALUE
COMP        .                                   PEMEX EXPL & PROD :COMPANY
WELL        .                                                1024 :WELL
FLD         .                                           CANTARELL :FIELD
LOC         .                                             UNKNOWN :LOCATION
CNTY        .                                      CD. DEL CARMEN :COUNTY
STAT        .                                            CAMPECHE :STATE
CTRY        .                                              MEXICO :COUNTRY
SRVC        .                                             UNKNOWN :SERVICE COMPANY
DATE        .                                             UNKNOWN :LOG DATE
UWI         .                                          3060000490 :UNIQUE WELL ID
XCOORD      .                                       596162.640000 :SURFACE X
YCOORD      .                                      2150611.280000 :SURFACE Y
LAT         .                                           19.448767 :LATITUDE
LON         .                                          -92.083900 :LONGITUDE
ELEV        .M                                            30.0000 :SURFACE ELEV
ELEV_TYPE   .                                                  KB :ELEV TYPE
~CURVE INFORMATION
#MNEMONIC.UNIT        API CODE       : CURVE DESCRIPTION
#------------------------------------------------------------------------------
DEPTH    .M                          : Measured Depth
CALI     .inches      UNKNOWN        : CALI:registros:rC:NONE:v0 (auto-composite)
DRHO     .g/cm3       UNKNOWN        : DRHO:registros:rC:NONE:v0 (auto-composite)
DT       .us/ft       UNKNOWN        : DT:registros:rC:NONE:v0 (auto-composite)
GR       .API         UNKNOWN        : GR:registros:rC:NONE:v0 (auto-composite)
ILD      .ohm.m       UNKNOWN        : ILD:registros:rC:NONE:v0 (auto-composite)
ILM      .ohm.m       UNKNOWN        : ILM:registros:rC:NONE:v0 (auto-composite)
LLD      .ohm.m       UNKNOWN        : LLD:registros:rC:NONE:v0 (auto-composite)
LLS      .ohm.m       UNKNOWN        : LLS:registros:rC:NONE:v0 (auto-composite)
MSFL     .ohm.m       UNKNOWN        : MSFL:registros:rC:NONE:v0 (auto-composite)
NPHI     .v/v_decimal UNKNOWN        : NPHI:registros:rC:NONE:v0 (auto-composite)
PEF      .b/elec      UNKNOWN        : PEF:registros:rC:NONE:v0 (auto-composite)
RHOB     .g/cm3       UNKNOWN        : RHOB:registros:rC:NONE:v0 (auto-composite)
~A     DEPTH         CALI         DRHO           DT           GR          ILD          ILM          LLD          LLS         MSFL         NPHI          PEF         RHOB
# ...
   3360.7251       8.3060       0.0060      55.0420      32.9770    -999.2500    -999.2500     912.8210     362.7910     190.9740       0.1001       3.1510       2.6650
   3360.8774       8.2666       0.0060      55.5840      31.9535    -999.2500    -999.2500     821.3391     327.6523     164.7713       0.1087       3.0886       2.6555
   3361.0298       8.2270       0.0060      56.1280      30.9360    -999.2500    -999.2500     729.5160     292.4390     138.5130       0.1161       3.0260       2.6460
   3361.1821       8.4463       0.0080      56.7108      29.4907    -999.2500    -999.2500     649.7672     263.0366     140.3839       0.1178       2.8931       2.6215
   3361.3347       8.6660       0.0100      57.2950      28.0560    -999.2500    -999.2500     569.8390     233.5680     142.2590       0.1156       2.7600       2.5970
   3361.4871       9.3162       0.0260      56.6363      28.6516    -999.2500    -999.2500     509.5026     214.8472     145.0152       0.1118       2.7650       2.5750
   3361.6394       9.9680       0.0420      55.9760      29.2430    -999.2500    -999.2500     449.0230     196.0820     147.7780       0.1088       2.7700       2.5530
   3361.7917       9.7777       0.0805      56.1443      30.2295    -999.2500    -999.2500     410.1172     188.1359     157.9303       0.1092       2.7795       2.5815
   3361.9441       9.5870       0.1190      56.3130      31.2090    -999.2500    -999.2500     371.1140     180.1700     168.1080       0.1107       2.7890       2.6100
   3362.0967       9.1606       0.1629      56.8303      30.7484    -999.2500    -999.2500     342.4991     173.2671     154.7350       0.1112       2.8070       2.5915
   3362.2490       8.7330       0.2070      57.3490      30.2910    -999.2500    -999.2500     313.8090     166.3460     141.3270       0.1110       2.8250       2.5730
   3362.4014       9.0096       0.1985      57.1842      29.4948    -999.2500    -999.2500     271.8897     145.4483     105.9737       0.1108       2.8914       2.5760
   3362.5537       9.2870       0.1900      57.0190      28.7040    -999.2500    -999.2500     229.8550     124.4930      70.5230       0.1110       2.9580       2.5790
   3362.7063      10.2581       0.1615      56.8018      28.9674    -999.2500    -999.2500     232.2081     124.5279      72.7228       0.1122       3.0798       2.5905
   3362.8586      11.2320       0.1330      56.5840      29.2290    -999.2500    -999.2500     234.5680     124.5630      74.9290       0.1162       3.2020       2.6020
   3363.0110      11.1182       0.0991      57.3349      30.0231    -999.2500    -999.2500     260.6288     135.1007      80.8691       0.1249       3.1735       2.6170
   3363.1633      11.0040       0.0650      58.0880      30.8120    -999.2500    -999.2500     286.7680     145.6700      86.8270       0.1330       3.1450       2.6320
   3363.3159      10.5437       0.0455      58.0056      31.7801    -999.2500    -999.2500     354.1441     177.0961      96.9137       0.1354       3.1505       2.6520
   3363.4683      10.0820       0.0260      57.9230      32.7420    -999.2500    -999.2500     421.7310     208.5700     107.0320       0.1337       3.1560       2.6720
   3363.6206       9.3467       0.0185      57.3155      32.4476    -999.2500    -999.2500     488.1119     242.2128     121.2114       0.1296       3.1825       2.6715
   3363.7729       8.6090       0.0110      56.7060      32.1550    -999.2500    -999.2500     554.7090     275.9110     135.4370       0.1235       3.2090       2.6710
   3363.9253       8.6100       0.0170      56.9431      31.5471    -999.2500    -999.2500     532.1686     264.7844     151.2383       0.1158       3.2494       2.6530
   3364.0779       8.6110       0.0230      57.1810      30.9430    -999.2500    -999.2500     509.5520     253.6380     167.0930       0.1103       3.2900       2.6350
   3364.2302       8.6484       0.0415      57.6901      30.4445    -999.2500    -999.2500     466.6642     231.5690     153.4914       0.1106       3.3120       2.5861
   3364.3826       8.6860       0.0600      58.2010      29.9490    -999.2500    -999.2500     423.6260     209.4580     139.8420       0.1150       3.3340       2.5370
   3364.5349       8.6840       0.0845      58.0223      29.5869    -999.2500    -999.2500     433.8065     214.8430     113.5716       0.1218       3.3629       2.5430
   3364.6875       8.6820       0.1090      57.8430      29.2270    -999.2500    -999.2500     444.0240     220.2390      87.2480       0.1305       3.3920       2.5490
   3364.8398       8.6710       0.0990      57.2536      29.4115    -999.2500    -999.2500     472.3338     235.5236      99.0468       0.1406       3.3675       2.5675
   3364.9922       8.6600       0.0890      56.6620      29.5950    -999.2500    -999.2500     500.7500     250.8410     110.8710       0.1474       3.3430       2.5860
   3365.1445       8.6295       0.0665      55.9463      29.9829    -999.2500    -999.2500     555.2509     279.8320     149.5684       0.1463       3.2706       2.6085
   3365.2971       8.5990       0.0440      55.2290      30.3680    -999.2500    -999.2500     609.8760     308.8890     188.3540       0.1398       3.1980       2.6310
   3365.4495       8.5316       0.0285      54.5813      30.1793    -999.2500    -999.2500     743.6677     381.1582     237.1793       0.1302       3.1411       2.6515
   3365.6018       8.4640       0.0130      53.9320      29.9920    -999.2500    -999.2500     877.7810     453.6010     286.1220       0.1199       3.0840       2.6720
   3365.7542       8.3956       0.0090      53.3023      29.5775    -999.2500    -999.2500    1105.4299     587.0616     340.8307       0.1108       3.0935       2.6915
   3365.9065       8.3270       0.0050      52.6710      29.1660    -999.2500    -999.2500    1333.6550     720.8600     395.6780       0.1036       3.1030       2.7110
   3366.0591       8.3055       0.0040      52.1597      29.7766    -999.2500    -999.2500    1479.4559     856.3781     393.1689       0.0985       3.1310       2.7075
   3366.2114       8.2840       0.0030      51.6470      30.3830    -999.2500    -999.2500    1625.6440     992.2560     390.6530       0.0949       3.1590       2.7040
   3366.3638       8.2755       0.0025      51.6585      32.6608    -999.2500    -999.2500    1532.6379     914.0079     380.8557       0.0922       3.2334       2.6970
   3366.5161       8.2670       0.0020      51.6700      34.9230    -999.2500    -999.2500    1439.3730     835.5420     371.0310       0.0901       3.3080       2.6900
   3366.6687       8.2400       0.0015      51.8822      39.6483    -999.2500    -999.2500    1263.1737     836.6449     344.5265       0.0884       3.2895       2.6825
   3366.8210       8.2130       0.0010      52.0950      44.3420    -999.2500    -999.2500    1086.4620     837.7510     317.9450       0.0869       3.2710       2.6750
   3366.9734       8.2270      -0.0005      52.6197      43.9076    -999.2500    -999.2500    1153.7360     910.9918     239.5155       0.0857       3.2420       2.6810
   3367.1257       8.2410      -0.0020      53.1460      43.4760    -999.2500    -999.2500    1221.2140     984.4550     160.8480       0.0842       3.2130       2.6870
   3367.2783       8.2360      -0.0015      52.9658      42.2997    -999.2500    -999.2500    1333.4728    1125.9420     180.2139       0.0819       3.1940       2.7110
   3367.4307       8.2310      -0.0010      52.7850      41.1310    -999.2500    -999.2500    1446.0861    1267.6490     199.6410       0.0799       3.1750       2.7350
   3367.5830       8.2175       0.0005      52.1855      39.5926    -999.2500    -999.2500    1359.5278    1199.0187     284.3343       0.0794       3.1421       2.7325
   3367.7354       8.2040       0.0020      51.5840      38.0640    -999.2500    -999.2500    1272.6851    1130.2729     369.3060       0.0803       3.1090       2.7300
   3367.8877       8.2070       0.0035      50.9765      38.1422    -999.2500    -999.2500    1154.2471    1034.3456     366.6181       0.0821       3.0501       2.7190
