#------------------------------------------------------------------------------
#
#   Created by  : [OpenWorks] Log Export Utility (LEXP)
#   Created on  : 2016-05-23 11:57:10
#   Project     : CANT971
#   User        : R5K
#   Interpreter : PEP
#
#------------------------------------------------------------------------------
~VERSION INFORMATION
VERS. 2.0 : CWLS Log ASCII Standard - version 2.0
WRAP.  NO : One line per depth step
~WELL INFORMATION
#MNEMONIC   .UNIT                                           VALUE :DESCRIPTION
#------------------------------------------------------------------------------
STRT        .M                                           345.0980 :START DEPTH
STOP        .M                                          2040.8528 :STOP DEPTH
STEP        .M                                             0.1524 :STEP
NULL        .                                           -999.2500 :NULL VALUE
COMP        .                                   PEMEX EXPL & PROD :COMPANY
WELL        .                                                  71 :WELL
FLD         .                                           CANTARELL :FIELD
LOC         .                                             UNKNOWN :LOCATION
CNTY        .                                      CD. DEL CARMEN :COUNTY
STAT        .                                            CAMPECHE :STATE
CTRY        .                                              MEXICO :COUNTRY
SRVC        .                                             UNKNOWN :SERVICE COMPANY
DATE        .                                             UNKNOWN :LOG DATE
UWI         .                                          3060000175 :UNIQUE WELL ID
XCOORD      .                                       599724.470000 :SURFACE X
YCOORD      .                                      2147216.900000 :SURFACE Y
LAT         .                                           19.417919 :LATITUDE
LON         .                                          -92.050150 :LONGITUDE
ELEV        .M                                            27.8000 :SURFACE ELEV
ELEV_TYPE   .                                                  KB :ELEV TYPE
~CURVE INFORMATION
#MNEMONIC.UNIT        API CODE       : CURVE DESCRIPTION
#------------------------------------------------------------------------------
DEPTH    .M                          : Measured Depth
DT       .us/ft       UNKNOWN        : DT:DT:rC:NONE:v0 (auto-composite)
GR       .UNKNOWN     UNKNOWN        : GR:GR-Load:rC:NONE:v0 (auto-composite)
ILD      .UNKNOWN     UNKNOWN        : ILD:ILD-Load:rC:NONE:v0 (auto-composite)
NPHI     .v/v_decimal UNKNOWN        : NPHI:NPHI:rC:NONE:v0 (auto-composite)
RG       .UNKNOWN     UNKNOWN        : RG:RG-Loader:rC:NONE:v0 (auto-composite)
RHOB     .UNKNOWN     UNKNOWN        : RHOB:RHOB-Load:rC:NONE:v0 (auto-composite)
~A     DEPTH           DT           GR          ILD         NPHI           RG         RHOB
# ...
   2021.4980    -999.2500      40.0805       0.0000       7.9174      40.0000    -999.2500
   2021.6504    -999.2500      35.8931       0.0000       8.6949      40.0000    -999.2500
   2021.8029    -999.2500      36.3442       0.0000       9.3943      40.0000    -999.2500
   2021.9552    -999.2500      43.1719       0.0000       9.9863      40.0000    -999.2500
   2022.1077    -999.2500      45.7628       0.0000      11.2022      40.0000    -999.2500
   2022.2600    -999.2500      42.5274       0.0000      13.2761      40.0000    -999.2500
   2022.4125    -999.2500      37.3428       0.0000      15.2974      40.0000    -999.2500
   2022.5648    -999.2500      29.4770       0.0000      17.2464      40.0000    -999.2500
   2022.7172    -999.2500      25.4037       0.0000      18.8620      40.0000    -999.2500
   2022.8696    -999.2500      26.5482       0.0000      20.0189      40.0000    -999.2500
   2023.0220    -999.2500      27.6958       0.0000      25.1283      40.0000    -999.2500
   2023.1744    -999.2500      28.8478       0.0000      35.6770      40.0000    -999.2500
   2023.3268    -999.2500      30.7443       0.0000      41.2507      40.0000    -999.2500
   2023.4792    -999.2500      33.6657       0.0000      39.9763      40.0000    -999.2500
   2023.6316    -999.2500      36.9727       0.0000      38.8055      40.0000    -999.2500
   2023.7841    -999.2500      40.8106       0.0000      37.7777      40.0000    -999.2500
   2023.9364    -999.2500      42.8401       0.0000      35.9539      40.0000    -999.2500
   2024.0889    -999.2500      42.3871       0.0000      33.0374      40.0000    -999.2500
   2024.2412    -999.2500      42.5493       0.0000      29.7707      40.0000    -999.2500
   2024.3937    -999.2500      43.5563       0.0000      26.0228      40.0000    -999.2500
   2024.5460    -999.2500      45.2290       0.0000      24.4249      40.0000    -999.2500
   2024.6984    -999.2500      47.8159       0.0000      25.7798      40.0000    -999.2500
   2024.8508    -999.2500      48.4244       0.0000      26.3576      40.0000    -999.2500
   2025.0032    -999.2500      46.3149       0.0000      25.8676      40.0000    -999.2500
   2025.1556    -999.2500      45.1346       0.0000      25.2559      40.0000    -999.2500
   2025.3080    -999.2500      45.2311       0.0000      24.4769      40.0000    -999.2500
   2025.4604    -999.2500      46.9111       0.0000      23.4644      40.0000    -999.2500
   2025.6128    -999.2500      50.7675       0.0000      22.1310      40.0000    -999.2500
   2025.7653    -999.2500      55.3685       0.0000      20.1173      40.0000    -999.2500
   2025.9176    -999.2500      60.9933       0.0000      17.1684      40.0000    -999.2500
   2026.0701    -999.2500      63.7804       0.0000      14.8552      40.0000    -999.2500
   2026.2224    -999.2500      62.6649       0.0000      13.4162      40.0000    -999.2500
   2026.3749    -999.2500      61.1072       0.0000      12.5931      40.0000    -999.2500
   2026.5272    -999.2500      58.9413       0.0000      12.6171      40.0000    -999.2500
   2026.6796    -999.2500      59.2522       0.0000      12.9709      40.0000    -999.2500
   2026.8320    -999.2500      62.9711       0.0000      13.7783      40.0000    -999.2500
   2026.9844    -999.2500      65.0724       0.0000      14.1416      40.0000    -999.2500
   2027.1368    -999.2500      64.9474       0.0000      13.8936      40.0000    -999.2500
   2027.2892    -999.2500      65.2432       0.0000      13.1611      40.0000    -999.2500
   2027.4417    -999.2500      66.1181       0.0000      11.7616      40.0000    -999.2500
   2027.5940    -999.2500      65.5859       0.0000      10.9779      40.0000    -999.2500
   2027.7465    -999.2500      63.1160       0.0000      11.0394      40.0000    -999.2500
   2027.8988    -999.2500      61.9835       0.0000      10.9713      40.0000    -999.2500
   2028.0513    -999.2500      62.6870       0.0000      10.7253      40.0000    -999.2500
   2028.2036    -999.2500      61.3228       0.0000      10.4633      40.0000    -999.2500
   2028.3561    -999.2500      57.1194       0.0000      10.1793      40.0000    -999.2500
   2028.5084    -999.2500      55.4542       0.0000      10.2042      40.0000    -999.2500
   2028.6608    -999.2500      57.2751       0.0000      10.6532      40.0000    -999.2500
   2028.8132    -999.2500      59.1614       0.0000      10.8700      40.0000    -999.2500
   2028.9656    -999.2500      61.1373       0.0000      10.7680      40.0000    -999.2500
   2029.1180    -999.2500      59.5433       0.0000      10.9348      40.0000    -999.2500
   2029.2704    -999.2500      53.0435       0.0000      11.4707      40.0000    -999.2500
   2029.4229    -999.2500      49.5562       0.0000      11.5492      40.0000    -999.2500
   2029.5752    -999.2500      50.2097       0.0000      10.9987      40.0000    -999.2500
   2029.7277    -999.2500      52.5958       0.0000      10.3198      40.0000    -999.2500
   2029.8800    -999.2500      57.3641       0.0000       9.4643      40.0000    -999.2500
   2030.0325    -999.2500      59.2304       0.0000       9.1999      40.0000    -999.2500
   2030.1848    -999.2500      57.1055       0.0000       9.7484      40.0000    -999.2500
   2030.3373    -999.2500      55.9474       0.0000      10.3379      40.0000    -999.2500
   2030.4896    -999.2500      56.1194       0.0000      10.9839      40.0000    -999.2500
   2030.6420    -999.2500      56.0216       0.0000      11.6787      40.0000    -999.2500
   2030.7944    -999.2500      55.5526       0.0000      12.4407      40.0000    -999.2500
   2030.9468    -999.2500      56.0422       0.0000      12.7560      40.0000    -999.2500
   2031.0992    -999.2500      57.8512       0.0000      12.4565      40.0000    -999.2500
   2031.2516    -999.2500      61.0885       0.0000      12.1296      40.0000    -999.2500
   2031.4041    -999.2500      66.2924       0.0000      11.7649      40.0000    -999.2500
   2031.5564    -999.2500      72.3882       0.0000      12.3129      40.0000    -999.2500
   2031.7089    -999.2500      79.7124       0.0000      14.1133      40.0000    -999.2500
   2031.8612    -999.2500      90.2689       0.0000      14.6752      40.0000    -999.2500
   2032.0137    -999.2500     105.2629       0.0000      13.5368      40.0000    -999.2500
   2032.1660    -999.2500     122.1288       0.0000      13.0655      40.0000    -999.2500
   2032.3185    -999.2500     141.5652       0.0000      13.5105      40.0000    -999.2500
   2032.4708    -999.2500     149.6873       0.0000      14.1897      40.0000    -999.2500
   2032.6232    -999.2500     142.2680       0.0000      15.1907      40.0000    -999.2500
   2032.7756    -999.2500     135.0385       0.0000      16.8271      40.0000    -999.2500
   2032.9280    -999.2500     128.0697       0.0000      19.3365      40.0000    -999.2500
   2033.0804    -999.2500     121.0670       0.0000      19.6194      40.0000    -999.2500
   2033.2328    -999.2500     114.0177       0.0000      16.8425      40.0000    -999.2500
   2033.3853    -999.2500     110.6969       0.0000      13.9860      40.0000    -999.2500
   2033.5376    -999.2500     112.5013       0.0000      11.0201      40.0000    -999.2500
   2033.6901    -999.2500     116.6855       0.0000       8.9066      40.0000    -999.2500
   2033.8424    -999.2500     124.1417       0.0000       7.9651      40.0000    -999.2500
   2033.9949    -999.2500     132.0695       0.0000       7.4248      40.0000    -999.2500
   2034.1472    -999.2500     140.6457       0.0000       7.4363      40.0000    -999.2500
   2034.2997    -999.2500     148.4582       0.0000       7.5514      40.0000    -999.2500
   2034.4520    -999.2500     155.2200       0.0000       7.8089      40.0000    -999.2500
   2034.6044    -999.2500     162.1728       0.0000       8.1038      40.0000    -999.2500
   2034.7568    -999.2500     169.3886       0.0000       8.4503      40.0000    -999.2500
