#------------------------------------------------------------------------------
#
#   Created by  : [OpenWorks] Log Export Utility (LEXP)
#   Created on  : 2016-05-12 17:01:20
#   Project     : CANT971
#   User        : R5K
#   Interpreter : PEP
#
#------------------------------------------------------------------------------
~VERSION INFORMATION
VERS. 2.0 : CWLS Log ASCII Standard - version 2.0
WRAP.  NO : One line per depth step
~WELL INFORMATION
#MNEMONIC   .UNIT                                           VALUE :DESCRIPTION
#------------------------------------------------------------------------------
STRT        .M                                           993.9530 :START DEPTH
STOP        .M                                          2371.9539 :STOP DEPTH
STEP        .M                                             0.1524 :STEP
NULL        .                                           -999.2500 :NULL VALUE
COMP        .                                   PEMEX EXPL & PROD :COMPANY
WELL        .                                                  55 :WELL
FLD         .                                           CANTARELL :FIELD
LOC         .                                             UNKNOWN :LOCATION
CNTY        .                                      CD. DEL CARMEN :COUNTY
STAT        .                                            CAMPECHE :STATE
CTRY        .                                              MEXICO :COUNTRY
SRVC        .                                             UNKNOWN :SERVICE COMPANY
DATE        .                                             UNKNOWN :LOG DATE
UWI         .                                          3060000168 :UNIQUE WELL ID
XCOORD      .                                       602149.520000 :SURFACE X
YCOORD      .                                      2147170.290000 :SURFACE Y
LAT         .                                           19.417375 :LATITUDE
LON         .                                          -92.027057 :LONGITUDE
ELEV        .M                                            28.1700 :SURFACE ELEV
ELEV_TYPE   .                                                  KB :ELEV TYPE
~CURVE INFORMATION
#MNEMONIC.UNIT        API CODE       : CURVE DESCRIPTION
#------------------------------------------------------------------------------
DEPTH    .M                          : Measured Depth
CALI     .inches      UNKNOWN        : CALI:CALI-Load:rC:NONE:v0 (auto-composite)
DRHO     .UNKNOWN     UNKNOWN        : DRHO:DRHO-Load:rC:NONE:v0 (auto-composite)
DT       .us/ft       UNKNOWN        : DT:DT:rC:NONE:v0 (auto-composite)
GR       .UNKNOWN     UNKNOWN        : GR:GR-Load:rC:NONE:v0 (auto-composite)
ILD      .UNKNOWN     UNKNOWN        : ILD:ILD-Load:rC:NONE:v0 (auto-composite)
LLD      .UNKNOWN     UNKNOWN        : LLD:LLD-Load:rC:NONE:v0 (auto-composite)
LLS      .UNKNOWN     UNKNOWN        : LLS:LLS-Load:rC:NONE:v0 (auto-composite)
MSFL     .UNKNOWN     UNKNOWN        : MSFL:MSFL-Load:rC:NONE:v0 (auto-composite)
NPHI     .v/v_decimal UNKNOWN        : NPHI:NPHI:rC:NONE:v0 (auto-composite)
RHOB     .UNKNOWN     UNKNOWN        : RHOB:RHOB-Load:rC:NONE:v0 (auto-composite)
SP       .UNKNOWN     UNKNOWN        : SP:SP-Load:rC:NONE:v0 (auto-composite)
~A     DEPTH         CALI         DRHO           DT           GR          ILD          LLD          LLS         MSFL         NPHI         RHOB           SP
# ...
   1199.9978    -999.2500       0.0000    -999.2500      45.5530       0.8760    -999.2500    -999.2500    -999.2500      43.9000       2.1600     110.6200
   1200.1501    -999.2500       0.0025    -999.2500      45.8180       0.8745    -999.2500    -999.2500    -999.2500      43.3925       2.1600     110.5000
   1200.3026    -999.2500       0.0050    -999.2500      46.0830       0.8730    -999.2500    -999.2500    -999.2500      42.8850       2.1600     110.3800
   1200.4550    -999.2500       0.0015    -999.2500      46.9679       0.8670    -999.2500    -999.2500    -999.2500      40.9777       2.1550     110.3955
   1200.6074    -999.2500      -0.0020    -999.2500      47.8530       0.8610    -999.2500    -999.2500    -999.2500      39.0700       2.1500     110.4110
   1200.7598    -999.2500       0.0020    -999.2500      48.4964       0.8530    -999.2500    -999.2500    -999.2500      39.5199       2.1500     110.5190
   1200.9122    -999.2500       0.0060    -999.2500      49.1400       0.8450    -999.2500    -999.2500    -999.2500      39.9700       2.1500     110.6270
   1201.0646    -999.2500       0.0050    -999.2500      48.7936       0.8470    -999.2500    -999.2500    -999.2500      39.9600       2.1450     110.8345
   1201.2170    -999.2500       0.0040    -999.2500      48.4470       0.8490    -999.2500    -999.2500    -999.2500      39.9500       2.1400     111.0420
   1201.3694    -999.2500       0.0015    -999.2500      46.9939       0.8560    -999.2500    -999.2500    -999.2500      40.3949       2.1415     111.1640
   1201.5219    -999.2500      -0.0010    -999.2500      45.5400       0.8630    -999.2500    -999.2500    -999.2500      40.8400       2.1430     111.2860
   1201.6742    -999.2500       0.0060    -999.2500      45.7379       0.8665    -999.2500    -999.2500    -999.2500      40.7785       2.1665     111.3780
   1201.8267    -999.2500       0.0130    -999.2500      45.9360       0.8700    -999.2500    -999.2500    -999.2500      40.7170       2.1900     111.4700
   1201.9790    -999.2500       0.0050    -999.2500      46.5323       0.8740    -999.2500    -999.2500    -999.2500      40.3534       2.1850     111.4855
   1202.1313    -999.2500      -0.0030    -999.2500      47.1290       0.8780    -999.2500    -999.2500    -999.2500      39.9900       2.1800     111.5010
   1202.2838    -999.2500      -0.0030    -999.2500      47.2734       0.8825    -999.2500    -999.2500    -999.2500      40.1451       2.1850     111.6055
   1202.4362    -999.2500      -0.0030    -999.2500      47.4180       0.8870    -999.2500    -999.2500    -999.2500      40.3000       2.1900     111.7100
   1202.5886    -999.2500       0.0015    -999.2500      48.2785       0.8900    -999.2500    -999.2500    -999.2500      39.6448       2.1850     111.6940
   1202.7410    -999.2500       0.0060    -999.2500      49.1400       0.8930    -999.2500    -999.2500    -999.2500      38.9900       2.1800     111.6780
   1202.8934    -999.2500       0.0050    -999.2500      48.6653       0.8930    -999.2500    -999.2500    -999.2500      39.4151       2.1800     111.5741
   1203.0458    -999.2500       0.0040    -999.2500      48.1900       0.8930    -999.2500    -999.2500    -999.2500      39.8400       2.1800     111.4700
   1203.1982    -999.2500       0.0000    -999.2500      49.2897       0.8945    -999.2500    -999.2500    -999.2500      39.4899       2.1800     111.4860
   1203.3506    -999.2500      -0.0040    -999.2500      50.3900       0.8960    -999.2500    -999.2500    -999.2500      39.1400       2.1800     111.5020
   1203.5031    -999.2500      -0.0035    -999.2500      50.3075       0.9005    -999.2500    -999.2500    -999.2500      39.7500       2.1800     111.5460
   1203.6554    -999.2500      -0.0030    -999.2500      50.2250       0.9050    -999.2500    -999.2500    -999.2500      40.3600       2.1800     111.5900
   1203.8079    -999.2500      -0.0010    -999.2500      49.5825       0.9055    -999.2500    -999.2500    -999.2500      40.2250       2.1900     111.5900
   1203.9602    -999.2500       0.0010    -999.2500      48.9400       0.9060    -999.2500    -999.2500    -999.2500      40.0900       2.2000     111.5900
   1204.1125    -999.2500       0.0030    -999.2500      49.0220       0.9075    -999.2500    -999.2500    -999.2500      40.3160       2.1985     111.5300
   1204.2650    -999.2500       0.0050    -999.2500      49.1040       0.9090    -999.2500    -999.2500    -999.2500      40.5420       2.1970     111.4700
   1204.4174    -999.2500       0.0070    -999.2500      49.4720       0.9085    -999.2500    -999.2500    -999.2500      41.9159       2.1920     111.4860
   1204.5698    -999.2500       0.0090    -999.2500      49.8400       0.9080    -999.2500    -999.2500    -999.2500      43.2900       2.1870     111.5020
   1204.7222    -999.2500       0.0040    -999.2500      49.0901       0.9050    -999.2500    -999.2500    -999.2500      43.0240       2.1785     111.5460
   1204.8746    -999.2500      -0.0010    -999.2500      48.3400       0.9020    -999.2500    -999.2500    -999.2500      42.7580       2.1700     111.5900
   1205.0270    -999.2500       0.0040    -999.2500      48.5914       0.8965    -999.2500    -999.2500    -999.2500      41.6243       2.1715     111.5900
   1205.1794    -999.2500       0.0090    -999.2500      48.8430       0.8910    -999.2500    -999.2500    -999.2500      40.4900       2.1730     111.5900
   1205.3318    -999.2500       0.0030    -999.2500      49.5823       0.8835    -999.2500    -999.2500    -999.2500      40.8199       2.1780     111.5300
   1205.4843    -999.2500      -0.0030    -999.2500      50.3220       0.8760    -999.2500    -999.2500    -999.2500      41.1500       2.1830     111.4700
   1205.6366    -999.2500      -0.0010    -999.2500      50.7808       0.8780    -999.2500    -999.2500    -999.2500      40.9600       2.1865     111.4860
   1205.7891    -999.2500       0.0010    -999.2500      51.2400       0.8800    -999.2500    -999.2500    -999.2500      40.7700       2.1900     111.5020
   1205.9414    -999.2500      -0.0025    -999.2500      50.9701       0.8865    -999.2500    -999.2500    -999.2500      40.8025       2.1850     111.5620
   1206.0938    -999.2500      -0.0060    -999.2500      50.7000       0.8930    -999.2500    -999.2500    -999.2500      40.8350       2.1800     111.6220
   1206.2462    -999.2500      -0.0045    -999.2500      49.3706       0.8945    -999.2500    -999.2500    -999.2500      41.0996       2.1800     111.7260
   1206.3986    -999.2500      -0.0030    -999.2500      48.0400       0.8960    -999.2500    -999.2500    -999.2500      41.3640       2.1800     111.8300
   1206.5510    -999.2500       0.0035    -999.2500      48.2014       0.9010    -999.2500    -999.2500    -999.2500      42.4973       2.1900     111.7815
   1206.7034    -999.2500       0.0100    -999.2500      48.3630       0.9060    -999.2500    -999.2500    -999.2500      43.6300       2.2000     111.7330
   1206.8558    -999.2500       0.0055    -999.2500      49.8256       0.9075    -999.2500    -999.2500    -999.2500      43.5545       2.1975     111.5366
   1207.0082    -999.2500       0.0010    -999.2500      51.2900       0.9090    -999.2500    -999.2500    -999.2500      43.4790       2.1950     111.3400
   1207.1606    -999.2500       0.0070    -999.2500      51.0151       0.9090    -999.2500    -999.2500    -999.2500      42.9944       2.1850     111.3400
   1207.3130    -999.2500       0.0130    -999.2500      50.7400       0.9090    -999.2500    -999.2500    -999.2500      42.5100       2.1750     111.3400
   1207.4655    -999.2500       0.0120    -999.2500      50.7400       0.9090    -999.2500    -999.2500    -999.2500      42.6200       2.1625     111.3400
   1207.6178    -999.2500       0.0110    -999.2500      50.7400       0.9090    -999.2500    -999.2500    -999.2500      42.7300       2.1500     111.3400
   1207.7703    -999.2500       0.0060    -999.2500      50.7665       0.9050    -999.2500    -999.2500    -999.2500      42.3550       2.1540     111.3240
