#------------------------------------------------------------------------------
#
#   Created by  : [OpenWorks] Log Export Utility (LEXP)
#   Created on  : 2016-05-23 11:53:36
#   Project     : CANT971
#   User        : R5K
#   Interpreter : PEP
#
#------------------------------------------------------------------------------
~VERSION INFORMATION
VERS. 2.0 : CWLS Log ASCII Standard - version 2.0
WRAP.  NO : One line per depth step
~WELL INFORMATION
#MNEMONIC   .UNIT                                           VALUE :DESCRIPTION
#------------------------------------------------------------------------------
STRT        .M                                           940.3716 :START DEPTH
STOP        .M                                          3167.2405 :STOP DEPTH
STEP        .M                                             0.1524 :STEP
NULL        .                                           -999.2500 :NULL VALUE
COMP        .                                   PEMEX EXPL & PROD :COMPANY
WELL        .                                                  24 :WELL
FLD         .                                           CANTARELL :FIELD
LOC         .                                             UNKNOWN :LOCATION
CNTY        .                                      CD. DEL CARMEN :COUNTY
STAT        .                                            CAMPECHE :STATE
CTRY        .                                              MEXICO :COUNTRY
SRVC        .                                             UNKNOWN :SERVICE COMPANY
DATE        .                                             UNKNOWN :LOG DATE
UWI         .                                          3060000153 :UNIQUE WELL ID
XCOORD      .                                       598455.290000 :SURFACE X
YCOORD      .                                      2145024.750000 :SURFACE Y
LAT         .                                           19.398172 :LATITUDE
LON         .                                          -92.062351 :LONGITUDE
ELEV        .M                                            26.5400 :SURFACE ELEV
ELEV_TYPE   .                                                  KB :ELEV TYPE
~CURVE INFORMATION
#MNEMONIC.UNIT        API CODE       : CURVE DESCRIPTION
#------------------------------------------------------------------------------
DEPTH    .M                          : Measured Depth
CALI     .inches      UNKNOWN        : CALI:Import:rC:NONE:v0 (auto-composite)
DRHO     .g/cm3       UNKNOWN        : DRHO:Import:rC:NONE:v0 (auto-composite)
DT       .us/ft       UNKNOWN        : DT:Import:rC:NONE:v0 (auto-composite)
GR       .API         UNKNOWN        : GR:Import:rC:NONE:v0 (auto-composite)
ILD      .ohm.m       UNKNOWN        : ILD:Import:rC:NONE:v0 (auto-composite)
LLD      .ohm.m       UNKNOWN        : LLD:Import:rC:NONE:v0 (auto-composite)
LLS      .ohm.m       UNKNOWN        : LLS:Import:rC:NONE:v0 (auto-composite)
MSFL     .ohm.m       UNKNOWN        : MSFL:Import:rC:NONE:v0 (auto-composite)
NPHI     .v/v_decimal UNKNOWN        : NPHI:Import:rC:NONE:v0 (auto-composite)
RHOB     .g/cm3       UNKNOWN        : RHOB:Import:rC:NONE:v0 (auto-composite)
~A     DEPTH         CALI         DRHO           DT           GR          ILD          LLD          LLS         MSFL         NPHI         RHOB
# ...
   2843.5427    -999.2500    -999.2500    -999.2500      32.7930    -999.2500      81.0471     122.8322     158.7115       0.0559    -999.2500
   2843.6951    -999.2500    -999.2500    -999.2500      32.6812    -999.2500      81.3461     119.1249     141.2076       0.0554    -999.2500
   2843.8477    -999.2500    -999.2500    -999.2500      32.5142    -999.2500      82.3121     123.5980     142.6919       0.0543    -999.2500
   2844.0000    -999.2500    -999.2500    -999.2500      32.1750    -999.2500      82.8608     126.8167     142.5540       0.0529    -999.2500
   2844.1523    -999.2500    -999.2500    -999.2500      30.4701    -999.2500      80.1002     120.0925     129.5565       0.0507    -999.2500
   2844.3047    -999.2500    -999.2500    -999.2500      28.9426    -999.2500      77.3686     113.4838     117.2010       0.0491    -999.2500
   2844.4573    -999.2500    -999.2500    -999.2500      28.8566    -999.2500      74.8732     107.8138     110.0625       0.0495    -999.2500
   2844.6096    -999.2500    -999.2500    -999.2500      28.9090    -999.2500      72.4159     102.4259     103.2465       0.0495    -999.2500
   2844.7620    -999.2500    -999.2500    -999.2500      30.0954    -999.2500      70.2708      99.3522      99.0743       0.0472    -999.2500
   2844.9143    -999.2500    -999.2500    -999.2500      31.3531    -999.2500      68.2993      96.3581      95.0249       0.0445    -999.2500
   2845.0669    -999.2500    -999.2500    -999.2500      33.1992    -999.2500      67.7643      94.0216      91.9910       0.0423    -999.2500
   2845.2192    -999.2500    -999.2500    -999.2500      35.0197    -999.2500      67.2166      91.7723      89.1564       0.0413    -999.2500
   2845.3716    -999.2500    -999.2500    -999.2500      36.6397    -999.2500      66.5689      90.2047      87.8810       0.0432    -999.2500
   2845.5239    -999.2500    -999.2500    -999.2500      37.9708    -999.2500      65.8200      88.2719      86.5574       0.0462    -999.2500
   2845.6763    -999.2500    -999.2500    -999.2500      36.9862    -999.2500      64.2602      83.4110      84.8476       0.0500    -999.2500
   2845.8289    -999.2500    -999.2500    -999.2500      36.0451    -999.2500      62.6340      78.3563      82.5617       0.0539    -999.2500
   2845.9812    -999.2500    -999.2500    -999.2500      35.4554    -999.2500      60.4709      71.7341      75.6162       0.0573    -999.2500
   2846.1335    -999.2500    -999.2500    -999.2500      35.3564    -999.2500      58.4320      65.5752      69.0035       0.0587    -999.2500
   2846.2859    -999.2500    -999.2500    -999.2500      39.2615    -999.2500      57.4063      63.1956      65.1058       0.0550    -999.2500
   2846.4385    -999.2500    -999.2500    -999.2500      42.7057    -999.2500      56.2615      60.7133      61.1365       0.0513    -999.2500
   2846.5908    -999.2500    -999.2500    -999.2500      42.2909    -999.2500      54.1204      57.3702      56.5685       0.0513    -999.2500
   2846.7432    -999.2500    -999.2500    -999.2500      42.1195    -999.2500      52.0995      54.2944      52.3421       0.0533    -999.2500
   2846.8955    -999.2500    -999.2500    -999.2500      44.0048    -999.2500      51.0938      53.4767      51.0014       0.0587    -999.2500
   2847.0481    -999.2500    -999.2500    -999.2500      45.5963    -999.2500      50.4850      53.1944      50.4483       0.0643    -999.2500
   2847.2004    -999.2500    -999.2500    -999.2500      44.8451    -999.2500      53.0439      57.1837      56.1783       0.0682    -999.2500
   2847.3528    -999.2500    -999.2500    -999.2500      43.9986    -999.2500      55.6098      61.1304      61.8714       0.0710    -999.2500
   2847.5051    -999.2500    -999.2500    -999.2500      42.3846    -999.2500      58.2315      64.7350      67.2672       0.0716    -999.2500
   2847.6575    -999.2500    -999.2500    -999.2500      40.7640    -999.2500      60.4571      67.8225      71.9347       0.0710    -999.2500
   2847.8101    -999.2500    -999.2500    -999.2500      39.0892    -999.2500      59.4126      66.6430      70.5903       0.0686    -999.2500
   2847.9624    -999.2500    -999.2500    -999.2500      37.5502    -999.2500      58.7063      65.7201      69.4787       0.0658    -999.2500
   2848.1147    -999.2500    -999.2500    -999.2500      37.1416    -999.2500      60.8171      66.9334      70.3060       0.0631    -999.2500
   2848.2671    -999.2500    -999.2500    -999.2500      36.7419    -999.2500      62.6173      67.8004      70.7487       0.0605    -999.2500
   2848.4197    -999.2500    -999.2500    -999.2500      36.4125    -999.2500      61.9726      65.9412      68.1648       0.0579    -999.2500
   2848.5720    -999.2500    -999.2500    -999.2500      36.3787    -999.2500      61.6647      64.6341      66.1804       0.0560    -999.2500
   2848.7244    -999.2500    -999.2500    -999.2500      38.6908    -999.2500      64.0302      67.7098      68.9550       0.0561    -999.2500
   2848.8767    -999.2500    -999.2500    -999.2500      40.6622    -999.2500      66.3783      75.6941      76.4521       0.0572    -999.2500
   2849.0293    -999.2500    -999.2500    -999.2500      39.8595    -999.2500      68.5839     123.6329     122.3893       0.0601    -999.2500
   2849.1816    -999.2500    -999.2500    -999.2500      39.0180    -999.2500      70.4768     173.1660     169.9593       0.0632    -999.2500
   2849.3340    -999.2500    -999.2500    -999.2500      37.8575    -999.2500      69.8021     235.7914     230.9390       0.0658    -999.2500
   2849.4863    -999.2500    -999.2500    -999.2500      36.8289    -999.2500      69.5769     305.6861     299.4866       0.0668    -999.2500
   2849.6387    -999.2500    -999.2500    -999.2500      36.8931    -999.2500      73.0766     435.8153     430.7445       0.0636    -999.2500
   2849.7913    -999.2500    -999.2500    -999.2500      36.6797    -999.2500      75.9369     534.8321     531.0768       0.0602    -999.2500
   2849.9436    -999.2500    -999.2500    -999.2500      34.2927    -999.2500      73.7895     390.1889     389.2137       0.0589    -999.2500
   2850.0959    -999.2500    -999.2500    -999.2500      32.4028    -999.2500      72.1706     256.4546     259.2845       0.0576    -999.2500
   2850.2483    -999.2500    -999.2500    -999.2500      34.5044    -999.2500      74.7945     210.2990     225.1622       0.0550    -999.2500
   2850.4009    -999.2500    -999.2500    -999.2500      36.5896    -999.2500      76.5390     164.8256     189.7529       0.0522    -999.2500
   2850.5532    -999.2500    -999.2500    -999.2500      38.5423    -999.2500      71.1613     124.8769     143.9197       0.0501    -999.2500
   2850.7056    -999.2500    -999.2500    -999.2500      40.3710    -999.2500      66.6091      88.9546     102.0829       0.0485    -999.2500
   2850.8579    -999.2500    -999.2500    -999.2500      41.1877    -999.2500      68.8016      85.9334      92.9013       0.0474    -999.2500
   2851.0105    -999.2500    -999.2500    -999.2500      41.9999    -999.2500      70.9090      82.9900      84.3450       0.0474    -999.2500
   2851.1628    -999.2500    -999.2500    -999.2500      42.7760    -999.2500      72.3137      80.6884      80.9427       0.0497    -999.2500
   2851.3152    -999.2500    -999.2500    -999.2500      43.3015    -999.2500      73.3739      78.7789      78.1507       0.0524    -999.2500
   2851.4675    -999.2500    -999.2500    -999.2500      41.7070    -999.2500      71.5188      80.1878      80.5223       0.0546    -999.2500
   2851.6199    -999.2500    -999.2500    -999.2500      40.3756    -999.2500      69.9655      81.0714      82.4910       0.0563    -999.2500
   2851.7725    -999.2500    -999.2500    -999.2500      41.1453    -999.2500      70.8236      77.7578      81.2415       0.0575    -999.2500
   2851.9248    -999.2500    -999.2500    -999.2500      41.7103    -999.2500      71.7637      75.2435      80.6701       0.0586    -999.2500
