#------------------------------------------------------------------------------
#
#   Created by  : [OpenWorks] Log Export Utility (LEXP)
#   Created on  : 2016-05-11 12:45:47
#   Project     : CANT971
#   User        : R5K
#   Interpreter : PEP
#
#------------------------------------------------------------------------------
~VERSION INFORMATION
VERS. 2.0 : CWLS Log ASCII Standard - version 2.0
WRAP.  NO : One line per depth step
~WELL INFORMATION
#MNEMONIC   .UNIT                                           VALUE :DESCRIPTION
#------------------------------------------------------------------------------
STRT        .M                                           801.4664 :START DEPTH
STOP        .M                                          3402.1724 :STOP DEPTH
STEP        .M                                             0.1524 :STEP
NULL        .                                           -999.2500 :NULL VALUE
COMP        .                                   PEMEX EXPL & PROD :COMPANY
WELL        .                                        CANTARELL-85 :WELL
FLD         .                                           CANTARELL :FIELD
LOC         .                                             UNKNOWN :LOCATION
CNTY        .                                      CD. DEL CARMEN :COUNTY
STAT        .                                            CAMPECHE :STATE
CTRY        .                                              MEXICO :COUNTRY
SRVC        .                                             UNKNOWN :SERVICE COMPANY
DATE        .                                             UNKNOWN :LOG DATE
UWI         .                                          3060000185 :UNIQUE WELL ID
XCOORD      .                                       604541.690000 :SURFACE X
YCOORD      .                                      2141649.620000 :SURFACE Y
LAT         .                                           19.367365 :LATITUDE
LON         .                                          -92.004578 :LONGITUDE
ELEV        .M                                            30.0000 :SURFACE ELEV
ELEV_TYPE   .                                                  KB :ELEV TYPE
~CURVE INFORMATION
#MNEMONIC.UNIT        API CODE       : CURVE DESCRIPTION
#------------------------------------------------------------------------------
DEPTH    .M                          : Measured Depth
CALI     .inches      UNKNOWN        : CALI:Import:rC:NONE:v0 (auto-composite)
DRHO     .g/cm3       UNKNOWN        : DRHO:Import:rC:NONE:v0 (auto-composite)
DT       .us/ft       UNKNOWN        : DT:Import:rC:NONE:v0 (auto-composite)
GR       .API         UNKNOWN        : GR:Import:rC:NONE:v0 (auto-composite)
ILD      .ohm.m       UNKNOWN        : ILD:Import:rC:NONE:v0 (auto-composite)
ILM      .ohm.m       UNKNOWN        : ILM:Import:rC:NONE:v0 (auto-composite)
NPHI     .v/v_decimal UNKNOWN        : NPHI:Import:rC:NONE:v0 (auto-composite)
RHOB     .g/cm3       UNKNOWN        : RHOB:Import:rC:NONE:v0 (auto-composite)
SN       .ohm.m       UNKNOWN        : SN:Import:rC:NONE:v0 (auto-composite)
SP       .mV          UNKNOWN        : SP:Import:rC:NONE:v0 (auto-composite)
~A     DEPTH         CALI         DRHO           DT           GR          ILD          ILM         NPHI         RHOB           SN           SP
# ...
   3302.0457       6.4434      -0.0200      66.9828       0.3000    1751.6735    -999.2500      -1.1628       2.2096    -999.2500    -999.2500
   3302.1980       6.4304      -0.0210      67.0552       0.3000    1755.6976    -999.2500      -1.3396       2.2061    -999.2500    -999.2500
   3302.3503       6.4329      -0.0254      67.2057       0.3000    1767.6772    -999.2500      -1.6964       2.2065    -999.2500    -999.2500
   3302.5027       6.4359      -0.0299      67.3597       0.3000    1779.9167    -999.2500      -2.0601       2.2070    -999.2500    -999.2500
   3302.6553       6.4578      -0.0324      67.6307       0.3000    1779.3427    -999.2500      -2.4537       2.2099    -999.2500    -999.2500
   3302.8076       6.4803      -0.0349      67.9047       0.3000    1778.3163    -999.2500      -2.8467       2.2129    -999.2500    -999.2500
   3302.9600       6.4562      -0.0316      67.9111       0.3000    1774.3262    -999.2500      -2.8600       2.2183    -999.2500    -999.2500
   3303.1123       6.4307      -0.0281      67.9080       0.3000    1770.2489    -999.2500      -2.8600       2.2238    -999.2500    -999.2500
   3303.2646       6.4300      -0.0314      67.8867       0.3000    1763.2202    -999.2500      -2.8600       2.2211    -999.2500    -999.2500
   3303.4172       6.4300      -0.0349      67.8648       0.3000    1756.1019    -999.2500      -2.8600       2.2181    -999.2500    -999.2500
   3303.5696       6.4363      -0.0345      67.8883       0.3000    1767.7458    -999.2500      -2.8600       2.2190    -999.2500    -999.2500
   3303.7219       6.4428      -0.0340      67.9129       0.3000    1780.0076    -999.2500      -2.8600       2.2200    -999.2500    -999.2500
   3303.8743       6.4614      -0.0330      67.8535       0.3000    1776.4531    -999.2500      -2.8600       2.2239    -999.2500    -999.2500
   3304.0269       6.4804      -0.0320      67.7914       0.3000    1772.3634    -999.2500      -2.8600       2.2279    -999.2500    -999.2500
   3304.1792       6.4810      -0.0291      67.8738       0.2758    1759.4012    -999.2500      -2.8697       2.2295    -999.2500    -999.2500
   3304.3315       6.4810      -0.0261      67.9609       0.2507    1746.1305    -999.2500      -2.8796       2.2310    -999.2500    -999.2500
   3304.4839       6.4839      -0.0270      67.9548       0.2558    1738.9435    -999.2500      -2.8800       2.2295    -999.2500    -999.2500
   3304.6365       6.4869      -0.0280      67.9450       0.2618    1731.9320    -999.2500      -2.8800       2.2280    -999.2500    -999.2500
   3304.7888       6.4962      -0.0319      67.8814       0.2804    1739.4971    -999.2500      -2.8800       2.2212    -999.2500    -999.2500
   3304.9412       6.5057      -0.0359      67.8162       0.2994    1747.5211    -999.2500      -2.8800       2.2142    -999.2500    -999.2500
   3305.0935       6.5089      -0.0447      67.8232       0.3000    1740.0009    -999.2500      -2.8790       2.1893    -999.2500    -999.2500
   3305.2458       6.5119      -0.0537      67.8332       0.3000    1731.9768    -999.2500      -2.8780       2.1638    -999.2500    -999.2500
   3305.3984       6.5217      -0.0521      67.9571       0.3000    1743.4019    -999.2500      -2.8732       2.1645    -999.2500    -999.2500
   3305.5508       6.5317      -0.0501      68.0844       0.3000    1755.4751    -999.2500      -2.8682       2.1660    -999.2500    -999.2500
   3305.7031       6.5320      -0.0515      68.0042       0.3000    1744.1735    -999.2500      -2.8632       2.1655    -999.2500    -999.2500
   3305.8555       6.5320      -0.0530      67.9171       0.3000    1732.0712    -999.2500      -2.8582       2.1650    -999.2500    -999.2500
   3306.0081       6.5199      -0.0583      67.9440       0.3000    1739.5443    -999.2500      -2.8483       2.1621    -999.2500    -999.2500
   3306.1604       6.5074      -0.0638      67.9753       0.3000    1747.6058    -999.2500      -2.8380       2.1591    -999.2500    -999.2500
   3306.3127       6.4638      -0.0669      68.0792       0.3000    1746.8688    -999.2500      -2.7808       2.1561    -999.2500    -999.2500
   3306.4651       6.4193      -0.0699      68.1851       0.3000    1745.8593    -999.2500      -2.7222       2.1531    -999.2500    -999.2500
   3306.6177       6.3966      -0.0685      68.1284       0.4937    1739.0298    -999.2500      -2.7637       2.1540    -999.2500    -999.2500
   3306.7700       6.3746      -0.0670      68.0662       0.6936    1732.0149    -999.2500      -2.8070       2.1550    -999.2500    -999.2500
   3306.9224       6.3614      -0.0587      68.0883      -2.1997    1747.3546    -999.2500      -2.4717       2.1589    -999.2500    -999.2500
   3307.0747       6.3484      -0.0502      68.1131      -5.1945    1763.4277    -999.2500      -2.1206       2.1629    -999.2500    -999.2500
   3307.2271       5.6495      -0.0350      68.1111      -2.7403    1752.2814    -999.2500      -1.0883       2.4395    -999.2500    -999.2500
   3307.3796       4.9300      -0.0195      68.1079      -0.0929    1740.1700    -999.2500      -0.0359       2.7245    -999.2500    -999.2500
   3307.5320       2.4773      -0.0098      68.0624      -0.0242    1739.7450    -999.2500       0.0000       2.5273    -999.2500    -999.2500
   3307.6843      -0.0277      -0.0003      68.0156      -0.0493    1739.7450    -999.2500       0.0000       2.3153    -999.2500    -999.2500
   3307.8367      -0.1010       0.0000      68.0140      -0.0257    1740.7159    -999.2500       0.0000       2.3323    -999.2500    -999.2500
   3307.9893      -0.1010       0.0000      68.0140      -0.0008    1741.7166    -999.2500       0.0000       2.3563    -999.2500    -999.2500
   3308.1416      -0.1010       0.0000      68.0232      -0.0242    1744.6647    -999.2500       0.0000       2.4268    -999.2500    -999.2500
   3308.2939      -0.1010       0.0000      68.0328      -0.0492    1747.6740    -999.2500       0.0000       2.4988    -999.2500    -999.2500
   3308.4463      -0.1136      -0.0005      68.0601      -0.0500    1747.7729    -999.2500       0.0000       2.5005    -999.2500    -999.2500
   3308.5989      -0.1266      -0.0010      68.0882      -0.0500    1747.7729    -999.2500       0.0000       2.5000    -999.2500    -999.2500
   3308.7512      -0.1241      -0.0005      68.1375      -0.0016    1747.7729    -999.2500       0.0000       2.5000    -999.2500    -999.2500
   3308.9036      -0.1211      -0.0000      68.1873       0.0486    1747.7729    -999.2500       0.0000       2.5000    -999.2500    -999.2500
   3309.0559      -0.1113      -0.0005      68.1769       0.0014    1749.7323    -999.2500       0.0000       2.5000    -999.2500    -999.2500
   3309.2083      -0.1013      -0.0010      68.1641      -0.0485    1751.7484    -999.2500       0.0000       2.5000    -999.2500    -999.2500
   3309.3608      -0.1010      -0.0010      68.0792      -0.0442    1758.6965    -999.2500       0.0000       2.5005    -999.2500    -999.2500
   3309.5132      -0.1010      -0.0010      67.9919      -0.0382    1765.7922    -999.2500       0.0000       2.5010    -999.2500    -999.2500
   3309.6655      -0.1010      -0.0005      68.0011      -0.0196    1768.9879    -999.2500       0.0000       2.5010    -999.2500    -999.2500
   3309.8179      -0.1010      -0.0000      68.0138      -0.0006    1772.0566    -999.2500       0.0000       2.5010    -999.2500    -999.2500
   3309.9705      -0.1010       0.0000      68.0625      -0.0242    1773.1483    -999.2500       0.0000       2.5005    -999.2500    -999.2500
   3310.1228      -0.1010       0.0000      68.1125      -0.0492    1774.1740    -999.2500       0.0000       2.5000    -999.2500    -999.2500
   3310.2751      -0.1010       0.0000      68.1533      -0.0437    1781.1777    -999.2500       0.0000       2.5000    -999.2500    -999.2500
   3310.4275      -0.1010       0.0000      68.1936      -0.0372    1788.3872    -999.2500       0.0000       2.5000    -999.2500    -999.2500
