#------------------------------------------------------------------------------
#
#   Created by  : [OpenWorks] Log Export Utility (LEXP)
#   Created on  : 2016-05-12 17:01:28
#   Project     : CANT971
#   User        : R5K
#   Interpreter : PEP
#
#------------------------------------------------------------------------------
~VERSION INFORMATION
VERS. 2.0 : CWLS Log ASCII Standard - version 2.0
WRAP.  NO : One line per depth step
~WELL INFORMATION
#MNEMONIC   .UNIT                                           VALUE :DESCRIPTION
#------------------------------------------------------------------------------
STRT        .M                                           350.5962 :START DEPTH
STOP        .M                                          2218.5630 :STOP DEPTH
STEP        .M                                             0.1524 :STEP
NULL        .                                           -999.2500 :NULL VALUE
COMP        .                                   PEMEX EXPL & PROD :COMPANY
WELL        .                                                  79 :WELL
FLD         .                                           CANTARELL :FIELD
LOC         .                                             UNKNOWN :LOCATION
CNTY        .                                      CD. DEL CARMEN :COUNTY
STAT        .                                            CAMPECHE :STATE
CTRY        .                                              MEXICO :COUNTRY
SRVC        .                                             UNKNOWN :SERVICE COMPANY
DATE        .                                             UNKNOWN :LOG DATE
UWI         .                                          3060000183 :UNIQUE WELL ID
XCOORD      .                                       602154.470000 :SURFACE X
YCOORD      .                                      2147172.410000 :SURFACE Y
LAT         .                                           19.417394 :LATITUDE
LON         .                                          -92.027010 :LONGITUDE
ELEV        .M                                            28.1700 :SURFACE ELEV
ELEV_TYPE   .                                                  KB :ELEV TYPE
~CURVE INFORMATION
#MNEMONIC.UNIT        API CODE       : CURVE DESCRIPTION
#------------------------------------------------------------------------------
DEPTH    .M                          : Measured Depth
CALI     .inches      UNKNOWN        : CALI:CALI-Load:rC:NONE:v0 (auto-composite)
DT       .us/ft       UNKNOWN        : DT:DT:rC:NONE:v0 (auto-composite)
GR       .UNKNOWN     UNKNOWN        : GR:GR-Load:rC:NONE:v0 (auto-composite)
ILD      .UNKNOWN     UNKNOWN        : ILD:ILD-Load:rC:NONE:v0 (auto-composite)
LLD      .UNKNOWN     UNKNOWN        : LLD:LLD-Load:rC:NONE:v0 (auto-composite)
LLS      .UNKNOWN     UNKNOWN        : LLS:LLS-Load:rC:NONE:v0 (auto-composite)
MSFL     .UNKNOWN     UNKNOWN        : MSFL:MSFL-Load:rC:NONE:v0 (auto-composite)
NPHI     .v/v_decimal UNKNOWN        : NPHI:NPHI:rC:NONE:v0 (auto-composite)
RG       .API         UNKNOWN        : RG:UNKNOWN:rC:NONE:v0 (auto-composite)
RHOB     .UNKNOWN     UNKNOWN        : RHOB:RHOB-Load:rC:NONE:v0 (auto-composite)
SP       .UNKNOWN     UNKNOWN        : SP:SP-Load:rC:NONE:v0 (auto-composite)
~A     DEPTH         CALI           DT           GR          ILD          LLD          LLS         MSFL         NPHI           RG         RHOB           SP
# ...
   1888.0074      12.5297    -999.2500      28.8106      11.3081    -999.2500    -999.2500    -999.2500       0.1726       0.0000       2.3790      25.4647
   1888.1598      12.4892    -999.2500      27.9857      10.8491    -999.2500    -999.2500    -999.2500       0.1687       0.0000       2.3830      26.1647
   1888.3121      12.4595    -999.2500      26.6482      10.3179    -999.2500    -999.2500    -999.2500       0.1704       0.0000       2.3910      26.9343
   1888.4646      12.4405    -999.2500      24.8002       9.7139    -999.2500    -999.2500    -999.2500       0.1777       0.0000       2.4030      27.7733
   1888.6169      12.3967    -999.2500      24.3286       9.1589    -999.2500    -999.2500    -999.2500       0.1866       0.0000       2.4153      28.6045
   1888.7694      12.3282    -999.2500      25.2280       8.6532    -999.2500    -999.2500    -999.2500       0.1969       0.0000       2.4278      29.4280
   1888.9218      12.2705    -999.2500      25.2648       8.1454    -999.2500    -999.2500    -999.2500       0.1971       0.0000       2.4285      30.1272
   1889.0742      12.2235    -999.2500      24.4418       7.6354    -999.2500    -999.2500    -999.2500       0.1870       0.0000       2.4175      30.7027
   1889.2266      12.2471    -999.2500      23.7801       7.3805    -999.2500    -999.2500    -999.2500       0.1757       0.0000       2.4085      30.9199
   1889.3790      12.3411    -999.2500      23.2791       7.3815    -999.2500    -999.2500    -999.2500       0.1632       0.0000       2.4015      30.7799
   1889.5314      12.4160    -999.2500      22.8883       7.6336    -999.2500    -999.2500    -999.2500       0.1596       0.0000       2.4038      30.6557
   1889.6838      12.4720    -999.2500      22.6073       8.1375    -999.2500    -999.2500    -999.2500       0.1651       0.0000       2.4153      30.5472
   1889.8362      12.4625    -999.2500      22.2264       8.6041    -999.2500    -999.2500    -999.2500       0.1652       0.0000       2.4243      30.5396
   1889.9886      12.3875    -999.2500      21.7459       9.0331    -999.2500    -999.2500    -999.2500       0.1600       0.0000       2.4308      30.6326
   1890.1410      12.3563    -999.2500      21.2372       8.9476    -999.2500    -999.2500    -999.2500       0.1498       0.0000       2.4398      30.8580
   1890.2933      12.3688    -999.2500      20.7002       8.3456    -999.2500    -999.2500    -999.2500       0.1346       0.0000       2.4513      31.2155
   1890.4458      12.2904    -999.2500      21.6533       7.6351    -999.2500    -999.2500    -999.2500       0.1274       0.0000       2.4678      31.5186
   1890.5981      12.1214    -999.2500      24.0932       6.8156    -999.2500    -999.2500    -999.2500       0.1282       0.0000       2.4893      31.7676
   1890.7506      11.9777    -999.2500      26.9943       6.2005    -999.2500    -999.2500    -999.2500       0.1361       0.0000       2.4872      32.0322
   1890.9030      11.8591    -999.2500      30.3555       5.7905    -999.2500    -999.2500    -999.2500       0.1509       0.0000       2.4617      32.3123
   1891.0554      11.8000    -999.2500      32.6302       5.5376    -999.2500    -999.2500    -999.2500       0.1742       0.0000       2.4342      32.6079
   1891.2078      11.8000    -999.2500      33.8237       5.4426    -999.2500    -999.2500    -999.2500       0.2057       0.0000       2.4047      32.9189
   1891.3602      11.8814    -999.2500      33.2175       5.4187    -999.2500    -999.2500    -999.2500       0.2299       0.0000       2.3802      33.3932
   1891.5126      12.0439    -999.2500      30.8201       5.4662    -999.2500    -999.2500    -999.2500       0.2466       0.0000       2.3607      34.0302
   1891.6650      12.0734    -999.2500      28.4722       5.7373    -999.2500    -999.2500    -999.2500       0.2499       0.0000       2.3432      34.6985
   1891.8174      11.9704    -999.2500      26.1738       6.2333    -999.2500    -999.2500    -999.2500       0.2399       0.0000       2.3277      35.3980
   1891.9698      11.8641    -999.2500      25.4301       7.1512    -999.2500    -999.2500    -999.2500       0.2274       0.0000       2.3270      35.9494
   1892.1222      11.7546    -999.2500      26.2346       8.4931    -999.2500    -999.2500    -999.2500       0.2124       0.0000       2.3410      36.3534
   1892.2745      11.7095    -999.2500      27.1750      10.1945    -999.2500    -999.2500    -999.2500       0.2010       0.0000       2.3528      36.6176
   1892.4270      11.7285    -999.2500      28.2510      12.2575    -999.2500    -999.2500    -999.2500       0.1931       0.0000       2.3623      36.7426
   1892.5793      11.7505    -999.2500      29.3167      14.1847    -999.2500    -999.2500    -999.2500       0.1922       0.0000       2.3642      36.9297
   1892.7318      11.7755    -999.2500      30.3722      15.9753    -999.2500    -999.2500    -999.2500       0.1983       0.0000       2.3587      37.1787
   1892.8842      11.8005    -999.2500      31.2083      17.3555    -999.2500    -999.2500    -999.2500       0.2058       0.0000       2.3585      37.4821
   1893.0366      11.8255    -999.2500      31.8257      18.3240    -999.2500    -999.2500    -999.2500       0.2147       0.0000       2.3635      37.8395
   1893.1890      11.8410    -999.2500      33.0371      18.1331    -999.2500    -999.2500    -999.2500       0.2227       0.0000       2.3545      38.1577
   1893.3414      11.8470    -999.2500      34.8406      16.7792    -999.2500    -999.2500    -999.2500       0.2300       0.0000       2.3315      38.4367
   1893.4938      11.9877    -999.2500      36.4725      15.6174    -999.2500    -999.2500    -999.2500       0.2345       0.0000       2.3117      38.6308
   1893.6462      12.2627    -999.2500      37.9335      14.6484    -999.2500    -999.2500    -999.2500       0.2363       0.0000       2.2952      38.7403
   1893.7986      12.3249    -999.2500      39.1511      13.5839    -999.2500    -999.2500    -999.2500       0.2366       0.0000       2.2878      38.8260
   1893.9510      12.1749    -999.2500      40.1261      12.4234    -999.2500    -999.2500    -999.2500       0.2352       0.0000       2.2893      38.8880
   1894.1034      12.2314    -999.2500      40.0754      11.2073    -999.2500    -999.2500    -999.2500       0.2378       0.0000       2.2928      38.9268
   1894.2557      12.4939    -999.2500      39.0014       9.9353    -999.2500    -999.2500    -999.2500       0.2442       0.0000       2.2983      38.9423
   1894.4082      12.6187    -999.2500      38.5026       8.7694    -999.2500    -999.2500    -999.2500       0.2520       0.0000       2.3080      38.8331
   1894.5605      12.6062    -999.2500      38.5776       7.7099    -999.2500    -999.2500    -999.2500       0.2612       0.0000       2.3220      38.5995
   1894.7130      12.6000    -999.2500      39.5291       7.2227    -999.2500    -999.2500    -999.2500       0.2722       0.0000       2.3365      38.0472
   1894.8654      12.6000    -999.2500      41.3525       7.3101    -999.2500    -999.2500    -999.2500       0.2848       0.0000       2.3515      37.1777
   1895.0178      12.6877    -999.2500      41.9713       7.3944    -999.2500    -999.2500    -999.2500       0.2850       0.0000       2.3763      36.0278
   1895.1702      12.8627    -999.2500      41.3913       7.4754    -999.2500    -999.2500    -999.2500       0.2727       0.0000       2.4108      34.5988
   1895.3226      12.8277    -999.2500      40.4127       7.4736    -999.2500    -999.2500    -999.2500       0.2490       0.0000       2.4508      33.4563
   1895.4750      12.5837    -999.2500      39.0372       7.3886    -999.2500    -999.2500    -999.2500       0.2141       0.0000       2.4963      32.5988
   1895.6274      12.3588    -999.2500      37.9917       7.5051    -999.2500    -999.2500    -999.2500       0.1874       0.0000       2.5278      31.9999
   1895.7798      12.1528    -999.2500      37.2748       7.8241    -999.2500    -999.2500    -999.2500       0.1689       0.0000       2.5453      31.6584
