#------------------------------------------------------------------------------
#
#   Created by  : [OpenWorks] Log Export Utility (LEXP)
#   Created on  : 2016-05-23 11:56:01
#   Project     : CANT971
#   User        : R5K
#   Interpreter : PEP
#
#------------------------------------------------------------------------------
~VERSION INFORMATION
VERS. 2.0 : CWLS Log ASCII Standard - version 2.0
WRAP.  NO : One line per depth step
~WELL INFORMATION
#MNEMONIC   .UNIT                                           VALUE :DESCRIPTION
#------------------------------------------------------------------------------
STRT        .M                                          1572.0055 :START DEPTH
STOP        .M                                          3732.1230 :STOP DEPTH
STEP        .M                                             0.1524 :STEP
NULL        .                                           -999.2500 :NULL VALUE
COMP        .                                             UNKNOWN :COMPANY
WELL        .                                               428-V :WELL
FLD         .                                             UNKNOWN :FIELD
LOC         .                                             UNKNOWN :LOCATION
CNTY        .                                             UNKNOWN :COUNTY
STAT        .                                             UNKNOWN :STATE
CTRY        .                                             UNKNOWN :COUNTRY
SRVC        .                                             UNKNOWN :SERVICE COMPANY
DATE        .                                             UNKNOWN :LOG DATE
UWI         .                                               428-V :UNIQUE WELL ID
XCOORD      .                                            0.000000 :SURFACE X
YCOORD      .                                            0.000000 :SURFACE Y
LAT         .                                            0.000000 :LATITUDE
LON         .                                            0.000000 :LONGITUDE
ELEV        .M                                             0.0000 :SURFACE ELEV
ELEV_TYPE   .                                                  KB :ELEV TYPE
~CURVE INFORMATION
#MNEMONIC .UNIT        API CODE       : CURVE DESCRIPTION
#------------------------------------------------------------------------------
DEPTH     .M                          : Measured Depth
CALIH-LWD .inches      UNKNOWN        : CALIH-LWD:PETROWORKS:rC:NONE:v5 
CALIV-LWD .inches      UNKNOWN        : CALIV-LWD:PETROWORKS:rC:NONE:v5 
CGR       .API         UNKNOWN        : CGR:Espectrometria:rC:NONE:v0 (auto-composite)
DRHO-LWD  .g/cm3       UNKNOWN        : DRHO-LWD:PETROWORKS:rC:NONE:v5 
DT        .us/ft       UNKNOWN        : DT:sonico:rC:NONE:v0 (auto-composite)
GR        .API         UNKNOWN        : GR:Espectrometria:rC:NONE:v0 (auto-composite)
GR-LWD    .API         UNKNOWN        : GR-LWD:PETROWORKS:rC:NONE:v3 
ILD-LWD   .ohm.m       UNKNOWN        : ILD-LWD:PETROWORKS:rC:NONE:v2 
ILM-LWD   .ohm.m       UNKNOWN        : ILM-LWD:PETROWORKS:rC:NONE:v2 
LLD-LWD   .ohm.m       UNKNOWN        : LLD-LWD:registros-LWD:rC:NONE:v0 (auto-composite)
LLS-LWD   .ohm.m       UNKNOWN        : LLS-LWD:registros-LWD:rC:NONE:v0 (auto-composite)
MSFL-LWD  .ohm.m       UNKNOWN        : MSFL-LWD:registros-LWD:rC:NONE:v0 (auto-composite)
NPHI-LWD  .v/v_decimal UNKNOWN        : NPHI-LWD:PETROWORKS:rC:NONE:v5 
PEF-LWD   .b/elec      UNKNOWN        : PEF-LWD:PETROWORKS:rC:NONE:v5 
POTA      .wtpercent   UNKNOWN        : POTA:Espectrometria:rC:NONE:v0 (auto-composite)
RHOB-LWD  .g/cm3       UNKNOWN        : RHOB-LWD:PETROWORKS:rC:NONE:v5 
THOR      .UNKNOWN     UNKNOWN        : THOR:Espectrometria:rC:NONE:v0 (auto-composite)
URAN      .UNKNOWN     UNKNOWN        : URAN:Espectrometria:rC:NONE:v0 (auto-composite)
~A     DEPTH    CALIH-LWD    CALIV-LWD          CGR     DRHO-LWD           DT           GR       GR-LWD      ILD-LWD      ILM-LWD      LLD-LWD      LLS-LWD     MSFL-LWD     NPHI-LWD      PEF-LWD         POTA     RHOB-LWD         THOR         URAN
# ...
   3437.8386       8.1305       8.1565       6.3612       0.1221     109.0662      10.6656      11.2815      27.7580      23.6364    -999.2500    -999.2500    -999.2500       0.2284       2.1763       0.0019       1.6818       1.0702       0.4793
   3437.9912       8.3499       8.2474       5.6622       0.0996     109.5998      10.9140      11.2474      36.8893      29.1145    -999.2500    -999.2500    -999.2500       0.2532       2.0215       0.0016       1.5920       0.9800       0.5847
   3438.1436       8.4340       8.2920       5.9516       0.0909     109.5395      11.3767      11.6788      37.3770      29.1458    -999.2500    -999.2500    -999.2500       0.2607       2.0048       0.0018       1.5642       0.9555       0.6040
   3438.2959       8.5079       8.3319       6.0495       0.0838     109.3699      12.3616      12.5497      36.3292      28.0128    -999.2500    -999.2500    -999.2500       0.2669       1.9996       0.0023       1.5420       0.8131       0.7028
   3438.4482       8.6525       8.4099       6.1477       0.0701     109.1517      13.2191      12.6058      36.3060      27.9899    -999.2500    -999.2500    -999.2500       0.2791       1.9894       0.0024       1.4987       0.7751       0.7873
   3438.6006       9.2401       8.5167       5.9290       0.0348     108.9216      14.1560      13.4853      37.9388      29.7992    -999.2500    -999.2500    -999.2500       0.2679       1.9340       0.0025       1.3854       0.7066       0.9160
   3438.7532       9.8401       8.6241       5.9695      -0.0012     108.7199      16.0780      13.9400      49.8629      39.5167    -999.2500    -999.2500    -999.2500       0.2560       1.8773       0.0026       1.2702       0.6605       1.1254
   3438.9055       9.8462       8.4946       6.1155      -0.0058     108.5882      17.4164      13.9405      69.0030      53.9415    -999.2500    -999.2500    -999.2500       0.2367       1.7546       0.0026       1.2503       0.7087       1.2581
   3439.0579       9.5765       8.3724       6.0797       0.0175     108.5654      19.2326      14.0101      74.9804      61.2249    -999.2500    -999.2500    -999.2500       0.2365       1.7648       0.0029       1.3425       0.5755       1.4644
   3439.2102       9.2785       8.3069       6.0240       0.0529     108.6076      20.1143      15.4354      74.4678      68.1383    -999.2500    -999.2500    -999.2500       0.2302       1.8546       0.0033       1.4676       0.3916       1.5687
   3439.3628       8.9481       8.2180       6.2804       0.0937     108.6606      20.9143      17.7159      72.1812      71.3911    -999.2500    -999.2500    -999.2500       0.2217       1.9594       0.0038       1.6112       0.2840       1.6292
   3439.5151       8.1538       7.8053       6.1106       0.2089     108.2115      21.2856      19.8685      75.1664      79.2553    -999.2500    -999.2500    -999.2500       0.1845       2.2695       0.0036       2.0087       0.3111       1.6895
   3439.6675       7.4595       7.5662       5.8439       0.2650     104.9000      21.7427      20.6271      78.9212      87.5652    -999.2500    -999.2500    -999.2500       0.1568       2.4331       0.0032       2.2357       0.3698       1.7701
   3439.8198       6.8025       7.3269       5.2360       0.3125      95.5409      22.1679      20.1715      86.0679      96.1856    -999.2500    -999.2500    -999.2500       0.1283       2.5888       0.0030       2.4547       0.3091       1.8851
   3439.9724       6.4986       7.1268       4.5080       0.2930      80.2455      22.0873      19.7810      93.8026     101.8058    -999.2500    -999.2500    -999.2500       0.0969       2.6664       0.0030       2.5925       0.0836       1.9572
   3440.1248       6.5356       7.1793       4.4737       0.2860      65.4493      21.2720      19.8512      94.4486     104.3344    -999.2500    -999.2500    -999.2500       0.0873       2.6447       0.0031       2.6232       0.0562       1.8702
   3440.2771       6.5623       7.2051       4.0682       0.2727      56.4415      21.1680      20.1460     102.7131     113.0654    -999.2500    -999.2500    -999.2500       0.0775       2.6509       0.0027       2.6567       0.0680       1.9038
   3440.4294       6.5062       7.0638       4.7229       0.2323      52.9401      20.9823      19.5191     111.3566     115.9581    -999.2500    -999.2500    -999.2500       0.0676       2.7894       0.0027       2.6957       0.2580       1.8102
   3440.5818       6.3295       6.8179       5.4704       0.2222      51.8060      21.0899      18.5270     121.4813     128.1850    -999.2500    -999.2500    -999.2500       0.0657       2.8471       0.0027       2.6880       0.4665       1.7390
   3440.7344       6.2391       6.7016       5.6453       0.2228      51.3551      20.8569      19.0842     124.6725     131.0461    -999.2500    -999.2500    -999.2500       0.0654       2.8288       0.0027       2.6834       0.5489       1.6936
   3440.8867       6.2344       6.7252       4.0358       0.2203      51.2358      20.5916      19.8842     133.9915     142.8521    -999.2500    -999.2500    -999.2500       0.0656       2.7762       0.0020       2.6872       0.3619       1.8432
   3441.0391       6.2710       6.7959       3.6849       0.2119      51.6023      20.0642      19.9938     145.3730     149.7052    -999.2500    -999.2500    -999.2500       0.0645       2.7020       0.0021       2.7159       0.2221       1.8236
   3441.1914       6.5505       6.7932       3.3884       0.1896      52.7372      19.7852      18.9634     151.3366     154.2505    -999.2500    -999.2500    -999.2500       0.0601       2.7134       0.0021       2.7403       0.1165       1.8256
   3441.3440       6.4564       6.7835       4.0236       0.1815      54.7829      19.6772      17.9778     151.9737     160.6973    -999.2500    -999.2500    -999.2500       0.0574       2.8095       0.0025       2.7369       0.1550       1.7428
   3441.4963       6.1667       6.8265       6.3152       0.1836      56.9742      19.9659      17.8456     151.7630     162.3635    -999.2500    -999.2500    -999.2500       0.0557       2.8376       0.0032       2.7287       0.5186       1.5198
   3441.6487       6.2535       6.8619       8.0842       0.1964      58.5258      20.1778      17.6781     159.7573     168.1165    -999.2500    -999.2500    -999.2500       0.0544       2.7811       0.0037       2.7310       0.8079       1.3464
   3441.8010       6.3683       6.8893       8.6816       0.2075      59.5693      20.2229      18.2864     164.9725     169.9424    -999.2500    -999.2500    -999.2500       0.0542       2.7870       0.0039       2.7382       0.9142       1.2849
   3441.9536       6.3740       6.8606       8.0767       0.2103      60.2537      20.1650      19.1951     167.6886     174.0828    -999.2500    -999.2500    -999.2500       0.0549       2.7912       0.0037       2.7486       0.8389       1.3458
   3442.1060       6.3156       6.8673       6.6423       0.1971      60.0501      20.2355      19.7771     169.8645     181.3827    -999.2500    -999.2500    -999.2500       0.0555       2.7244       0.0033       2.7440       0.5881       1.5134
   3442.2583       6.2135       6.9179       4.2053       0.1875      57.6507      20.6950      19.6052     180.6298     182.3412    -999.2500    -999.2500    -999.2500       0.0554       2.5864       0.0024       2.7447       0.2390       1.8359
   3442.4106       6.1484       6.9212       3.2464       0.1855      53.7736      20.5578      19.1514     176.1494     179.7415    -999.2500    -999.2500    -999.2500       0.0544       2.5518       0.0022       2.7501       0.0503       1.9273
   3442.5630       6.2384       6.8710       4.0311       0.1979      50.3929      20.1358      18.8769     174.7449     179.9739    -999.2500    -999.2500    -999.2500       0.0537       2.6250       0.0024       2.7728       0.1961       1.7930
   3442.7156       6.2611       6.8153       5.1362       0.2096      48.8265      19.7031      18.6838     180.8746     180.5900    -999.2500    -999.2500    -999.2500       0.0534       2.7296       0.0027       2.7903       0.3827       1.6218
