#------------------------------------------------------------------------------
#
#   Created by  : [OpenWorks] Log Export Utility (LEXP)
#   Created on  : 2016-05-23 11:55:58
#   Project     : CANT971
#   User        : R5K
#   Interpreter : PEP
#
#------------------------------------------------------------------------------
~VERSION INFORMATION
VERS. 2.0 : CWLS Log ASCII Standard - version 2.0
WRAP.  NO : One line per depth step
~WELL INFORMATION
#MNEMONIC   .UNIT                                           VALUE :DESCRIPTION
#------------------------------------------------------------------------------
STRT        .M                                           646.6334 :START DEPTH
STOP        .M                                          2755.8494 :STOP DEPTH
STEP        .M                                             0.1524 :STEP
NULL        .                                           -999.2500 :NULL VALUE
COMP        .                                   PEMEX EXPL & PROD :COMPANY
WELL        .                                                  42 :WELL
FLD         .                                           CANTARELL :FIELD
LOC         .                                             UNKNOWN :LOCATION
CNTY        .                                      CD. DEL CARMEN :COUNTY
STAT        .                                            CAMPECHE :STATE
CTRY        .                                              MEXICO :COUNTRY
SRVC        .                                             UNKNOWN :SERVICE COMPANY
DATE        .                                             UNKNOWN :LOG DATE
UWI         .                                          3060000464 :UNIQUE WELL ID
XCOORD      .                                       599690.710000 :SURFACE X
YCOORD      .                                      2143036.470000 :SURFACE Y
LAT         .                                           19.380144 :LATITUDE
LON         .                                          -92.050691 :LONGITUDE
ELEV        .M                                            26.7400 :SURFACE ELEV
ELEV_TYPE   .                                                  KB :ELEV TYPE
~CURVE INFORMATION
#MNEMONIC.UNIT        API CODE       : CURVE DESCRIPTION
#------------------------------------------------------------------------------
DEPTH    .M                          : Measured Depth
CALI     .inches      UNKNOWN        : CALI:Import:rC:NONE:v0 (auto-composite)
DRHO     .g/cm3       UNKNOWN        : DRHO:Import:rC:NONE:v0 (auto-composite)
DT       .us/ft       UNKNOWN        : DT:Import:rC:NONE:v0 (auto-composite)
GR       .API         UNKNOWN        : GR:Import:rC:NONE:v0 (auto-composite)
ILD      .ohm.m       UNKNOWN        : ILD:Import:rC:NONE:v0 (auto-composite)
ILM      .ohm.m       UNKNOWN        : ILM:Import:rC:NONE:v0 (auto-composite)
LLD      .ohm.m       UNKNOWN        : LLD:Import:rC:NONE:v0 (auto-composite)
LLS      .ohm.m       UNKNOWN        : LLS:Import:rC:NONE:v0 (auto-composite)
MSFL     .ohm.m       UNKNOWN        : MSFL:Import:rC:NONE:v0 (auto-composite)
NPHI     .v/v_decimal UNKNOWN        : NPHI:Import:rC:NONE:v0 (auto-composite)
PEF      .b/elec      UNKNOWN        : PEF:Import:rC:NONE:v0 (auto-composite)
RHOB     .g/cm3       UNKNOWN        : RHOB:Import:rC:NONE:v0 (auto-composite)
~A     DEPTH         CALI         DRHO           DT           GR          ILD          ILM          LLD          LLS         MSFL         NPHI          PEF         RHOB
# ...
   1934.1085      17.3454       0.0690    -999.2500      38.3291    -999.2500    -999.2500       3.6440       3.6854       6.2293       0.2257       3.3127       2.4105
   1934.2610      17.5010       0.0670    -999.2500      38.9770    -999.2500    -999.2500       3.6390       3.7870       6.7320       0.2452       3.1970       2.4170
   1934.4133      17.6629       0.0610    -999.2500      39.2581    -999.2500    -999.2500       3.5312       3.6377      21.4625       0.2510       3.2551       2.4441
   1934.5658      17.8240       0.0550    -999.2500      39.5400    -999.2500    -999.2500       3.4230       3.4880      36.2350       0.2482       3.3130       2.4710
   1934.7181      17.8977       0.0525    -999.2500      40.8490    -999.2500    -999.2500       3.2562       3.3078      28.6433       0.2417       3.3947       2.4825
   1934.8706      17.9710       0.0500    -999.2500      42.1620    -999.2500    -999.2500       3.0890       3.1270      21.0290       0.2327       3.4760       2.4940
   1935.0229      17.9961       0.0440    -999.2500      43.0222    -999.2500    -999.2500       3.1095       3.1639      13.3929       0.2222       3.4610       2.4689
   1935.1754      18.0210       0.0380    -999.2500      43.8850    -999.2500    -999.2500       3.1300       3.2010       5.7330       0.2111       3.4460       2.4440
   1935.3278      18.1423       0.0310    -999.2500      42.6495    -999.2500    -999.2500       3.2563       3.3518       6.3652       0.2003       3.5187       2.4440
   1935.4801      18.2630       0.0240    -999.2500      41.4100    -999.2500    -999.2500       3.3830       3.5030       6.9990       0.1900       3.5910       2.4440
   1935.6326      18.3512       0.0250    -999.2500      39.0485    -999.2500    -999.2500       3.5184       3.6609       6.2876       0.1806       3.7008       2.4615
   1935.7849      18.4390       0.0260    -999.2500      36.6790    -999.2500    -999.2500       3.6540       3.8190       5.5750       0.1756       3.8100       2.4790
   1935.9374      18.5362       0.0315    -999.2500      37.7586    -999.2500    -999.2500       3.5576       3.7201       4.7478       0.1788       3.7118       2.4950
   1936.0897      18.6330       0.0370    -999.2500      38.8420    -999.2500    -999.2500       3.4610       3.6210       3.9190       0.1880       3.6140       2.5110
   1936.2422      18.6856       0.0430    -999.2500      40.3943    -999.2500    -999.2500       3.4660       3.5676      20.0808       0.2008       3.6802       2.5070
   1936.3945      18.7380       0.0490    -999.2500      41.9510    -999.2500    -999.2500       3.4710       3.5140      36.2750       0.2115       3.7460       2.5030
   1936.5470      18.6357       0.0475    -999.2500      41.7058    -999.2500    -999.2500       3.4525       3.4935     102.8271       0.2139       3.6397       2.5070
   1936.6993      18.5340       0.0460    -999.2500      41.4600    -999.2500    -999.2500       3.4340       3.4730     169.5210       0.2135       3.5340       2.5110
   1936.8518      18.3414       0.0370    -999.2500      41.0619    -999.2500    -999.2500       3.3106       3.3866     119.7636       0.2156       3.3861       2.5215
   1937.0042      18.1500       0.0280    -999.2500      40.6630    -999.2500    -999.2500       3.1870       3.3000      69.8940       0.2193       3.2390       2.5320
   1937.1566      18.0602       0.0185    -999.2500      39.8430    -999.2500    -999.2500       3.2290       3.3415      37.4257       0.2240       3.3272       2.5280
   1937.3090      17.9710       0.0090    -999.2500      39.0210    -999.2500    -999.2500       3.2710       3.3830       4.8800       0.2259       3.4150       2.5240
   1937.4613      18.0006       0.0050    -999.2500      38.6530    -999.2500    -999.2500       3.3164       3.4065       5.1986       0.2209       3.5529       2.5210
   1937.6138      18.0300       0.0010    -999.2500      38.2840    -999.2500    -999.2500       3.3620       3.4300       5.5180       0.2116       3.6900       2.5180
   1937.7661      17.9468       0.0035    -999.2500      37.9474    -999.2500    -999.2500       3.4339       3.4575       5.7647       0.2001       3.8048       2.5250
   1937.9186      17.8640       0.0060    -999.2500      37.6100    -999.2500    -999.2500       3.5060       3.4850       6.0120       0.1918       3.9190       2.5320
   1938.0709      17.7286       0.0085    -999.2500      37.4178    -999.2500    -999.2500       3.6733       3.6123       5.8268       0.1919       3.8994       2.5340
   1938.2234      17.5940       0.0110    -999.2500      37.2250    -999.2500    -999.2500       3.8410       3.7400       5.6410       0.1951       3.8800       2.5360
   1938.3757      17.6401       0.0100    -999.2500      37.2859    -999.2500    -999.2500       4.1800       3.9292       7.3825       0.1960       3.8274       2.5285
   1938.5282      17.6860       0.0090    -999.2500      37.3470    -999.2500    -999.2500       4.5200       4.1190       9.1290       0.1953       3.7750       2.5210
   1938.6805      17.7712       0.0205    -999.2500      37.3695    -999.2500    -999.2500       4.2025       3.7860       8.1370       0.1940       3.8462       2.5120
   1938.8330      17.8560       0.0320    -999.2500      37.3920    -999.2500    -999.2500       3.8840       3.4520       7.1420       0.1962       3.9170       2.5030
   1938.9854      17.8886       0.0576    -999.2500      38.4139    -999.2500    -999.2500       3.7088       3.2573       6.8569       0.2062       3.9776       2.5130
   1939.1378      17.9210       0.0830    -999.2500      39.4390    -999.2500    -999.2500       3.5330       3.0620       6.5710       0.2178       4.0380       2.5230
   1939.2902      18.0087       0.1051    -999.2500      40.5048    -999.2500    -999.2500       3.4906       2.9996       6.3782       0.2252       3.9628       2.5325
   1939.4425      18.0960       0.1270    -999.2500      41.5740    -999.2500    -999.2500       3.4480       2.9370       6.1850       0.2281       3.8880       2.5420
   1939.5950      18.2494       0.1215    -999.2500      42.3971    -999.2500    -999.2500       3.3696       2.8526       6.1181       0.2265       3.9161       2.5570
   1939.7473      18.4020       0.1160    -999.2500      43.2230    -999.2500    -999.2500       3.2910       2.7680       6.0510       0.2243       3.9440       2.5720
   1939.8998      18.5263       0.1035    -999.2500      42.8372    -999.2500    -999.2500       3.1651       2.6481       5.9866       0.2259       3.8713       2.5690
   1940.0521      18.6500       0.0910    -999.2500      42.4500    -999.2500    -999.2500       3.0390       2.5280       5.9220       0.2308       3.7990       2.5660
   1940.2046      19.1493       0.0815    -999.2500      42.8105    -999.2500    -999.2500       2.9651       2.4621       5.7272       0.2391       3.5539       2.4983
   1940.3569      19.6460       0.0720    -999.2500      43.1720    -999.2500    -999.2500       2.8910       2.3960       5.5320       0.2535       3.3100       2.4310
   1940.5094      20.4749       0.0740    -999.2500      43.3993    -999.2500    -999.2500       2.8950       2.3670       5.3902       0.2774       3.0116       2.3167
   1940.6617      21.2990       0.0760    -999.2500      43.6270    -999.2500    -999.2500       2.8990       2.3380       5.2480       0.3083       2.7150       2.2030
   1940.8142      21.9709       0.0830    -999.2500      43.8378    -999.2500    -999.2500       2.7457       2.1877       5.3269       0.3442       2.9106       2.1353
   1940.9666      22.6390       0.0900    -999.2500      44.0490    -999.2500    -999.2500       2.5920       2.0370       5.4060       0.3644       3.1050       2.0680
   1941.1190      22.1953       0.0970    -999.2500      43.7653    -999.2500    -999.2500       2.3323       1.8317       3.9123       0.3472       3.4294       2.1758
   1941.2714      21.7540       0.1040    -999.2500      43.4810    -999.2500    -999.2500       2.0720       1.6260       2.4150       0.3151       3.7520       2.2830
