#------------------------------------------------------------------------------
#
#   Created by  : [OpenWorks] Log Export Utility (LEXP)
#   Created on  : 2016-05-23 11:52:25
#   Project     : CANT971
#   User        : R5K
#   Interpreter : PEP
#
#------------------------------------------------------------------------------
~VERSION INFORMATION
VERS. 2.0 : CWLS Log ASCII Standard - version 2.0
WRAP.  NO : One line per depth step
~WELL INFORMATION
#MNEMONIC   .UNIT                                           VALUE :DESCRIPTION
#------------------------------------------------------------------------------
STRT        .M                                           940.1293 :START DEPTH
STOP        .M                                          2672.0029 :STOP DEPTH
STEP        .M                                             0.1524 :STEP
NULL        .                                           -999.2500 :NULL VALUE
COMP        .                                   PEMEX EXPL & PROD :COMPANY
WELL        .                                               2071D :WELL
FLD         .                                           CANTARELL :FIELD
LOC         .                                             UNKNOWN :LOCATION
CNTY        .                                      CD. DEL CARMEN :COUNTY
STAT        .                                            CAMPECHE :STATE
CTRY        .                                              MEXICO :COUNTRY
SRVC        .                                             UNKNOWN :SERVICE COMPANY
DATE        .                                             UNKNOWN :LOG DATE
UWI         .                                          3060000679 :UNIQUE WELL ID
XCOORD      .                                       601713.940000 :SURFACE X
YCOORD      .                                      2142372.000000 :SURFACE Y
LAT         .                                           19.374038 :LATITUDE
LON         .                                          -92.031462 :LONGITUDE
ELEV        .M                                            30.0000 :SURFACE ELEV
ELEV_TYPEF  .b/elec                                            KB :ELEV TYPE
~CURVE INFORMATION
#MNEMONIC.UNIT        API CODE       : CURVE DESCRIPTION
#------------------------------------------------------------------------------
DEPTH    .M                          : Measured Depth
CALI     .in          UNKNOWN        : CALI:UNKNOWN:rC:NONE:v0 (auto-composite)
DRHO     .g/cm3       UNKNOWN        : DRHO:UNKNOWN:rC:NONE:v0 (auto-composite)
DT       .us/ft       UNKNOWN        : DT:DT:rC:NONE:v0 (auto-composite)
GR       .API         UNKNOWN        : GR:UNKNOWN:rC:NONE:v0 (auto-composite)
ILD      .ohmm        UNKNOWN        : ILD:UNKNOWN:rC:NONE:v0 (auto-composite)
ILM      .ohmm        UNKNOWN        : ILM:UNKNOWN:rC:NONE:v0 (auto-composite)
LLD      .ohmm        UNKNOWN        : LLD:UNKNOWN:rC:NONE:v0 (auto-composite)
LLS      .ohmm        UNKNOWN        : LLS:UNKNOWN:rC:NONE:v0 (auto-composite)
MSFL     .ohmm        UNKNOWN        : MSFL:UNKNOWN:rC:NONE:v0 (auto-composite)
NPHI     .v/v_decimal UNKNOWN        : NPHI:UNKNOWN:rC:NONE:v0 (auto-composite)
PEF      .b/elec      UNKNOWN        : PEF:UNKNOWN:rC:NONE:v0 (auto-composite)
RHOB     .g/cm3       UNKNOWN        : RHOB:UNKNOWN:rC:NONE:v0 (auto-composite)
~A     DEPTH         CALI         DRHO           DT           GR          ILD          ILM          LLD          LLS         MSFL         NPHI          PEF         RHOB
# ...
   2666.5166       7.4761       0.4720    -999.2500      38.5100    -999.2500    -999.2500    7083.1079    2342.8369      31.0692       0.0783       3.2530       2.5230
   2666.6689       7.4683       0.4720    -999.2500      38.5100    -999.2500    -999.2500    7285.5859    2270.1709      26.8185       0.0784       3.2530       2.5230
   2666.8213       7.4812       0.4720    -999.2500      38.5100    -999.2500    -999.2500    7182.9507    2253.5378      33.4658       0.0783       3.2530       2.5230
   2666.9736       7.5051       0.4720    -999.2500      38.5100    -999.2500    -999.2500    7119.4282    2242.6094      34.8836       0.0780       3.2530       2.5232
   2667.1262       7.5516       0.4720    -999.2500      38.5100    -999.2500    -999.2500    7136.8247    2243.4819      25.4827       0.0776       3.2530       2.5237
   2667.2786       7.5804       0.4720    -999.2500      38.5100    -999.2500    -999.2500    7148.5669    2244.0710      18.3188       0.0773       3.2530       2.5240
   2667.4309       7.5724       0.4720    -999.2500      38.5100    -999.2500    -999.2500    7148.5669    2244.0710      15.8014       0.0774       3.2530       2.5240
   2667.5833       7.5621       0.4720    -999.2500      38.5100    -999.2500    -999.2500    7148.5669    2244.0710      14.6191       0.0775       3.2530       2.5240
   2667.7358       7.5471       0.4720    -999.2500      38.5100    -999.2500    -999.2500    7148.5669    2244.0710      16.2205       0.0776       3.2530       2.5240
   2667.8882       7.5480       0.4720    -999.2500      38.5100    -999.2500    -999.2500    7148.5669    2244.0710      16.7924       0.0776       3.2530       2.5240
   2668.0405       7.5815       0.4720    -999.2500      38.5100    -999.2500    -999.2500    7148.5669    2244.0710      15.2707       0.0773       3.2530       2.5240
   2668.1929       7.5880       0.4720    -999.2500      38.5100    -999.2500    -999.2500    7148.5669    2244.0710      18.3270       0.0773       3.2530       2.5238
   2668.3452       7.5390       0.4720    -999.2500      38.5100    -999.2500    -999.2500    7148.5669    2244.0710      30.7962       0.0777       3.2530       2.5233
   2668.4978       7.5008       0.4720    -999.2500      38.5100    -999.2500    -999.2500    7148.5669    2244.0710      36.4417       0.0781       3.2530       2.5230
   2668.6501       7.4848       0.4720    -999.2500      38.5100    -999.2500    -999.2500    7148.5669    2244.0710      28.0018       0.0782       3.2530       2.5230
   2668.8025       7.4842       0.4720    -999.2500      38.5100    -999.2500    -999.2500    7148.5669    2244.0710      20.0588       0.0782       3.2530       2.5230
   2668.9548       7.5157       0.4720    -999.2500      38.5100    -999.2500    -999.2500    7148.5669    2244.0710      13.1453       0.0779       3.2530       2.5230
   2669.1074       7.5297       0.4720    -999.2500      38.5100    -999.2500    -999.2500    7148.5669    2244.0710       9.5932       0.0778       3.2530       2.5230
   2669.2598       7.5071       0.4720    -999.2500      38.5100    -999.2500    -999.2500    7148.5669    2244.0710      13.0859       0.0780       3.2530       2.5230
   2669.4121       7.4946       0.4720    -999.2500      38.5100    -999.2500    -999.2500    7148.5669    2244.0710      14.9880       0.0781       3.2530       2.5230
   2669.5645       7.5026       0.4720    -999.2500      38.5100    -999.2500    -999.2500    7148.5669    2244.0710      13.6395       0.0781       3.2530       2.5230
   2669.7170       7.5019       0.4720    -999.2500      38.5100    -999.2500    -999.2500    7148.5669    2244.0710      12.4692       0.0781       3.2530       2.5230
   2669.8694       7.4834       0.4720    -999.2500      38.5100    -999.2500    -999.2500    7148.5669    2244.0710      11.6640       0.0783       3.2530       2.5230
   2670.0217       7.4748       0.4720    -999.2500      38.5100    -999.2500    -999.2500    7148.5669    2244.0710      12.9783       0.0783       3.2530       2.5230
   2670.1741       7.4862       0.4720    -999.2500      38.5100    -999.2500    -999.2500    7148.5669    2244.0710      18.6578       0.0782       3.2530       2.5230
   2670.3264       7.4953       0.4720    -999.2500      38.5100    -999.2500    -999.2500    7148.5669    2244.0710      27.1590       0.0781       3.2530       2.5230
   2670.4790       7.4993       0.4720    -999.2500      38.5100    -999.2500    -999.2500    7148.5669    2244.0710      41.5378       0.0781       3.2530       2.5230
   2670.6313       7.4984       0.4720    -999.2500      38.5100    -999.2500    -999.2500    7148.5669    2244.0710      47.2870       0.0781       3.2530       2.5230
   2670.7837       7.4874       0.4720    -999.2500      38.5100    -999.2500    -999.2500    7148.5669    2244.0710      34.9904       0.0782       3.2530       2.5230
   2670.9360       7.4925       0.4720    -999.2500      38.5100    -999.2500    -999.2500    7148.5669    2244.0710      26.9423       0.0782       3.2530       2.5230
   2671.0886       7.5305       0.4720    -999.2500      38.5100    -999.2500    -999.2500    7148.5669    2244.0710      27.5570       0.0778       3.2530       2.5230
   2671.2410       7.5519       0.4720    -999.2500      38.5100    -999.2500    -999.2500    7148.5669    2244.0710      27.1165       0.0776       3.2530       2.5230
   2671.3933       7.5394       0.4720    -999.2500      38.5100    -999.2500    -999.2500    7148.5669    2244.0710      24.5157       0.0777       3.2530       2.5230
   2671.5457       7.5369       0.4720    -999.2500      38.5100    -999.2500    -999.2500    7148.5669    2244.0710      22.5474       0.0777       3.2530       2.5232
   2671.6982       7.5549       0.4720    -999.2500      38.5100    -999.2500    -999.2500    7148.5669    2244.0710      21.8887       0.0776       3.2530       2.5237
   2671.8506       7.5688       0.4720    -999.2500      38.5100    -999.2500    -999.2500    7148.5669    2244.0710      21.4440       0.0774       3.2530       2.5240
   2672.0029       7.5743       0.4720    -999.2500      38.5100    -999.2500    -999.2500    7148.5669    2244.0710      21.4440       0.0774       3.2530       2.5240
