#------------------------------------------------------------------------------
#
#   Created by  : [OpenWorks] Log Export Utility (LEXP)
#   Created on  : 2016-05-23 11:50:40
#   Project     : CANT971
#   User        : R5K
#   Interpreter : PEP
#
#------------------------------------------------------------------------------
~VERSION INFORMATION
VERS. 2.0 : CWLS Log ASCII Standard - version 2.0
WRAP.  NO : One line per depth step
~WELL INFORMATION
#MNEMONIC   .UNIT                                           VALUE :DESCRIPTION
#------------------------------------------------------------------------------
STRT        .M                                           697.2303 :START DEPTH
STOP        .M                                          3650.8948 :STOP DEPTH
STEP        .M                                             0.1524 :STEP
NULL        .                                           -999.2500 :NULL VALUE
COMP        .                                   PEMEX EXPL & PROD :COMPANY
WELL        .                                                1026 :WELL
FLD         .                                           CANTARELL :FIELD
LOC         .                                             UNKNOWN :LOCATION
CNTY        .                                      CD. DEL CARMEN :COUNTY
STAT        .                                            CAMPECHE :STATE
CTRY        .                                              MEXICO :COUNTRY
SRVC        .                                             UNKNOWN :SERVICE COMPANY
DATE        .                                             UNKNOWN :LOG DATE
UWI         .                                          3060000491 :UNIQUE WELL ID
XCOORD      .                                       596159.330000 :SURFACE X
YCOORD      .                                      2150607.710000 :SURFACE Y
LAT         .                                           19.448735 :LATITUDE
LON         .                                          -92.083932 :LONGITUDE
ELEV        .M                                            30.0000 :SURFACE ELEV
ELEV_TYPE   .                                                  KB :ELEV TYPE
~CURVE INFORMATION
#MNEMONIC.UNIT        API CODE       : CURVE DESCRIPTION
#------------------------------------------------------------------------------
DEPTH    .M                          : Measured Depth
CALI     .inches      UNKNOWN        : CALI:registros:rC:NONE:v0 (auto-composite)
DRHO     .g/cm3       UNKNOWN        : DRHO:registros:rC:NONE:v0 (auto-composite)
DT       .us/ft       UNKNOWN        : DT:registros:rC:NONE:v0 (auto-composite)
GR       .API         UNKNOWN        : GR:registros:rC:NONE:v0 (auto-composite)
ILD      .ohm.m       UNKNOWN        : ILD:registros:rC:NONE:v0 (auto-composite)
ILM      .ohm.m       UNKNOWN        : ILM:registros:rC:NONE:v0 (auto-composite)
LLD      .ohm.m       UNKNOWN        : LLD:registros:rC:NONE:v0 (auto-composite)
LLS      .ohm.m       UNKNOWN        : LLS:registros:rC:NONE:v0 (auto-composite)
MSFL     .ohm.m       UNKNOWN        : MSFL:registros:rC:NONE:v0 (auto-composite)
NPHI     .v/v_decimal UNKNOWN        : NPHI:registros:rC:NONE:v0 (auto-composite)
PEF      .b/elec      UNKNOWN        : PEF:registros:rC:NONE:v0 (auto-composite)
RHOB     .g/cm3       UNKNOWN        : RHOB:registros:rC:NONE:v0 (auto-composite)
~A     DEPTH         CALI         DRHO           DT           GR          ILD          ILM          LLD          LLS         MSFL         NPHI          PEF         RHOB
# ...
   3462.3760       9.8990       0.0365     114.1350     109.8390    -999.2500    -999.2500      48.6547      52.3245      10.0094       0.1162       3.1305       2.5815
   3462.5283       9.8450       0.0210     112.0630     142.5630    -999.2500    -999.2500      53.1830      56.2790      13.4140       0.1055       3.1560       2.6160
   3462.6807       9.8250       0.0140     113.6456     116.7948    -999.2500    -999.2500      57.0453      60.1373      12.6800       0.0939       3.3339       2.6490
   3462.8330       9.8050       0.0070     115.2330      90.9910    -999.2500    -999.2500      60.9130      64.0010      11.9450       0.0825       3.5120       2.6820
   3462.9856       9.8050       0.0090     116.3333      64.0628    -999.2500    -999.2500      59.2587      63.0967      15.4544       0.0743       3.4191       2.6935
   3463.1379       9.8050       0.0110     117.4370      37.0940    -999.2500    -999.2500      57.6020      62.1910      18.9690       0.0693       3.3260       2.7050
   3463.2903       9.8050       0.0190     109.8812      40.3878    -999.2500    -999.2500      55.1525      59.7515      10.6963       0.0928       3.3370       2.6870
   3463.4426       9.8050       0.0270     102.3130      43.6870    -999.2500    -999.2500      52.6990      57.3080       2.4100       0.1194       3.3480       2.6690
   3463.5950       9.7635       0.0195     103.3741      39.7235    -999.2500    -999.2500      46.4360      51.2793       3.1798       0.1461       3.2886       2.6295
   3463.7476       9.7220       0.0120     104.4370      35.7530    -999.2500    -999.2500      40.1620      45.2400       3.9510       0.1678       3.2290       2.5900
   3463.8999       9.6970       0.0175     104.3895      33.6600    -999.2500    -999.2500      34.7896      39.9640       6.6974       0.1408       3.1491       2.6405
   3464.0522       9.6720       0.0230     104.3420      31.5630    -999.2500    -999.2500      29.4070      34.6780       9.4490       0.1101       3.0690       2.6910
   3464.2046       9.6840       0.0170      90.6533      32.4688    -999.2500    -999.2500      33.0118      38.7647      12.6768       0.0958       2.9641       2.7170
   3464.3572       9.6960       0.0110      76.9370      33.3750    -999.2500    -999.2500      36.6180      42.8530      15.9060       0.0838       2.8590       2.7430
   3464.5095       9.7385       0.0080      98.7886      31.5395    -999.2500    -999.2500      40.4730      47.1369      12.1650       0.0783       2.9679       2.7355
   3464.6619       9.7810       0.0050     120.6870      29.7030    -999.2500    -999.2500      44.3300      51.4230       8.4220       0.0733       3.0770       2.7280
   3464.8142       9.7930       0.0080     116.8663      33.1983    -999.2500    -999.2500      41.7553      48.3175       9.4632       0.0655       3.1180       2.7370
   3464.9668       9.8050       0.0110     113.0370      36.6960    -999.2500    -999.2500      39.1790      45.2100      10.5050       0.0572       3.1590       2.7460
   3465.1191       9.8584       0.0190     108.9609      41.8615    -999.2500    -999.2500      46.7295      52.8670      11.1907       0.0462       3.2679       2.7730
   3465.2715       9.9120       0.0270     104.8750      47.0310    -999.2500    -999.2500      54.2860      60.5300      11.8770       0.0352       3.3770       2.8000
   3465.4238       9.9285       0.0310     106.8101      45.3413    -999.2500    -999.2500      68.8614      74.7235      12.0164       0.0286       3.3261       2.7945
   3465.5762       9.9450       0.0350     108.7500      43.6500    -999.2500    -999.2500      83.4500      88.9300      12.1560       0.0230       3.2750       2.7890
   3465.7288       9.9450       0.0325      97.9827      35.5072    -999.2500    -999.2500      93.6902     101.5715      11.6877       0.0238       3.2760       2.7780
   3465.8811       9.9450       0.0300      87.1870      27.3560    -999.2500    -999.2500     103.9410     114.2260      11.2190       0.0251       3.2770       2.7670
   3466.0334       9.9410       0.0310     102.6351      22.0326    -999.2500    -999.2500     109.0480     125.0197      11.6952       0.0268       3.2450       2.7595
   3466.1858       9.9370       0.0320     118.1260      16.7030    -999.2500    -999.2500     114.1610     135.8260      12.1720       0.0299       3.2130       2.7520
   3466.3384       9.9405       0.0345     122.8686      19.5252    -999.2500    -999.2500      91.6120     110.1600      11.1402       0.0473       3.1795       2.7550
   3466.4907       9.9440       0.0370     127.6250      22.3510    -999.2500    -999.2500      69.0340      84.4610      10.1070       0.0642       3.1460       2.7580
   3466.6431       9.9640       0.0310     117.3116      31.5345    -999.2500    -999.2500      47.8834      59.1504       5.3344       0.0605       3.1585       2.7515
   3466.7954       9.9840       0.0250     106.9670      40.7310    -999.2500    -999.2500      26.7030      33.8040       0.5550       0.0542       3.1710       2.7450
   3466.9480       9.9645       0.0220     100.3559      60.9125    -999.2500    -999.2500      23.6888      30.0089       7.1514       0.0387       3.2180       2.7760
   3467.1003       9.9450       0.0190      93.7240      81.1250    -999.2500    -999.2500      20.6700      26.2080      13.7580       0.0238       3.2650       2.8070
   3467.2527       9.9450       0.0125      91.7561      75.8034    -999.2500    -999.2500      38.0475      45.2636      12.8133       0.0252       3.3150       2.7925
   3467.4050       9.9450       0.0060      89.7850      70.4730    -999.2500    -999.2500      55.4540      64.3510      11.8670       0.0285       3.3650       2.7780
   3467.5574       9.9450       0.0075      87.8228      54.3864    -999.2500    -999.2500      78.6063      94.2073      11.8790       0.0374       3.4224       2.7730
   3467.7100       9.9450       0.0090      85.8570      38.2710    -999.2500    -999.2500     101.8000     124.1170      11.8910       0.0467       3.4800       2.7680
   3467.8623       9.8591       0.0105      74.0858      32.3367    -999.2500    -999.2500      91.1302     111.5191      12.6073       0.0554       3.3931       2.7510
   3468.0146       9.7730       0.0120      62.2920      26.3910    -999.2500    -999.2500      80.4400      98.8970      13.3250       0.0637       3.3060       2.7340
   3468.1670       9.9408       0.0100      57.4944      26.4760    -999.2500    -999.2500      65.1824      81.4768      14.5487       0.0675       3.2780       2.6965
   3468.3196      10.1090       0.0080      52.6870      26.5610    -999.2500    -999.2500      49.9180      64.0490      15.7730       0.0706       3.2500       2.6590
   3468.4719       9.9906       0.0055      54.0985      30.4024    -999.2500    -999.2500      45.8971      58.5596      14.8163       0.0684       3.3993       2.6655
   3468.6243       9.8720       0.0030      55.5130      34.2460    -999.2500    -999.2500      41.8740      53.0670      13.8590       0.0654       3.5490       2.6720
   3468.7766       9.7721       0.0050      62.0500      37.3369    -999.2500    -999.2500      44.4396      56.0070      15.5644       0.0578       3.4181       2.6985
   3468.9292       9.6720       0.0070      68.6020      40.4300    -999.2500    -999.2500      47.0070      58.9490      17.2710       0.0496       3.2870       2.7250
   3469.0815       9.6720       0.0095      70.5496      41.1367    -999.2500    -999.2500      53.6178      66.9053      18.5880       0.0387       3.3319       2.7460
   3469.2339       9.6720       0.0120      72.5020      41.8440    -999.2500    -999.2500      60.2340      74.8680      19.9060       0.0283       3.3770       2.7670
   3469.3862       9.6660       0.0130      74.9978      41.2938    -999.2500    -999.2500      66.3416      80.2675      19.0079       0.0295       3.3096       2.7735
   3469.5386       9.6600       0.0140      77.5000      40.7430    -999.2500    -999.2500      72.4550      85.6720      18.1090       0.0312       3.2420       2.7800
