#------------------------------------------------------------------------------
#
#   Created by  : [OpenWorks] Log Export Utility (LEXP)
#   Created on  : 2016-05-12 17:18:19
#   Project     : CANT971
#   User        : R5K
#   Interpreter : PEP
#
#------------------------------------------------------------------------------
~VERSION INFORMATION
VERS. 2.0 : CWLS Log ASCII Standard - version 2.0
WRAP.  NO : One line per depth step
~WELL INFORMATION
#MNEMONIC   .UNIT                                           VALUE :DESCRIPTION
#------------------------------------------------------------------------------
STRT        .M                                           134.7982 :START DEPTH
STOP        .M                                          2692.2227 :STOP DEPTH
STEP        .M                                             0.1524 :STEP
NULL        .                                           -999.2500 :NULL VALUE
COMP        .                                   PEMEX EXPL & PROD :COMPANY
WELL        .                                                 57A :WELL
FLD         .                                           CANTARELL :FIELD
LOC         .                                             UNKNOWN :LOCATION
CNTY        .                                      CD. DEL CARMEN :COUNTY
STAT        .                                            CAMPECHE :STATE
CTRY        .                                              MEXICO :COUNTRY
SRVC        .                                             UNKNOWN :SERVICE COMPANY
DATE        .                                             UNKNOWN :LOG DATE
UWI         .                                          3060000169 :UNIQUE WELL ID
XCOORD      .                                       602151.210000 :SURFACE X
YCOORD      .                                      2147168.830000 :SURFACE Y
LAT         .                                           19.417362 :LATITUDE
LON         .                                          -92.027041 :LONGITUDE
ELEV        .M                                            28.1700 :SURFACE ELEV
ELEV_TYPE   .                                                  KB :ELEV TYPE
~CURVE INFORMATION
#MNEMONIC.UNIT        API CODE       : CURVE DESCRIPTION
#------------------------------------------------------------------------------
DEPTH    .M                          : Measured Depth
CALI     .inches      UNKNOWN        : CALI:UNKNOWN:r1:MAIN:v1 
DRHO     .UNKNOWN     UNKNOWN        : DRHO:UNKNOWN:r1:MAIN:v1 
DT       .us/ft       UNKNOWN        : DT:UNKNOWN:r1:MAIN:v1 
GR       .API         UNKNOWN        : GR:GR:r1:MAIN:v1 
ILD      .UNKNOWN     UNKNOWN        : ILD:UNKNOWN:r1:MAIN:v1 
LLD      .UNKNOWN     UNKNOWN        : LLD:UNKNOWN:r1:MAIN:v1 
LLS      .UNKNOWN     UNKNOWN        : LLS:UNKNOWN:r1:MAIN:v1 
MSFL     .UNKNOWN     UNKNOWN        : MSFL:UNKNOWN:r1:MAIN:v1 
NORM     .UNKNOWN     UNKNOWN        : NORM:NORM-Load:r1:MAIN:v1 
NPHI     .v/v_decimal UNKNOWN        : NPHI:UNKNOWN:r1:MAIN:v1 
RHOB     .UNKNOWN     UNKNOWN        : RHOB:UNKNOWN:r1:MAIN:v1 
SP       .mV          UNKNOWN        : SP:PETROWORKS:rC:NONE:v1 
~A     DEPTH         CALI         DRHO           DT           GR          ILD          LLD          LLS         MSFL         NORM         NPHI         RHOB           SP
# ...
   2146.4783       9.0611       0.0619      65.9509      21.6291       0.2000    8992.5186     987.1825    3440.3396    -999.2500       0.1318       2.5808     141.9922
   2146.6306       9.1604       0.0669      64.6223      21.1428       0.2000   10144.4160    1196.3694    3471.0171    -999.2500       0.1236       2.5928     141.8823
   2146.7830       9.1329       0.0695      63.4381      20.3599       0.2000    9302.5820    1171.6400    3566.6472    -999.2500       0.1243       2.5969     141.7403
   2146.9353       9.1030       0.0720      62.2440      19.5640       0.2000    8419.1797    1142.8080    3664.3450    -999.2500       0.1252       2.6010     141.6874
   2147.0879       9.0638       0.0591      64.1944      19.0932       0.2000    6443.5337     810.0603    3508.7195    -999.2500       0.1262       2.6045     141.9080
   2147.2402       9.0240       0.0460      66.1750      18.6150       0.2000    4437.1938     472.1430    3350.6760    -999.2500       0.1273       2.6080     142.0682
   2147.3926       9.0240       0.0430      68.5768      18.5756       0.2000    2496.6057     324.9150    3197.1257    -999.2500       0.1316       2.6030     142.0491
   2147.5449       9.0240       0.0400      70.9890      18.5360       0.2000     547.6600     177.0530    3042.9141    -999.2500       0.1359       2.5980     141.9801
   2147.6975       8.8756       0.0475      72.3686      19.2609       0.2000     509.5645     182.4305    1760.2869    -999.2500       0.1467       2.5749     141.7668
   2147.8499       8.7280       0.0550      73.7410      19.9820       0.2000     471.6670     187.7800     484.3260    -999.2500       0.1575       2.5520     141.6467
   2148.0022       8.7381       0.0646      75.5230      20.7481       0.2000     524.2519     197.7464     292.5692    -999.2500       0.1651       2.5167     141.7883
   2148.1545       8.7480       0.0740      77.2790      21.5030       0.2000     576.0680     207.5670     103.6160    -999.2500       0.1727       2.4820     141.8848
   2148.3071       8.8782       0.0791      77.6776      22.4202       0.2000     649.6842     215.3316      55.8511    -999.2500       0.1789       2.4673     141.8570
   2148.4595       9.0050       0.0836      78.0475      23.3162       0.2000     722.8658     222.8359       9.2557    -999.2500       0.1850       2.4536     141.8180
   2148.6118       9.0050       0.0611      76.8662      23.4581       0.2000     815.0679     218.8714       6.1044    -999.2500       0.1929       2.4917     141.7494
   2148.7642       9.0054       0.0388      75.6933      23.5753       0.2000     906.3953     215.3498       3.0255    -999.2500       0.2005       2.5296     141.6913
   2148.9165       9.0255       0.0313      74.9056      22.5520       0.2000     957.3420     232.2702       3.2868    -999.2500       0.1953       2.5592     141.6605
   2149.0691       9.0437       0.0241      74.1417      21.5481       0.2000    1007.6775     249.8512       3.5685    -999.2500       0.1901       2.5881     141.5889
   2149.2214       8.9940       0.0291      74.2409      21.2535       0.2000    1035.7729     291.4675       4.5953    -999.2500       0.1790       2.5901     141.4139
   2149.3738       8.9473       0.0345      74.3418      20.9780       0.2000    1067.9288     332.2992       5.5955    -999.2500       0.1681       2.5920     141.2508
   2149.5261       8.9869       0.0511      74.4901      21.3024       0.2000    1221.7679     349.6174       5.7959    -999.2500       0.1603       2.5936     141.1174
   2149.6787       9.0247       0.0673      74.6080      21.6387       0.2000    1373.6182     366.7414       5.9823    -999.2500       0.1526       2.5943     141.0662
   2149.8311       9.0151       0.0764      73.9191      22.2920       0.2000    1472.5640     378.7010       5.7962    -999.2500       0.1502       2.5747     141.2140
   2149.9834       8.9969       0.0853      73.2467      22.9057       0.2000    1570.4774     390.3851       5.6754    -999.2500       0.1483       2.5552     141.3517
   2150.1357       8.7788       0.0913      72.9519      22.6109       0.2000    1644.7133     395.7484       7.0482    -999.2500       0.1551       2.5356     141.4654
   2150.2883       8.5752       0.0972      72.6034      22.3109       0.2000    1716.9252     400.8596       8.4371    -999.2500       0.1620       2.5193     141.6008
   2150.4407       8.6645       0.1012      71.1760      21.9073       0.2000    1748.3934     400.8927      10.1498    -999.2500       0.1687       2.5674     141.7858
   2150.5930       8.7522       0.1047      69.7485      21.5691       0.2000    1765.1960     399.2767      11.8571    -999.2500       0.1752       2.6145     142.0218
   2150.7454       8.8118       0.0981      68.3211      22.4039       0.2000    1519.2573     368.1168      13.4660    -999.2500       0.1796       2.6431     142.3718
   2150.8977       8.8709       0.0914      67.0431      23.2175       0.2000    1273.9369     335.1670      14.6821    -999.2500       0.1827       2.6702     142.7489
   2151.0503       8.9205       0.0814      68.1754      23.6883       0.2000    1038.5835     273.3627       9.5656    -999.2500       0.1662       2.6737     143.1846
   2151.2026       8.9565       0.0722      69.1633      24.1567       0.2000     815.2843     214.4506       4.7838    -999.2500       0.1505       2.6755     143.6201
   2151.3550       8.7880       0.0752      67.9821      24.5906       0.2000     773.2538     199.0319       5.0375    -999.2500       0.1476       2.6520     144.0549
   2151.5073       8.6324       0.0782      66.7874      24.9701       0.2000     732.7565     183.6786       5.2976    -999.2500       0.1451       2.6299     144.3671
   2151.6599       8.6524       0.0812      65.4091      24.6036       0.2000     713.3076     169.2251       5.6451    -999.2500       0.1488       2.6279     144.4238
   2151.8123       8.6805       0.0834      64.1031      24.2478       0.2000     691.6835     154.3874       6.1067    -999.2500       0.1525       2.6270     144.3867
   2151.9646       8.8093       0.0749      63.7095      24.0266       0.2000     642.6170     134.7033       8.0095    -999.2500       0.1567       2.6411     144.1592
   2152.1169       8.9194       0.0681      63.4288      23.7882       0.2000     587.8995     115.8751      10.0455    -999.2500       0.1600       2.6552     143.9750
   2152.2695       8.8106       0.0827      64.4641      23.3475       0.2000     467.2871     107.0260      13.6344    -999.2500       0.1537       2.6702     143.8767
   2152.4219       8.7185       0.0957      65.4287      23.0054       0.2000     354.4795      98.2199      16.4989    -999.2500       0.1474       2.6850     143.8636
   2152.5742       8.8078       0.0922      65.6262      23.7314       0.2000     326.1991      89.8788      11.5171    -999.2500       0.1413       2.6965     144.0149
   2152.7266       8.8939       0.0890      65.8238      24.4149       0.2000     297.9189      81.5499       7.2257    -999.2500       0.1350       2.7065     144.2567
   2152.8789       8.9485       0.0885      66.0212      24.6689       0.2000     269.6412      73.3448       9.9095    -999.2500       0.1270       2.7010     144.6693
   2153.0315       8.9985       0.0895      65.9963      24.8852       0.2000     246.1795      66.3027      12.7269    -999.2500       0.1187       2.6965     145.1465
   2153.1838       9.0035       0.1050      63.8298      24.7383       0.2000     269.1276      70.4693      16.8313    -999.2500       0.1083       2.7015     145.7435
   2153.3362       9.0051       0.1197      61.6584      24.5733       0.2000     301.5590      75.2868      21.1245    -999.2500       0.0988       2.7069     146.2359
   2153.4885       8.9755       0.1267      59.4428      24.2443       0.2000     419.7596      85.9920      27.1262    -999.2500       0.0980       2.7159     146.5389
   2153.6411       8.9532       0.1318      57.3773      23.9152       0.2000     525.0317      97.6198      32.8101    -999.2500       0.0975       2.7232     146.7392
