#------------------------------------------------------------------------------
#
#   Created by  : [OpenWorks] Log Export Utility (LEXP)
#   Created on  : 2016-05-12 17:01:14
#   Project     : CANT971
#   User        : R5K
#   Interpreter : PEP
#
#------------------------------------------------------------------------------
~VERSION INFORMATION
VERS. 2.0 : CWLS Log ASCII Standard - version 2.0
WRAP.  NO : One line per depth step
~WELL INFORMATION
#MNEMONIC   .UNIT                                           VALUE :DESCRIPTION
#------------------------------------------------------------------------------
STRT        .M                                          1708.0991 :START DEPTH
STOP        .M                                          2834.0303 :STOP DEPTH
STEP        .M                                             0.1524 :STEP
NULL        .                                           -999.2500 :NULL VALUE
COMP        .                                             UNKNOWN :COMPANY
WELL        .                                                3016 :WELL
FLD         .                                           CANTARELL :FIELD
LOC         .                                             UNKNOWN :LOCATION
CNTY        .                                             UNKNOWN :COUNTY
STAT        .                                            CAMPECHE :STATE
CTRY        .                                              MEXICO :COUNTRY
SRVC        .                                             UNKNOWN :SERVICE COMPANY
DATE        .                                             UNKNOWN :LOG DATE
UWI         .                                                3016 :UNIQUE WELL ID
XCOORD      .                                       192548.498000 :SURFACE X
YCOORD      .                                        92151.948000 :SURFACE Y
LAT         .                                            0.832805 :LATITUDE
LON         .                                          -95.762171 :LONGITUDE
ELEV        .M                                            46.0000 :SURFACE ELEV
ELEV_TYPE   .                                                  KB :ELEV TYPE
~CURVE INFORMATION
#MNEMONIC.UNIT        API CODE       : CURVE DESCRIPTION
#------------------------------------------------------------------------------
DEPTH    .M                          : Measured Depth
CALI     .inches      UNKNOWN        : CALI:litodensidad:rC:NONE:v0 (auto-composite)
CGR      .API         UNKNOWN        : CGR:Espectrometria:rC:NONE:v0 (auto-composite)
DRHO     .g/cm3       UNKNOWN        : DRHO:litodensidad:rC:NONE:v0 (auto-composite)
DT       .us/ft       UNKNOWN        : DT:DT-Load:rC:NONE:v0 (auto-composite)
GR       .API         UNKNOWN        : GR:PETROWORKS:rC:NONE:v1 
GR-LWD   .API         UNKNOWN        : GR-LWD:PETROWORKS:rC:NONE:v1 
ILD-LWD  .ohm.m       UNKNOWN        : ILD-LWD:PETROWORKS:rC:NONE:v1 
ILM-LWD  .ohm.m       UNKNOWN        : ILM-LWD:PETROWORKS:rC:NONE:v1 
LLD      .ohm.m       UNKNOWN        : LLD:Resistivos:rC:NONE:v0 (auto-composite)
LLS      .ohm.m       UNKNOWN        : LLS:Resistivos:rC:NONE:v0 (auto-composite)
MSFL     .ohm.m       UNKNOWN        : MSFL:Resistivos:rC:NONE:v0 (auto-composite)
NPHI     .v/v_decimal UNKNOWN        : NPHI:Porosidad:rC:NONE:v0 (auto-composite)
PEF      .UNKNOWN     UNKNOWN        : PEF:litodensidad:rC:NONE:v0 (auto-composite)
POTA     .wtpercent   UNKNOWN        : POTA:Espectrometria:rC:NONE:v0 (auto-composite)
RHOB     .g/cm3       UNKNOWN        : RHOB:litodensidad:rC:NONE:v0 (auto-composite)
SP       .mV          UNKNOWN        : SP:SP-Load:rC:NONE:v0 (auto-composite)
THOR     .ppm         UNKNOWN        : THOR:Espectrometria:rC:NONE:v0 (auto-composite)
URAN     .ppm         UNKNOWN        : URAN:Espectrometria:rC:NONE:v0 (auto-composite)
~A     DEPTH         CALI          CGR         DRHO           DT           GR       GR-LWD      ILD-LWD      ILM-LWD          LLD          LLS         MSFL         NPHI          PEF         POTA         RHOB           SP         THOR         URAN
# ...
   2331.7200    -999.2500       4.0369    -999.2500    -999.2500      42.1164      68.7157      34.6106      35.4266    -999.2500    -999.2500    -999.2500       0.1346    -999.2500       0.0014    -999.2500    -241.6875       0.4623       4.8930
   2331.8723    -999.2500       4.3835    -999.2500    -999.2500      40.7907      55.4588      48.3851      44.3487    -999.2500    -999.2500    -999.2500       0.1304    -999.2500       0.0016    -999.2500    -239.6250       0.4771       4.6812
   2332.0247    -999.2500       4.9348    -999.2500    -999.2500      40.6658      54.2415      62.0781      68.2573    -999.2500    -999.2500    -999.2500       0.1190    -999.2500       0.0017    -999.2500    -240.0000       0.6133       4.6547
   2332.1770    -999.2500       5.4520    -999.2500    -999.2500      41.2366      53.9785      55.1190      56.9607    -999.2500    -999.2500    -999.2500       0.1149    -999.2500       0.0020    -999.2500    -241.3125       0.6137       4.7242
   2332.3296    -999.2500       7.2457    -999.2500    -999.2500      41.9724      67.2711      59.5934      60.3740    -999.2500    -999.2500    -999.2500       0.1172    -999.2500       0.0020    -999.2500    -242.3125       1.1847       4.5906
   2332.4819    -999.2500       6.8608    -999.2500    -999.2500      41.7270      68.3461      72.9596      53.4823    -999.2500    -999.2500    -999.2500       0.1230    -999.2500       0.0019    -999.2500    -242.7500       1.0721       4.5909
   2332.6343    -999.2500       6.9756    -999.2500    -999.2500      41.4381      66.4341      66.6608      66.6790    -999.2500    -999.2500    -999.2500       0.1261    -999.2500       0.0019    -999.2500    -242.1875       1.1604       4.5435
   2332.7866    -999.2500       6.2301    -999.2500    -999.2500      41.5018      65.2775      52.4220      59.5404    -999.2500    -999.2500    -999.2500       0.1308    -999.2500       0.0015    -999.2500    -241.1875       1.1073       4.6796
   2332.9392    -999.2500       5.4795    -999.2500    -999.2500      41.5376      63.8042      65.9382      67.1053    -999.2500    -999.2500    -999.2500       0.1297    -999.2500       0.0014    -999.2500    -240.1250       0.9444       4.8718
   2333.0916    -999.2500       5.1640    -999.2500    -999.2500      39.7825      63.6646      46.4033      66.7392    -999.2500    -999.2500    -999.2500       0.1289    -999.2500       0.0013    -999.2500    -238.5625       0.9242       4.6840
   2333.2439    -999.2500       5.0009    -999.2500    -999.2500      37.7932      63.3041      74.2459      74.4274    -999.2500    -999.2500    -999.2500       0.1297    -999.2500       0.0014    -999.2500    -236.5000       0.7952       4.4636
   2333.3962    -999.2500       5.3385    -999.2500    -999.2500      37.2819      62.6745      77.4463      80.8292    -999.2500    -999.2500    -999.2500       0.1302    -999.2500       0.0014    -999.2500    -236.3750       0.9240       4.3667
   2333.5488    -999.2500       5.2102    -999.2500    -999.2500      37.9024      61.2175      80.9709      81.0054    -999.2500    -999.2500    -999.2500       0.1280    -999.2500       0.0013    -999.2500    -237.2500       0.9425       4.4787
   2333.7012    -999.2500       6.8418    -999.2500    -999.2500      38.9167      59.8439      77.0689      73.8913    -999.2500    -999.2500    -999.2500       0.1286    -999.2500       0.0017    -999.2500    -237.3750       1.1963       4.3121
   2333.8535    -999.2500       6.3556    -999.2500    -999.2500      38.2405      58.6450     111.7510      77.2277    -999.2500    -999.2500    -999.2500       0.1321    -999.2500       0.0015    -999.2500    -237.5000       1.1462       4.1967
   2334.0059    -999.2500       5.3753    -999.2500    -999.2500      36.3608      58.4948      81.1956      68.4209    -999.2500    -999.2500    -999.2500       0.1306    -999.2500       0.0017    -999.2500    -236.5000       0.7141       4.0174
   2334.1582    -999.2500       5.3117    -999.2500    -999.2500      33.9443      57.1019      82.5298      82.0349    -999.2500    -999.2500    -999.2500       0.1273    -999.2500       0.0017    -999.2500    -234.5625       0.7153       3.7479
   2334.3108    -999.2500       5.4329    -999.2500    -999.2500      32.5850      56.1758      73.9530      74.0497    -999.2500    -999.2500    -999.2500       0.1182    -999.2500       0.0018    -999.2500    -233.8125       0.7202       3.5670
   2334.4631    -999.2500       5.5577    -999.2500    -999.2500      30.9963      54.1983     106.6524     116.4518    -999.2500    -999.2500    -999.2500       0.1164    -999.2500       0.0017    -999.2500    -233.8750       0.7859       3.3233
   2334.6155    -999.2500       5.7861    -999.2500    -999.2500      29.6410      53.3452     138.3803     139.7957    -999.2500    -999.2500    -999.2500       0.1049    -999.2500       0.0018    -999.2500    -235.6875       0.7895       3.0667
   2334.7678    -999.2500       5.6265    -999.2500    -999.2500      26.8120      52.6966      71.5380      72.9956    -999.2500    -999.2500    -999.2500       0.0988    -999.2500       0.0019    -999.2500    -237.2500       0.7235       2.7066
   2334.9204    -999.2500       4.9629    -999.2500    -999.2500      26.2791      51.0371      99.4056     100.4205    -999.2500    -999.2500    -999.2500       0.1020    -999.2500       0.0015    -999.2500    -238.4375       0.7058       2.6562
   2335.0728    -999.2500       5.2078    -999.2500    -999.2500      27.0967      48.8753      73.7036      86.3533    -999.2500    -999.2500    -999.2500       0.1106    -999.2500       0.0017    -999.2500    -239.1250       0.6629       2.6875
   2335.2251    -999.2500       5.1100    -999.2500    -999.2500      29.4685      46.3856      78.9578      84.1091    -999.2500    -999.2500    -999.2500       0.1105    -999.2500       0.0016    -999.2500    -239.3750       0.7202       3.0402
   2335.3774    -999.2500       3.8230    -999.2500    -999.2500      30.6388      45.1016     158.1712      83.2575    -999.2500    -999.2500    -999.2500       0.1042    -999.2500       0.0014    -999.2500    -238.5000       0.4171       3.3683
   2335.5300    -999.2500       3.1342    -999.2500    -999.2500      29.2132      44.4391      72.9199      76.9873    -999.2500    -999.2500    -999.2500       0.0960    -999.2500       0.0011    -999.2500    -236.6250       0.3864       3.2721
   2335.6824    -999.2500       3.0678    -999.2500    -999.2500      27.4934      44.1669      84.1086      84.2632    -999.2500    -999.2500    -999.2500       0.1031    -999.2500       0.0012    -999.2500    -235.8125       0.2851       3.0058
   2335.8347    -999.2500       2.5643    -999.2500    -999.2500      25.8883      44.2403      69.9386      69.4284    -999.2500    -999.2500    -999.2500       0.1093    -999.2500       0.0010    -999.2500    -234.5000       0.2631       2.8637
   2335.9871    -999.2500       2.5411    -999.2500    -999.2500      26.0300      44.1478      65.2850      62.4342    -999.2500    -999.2500    -999.2500       0.1105    -999.2500       0.0008    -999.2500    -235.0625       0.3284       2.9337
   2336.1394    -999.2500       3.2241    -999.2500    -999.2500      25.4154      43.6548      69.1871      69.6485    -999.2500    -999.2500    -999.2500       0.1019    -999.2500       0.0008    -999.2500    -238.1250       0.5879       2.7876
   2336.2920    -999.2500       3.8624    -999.2500    -999.2500      25.3807      42.7116      74.5979      69.9038    -999.2500    -999.2500    -999.2500       0.0990    -999.2500       0.0011    -999.2500    -240.3750       0.5997       2.7099
   2336.4443    -999.2500       3.3958    -999.2500    -999.2500      24.0005      41.6756      62.8342      62.0516    -999.2500    -999.2500    -999.2500       0.1102    -999.2500       0.0009    -999.2500    -241.5625       0.5893       2.5846
   2336.5967    -999.2500       3.0439    -999.2500    -999.2500      23.6940      39.9518      61.3981      58.4545    -999.2500    -999.2500    -999.2500       0.1179    -999.2500       0.0007    -999.2500    -242.3125       0.5522       2.6109
