#------------------------------------------------------------------------------
#
#   Created by  : [OpenWorks] Log Export Utility (LEXP)
#   Created on  : 2016-05-23 11:57:01
#   Project     : CANT971
#   User        : R5K
#   Interpreter : PEP
#
#------------------------------------------------------------------------------
~VERSION INFORMATION
VERS. 2.0 : CWLS Log ASCII Standard - version 2.0
WRAP.  NO : One line per depth step
~WELL INFORMATION
#MNEMONIC   .UNIT                                           VALUE :DESCRIPTION
#------------------------------------------------------------------------------
STRT        .M                                           485.8514 :START DEPTH
STOP        .M                                          3526.5361 :STOP DEPTH
STEP        .M                                             0.1524 :STEP
NULL        .                                           -999.2500 :NULL VALUE
COMP        .                                   PEMEX EXPL & PROD :COMPANY
WELL        .                                                  62 :WELL
FLD         .                                           CANTARELL :FIELD
LOC         .                                             UNKNOWN :LOCATION
CNTY        .                                      CD. DEL CARMEN :COUNTY
STAT        .                                            CAMPECHE :STATE
CTRY        .                                              MEXICO :COUNTRY
SRVC        .                                             UNKNOWN :SERVICE COMPANY
DATE        .                                             UNKNOWN :LOG DATE
UWI         .                                          3060000468 :UNIQUE WELL ID
XCOORD      .                                       601711.280000 :SURFACE X
YCOORD      .                                      2142346.320000 :SURFACE Y
LAT         .                                           19.373806 :LATITUDE
LON         .                                          -92.031488 :LONGITUDE
ELEV        .M                                            24.0000 :SURFACE ELEV
ELEV_TYPE   .                                                  KB :ELEV TYPE
~CURVE INFORMATION
#MNEMONIC.UNIT        API CODE       : CURVE DESCRIPTION
#------------------------------------------------------------------------------
DEPTH    .M                          : Measured Depth
CALI     .inches      UNKNOWN        : CALI:editado:rC:NONE:v0 (auto-composite)
DRHO     .g/cm3       UNKNOWN        : DRHO:editado:rC:NONE:v0 (auto-composite)
DT       .us/ft       UNKNOWN        : DT:editado:rC:NONE:v0 (auto-composite)
GR       .API         UNKNOWN        : GR:editado:rC:NONE:v0 (auto-composite)
ILD      .ohm.m       UNKNOWN        : ILD:editado:rC:NONE:v0 (auto-composite)
ILM      .ohm.m       UNKNOWN        : ILM:editado:rC:NONE:v0 (auto-composite)
LLD      .ohm.m       UNKNOWN        : LLD:editado:rC:NONE:v0 (auto-composite)
LLS      .ohm.m       UNKNOWN        : LLS:editado:rC:NONE:v0 (auto-composite)
MSFL     .ohm.m       UNKNOWN        : MSFL:editado:rC:NONE:v0 (auto-composite)
NPHI     .v/v_decimal UNKNOWN        : NPHI:editado:rC:NONE:v0 (auto-composite)
PEF      .b/elec      UNKNOWN        : PEF:editado:rC:NONE:v0 (auto-composite)
RHOB     .g/cm3       UNKNOWN        : RHOB:editado:rC:NONE:v0 (auto-composite)
~A     DEPTH         CALI         DRHO           DT           GR          ILD          ILM          LLD          LLS         MSFL         NPHI          PEF         RHOB
# ...
   2958.3889       8.5560      -0.0110    -999.2500      46.2810    -999.2500    -999.2500      90.0130     101.9320    -999.2500       0.0529       5.3330       2.7800
   2958.5415       8.5560      -0.0105    -999.2500      43.2722    -999.2500    -999.2500     106.2188     119.9771    -999.2500       0.0558       5.2994       2.7805
   2958.6938       8.5560      -0.0100    -999.2500      40.2790    -999.2500    -999.2500     122.3410     137.9290    -999.2500       0.0575       5.2660       2.7810
   2958.8462       8.5560      -0.0090    -999.2500      40.2830    -999.2500    -999.2500     144.4637     162.9334    -999.2500       0.0573       5.0840       2.7875
   2958.9985       8.5560      -0.0080    -999.2500      40.2870    -999.2500    -999.2500     166.4750     187.8120    -999.2500       0.0558       4.9030       2.7940
   2959.1511       8.5560      -0.0070    -999.2500      41.0409    -999.2500    -999.2500     163.9197     184.4668    -999.2500       0.0534       4.6985       2.7855
   2959.3035       8.5560      -0.0060    -999.2500      41.7910    -999.2500    -999.2500     161.3770     181.1380    -999.2500       0.0508       4.4950       2.7770
   2959.4558       8.5560      -0.0060    -999.2500      44.2805    -999.2500    -999.2500     151.9038     167.7272    -999.2500       0.0489       4.4634       2.7605
   2959.6082       8.5560      -0.0060    -999.2500      46.7580    -999.2500    -999.2500     142.4910     154.4020    -999.2500       0.0475       4.4320       2.7440
   2959.7605       8.5560      -0.0050    -999.2500      45.8659    -999.2500    -999.2500     149.5390     161.6978    -999.2500       0.0468       4.3823       2.7525
   2959.9131       8.5560      -0.0040    -999.2500      44.9780    -999.2500    -999.2500     156.5430     168.9480    -999.2500       0.0461       4.3330       2.7610
   2960.0654       8.5560      -0.0045    -999.2500      42.4458    -999.2500    -999.2500     204.6826     222.5037    -999.2500       0.0447       4.3465       2.7810
   2960.2178       8.5560      -0.0050    -999.2500      39.9250    -999.2500    -999.2500     252.5270     275.7310    -999.2500       0.0435       4.3600       2.8010
   2960.3701       8.5560      -0.0105    -999.2500      37.4976    -999.2500    -999.2500     247.0160     271.2199    -999.2500       0.0437       4.4458       2.7980
   2960.5227       8.5560      -0.0160    -999.2500      35.0810    -999.2500    -999.2500     241.5380     266.7360    -999.2500       0.0446       4.5310       2.7950
   2960.6750       8.5560      -0.0085    -999.2500      32.6543    -999.2500    -999.2500     225.2441     251.7549    -999.2500       0.0461       4.5119       2.7880
   2960.8274       8.5560      -0.0010    -999.2500      30.2380    -999.2500    -999.2500     209.0460     236.8620    -999.2500       0.0480       4.4930       2.7810
   2960.9797       8.5806       0.0166    -999.2500      31.2316    -999.2500    -999.2500     190.6355     218.4079    -999.2500       0.0506       4.3250       2.7725
   2961.1323       8.6050       0.0340    -999.2500      32.2210    -999.2500    -999.2500     172.3310     200.0600    -999.2500       0.0533       4.1580       2.7640
   2961.2847       8.6361       0.0330    -999.2500      36.0738    -999.2500    -999.2500     146.8347     172.1519    -999.2500       0.0560       4.2693       2.7555
   2961.4370       8.6670       0.0320    -999.2500      39.9110    -999.2500    -999.2500     121.4820     144.4010    -999.2500       0.0582       4.3800       2.7470
   2961.5894       8.6670       0.0270    -999.2500      48.0169    -999.2500    -999.2500      92.7314     110.9349    -999.2500       0.0593       4.3043       2.7350
   2961.7417       8.6670       0.0220    -999.2500      56.0910    -999.2500    -999.2500      64.1390      77.6530    -999.2500       0.0611       4.2290       2.7230
   2961.8943       8.6459       0.0150    -999.2500      54.3622    -999.2500    -999.2500      52.2420      63.2227    -999.2500       0.0656       4.2455       2.7280
   2962.0466       8.6250       0.0080    -999.2500      52.6400    -999.2500    -999.2500      40.4090      48.8700    -999.2500       0.0690       4.2620       2.7330
   2962.1990       8.5904      -0.0015    -999.2500      48.9638    -999.2500    -999.2500      45.7104      55.2803    -999.2500       0.0670       4.2841       2.7480
   2962.3513       8.5560      -0.0110    -999.2500      45.3010    -999.2500    -999.2500      50.9840      61.6570    -999.2500       0.0619       4.3060       2.7630
   2962.5039       8.5560      -0.0110    -999.2500      43.0708    -999.2500    -999.2500      69.1617      84.4329    -999.2500       0.0543       4.2158       2.7760
   2962.6562       8.5560      -0.0110    -999.2500      40.8520    -999.2500    -999.2500      87.2460     107.0920    -999.2500       0.0480       4.1260       2.7890
   2962.8086       8.5690      -0.0105    -999.2500      42.3407    -999.2500    -999.2500      83.8019     102.9983    -999.2500       0.0471       3.9815       2.7930
   2962.9609       8.5820      -0.0100    -999.2500      43.8220    -999.2500    -999.2500      80.3750      98.9250    -999.2500       0.0497       3.8380       2.7970
   2963.1135       8.6281      -0.0035    -999.2500      53.1102    -999.2500    -999.2500      69.2218      84.9915    -999.2500       0.0553       3.9293       2.7920
   2963.2659       8.6740       0.0030    -999.2500      62.3530    -999.2500    -999.2500      58.1230      71.1260    -999.2500       0.0633       4.0200       2.7870
   2963.4182       8.7181       0.0025    -999.2500      61.8593    -999.2500    -999.2500      49.6245      59.5452    -999.2500       0.0744       4.3360       2.7635
   2963.5706       8.7620       0.0020    -999.2500      61.3680    -999.2500    -999.2500      41.1800      48.0380    -999.2500       0.0825       4.6500       2.7400
   2963.7229       8.7700      -0.0045    -999.2500      56.5624    -999.2500    -999.2500      47.5654      55.0493    -999.2500       0.0802       4.5447       2.7485
   2963.8755       8.7780      -0.0110    -999.2500      51.7790    -999.2500    -999.2500      53.9110      62.0170    -999.2500       0.0729       4.4400       2.7570
   2964.0278       8.7780      -0.0105    -999.2500      44.4375    -999.2500    -999.2500      76.6494      87.2414    -999.2500       0.0633       4.2409       2.7795
   2964.1802       8.7780      -0.0100    -999.2500      37.1290    -999.2500    -999.2500      99.2490     112.3120    -999.2500       0.0541       4.0430       2.8020
   2964.3325       8.7780      -0.0065    -999.2500      34.0528    -999.2500    -999.2500     136.0950     155.8500    -999.2500       0.0481       3.8208       2.8015
   2964.4851       8.7780      -0.0030    -999.2500      30.9900    -999.2500    -999.2500     172.7210     199.1280    -999.2500       0.0434       3.6000       2.8010
   2964.6375       8.7780       0.0040    -999.2500      31.8343    -999.2500    -999.2500     156.9614     182.8840    -999.2500       0.0388       3.6105       2.7965
   2964.7898       8.7780       0.0110    -999.2500      32.6750    -999.2500    -999.2500     141.2940     166.7350    -999.2500       0.0370       3.6210       2.7920
   2964.9421       8.7770       0.0090    -999.2500      38.5281    -999.2500    -999.2500     109.5286     131.0258    -999.2500       0.0420       3.7158       2.7840
   2965.0947       8.7760       0.0070    -999.2500      44.3570    -999.2500    -999.2500      77.9450      95.5210    -999.2500       0.0540       3.8100       2.7760
   2965.2471       8.7439       0.0125    -999.2500      56.2613    -999.2500    -999.2500      55.1787      67.6479    -999.2500       0.0766       3.9514       2.7580
   2965.3994       8.7120       0.0180    -999.2500      68.1180    -999.2500    -999.2500      32.5400      39.9310    -999.2500       0.0969       4.0920       2.7400
   2965.5518       8.6337       0.0326    -999.2500      65.0450    -999.2500    -999.2500      34.2051      41.8167    -999.2500       0.1012       4.2379       2.7410
