#------------------------------------------------------------------------------
#
#   Created by  : [OpenWorks] Log Export Utility (LEXP)
#   Created on  : 2016-05-23 11:55:55
#   Project     : CANT971
#   User        : R5K
#   Interpreter : PEP
#
#------------------------------------------------------------------------------
~VERSION INFORMATION
VERS. 2.0 : CWLS Log ASCII Standard - version 2.0
WRAP.  NO : One line per depth step
~WELL INFORMATION
#MNEMONIC   .UNIT                                           VALUE :DESCRIPTION
#------------------------------------------------------------------------------
STRT        .M                                          1803.5016 :START DEPTH
STOP        .M                                          3154.9849 :STOP DEPTH
STEP        .M                                             0.1524 :STEP
NULL        .                                           -999.2500 :NULL VALUE
COMP        .                                             UNKNOWN :COMPANY
WELL        .                                             418D-ST :WELL
FLD         .                                             UNKNOWN :FIELD
LOC         .                                             UNKNOWN :LOCATION
CNTY        .                                             UNKNOWN :COUNTY
STAT        .                                             UNKNOWN :STATE
CTRY        .                                             UNKNOWN :COUNTRY
SRVC        .                                             UNKNOWN :SERVICE COMPANY
DATE        .                                             UNKNOWN :LOG DATE
UWI         .                                             418D-ST :UNIQUE WELL ID
XCOORD      .                                       597130.010000 :SURFACE X
YCOORD      .                                      2144879.410000 :SURFACE Y
LAT         .                                           19.396924 :LATITUDE
LON         .                                          -92.074978 :LONGITUDE
ELEV        .M                                             0.0000 :SURFACE ELEV
ELEV_TYPE   .                                                  NA :ELEV TYPE
~CURVE INFORMATION
#MNEMONIC.UNIT        API CODE       : CURVE DESCRIPTION
#------------------------------------------------------------------------------
DEPTH    .M                          : Measured Depth
CALI     .inches      UNKNOWN        : CALI:PETROWORKS:rC:NONE:v1 
CGR      .API         UNKNOWN        : CGR:PETROWORKS:rC:NONE:v1 
DRHO     .g/cm3       UNKNOWN        : DRHO:PETROWORKS:rC:NONE:v1 
DT       .us/ft       UNKNOWN        : DT:PETROWORKS:rC:NONE:v1 
GR       .API         UNKNOWN        : GR:PETROWORKS:rC:NONE:v3 
ILD      .ohm.m       UNKNOWN        : ILD:registros:rC:NONE:v0 (auto-composite)
ILM      .ohm.m       UNKNOWN        : ILM:registros:rC:NONE:v0 (auto-composite)
LLD      .ohm.m       UNKNOWN        : LLD:PETROWORKS:rC:NONE:v2 
LLS      .ohm.m       UNKNOWN        : LLS:PETROWORKS:rC:NONE:v2 
MSFL     .ohm.m       UNKNOWN        : MSFL:PETROWORKS:rC:NONE:v1 
NPHI     .v/v_decimal UNKNOWN        : NPHI:PETROWORKS:rC:NONE:v1 
PEF      .b/elec      UNKNOWN        : PEF:PETROWORKS:rC:NONE:v1 
POTA     .wtpercent   UNKNOWN        : POTA:PETROWORKS:rC:NONE:v1 
RHOB     .g/cm3       UNKNOWN        : RHOB:PETROWORKS:rC:NONE:v1 
THOR     .ppm         UNKNOWN        : THOR:PETROWORKS:rC:NONE:v1 
URAN     .ppm         UNKNOWN        : URAN:PETROWORKS:rC:NONE:v1 
~A     DEPTH         CALI          CGR         DRHO           DT           GR          ILD          ILM          LLD          LLS         MSFL         NPHI          PEF         POTA         RHOB         THOR         URAN
# ...
   2170.0237      24.1094       8.5402       0.0131    -999.2500      14.9096    -999.2500    -999.2500     362.0994      20.4951      39.8750       0.0185       3.5137       0.0036       2.6849       0.9217       0.8683
   2170.1760      21.3594       7.2857       0.0456    -999.2500      12.6369    -999.2500    -999.2500     355.5767      20.8723      47.6875       0.0145       3.4590       0.0032       2.6886       0.7302       0.7295
   2170.3284      15.0156       7.3378       0.0810    -999.2500      12.4998    -999.2500    -999.2500     338.1327      20.8642     146.6250       0.1027       3.6250       0.0032       2.5469       0.7322       0.7037
   2170.4807      15.0234       9.2726       0.0859    -999.2500      15.3617    -999.2500    -999.2500     387.6107      21.7712      51.3438       0.1690       3.7188       0.0032       2.3625       1.3213       0.8300
   2170.6333      15.0859       9.6917       0.1065    -999.2500      15.3573    -999.2500    -999.2500     514.9314      29.8652       2.8164       0.2414       3.8496       0.0031       2.2625       1.4517       0.7723
   2170.7856      15.1797      11.2085       0.1082    -999.2500      17.0633    -999.2500    -999.2500     715.6636      30.6547       2.6211       0.2357       3.5586       0.0039       2.2795       1.5694       0.7981
   2170.9380      15.3047      10.8232       0.1113    -999.2500      16.3732    -999.2500    -999.2500     701.1473      30.6458       2.2109       0.2101       3.3438       0.0037       2.3994       1.5132       0.7566
   2171.0903      15.3594      11.7164       0.0889    -999.2500      19.5534    -999.2500    -999.2500     703.1425      30.7316       3.0586       0.1820       3.2207       0.0045       2.5304       1.4558       1.0683
   2171.2427      15.3438       6.9872       0.0649    -999.2500      13.8351    -999.2500    -999.2500     729.1658      28.9674       5.8398       0.1447       3.2227       0.0031       2.6226       0.6872       0.9335
   2171.3953      15.3750       7.9730       0.0135    -999.2500      15.1897    -999.2500    -999.2500     497.0370      26.1262     177.0000       0.1214       3.2734       0.0035       2.6328       0.8070       0.9837
   2171.5476      15.3125       6.6938       0.0038    -999.2500      12.9096    -999.2500    -999.2500     349.6061      26.7725     557.0000       0.0973       3.2598       0.0029       2.6618       0.6732       0.8473
   2171.7000      15.0000       5.5935      -0.0018    -999.2500      11.6014    -999.2500    -999.2500     451.0861      26.7288     569.5000       0.0950       3.2695       0.0017       2.6624       0.9018       0.8190
   2171.8523      15.4688       6.1702      -0.0072    -999.2500      12.8593    -999.2500    -999.2500     390.3120      26.7016     232.7500       0.0962       3.2637       0.0018       2.6412       1.0297       0.9118
   2172.0049      15.7188       8.1365      -0.0083    -999.2500      15.6801    -999.2500    -999.2500     261.2184      24.5187     111.9375       0.0927       3.2168       0.0030       2.6040       1.0667       1.0283
   2172.1572      15.7188       7.4305      -0.0058    -999.2500      14.3863    -999.2500    -999.2500     188.4803      26.8473     663.5000       0.0934       3.0352       0.0028       2.5769       0.9414       0.9482
   2172.3096      15.4375       4.6585       0.0070    -999.2500      10.9071    -999.2500    -999.2500     215.6943      27.6155     507.5000       0.1053       2.8457       0.0013       2.5576       0.7898       0.8518
   2172.4619      16.3750       6.5589       0.0099    -999.2500      13.7520    -999.2500    -999.2500     224.1635      27.6428     477.5000       0.1177       2.7949       0.0025       2.5751       0.7983       0.9805
   2172.6145      15.8984       5.7314       0.0123    -999.2500      12.2213    -999.2500    -999.2500     209.0467      27.6744      40.0625       0.1063       3.0254       0.0022       2.6129       0.7121       0.8847
   2172.7668      15.9063       7.8275       0.0155    -999.2500      14.9112    -999.2500    -999.2500     270.2974      27.5128     339.0000       0.0823       3.2754       0.0032       2.6776       0.8903       0.9656
   2172.9192      19.0625       8.2197       0.0248    -999.2500      15.7128    -999.2500    -999.2500     817.5233      26.8332    1870.0000       0.0470       3.4121       0.0034       2.7163       0.9039       1.0214
   2173.0715      22.5938       8.6514       0.0097    -999.2500      16.1570    -999.2500    -999.2500     423.6210      29.0953    1895.0000       0.0416       3.5527       0.0036       2.7049       0.9314       1.0231
   2173.2239      18.6250       7.7220       0.0198    -999.2500      14.5697    -999.2500    -999.2500     490.6183      29.1882    1982.0000       0.0719       3.8359       0.0034       2.6839       0.7435       0.9334
   2173.3765      15.5781       7.6365       0.0473    -999.2500      19.1596    -999.2500    -999.2500     457.5832      29.8222     130.2500       0.0991       3.9766       0.0029       2.6438       0.9519       1.5708
   2173.5288      15.3438       7.9810       0.0674    -999.2500      19.9506    -999.2500    -999.2500     707.2446      34.9837      46.4375       0.1286       3.9785       0.0030       2.6033       0.9922       1.6316
   2173.6812      15.3750       5.7799       0.0585    -999.2500      15.3262    -999.2500    -999.2500    1153.9419      35.6864      71.8125       0.1487       3.8418       0.0026       2.6030       0.5528       1.3013
   2173.8335      15.3750       5.6235       0.0581    -999.2500      14.3984    -999.2500    -999.2500    1196.9668      35.7121      93.4375       0.1597       3.9648       0.0030       2.6419       0.3448       1.1962
   2173.9861      15.4375       5.1537       0.0496    -999.2500       9.8810    -999.2500    -999.2500    1146.2690      33.5910      91.4375       0.1641       3.9180       0.0024       2.6796       0.4485       0.6444
   2174.1384      15.2578       4.4651       0.0254    -999.2500       8.5802    -999.2500    -999.2500    1502.7053      34.1805     132.8750       0.1738       3.9648       0.0024       2.5615       0.2379       0.5609
   2174.2908      15.1797       3.6255       0.0110    -999.2500       6.7321    -999.2500    -999.2500    1344.0374      38.9385      19.6563       0.2085       4.0234       0.0025       2.4664      -0.0467       0.4235
   2174.4431      15.1797       3.7516       0.0375    -999.2500       7.1003    -999.2500    -999.2500    1073.4507      39.1214      18.7500       0.2600       4.3945       0.0024       2.4166       0.0495       0.4565
   2174.5957      15.5156       4.2485       0.0666    -999.2500       7.2279    -999.2500    -999.2500     788.0303      37.3337      26.3281       0.2961       4.8594       0.0029       2.4554      -0.0134       0.4061
   2174.7480      16.4219       4.0643       0.0697    -999.2500       7.1299    -999.2500    -999.2500     580.2004      31.4601      29.8906       0.2812       4.8945       0.0026       2.5152       0.0429       0.4179
   2174.9004      16.4375       4.1143       0.0356    -999.2500       7.2459    -999.2500    -999.2500     556.5916      31.0210      15.6484       0.2338       4.3711       0.0024       2.5572       0.1367       0.4269
   2175.0527      16.6406       3.9128       0.0123    -999.2500       7.1107    -999.2500    -999.2500     599.9063      30.2763      12.3594       0.1982       4.0820       0.0017       2.5866       0.3878       0.4359
   2175.2051      16.4375       4.4177      -0.0090    -999.2500       7.9537    -999.2500    -999.2500     669.6494      28.4333      11.7891       0.1775       4.1172       0.0018       2.5645       0.5062       0.4820
   2175.3577      16.4063       3.7949      -0.0146    -999.2500       6.6223    -999.2500    -999.2500     359.4087      26.6687      51.3125       0.1554       4.2695       0.0019       2.5397       0.2623       0.3854
   2175.5100      17.0625       6.5253      -0.0045    -999.2500       9.3925    -999.2500    -999.2500     371.4171      26.5596      57.1563       0.1295       4.3047       0.0021       2.5118       1.0016       0.3908
