#------------------------------------------------------------------------------
#
#   Created by  : [OpenWorks] Log Export Utility (LEXP)
#   Created on  : 2016-05-23 11:52:25
#   Project     : CANT971
#   User        : R5K
#   Interpreter : PEP
#
#------------------------------------------------------------------------------
~VERSION INFORMATION
VERS. 2.0 : CWLS Log ASCII Standard - version 2.0
WRAP.  NO : One line per depth step
~WELL INFORMATION
#MNEMONIC   .UNIT                                           VALUE :DESCRIPTION
#------------------------------------------------------------------------------
STRT        .M                                           940.1293 :START DEPTH
STOP        .M                                          2672.0029 :STOP DEPTH
STEP        .M                                             0.1524 :STEP
NULL        .                                           -999.2500 :NULL VALUE
COMP        .                                   PEMEX EXPL & PROD :COMPANY
WELL        .                                               2071D :WELL
FLD         .                                           CANTARELL :FIELD
LOC         .                                             UNKNOWN :LOCATION
CNTY        .                                      CD. DEL CARMEN :COUNTY
STAT        .                                            CAMPECHE :STATE
CTRY        .                                              MEXICO :COUNTRY
SRVC        .                                             UNKNOWN :SERVICE COMPANY
DATE        .                                             UNKNOWN :LOG DATE
UWI         .                                          3060000679 :UNIQUE WELL ID
XCOORD      .                                       601713.940000 :SURFACE X
YCOORD      .                                      2142372.000000 :SURFACE Y
LAT         .                                           19.374038 :LATITUDE
LON         .                                          -92.031462 :LONGITUDE
ELEV        .M                                            30.0000 :SURFACE ELEV
ELEV_TYPEF  .b/elec                                            KB :ELEV TYPE
~CURVE INFORMATION
#MNEMONIC.UNIT        API CODE       : CURVE DESCRIPTION
#------------------------------------------------------------------------------
DEPTH    .M                          : Measured Depth
CALI     .in          UNKNOWN        : CALI:UNKNOWN:rC:NONE:v0 (auto-composite)
DRHO     .g/cm3       UNKNOWN        : DRHO:UNKNOWN:rC:NONE:v0 (auto-composite)
DT       .us/ft       UNKNOWN        : DT:DT:rC:NONE:v0 (auto-composite)
GR       .API         UNKNOWN        : GR:UNKNOWN:rC:NONE:v0 (auto-composite)
ILD      .ohmm        UNKNOWN        : ILD:UNKNOWN:rC:NONE:v0 (auto-composite)
ILM      .ohmm        UNKNOWN        : ILM:UNKNOWN:rC:NONE:v0 (auto-composite)
LLD      .ohmm        UNKNOWN        : LLD:UNKNOWN:rC:NONE:v0 (auto-composite)
LLS      .ohmm        UNKNOWN        : LLS:UNKNOWN:rC:NONE:v0 (auto-composite)
MSFL     .ohmm        UNKNOWN        : MSFL:UNKNOWN:rC:NONE:v0 (auto-composite)
NPHI     .v/v_decimal UNKNOWN        : NPHI:UNKNOWN:rC:NONE:v0 (auto-composite)
PEF      .b/elec      UNKNOWN        : PEF:UNKNOWN:rC:NONE:v0 (auto-composite)
RHOB     .g/cm3       UNKNOWN        : RHOB:UNKNOWN:rC:NONE:v0 (auto-composite)
~A     DEPTH         CALI         DRHO           DT           GR          ILD          ILM          LLD          LLS         MSFL         NPHI          PEF         RHOB
# ...
   2095.9309      19.2864       0.2531      73.6450      64.8310    -999.2500    -999.2500       3.9424       3.6369       1.1876       0.1558       3.9556       2.3787
   2096.0833      20.2020       0.2790      73.4340      65.5920    -999.2500    -999.2500       3.9210       3.6110       1.6270       0.1284       3.9930       2.2750
   2096.2358      20.4750       0.2705      73.9195      66.7204    -999.2500    -999.2500       3.8674       3.5674       1.4657       0.0970       3.8743       2.0847
   2096.3882      20.7470       0.2620      74.4050      67.8450    -999.2500    -999.2500       3.8140       3.5240       1.3050       0.0657       3.7560       1.8950
   2096.5405      21.0635       0.3050      71.7879      68.2920    -999.2500    -999.2500       3.7300       3.4500       1.0225       0.0609       4.1635       1.8305
   2096.6929      21.3800       0.3480      69.1710      68.7390    -999.2500    -999.2500       3.6460       3.3760       0.7400       0.0561       4.5710       1.7660
   2096.8452      21.4878       0.3250      68.4895      69.2407    -999.2500    -999.2500       3.5152       3.2802       0.5887       0.0695       4.6504       1.6447
   2096.9978      21.5960       0.3020      67.8080      69.7440    -999.2500    -999.2500       3.3840       3.1840       0.4370       0.0830       4.7300       1.5230
   2097.1501      21.2257       0.2345      71.9991      70.8693    -999.2500    -999.2500       3.2854       3.1180       0.4270       0.1103       4.1926       1.4790
   2097.3025      20.8560       0.1670      76.1910      71.9930    -999.2500    -999.2500       3.1870       3.0520       0.4170       0.1375       3.6560       1.4350
   2097.4548      19.8329       0.1304      76.6194      71.2176    -999.2500    -999.2500       3.1770       3.0761       3.2281       0.1559       3.4815       1.7008
   2097.6074      18.8160       0.0940      77.0480      70.4470    -999.2500    -999.2500       3.1670       3.1000       6.0220       0.1743       3.3080       1.9650
   2097.7598      18.8731       0.1646      73.8977      70.2557    -999.2500    -999.2500       3.1985       3.1220       3.7889       0.1770       3.8407       2.2644
   2097.9121      18.9300       0.2350      70.7460      70.0650    -999.2500    -999.2500       3.2300       3.1440       1.5620       0.1798       4.3720       2.5630
   2098.0645      18.5491       0.2465      72.3361      69.0348    -999.2500    -999.2500       3.0316       2.9720       5.1510       0.1757       4.2575       2.5420
   2098.2170      18.1680       0.2580      73.9270      68.0040    -999.2500    -999.2500       2.8330       2.8000       8.7420       0.1717       4.1430       2.5210
   2098.3694      18.7086       0.2219      72.0841      67.5320    -999.2500    -999.2500       2.7042       2.6652       7.7129       0.1644       4.0438       2.4443
   2098.5217      19.2470       0.1860      70.2400      67.0620    -999.2500    -999.2500       2.5760       2.5310       6.6880       0.1572       3.9450       2.3680
   2098.6741      18.7925       0.1689      69.0290      68.6796    -999.2500    -999.2500       2.6779       2.6249       4.1278       0.1638       3.8320       2.3926
   2098.8264      18.3420       0.1520      67.8190      70.2830    -999.2500    -999.2500       2.7790       2.7180       1.5900       0.1704       3.7200       2.4170
   2098.9790      18.8038       0.1309      69.7131      69.3540    -999.2500    -999.2500       2.9971       2.9261       2.8615       0.1747       3.8749       2.4917
   2099.1313      19.2630       0.1100      71.6060      68.4300    -999.2500    -999.2500       3.2140       3.1330       4.1260       0.1790       4.0290       2.5660
   2099.2837      18.9692       0.1460      71.1789      67.6432    -999.2500    -999.2500       3.3396       3.2356       5.6697       0.1715       3.8788       2.5910
   2099.4360      18.6760       0.1820      70.7520      66.8580    -999.2500    -999.2500       3.4650       3.3380       7.2100       0.1640       3.7290       2.6160
   2099.5886      19.0926       0.2180      71.8762      65.7608    -999.2500    -999.2500       3.5095       3.3885       5.1041       0.1729       3.8825       2.5740
   2099.7410      19.5090       0.2540      73.0000      64.6640    -999.2500    -999.2500       3.5540       3.4390       2.9990       0.1818       4.0360       2.5320
   2099.8933      19.6919       0.2235      74.0842      62.7722    -999.2500    -999.2500       3.5395       3.4235       5.3919       0.2054       3.6797       2.3146
   2100.0457      19.8750       0.1930      75.1680      60.8780    -999.2500    -999.2500       3.5250       3.4080       7.7880       0.2291       3.3230       2.0970
   2100.1982      20.1923       0.1635      77.2572      59.9692    -999.2500    -999.2500       3.4529       3.3309       9.5881       0.2203       3.2034       2.0685
   2100.3506      20.5090       0.1340      79.3460      59.0620    -999.2500    -999.2500       3.3810       3.2540      11.3850       0.2114       3.0840       2.0400
   2100.5029      19.6775       0.1861      75.5734      60.2464    -999.2500    -999.2500       3.3645       3.2319       9.4298       0.2034       3.4649       2.2761
   2100.6553      18.8500       0.2380      71.8010      61.4250    -999.2500    -999.2500       3.3480       3.2100       7.4840       0.1954       3.8440       2.5110
   2100.8076      19.1084       0.2240      75.3439      63.5308    -999.2500    -999.2500       3.3946       3.2676       9.0109       0.2098       3.7754       2.3893
   2100.9602      19.3660       0.2100      78.8870      65.6300    -999.2500    -999.2500       3.4410       3.3250      10.5330       0.2241       3.7070       2.2680
   2101.1125      19.0323       0.2005      76.2303      65.4364    -999.2500    -999.2500       3.4595       3.3505       9.6509       0.2059       3.8626       2.2480
   2101.2649      18.6990       0.1910      73.5730      65.2430    -999.2500    -999.2500       3.4780       3.3760       8.7700       0.1877       4.0180       2.2280
   2101.4172      19.1196       0.1815      73.9894      66.4498    -999.2500    -999.2500       3.5065       3.4090       7.5457       0.1752       4.2268       2.3908
   2101.5698      19.5410       0.1720      74.4060      67.6590    -999.2500    -999.2500       3.5350       3.4420       6.3190       0.1627       4.4360       2.5540
   2101.7222      18.8872       0.1471      72.2900      69.9325    -999.2500    -999.2500       3.5415       3.4390      10.2860       0.1649       4.2295       2.5395
   2101.8745      18.2300       0.1220      70.1730      72.2180    -999.2500    -999.2500       3.5480       3.4360      14.2740       0.1670       4.0220       2.5250
   2102.0269      18.1035       0.1415      71.0917      70.9504    -999.2500    -999.2500       3.6110       3.4920      11.3159       0.1602       3.9800       2.5080
   2102.1794      17.9770       0.1610      72.0110      69.6820    -999.2500    -999.2500       3.6740       3.5480       8.3560       0.1534       3.9380       2.4910
   2102.3318      18.4359       0.1866      71.1803      66.6924    -999.2500    -999.2500       3.7998       3.9238       8.6321       0.1495       4.0998       2.5161
   2102.4841      18.8930       0.2120      70.3490      63.7150    -999.2500    -999.2500       3.9250       4.2980       8.9070       0.1456       4.2610       2.5410
   2102.6365      19.2486       0.2160      67.5314      63.3424    -999.2500    -999.2500       3.8555       4.2045       8.0667       0.1432       4.2120       2.5530
   2102.7888      19.6040       0.2200      64.7160      62.9700    -999.2500    -999.2500       3.7860       4.1110       7.2270       0.1408       4.1630       2.5650
   2102.9414      19.1366       0.2035      65.7523      64.4641    -999.2500    -999.2500       3.7940       3.9567      10.3665       0.1380       4.2364       2.5670
   2103.0938      18.6680       0.1870      66.7880      65.9620    -999.2500    -999.2500       3.8020       3.8020      13.5140       0.1352       4.3100       2.5690
