#------------------------------------------------------------------------------
#
#   Created by  : [OpenWorks] Log Export Utility (LEXP)
#   Created on  : 2016-05-12 17:01:19
#   Project     : CANT971
#   User        : R5K
#   Interpreter : PEP
#
#------------------------------------------------------------------------------
~VERSION INFORMATION
VERS. 2.0 : CWLS Log ASCII Standard - version 2.0
WRAP.  NO : One line per depth step
~WELL INFORMATION
#MNEMONIC   .UNIT                                           VALUE :DESCRIPTION
#------------------------------------------------------------------------------
STRT        .M                                           300.0760 :START DEPTH
STOP        .M                                          2081.9368 :STOP DEPTH
STEP        .M                                             0.1524 :STEP
NULL        .                                           -999.2500 :NULL VALUE
COMP        .                                   PEMEX EXPL & PROD :COMPANY
WELL        .                                                  37 :WELL
FLD         .                                           CANTARELL :FIELD
LOC         .                                             UNKNOWN :LOCATION
CNTY        .                                      CD. DEL CARMEN :COUNTY
STAT        .                                            CAMPECHE :STATE
CTRY        .                                              MEXICO :COUNTRY
SRVC        .                                             UNKNOWN :SERVICE COMPANY
DATE        .                                             UNKNOWN :LOG DATE
UWI         .                                          3060000160 :UNIQUE WELL ID
XCOORD      .                                       602154.560000 :SURFACE X
YCOORD      .                                      2147169.070000 :SURFACE Y
LAT         .                                           19.417364 :LATITUDE
LON         .                                          -92.027009 :LONGITUDE
ELEV        .M                                            28.1700 :SURFACE ELEV
ELEV_TYPE   .                                                  KB :ELEV TYPE
~CURVE INFORMATION
#MNEMONIC.UNIT        API CODE       : CURVE DESCRIPTION
#------------------------------------------------------------------------------
DEPTH    .M                          : Measured Depth
CALI     .inches      UNKNOWN        : CALI:Import:rC:NONE:v0 (auto-composite)
DRHO     .g/cm3       UNKNOWN        : DRHO:Import:rC:NONE:v0 (auto-composite)
DT       .us/ft       UNKNOWN        : DT:Import:rC:NONE:v0 (auto-composite)
GR       .API         UNKNOWN        : GR:Import:rC:NONE:v0 (auto-composite)
ILD      .ohm.m       UNKNOWN        : ILD:Import:rC:NONE:v0 (auto-composite)
NPHI     .v/v_decimal UNKNOWN        : NPHI:Import:rC:NONE:v0 (auto-composite)
RHOB     .g/cm3       UNKNOWN        : RHOB:Import:rC:NONE:v0 (auto-composite)
~A     DEPTH         CALI         DRHO           DT           GR          ILD         NPHI         RHOB
# ...
   1978.1523       6.1390      -0.0025      99.2073      89.7944       4.1526      32.6315       2.4450
   1978.3048       6.1390      -0.0110      93.8710      91.1310       4.9980      32.6210       2.4670
   1978.4572       6.1395      -0.0065      82.1891      81.3738       5.7905      23.6553       2.5626
   1978.6096       6.1400      -0.0020      70.5220      71.6290       6.5820      14.7010       2.6580
   1978.7620       6.1916       0.0065      70.6962      58.7457       6.5220      15.4539       2.6445
   1978.9144       6.2430       0.0150      70.8700      45.8770       6.4620      16.2060       2.6310
   1979.0668       6.2430       0.0045      72.4481      48.1781       6.3740      17.8060       2.5919
   1979.2192       6.2430      -0.0060      74.0220      50.4750       6.2860      19.4030       2.5530
   1979.3716       6.2430       0.0005      73.8263      50.1746       6.2005      19.7029       2.5270
   1979.5240       6.2430       0.0070      73.6310      49.8750       6.1150      20.0020       2.5010
   1979.6764       6.3982       0.0050      73.8047      51.8278       5.8724      20.1016       2.5150
   1979.8287       6.5530       0.0030      73.9780      53.7760       5.6300      20.2010       2.5290
   1979.9812       6.4234       0.0110      74.1512      54.4753       5.6300      20.2315       2.5595
   1980.1335       6.2940       0.0190      74.3240      55.1730       5.6300      20.2620       2.5900
   1980.2860       6.2685       0.0210      73.4120      56.8738       5.8748      20.5318       2.6140
   1980.4384       6.2430       0.0230      72.5020      58.5710       6.1190      20.8010       2.6380
   1980.5908       6.2430       0.0030      70.5451      56.0545       7.5624      20.3546       2.6255
   1980.7432       6.2430      -0.0170      68.5920      53.5430       9.0030      19.9090       2.6130
   1980.8956       6.2430      -0.0140      66.3264      46.7041      11.3086      16.9923       2.6485
   1981.0480       6.2430      -0.0110      64.0650      39.8780      13.6100      14.0810       2.6840
   1981.2004       6.2430       0.0025      61.7435      38.6725      15.2905      14.8216       2.6825
   1981.3528       6.2430       0.0160      59.4260      37.4690      16.9680      15.5610       2.6810
   1981.5052       6.2430       0.0095      59.6242      34.6732      18.5903      15.1697       2.6725
   1981.6576       6.2430       0.0030      59.8220      31.8820      20.2100      14.7790       2.6640
   1981.8099       6.2430       0.0075      60.0457      30.9808      23.9198      14.2596       2.6505
   1981.9624       6.2430       0.0120      60.2690      30.0810      27.6240      13.7410       2.6370
   1982.1147       6.2430       0.0095      59.4559      28.6790      32.0140      13.5108       2.6510
   1982.2672       6.2430       0.0070      58.6440      27.2790      36.3980      13.2810       2.6650
   1982.4196       6.2430       0.0110      57.5398      22.4320      47.0090      13.2795       2.6910
   1982.5720       6.2430       0.0150      56.4370      17.5910      57.6070      13.2780       2.7170
   1982.7244       6.2430       0.0140      56.2168      18.0913      56.5669      11.8987       2.7100
   1982.8768       6.2430       0.0130      55.9970      18.5910      55.5280      10.5210       2.7030
   1983.0292       6.2430       0.0025      55.6050      19.6915      51.7146      10.5510       2.6840
   1983.1816       6.2430      -0.0080      55.2140      20.7900      47.9050      10.5810       2.6650
   1983.3340       6.2430      -0.0165      55.5860      19.8894      43.3500      10.0503       2.6650
   1983.4863       6.2430      -0.0250      55.9570      18.9910      38.7990       9.5210       2.6650
   1983.6388       6.2430      -0.0240      56.6238      19.0906      38.6214       9.5510       2.6530
   1983.7911       6.2430      -0.0230      57.2890      19.1900      38.4440       9.5810       2.6410
   1983.9436       6.2430      -0.0080      57.5363      16.7873      39.3551      10.0916       2.6520
   1984.0959       6.2430       0.0070      57.7830      14.3900      40.2650      10.6010       2.6630
   1984.2484       6.1909       0.0060      57.8100      13.4911      45.4634      10.4108       2.6490
   1984.4008       6.1390       0.0050      57.8370      12.5940      50.6510      10.2210       2.6350
   1984.5532       6.1911       0.0030      58.2319      12.7451      50.4193       9.9788       2.6385
   1984.7056       6.2430       0.0010      58.6260      12.8960      50.1880       9.7370       2.6420
   1984.8580       6.1910      -0.0075      57.0005      13.6452      51.8630       8.9483       2.6430
   1985.0104       6.1390      -0.0160      55.3780      14.3930      53.5350       8.1610       2.6440
   1985.1628       6.1910      -0.0080      54.4207      13.4927      58.3486       8.5714       2.6690
   1985.3152       6.2430       0.0000      53.4650      12.5940      63.1540       8.9810       2.6940
   1985.4675       6.2430       0.0020      54.3047      12.9938      63.1600       9.3313       2.6885
   1985.6200       6.2430       0.0040      55.1430      13.3930      63.1660       9.6810       2.6830
   1985.7723       6.2430       0.0140      54.9464      14.1936      68.5119       9.4303       2.6885
   1985.9248       6.2430       0.0240      54.7500      14.9930      73.8500       9.1800       2.6940
   1986.0771       6.2430       0.0105      54.4558      14.6928      79.3041       8.9699       2.7005
   1986.2296       6.2430      -0.0030      54.1620      14.3930      84.7510       8.7600       2.7070
   1986.3820       6.2430       0.0055      53.7703      14.3950      83.9405       8.6604       2.6895
   1986.5344       6.2430       0.0140      53.3790      14.3970      83.1310       8.5610       2.6720
   1986.6868       6.2430       0.0115      53.8009      15.8983      63.6080       9.0618       2.6665
   1986.8392       6.2430       0.0090      54.2220      17.3980      44.1060       9.5620       2.6610
   1986.9916       6.2430       0.0085      55.8035      20.7029      38.1912      10.6660       2.6685
   1987.1440       6.2430       0.0080      57.3810      24.0020      32.2820      11.7680       2.6760
   1987.2964       6.2430       0.0040      60.9323      28.8108      31.5572      15.9896       2.6580
   1987.4487       6.2430       0.0000      64.4750      33.6080      30.8330      20.2010       2.6400
   1987.6012       6.2430      -0.0050      67.8694      40.9004      30.9786      18.6192       2.6050
   1987.7535       6.2430      -0.0100      71.2560      48.1760      31.1240      17.0410       2.5700
   1987.9060       6.2430       0.0005      69.9250      43.1230      34.7945      15.8197       2.6171
   1988.0583       6.2430       0.0110      68.5970      38.0810      38.4600      14.6010       2.6640
   1988.2108       6.2430       0.0035      67.3447      38.2827      42.5507      15.1616       2.6575
   1988.3632       6.2430      -0.0040      66.0950      38.4840      46.6330      15.7210       2.6510
   1988.5156       6.2430      -0.0085      65.8247      41.1836      49.8566      15.3977       2.6690
   1988.6680       6.2430      -0.0130      65.5550      43.8780      53.0740      15.0750       2.6870
   1988.8204       6.2430      -0.0060      64.3975      40.1717      73.4964      13.6442       2.6845
   1988.9728       6.2430       0.0010      63.2420      36.4720      93.8820      12.2160       2.6820
   1989.1252       6.2430      -0.0075      61.6457      33.5696     206.9672      10.6272       2.7010
   1989.2776       6.2430      -0.0160      60.0520      30.6720     319.8630       9.0410       2.7200
   1989.4299       6.2430      -0.0135      62.0275      27.2734     963.2289       9.5629       2.7025
   1989.5824       6.2430      -0.0110      64.0000      23.8800    1605.5980      10.0840       2.6850
   1989.7347       6.2430      -0.0150      67.1267      20.4335    1651.0559      11.3539       2.6590
