#------------------------------------------------------------------------------
#
#   Created by  : [OpenWorks] Log Export Utility (LEXP)
#   Created on  : 2016-05-23 11:57:27
#   Project     : CANT971
#   User        : R5K
#   Interpreter : PEP
#
#------------------------------------------------------------------------------
~VERSION INFORMATION
VERS. 2.0 : CWLS Log ASCII Standard - version 2.0
WRAP.  NO : One line per depth step
~WELL INFORMATION
#MNEMONIC   .UNIT                                           VALUE :DESCRIPTION
#------------------------------------------------------------------------------
STRT        .M                                           813.0000 :START DEPTH
STOP        .M                                          2589.2219 :STOP DEPTH
STEP        .M                                             0.1524 :STEP
NULL        .                                           -999.2500 :NULL VALUE
COMP        .                                   PEMEX EXPL & PROD :COMPANY
WELL        .                                                  84 :WELL
FLD         .                                           CANTARELL :FIELD
LOC         .                                             UNKNOWN :LOCATION
CNTY        .                                      CD. DEL CARMEN :COUNTY
STAT        .                                            CAMPECHE :STATE
CTRY        .                                              MEXICO :COUNTRY
SRVC        .                                             UNKNOWN :SERVICE COMPANY
DATE        .                                             UNKNOWN :LOG DATE
UWI         .                                          3060000616 :UNIQUE WELL ID
XCOORD      .                                       601709.550000 :SURFACE X
YCOORD      .                                      2142344.590000 :SURFACE Y
LAT         .                                           19.373791 :LATITUDE
LON         .                                          -92.031505 :LONGITUDE
ELEV        .M                                            24.0000 :SURFACE ELEV
ELEV_TYPE   .                                                  KB :ELEV TYPE
~CURVE INFORMATION
#MNEMONIC.UNIT        API CODE       : CURVE DESCRIPTION
#------------------------------------------------------------------------------
DEPTH    .M                          : Measured Depth
CALI     .in          UNKNOWN        : CALI:UNKNOWN:rC:NONE:v0 (auto-composite)
DRHO     .g/cm3       UNKNOWN        : DRHO:UNKNOWN:rC:NONE:v0 (auto-composite)
DT       .us/ft       UNKNOWN        : DT:DT:rC:NONE:v0 (auto-composite)
ILD      .ohmm        UNKNOWN        : ILD:UNKNOWN:rC:NONE:v0 (auto-composite)
ILM      .ohmm        UNKNOWN        : ILM:UNKNOWN:rC:NONE:v0 (auto-composite)
LLD      .ohmm        UNKNOWN        : LLD:UNKNOWN:rC:NONE:v0 (auto-composite)
LLS      .ohmm        UNKNOWN        : LLS:UNKNOWN:rC:NONE:v0 (auto-composite)
MSFL     .ohmm        UNKNOWN        : MSFL:UNKNOWN:rC:NONE:v0 (auto-composite)
NPHI     .v/v_decimal UNKNOWN        : NPHI:NPHI:rC:NONE:v0 (auto-composite)
PEF      .b/elec      UNKNOWN        : PEF:UNKNOWN:rC:NONE:v0 (auto-composite)
RG       .UNKNOWN     UNKNOWN        : RG:UNKNOWN:rC:NONE:v0 (auto-composite)
RHOB     .g/cm3       UNKNOWN        : RHOB:UNKNOWN:rC:NONE:v0 (auto-composite)
~A     DEPTH         CALI         DRHO           DT          ILD          ILM          LLD          LLS         MSFL         NPHI          PEF           RG         RHOB
    813.0000       0.0000      -0.1000    -999.2500       1.3830       1.4210       0.0000       0.0000       0.0000    -999.2500       0.0000      41.0940       0.0000
    813.1524       0.0000      -0.1000    -999.2500       1.3925       1.4050       0.0000       0.0000       0.0000    -999.2500       0.0000      40.7336       0.0000
    813.3048       0.0000      -0.1000    -999.2500       1.4020       1.3890       0.0000       0.0000       0.0000    -999.2500       0.0000      40.3750       0.0000
    813.4572       0.0000      -0.1000    -999.2500       1.4101       1.3789       0.0000       0.0000       0.0000    -999.2500       0.0000      39.6664       0.0000
    813.6096       0.0000      -0.1000    -999.2500       1.4180       1.3690       0.0000       0.0000       0.0000    -999.2500       0.0000      38.9690       0.0000
    813.7620       0.0000      -0.1000    -999.2500       1.3851       1.3624       0.0000       0.0000       0.0000    -999.2500       0.0000      38.7947       0.0000
    813.9144       0.0000      -0.1000    -999.2500       1.3525       1.3550       0.0000       0.0000       0.0000    -999.2500       0.0000      38.6235       0.0000
    814.0668       0.0000      -0.1000    -999.2500       1.3224       1.2913       0.0000       0.0000       0.0000    -999.2500       0.0000      38.5298       0.0000
    814.2192       0.0000      -0.1000    -999.2500       1.2929       1.2287       0.0000       0.0000       0.0000    -999.2500       0.0000      38.4469       0.0000
    814.3716       0.0000      -0.1000    -999.2500       1.2889       1.2147       0.0000       0.0000       0.0000    -999.2500       0.0000      38.8694       0.0000
    814.5240       0.0000      -0.1000    -999.2500       1.2848       1.2014       0.0000       0.0000       0.0000    -999.2500       0.0000      39.3244       0.0000
    814.6764       0.0000      -0.1000    -999.2500       1.2778       1.2154       0.0000       0.0000       0.0000    -999.2500       0.0000      40.9855       0.0000
    814.8288       0.0000      -0.1000    -999.2500       1.2706       1.2289       0.0000       0.0000       0.0000    -999.2500       0.0000      42.5702       0.0000
    814.9812       0.0000      -0.1000    -999.2500       1.2581       1.2249       0.0000       0.0000       0.0000    -999.2500       0.0000      41.8183       0.0000
    815.1336       0.0000      -0.1000    -999.2500       1.2458       1.2203       0.0000       0.0000       0.0000    -999.2500       0.0000      41.0496       0.0000
    815.2860       0.0000      -0.1000    -999.2500       1.2392       1.2018       0.0000       0.0000       0.0000    -999.2500       0.0000      39.8435       0.0000
    815.4384       0.0000      -0.1000    -999.2500       1.2324       1.1829       0.0000       0.0000       0.0000    -999.2500       0.0000      38.6768       0.0000
    815.5908       0.0000      -0.1000    -999.2500       1.2189       1.1574       0.0000       0.0000       0.0000    -999.2500       0.0000      38.4101       0.0000
    815.7432       0.0000      -0.1000    -999.2500       1.2044       1.1317       0.0000       0.0000       0.0000    -999.2500       0.0000      38.0896       0.0000
    815.8956       0.0000      -0.1000    -999.2500       1.1703       1.1046       0.0000       0.0000       0.0000    -999.2500       0.0000      36.6797       0.0000
    816.0480       0.0000      -0.1000    -999.2500       1.1359       1.0772       0.0000       0.0000       0.0000    -999.2500       0.0000      35.3959       0.0000
    816.2004       0.0000      -0.1000    -999.2500       1.0968       1.0426       0.0000       0.0000       0.0000    -999.2500       0.0000      36.3825       0.0000
    816.3528       0.0000      -0.1000    -999.2500       1.0586       1.0092       0.0000       0.0000       0.0000    -999.2500       0.0000      37.2975       0.0000
    816.5052       0.0000      -0.1000    -999.2500       1.0345       0.9962       0.0000       0.0000       0.0000    -999.2500       0.0000      37.0469       0.0000
    816.6576       0.0000      -0.1000    -999.2500       1.0117       0.9841       0.0000       0.0000       0.0000    -999.2500       0.0000      36.7952       0.0000
    816.8100       0.0000      -0.1000    -999.2500       1.0077       0.9856       0.0000       0.0000       0.0000    -999.2500       0.0000      36.5291       0.0000
    816.9624       0.0000      -0.1000    -999.2500       1.0050       0.9879       0.0000       0.0000       0.0000    -999.2500       0.0000      36.4090       0.0000
    817.1148       0.0000      -0.1000    -999.2500       1.0195       1.0004       0.0000       0.0000       0.0000    -999.2500       0.0000      38.2892       0.0000
    817.2672       0.0000      -0.1000    -999.2500       1.0343       1.0137       0.0000       0.0000       0.0000    -999.2500       0.0000      39.8396       0.0000
    817.4196       0.0000      -0.1000    -999.2500       1.0524       1.0373       0.0000       0.0000       0.0000    -999.2500       0.0000      37.2394       0.0000
    817.5720       0.0000      -0.1000    -999.2500       1.0696       1.0601       0.0000       0.0000       0.0000    -999.2500       0.0000      34.9526       0.0000
    817.7244       0.0000      -0.1000    -999.2500       1.0771       1.0741       0.0000       0.0000       0.0000    -999.2500       0.0000      36.3311       0.0000
    817.8768       0.0000      -0.1000    -999.2500       1.0832       1.0861       0.0000       0.0000       0.0000    -999.2500       0.0000      37.6308       0.0000
    818.0292       0.0000      -0.1000    -999.2500       1.0737       1.0750       0.0000       0.0000       0.0000    -999.2500       0.0000      38.0694       0.0000
    818.1816       0.0000      -0.1000    -999.2500       1.0644       1.0627       0.0000       0.0000       0.0000    -999.2500       0.0000      38.3672       0.0000
    818.3340       0.0000      -0.1000    -999.2500       1.0579       1.0366       0.0000       0.0000       0.0000    -999.2500       0.0000      37.2235       0.0000
    818.4864       0.0000      -0.1000    -999.2500       1.0531       1.0140       0.0000       0.0000       0.0000    -999.2500       0.0000      36.2220       0.0000
    818.6388       0.0000      -0.1000    -999.2500       1.0652       1.0245       0.0000       0.0000       0.0000    -999.2500       0.0000      36.5820       0.0000
    818.7912       0.0000      -0.1000    -999.2500       1.0776       1.0388       0.0000       0.0000       0.0000    -999.2500       0.0000      37.0279       0.0000
    818.9436       0.0000      -0.1000    -999.2500       1.0942       1.0875       0.0000       0.0000       0.0000    -999.2500       0.0000      38.2500       0.0000
    819.0960       0.0000      -0.1000    -999.2500       1.1124       1.1335       0.0000       0.0000       0.0000    -999.2500       0.0000      39.2454       0.0000
    819.2484       0.0000      -0.1000    -999.2500       1.1450       1.1576       0.0000       0.0000       0.0000    -999.2500       0.0000      38.3053       0.0000
    819.4008       0.0000      -0.1000    -999.2500       1.1770       1.1817       0.0000       0.0000       0.0000    -999.2500       0.0000      37.4137       0.0000
    819.5532       0.0000      -0.1000    -999.2500       1.2046       1.2063       0.0000       0.0000       0.0000    -999.2500       0.0000      36.9124       0.0000
    819.7056       0.0000      -0.1000    -999.2500       1.2255       1.2227       0.0000       0.0000       0.0000    -999.2500       0.0000      36.3060       0.0000
    819.8580       0.0000      -0.1000    -999.2500       1.1949       1.1771       0.0000       0.0000       0.0000    -999.2500       0.0000      34.8959       0.0000
    820.0104       0.0000      -0.1000    -999.2500       1.1643       1.1302       0.0000       0.0000       0.0000    -999.2500       0.0000      33.6296       0.0000
    820.1628       0.0000      -0.1000    -999.2500       1.1337       1.0741       0.0000       0.0000       0.0000    -999.2500       0.0000      33.4105       0.0000
