#------------------------------------------------------------------------------
#
#   Created by  : [OpenWorks] Log Export Utility (LEXP)
#   Created on  : 2016-05-23 11:53:41
#   Project     : CANT971
#   User        : R5K
#   Interpreter : PEP
#
#------------------------------------------------------------------------------
~VERSION INFORMATION
VERS. 2.0 : CWLS Log ASCII Standard - version 2.0
WRAP.  NO : One line per depth step
~WELL INFORMATION
#MNEMONIC   .UNIT                                           VALUE :DESCRIPTION
#------------------------------------------------------------------------------
STRT        .M                                           901.1412 :START DEPTH
STOP        .M                                          2449.6777 :STOP DEPTH
STEP        .M                                             0.1524 :STEP
NULL        .                                           -999.2500 :NULL VALUE
COMP        .                                   PEMEX EXPL & PROD :COMPANY
WELL        .                                                  25 :WELL
FLD         .                                           CANTARELL :FIELD
LOC         .                                             UNKNOWN :LOCATION
CNTY        .                                      CD. DEL CARMEN :COUNTY
STAT        .                                            CAMPECHE :STATE
CTRY        .                                              MEXICO :COUNTRY
SRVC        .                                             UNKNOWN :SERVICE COMPANY
DATE        .                                             UNKNOWN :LOG DATE
UWI         .                                          3060000154 :UNIQUE WELL ID
XCOORD      .                                       603358.080000 :SURFACE X
YCOORD      .                                      2145091.420000 :SURFACE Y
LAT         .                                           19.398528 :LATITUDE
LON         .                                          -92.015660 :LONGITUDE
ELEV        .M                                            27.1400 :SURFACE ELEV
ELEV_TYPE   .                                                  KB :ELEV TYPE
~CURVE INFORMATION
#MNEMONIC.UNIT        API CODE       : CURVE DESCRIPTION
#------------------------------------------------------------------------------
DEPTH    .M                          : Measured Depth
CALI     .in          UNKNOWN        : CALI:registros:rC:NONE:v0 (auto-composite)
DRHO     .g/cm3       UNKNOWN        : DRHO:registros:rC:NONE:v0 (auto-composite)
DT       .us/ft       UNKNOWN        : DT:registros:rC:NONE:v0 (auto-composite)
GR       .api         UNKNOWN        : GR:registros:rC:NONE:v0 (auto-composite)
ILD      .ohmm        UNKNOWN        : ILD:registros:rC:NONE:v0 (auto-composite)
LLD      .ohmm        UNKNOWN        : LLD:registros:rC:NONE:v0 (auto-composite)
LLS      .ohmm        UNKNOWN        : LLS:registros:rC:NONE:v0 (auto-composite)
MSFL     .ohmm        UNKNOWN        : MSFL:registros:rC:NONE:v0 (auto-composite)
NPHI     .v/v_decimal UNKNOWN        : NPHI:registros:rC:NONE:v0 (auto-composite)
PEF      .b/elec      UNKNOWN        : PEF:registros:rC:NONE:v0 (auto-composite)
RHOB     .g/cm3       UNKNOWN        : RHOB:registros:rC:NONE:v0 (auto-composite)
~A     DEPTH         CALI         DRHO           DT           GR          ILD          LLD          LLS         MSFL         NPHI          PEF         RHOB
# ...
   1812.4933       6.6670       0.0129      75.5349      46.6858    -999.2500      59.7640      26.0945      63.1212       0.1643       3.0255       2.6105
   1812.6456       6.6670       0.0310      82.4490      44.8450    -999.2500      52.8990      23.9410      65.4040       0.1715       2.9730       2.6000
   1812.7981       6.6765       0.0290      81.4543      40.8409    -999.2500      53.0501      24.1216      76.2210       0.1909       2.8755       2.5711
   1812.9504       6.6860       0.0270      80.4580      36.8240    -999.2500      53.2020      24.3030      87.0900       0.2103       2.7780       2.5420
   1813.1028       6.7205       0.0165      76.3914      34.8039    -999.2500      55.1736      25.2347      60.4378       0.2091       2.8825       2.5425
   1813.2552       6.7550       0.0060      72.3210      32.7770    -999.2500      57.1550      26.1710      33.6540       0.2080       2.9870       2.5430
   1813.4076       6.7665       0.0130      68.9529      30.1740    -999.2500      62.6586      27.3301      33.6700       0.1915       2.9595       2.5480
   1813.5601       6.7780       0.0200      65.5840      27.5620    -999.2500      68.1900      28.4950      33.6860       0.1749       2.9320       2.5530
   1813.7124       6.7780       0.0185      64.1223      29.0478    -999.2500      72.5577      28.7693      41.0010       0.1785       2.7995       2.5500
   1813.8649       6.7780       0.0170      62.6600      30.5390    -999.2500      76.9480      29.0450      48.3540       0.1821       2.6670       2.5470
   1814.0172       6.7780       0.0130      64.0252      29.9541    -999.2500      96.4263      33.4513      45.7509       0.1781       2.6750       2.5560
   1814.1697       6.7780       0.0090      65.3910      29.3670    -999.2500     116.0080      37.8810      43.1340       0.1740       2.6830       2.5650
   1814.3220       6.7780       0.0085      72.3878      26.9102    -999.2500     152.9156      37.3021      36.6541       0.1745       2.7360       2.5635
   1814.4745       6.7780       0.0080      79.3890      24.4440    -999.2500     190.0240      36.7200      30.1390       0.1750       2.7890       2.5620
   1814.6268       6.7785       0.0050      90.2654      24.4570    -999.2500     187.6003      34.0305      37.7239       0.1785       2.9481       2.5565
   1814.7792       6.7790       0.0020     101.1500      24.4700    -999.2500     185.1630      31.3260      45.3510       0.1820       3.1070       2.5510
   1814.9316       6.7970      -0.0055     108.1515      26.1206    -999.2500     176.6637      28.2727      45.2124       0.1899       3.0905       2.5430
   1815.0840       6.8150      -0.0130     115.1590      27.7780    -999.2500     168.1160      25.2020      45.0730       0.1978       3.0740       2.5350
   1815.2365       6.8766      -0.0095     115.6907      27.6473    -999.2500     161.1413      26.5237      44.3676       0.2081       3.0125       2.5151
   1815.3888       6.9380      -0.0060     116.2230      27.5160    -999.2500     154.1260      27.8530      43.6580       0.2184       2.9510       2.4950
   1815.5413       6.9785       0.0124     116.2085      26.8834    -999.2500     144.5540      27.2832      42.7617       0.2159       2.8820       2.4716
   1815.6936       7.0190       0.0310     116.1940      26.2480    -999.2500     134.9250      26.7100      41.8600       0.2134       2.8130       2.4480
   1815.8461       7.0650       0.0753     114.5160      25.3476    -999.2500     124.6221      26.8815      32.9520       0.1912       2.8215       2.4669
   1815.9984       7.1110       0.1200     112.8360      24.4440    -999.2500     114.2650      27.0540      23.9970       0.1690       2.8300       2.4860
   1816.1509       7.0950       0.1110     106.6752      24.4779    -999.2500     106.3766      26.8550      25.6422       0.1691       2.9705       2.5473
   1816.3032       7.0790       0.1020     100.5060      24.5120    -999.2500      98.4520      26.6550      27.2950       0.1692       3.1110       2.6090
   1816.4557       7.0154       0.0721     102.3581      24.8620    -999.2500      95.2062      25.6449      37.5668       0.1735       3.1060       2.6010
   1816.6080       6.9520       0.0420     104.2130      25.2130    -999.2500      91.9450      24.6300      47.8870       0.1779       3.1010       2.5930
   1816.7604       6.8649       0.0256      96.1625      26.0976    -999.2500      83.9673      22.8967      46.4829       0.1915       3.0780       2.5666
   1816.9128       6.7780       0.0090      88.0990      26.9850    -999.2500      75.9510      21.1550      45.0720       0.2052       3.0550       2.5400
   1817.0652       6.7780       0.0130      89.8157      27.5071    -999.2500      66.6411      19.5315      38.8634       0.2116       3.0165       2.5166
   1817.2177       6.7780       0.0170      91.5340      28.0310    -999.2500      57.2850      17.9000      32.6240       0.2180       2.9780       2.4930
   1817.3700       6.7925       0.0553      89.6902      27.9047    -999.2500      49.2943      16.7509      26.4068       0.2214       2.8785       2.4960
   1817.5225       6.8070       0.0940      87.8460      27.7780    -999.2500      41.2630      15.5960      20.1580       0.2248       2.7790       2.4990
   1817.6748       6.8480       0.0895      88.3304      28.3050    -999.2500      35.8681      14.0795      16.8676       0.2313       2.7935       2.5184
   1817.8273       6.8890       0.0850      88.8150      28.8340    -999.2500      30.4450      12.5550      13.5600       0.2378       2.8080       2.5380
   1817.9796       6.8830       0.0651      92.4061      30.7255    -999.2500      31.1940      13.0267      21.3287       0.2328       2.8485       2.5789
   1818.1321       6.8770       0.0450      95.9990      32.6240    -999.2500      31.9470      13.5010      29.1390       0.2277       2.8890       2.6200
   1818.2844       6.8510       0.0226      94.8414      34.0418    -999.2500      36.1291      15.6387      29.0428       0.1990       2.8890       2.6105
   1818.4369       6.8250       0.0000      93.6830      35.4650    -999.2500      40.3340      17.7880      28.9460       0.1702       2.8890       2.6010
   1818.5892       6.7890       0.0005      83.2495      37.0962    -999.2500      48.3615      20.5453      28.3566       0.1732       2.8890       2.5522
   1818.7416       6.7530       0.0010      72.8080      38.7340    -999.2500      56.4340      23.3180      27.7640       0.1762       2.8890       2.5030
   1818.8940       6.7145       0.0060      73.8805      38.5484    -999.2500      61.8550      22.9919      26.5933       0.1902       2.9955       2.5110
   1819.0464       6.6760       0.0110      74.9540      38.3620    -999.2500      67.3070      22.6640      25.4160       0.2043       3.1020       2.5190
   1819.1989       6.6895       0.0095      81.1103      35.7900    -999.2500      65.5058      21.6455      20.1938       0.1935       3.0840       2.5603
   1819.3512       6.7030       0.0080      87.2730      33.2070    -999.2500      63.6940      20.6210      14.9410       0.1826       3.0660       2.6020
   1819.5037       6.7405       0.0090      80.7972      33.6780    -999.2500      59.0105      19.3413      15.3024       0.1862       2.9985       2.5661
   1819.6560       6.7780       0.0100      74.3140      34.1510    -999.2500      54.2990      18.0540      15.6660       0.1898       2.9310       2.5300
   1819.8085       6.7780       0.0175      77.3566      35.9612    -999.2500      54.7613      18.2101      17.5106       0.1876       2.8545       2.5305
   1819.9608       6.7780       0.0250      80.4030      37.7780    -999.2500      55.2260      18.3670      19.3650       0.1854       2.7780       2.5310
   1820.1133       6.7780       0.0081      76.3688      37.0586    -999.2500      56.8956      19.6785      22.8659       0.1764       2.7925       2.5465
   1820.2656       6.7780      -0.0090      72.3290      36.3370    -999.2500      58.5730      20.9960      26.3830       0.1674       2.8070       2.5620
