#------------------------------------------------------------------------------
#
#   Created by  : [OpenWorks] Log Export Utility (LEXP)
#   Created on  : 2016-05-12 17:01:14
#   Project     : CANT971
#   User        : R5K
#   Interpreter : PEP
#
#------------------------------------------------------------------------------
~VERSION INFORMATION
VERS. 2.0 : CWLS Log ASCII Standard - version 2.0
WRAP.  NO : One line per depth step
~WELL INFORMATION
#MNEMONIC   .UNIT                                           VALUE :DESCRIPTION
#------------------------------------------------------------------------------
STRT        .M                                          1708.0991 :START DEPTH
STOP        .M                                          2834.0303 :STOP DEPTH
STEP        .M                                             0.1524 :STEP
NULL        .                                           -999.2500 :NULL VALUE
COMP        .                                             UNKNOWN :COMPANY
WELL        .                                                3016 :WELL
FLD         .                                           CANTARELL :FIELD
LOC         .                                             UNKNOWN :LOCATION
CNTY        .                                             UNKNOWN :COUNTY
STAT        .                                            CAMPECHE :STATE
CTRY        .                                              MEXICO :COUNTRY
SRVC        .                                             UNKNOWN :SERVICE COMPANY
DATE        .                                             UNKNOWN :LOG DATE
UWI         .                                                3016 :UNIQUE WELL ID
XCOORD      .                                       192548.498000 :SURFACE X
YCOORD      .                                        92151.948000 :SURFACE Y
LAT         .                                            0.832805 :LATITUDE
LON         .                                          -95.762171 :LONGITUDE
ELEV        .M                                            46.0000 :SURFACE ELEV
ELEV_TYPE   .                                                  KB :ELEV TYPE
~CURVE INFORMATION
#MNEMONIC.UNIT        API CODE       : CURVE DESCRIPTION
#------------------------------------------------------------------------------
DEPTH    .M                          : Measured Depth
CALI     .inches      UNKNOWN        : CALI:litodensidad:rC:NONE:v0 (auto-composite)
CGR      .API         UNKNOWN        : CGR:Espectrometria:rC:NONE:v0 (auto-composite)
DRHO     .g/cm3       UNKNOWN        : DRHO:litodensidad:rC:NONE:v0 (auto-composite)
DT       .us/ft       UNKNOWN        : DT:DT-Load:rC:NONE:v0 (auto-composite)
GR       .API         UNKNOWN        : GR:PETROWORKS:rC:NONE:v1 
GR-LWD   .API         UNKNOWN        : GR-LWD:PETROWORKS:rC:NONE:v1 
ILD-LWD  .ohm.m       UNKNOWN        : ILD-LWD:PETROWORKS:rC:NONE:v1 
ILM-LWD  .ohm.m       UNKNOWN        : ILM-LWD:PETROWORKS:rC:NONE:v1 
LLD      .ohm.m       UNKNOWN        : LLD:Resistivos:rC:NONE:v0 (auto-composite)
LLS      .ohm.m       UNKNOWN        : LLS:Resistivos:rC:NONE:v0 (auto-composite)
MSFL     .ohm.m       UNKNOWN        : MSFL:Resistivos:rC:NONE:v0 (auto-composite)
NPHI     .v/v_decimal UNKNOWN        : NPHI:Porosidad:rC:NONE:v0 (auto-composite)
PEF      .UNKNOWN     UNKNOWN        : PEF:litodensidad:rC:NONE:v0 (auto-composite)
POTA     .wtpercent   UNKNOWN        : POTA:Espectrometria:rC:NONE:v0 (auto-composite)
RHOB     .g/cm3       UNKNOWN        : RHOB:litodensidad:rC:NONE:v0 (auto-composite)
SP       .mV          UNKNOWN        : SP:SP-Load:rC:NONE:v0 (auto-composite)
THOR     .ppm         UNKNOWN        : THOR:Espectrometria:rC:NONE:v0 (auto-composite)
URAN     .ppm         UNKNOWN        : URAN:Espectrometria:rC:NONE:v0 (auto-composite)
~A     DEPTH         CALI          CGR         DRHO           DT           GR       GR-LWD      ILD-LWD      ILM-LWD          LLD          LLS         MSFL         NPHI          PEF         POTA         RHOB           SP         THOR         URAN
# ...
   2829.6108       2.8576      -1.4704       0.2837      56.8584      40.0008    -999.2500    -999.2500    -999.2500     244.0887      91.8244     368.6150       0.1540       1.8938       0.0006       2.2188       0.0000      -0.7990       4.4772
   2829.7632       2.8576      -1.4704       0.2837      56.8584      40.0008    -999.2500    -999.2500    -999.2500     237.9194      79.1972     368.6150       0.1520       1.8938       0.0006       2.2188       0.0000      -0.7990       4.4772
   2829.9155       2.8576      -1.4704       0.2837      56.8584      40.0008    -999.2500    -999.2500    -999.2500     237.9194      79.1972     368.6150       0.1514       1.8938       0.0006       2.2188       0.0000      -0.7990       4.4772
   2830.0679       2.8576      -1.4704       0.2837      56.8584      40.0008    -999.2500    -999.2500    -999.2500     237.9194      79.1972     368.6150       0.1497       1.8938       0.0006       2.2188       0.0000      -0.7990       4.4772
   2830.2202       2.8576      -1.4704       0.2837      56.8584      40.0008    -999.2500    -999.2500    -999.2500     237.9194      79.1972     368.6150       0.1510       1.8938       0.0006       2.2188       0.0000      -0.7990       4.4772
   2830.3728       2.8576      -1.4704       0.2837      56.8584      40.0008    -999.2500    -999.2500    -999.2500     237.9194      79.1972     368.6150       0.1493       1.8938       0.0006       2.2188       0.0000      -0.7990       4.4772
   2830.5251       2.8576      -1.4704       0.2837      56.8584      40.0008    -999.2500    -999.2500    -999.2500     237.9194      79.1972     368.6150       0.1502       1.8938       0.0006       2.2188       0.0000      -0.7990       4.4772
   2830.6775       2.8576      -1.4704       0.2837      56.8584      40.0008    -999.2500    -999.2500    -999.2500     237.9194      79.1972     368.6150       0.1492       1.8938       0.0006       2.2188       0.0000      -0.7990       4.4772
   2830.8298       2.8576      -1.4704       0.2837      56.8584      40.0008    -999.2500    -999.2500    -999.2500     237.9194      79.1972     368.6150       0.1493       1.8938       0.0006       2.2188       0.0000      -0.7990       4.4772
   2830.9824       2.8576      -1.4704       0.2837      56.8584      40.0008    -999.2500    -999.2500    -999.2500     237.9194      79.1972     368.6150       0.1494       1.8938       0.0006       2.2188       0.0000      -0.7990       4.4772
   2831.1348       2.8576      -1.4704       0.2837      56.8584      40.0008    -999.2500    -999.2500    -999.2500     237.9194      79.1972     368.6150       0.1515       1.8938       0.0006       2.2188       0.0000      -0.7990       4.4772
   2831.2871       2.8576      -1.4704       0.2837      56.8584      40.0008    -999.2500    -999.2500    -999.2500     237.9194      79.1972     368.6150       0.1549       1.8938       0.0006       2.2188       0.0000      -0.7990       4.4772
   2831.4395       2.8576      -1.4704       0.2837      56.8584      40.0008    -999.2500    -999.2500    -999.2500     237.9194      79.1972     368.6150       0.1512       1.8938       0.0006       2.2188       0.0000      -0.7990       4.4772
   2831.5920       2.8576      -1.4704       0.2837      56.8584      40.0008    -999.2500    -999.2500    -999.2500     237.9194      79.1972     368.6150       0.1504       1.8938       0.0006       2.2188       0.0000      -0.7990       4.4772
   2831.7444       2.8576      -1.4704       0.2837      56.8584      40.0008    -999.2500    -999.2500    -999.2500     237.9194      79.1972     368.6150       0.1502       1.8938       0.0006       2.2188       0.0000      -0.7990       4.4772
   2831.8967       2.8576      -1.4704       0.2837      56.8584      40.0008    -999.2500    -999.2500    -999.2500     237.9194      79.1972     368.6150       0.1517       1.8938       0.0006       2.2188       0.0000      -0.7990       4.4772
   2832.0491       2.8576      -1.4704       0.2837      56.8584      40.0008    -999.2500    -999.2500    -999.2500     237.9194      79.1972     368.6150       0.1515       1.8938       0.0006       2.2188       0.0000      -0.7990       4.4772
   2832.2014       2.8576      -1.4704       0.2837    -999.2500      40.0008    -999.2500    -999.2500    -999.2500     237.9194      79.1972     368.6150       0.1489       1.8938       0.0006       2.2188       0.0000      -0.7990       4.4772
   2832.3540       2.8576      -1.4704       0.2837    -999.2500      40.0008    -999.2500    -999.2500    -999.2500     237.9194      79.1972     368.6150       0.1509       1.8938       0.0006       2.2188       0.0000      -0.7990       4.4772
   2832.5063       2.8576      -1.4704       0.2837    -999.2500      40.0008    -999.2500    -999.2500    -999.2500     237.9194      79.1972     368.6150       0.1509       1.8938       0.0006       2.2188       0.0000      -0.7990       4.4772
   2832.6587       2.8576      -1.4704       0.2837    -999.2500      40.0008    -999.2500    -999.2500    -999.2500     237.9194      79.1972     368.6150       0.1509       1.8938       0.0006       2.2188       0.0000      -0.7990       4.4772
   2832.8110       2.8576      -1.4704       0.2837    -999.2500      40.0008    -999.2500    -999.2500    -999.2500     237.9194      79.1972     368.6150       0.1509       1.8938       0.0006       2.2188       0.0000      -0.7990       4.4772
   2832.9636       2.8576      -1.4704       0.2837    -999.2500    -999.2500    -999.2500    -999.2500    -999.2500     237.9194      79.1972     368.6150       0.1509       1.8938       0.0006       2.2188       0.0000      -0.7990       4.4772
   2833.1160    -999.2500    -999.2500    -999.2500    -999.2500    -999.2500    -999.2500    -999.2500    -999.2500     237.9194      79.1972     368.6150    -999.2500    -999.2500    -999.2500    -999.2500       0.0000    -999.2500    -999.2500
   2833.2683    -999.2500    -999.2500    -999.2500    -999.2500    -999.2500    -999.2500    -999.2500    -999.2500     237.9194      79.1972     368.6150    -999.2500    -999.2500    -999.2500    -999.2500       0.0000    -999.2500    -999.2500
   2833.4207    -999.2500    -999.2500    -999.2500    -999.2500    -999.2500    -999.2500    -999.2500    -999.2500     237.9194      79.1972     368.6150    -999.2500    -999.2500    -999.2500    -999.2500       0.0000    -999.2500    -999.2500
   2833.5732    -999.2500    -999.2500    -999.2500    -999.2500    -999.2500    -999.2500    -999.2500    -999.2500     237.9194      79.1972     368.6150    -999.2500    -999.2500    -999.2500    -999.2500       0.0000    -999.2500    -999.2500
   2833.7256    -999.2500    -999.2500    -999.2500    -999.2500    -999.2500    -999.2500    -999.2500    -999.2500     237.9194      79.1972     368.6150    -999.2500    -999.2500    -999.2500    -999.2500       0.0000    -999.2500    -999.2500
   2833.8779    -999.2500    -999.2500    -999.2500    -999.2500    -999.2500    -999.2500    -999.2500    -999.2500     237.9194      79.1972     368.6150    -999.2500    -999.2500    -999.2500    -999.2500       0.0000    -999.2500    -999.2500
   2834.0303    -999.2500    -999.2500    -999.2500    -999.2500    -999.2500    -999.2500    -999.2500    -999.2500     237.9194      79.1972     368.6150    -999.2500    -999.2500    -999.2500    -999.2500       0.0000    -999.2500    -999.2500
