#------------------------------------------------------------------------------
#
#   Created by  : [OpenWorks] Log Export Utility (LEXP)
#   Created on  : 2016-05-23 11:56:14
#   Project     : CANT971
#   User        : R5K
#   Interpreter : PEP
#
#------------------------------------------------------------------------------
~VERSION INFORMATION
VERS. 2.0 : CWLS Log ASCII Standard - version 2.0
WRAP.  NO : One line per depth step
~WELL INFORMATION
#MNEMONIC   .UNIT                                           VALUE :DESCRIPTION
#------------------------------------------------------------------------------
STRT        .M                                          1862.0000 :START DEPTH
STOP        .M                                          3052.8535 :STOP DEPTH
STEP        .M                                             0.1524 :STEP
NULL        .                                           -999.2500 :NULL VALUE
COMP        .                                   PEMEX EXPL & PROD :COMPANY
WELL        .                                                446D :WELL
FLD         .                                           CANTARELL :FIELD
LOC         .                                             UNKNOWN :LOCATION
CNTY        .                                      CD. DEL CARMEN :COUNTY
STAT        .                                            CAMPECHE :STATE
CTRY        .                                              MEXICO :COUNTRY
SRVC        .                                             UNKNOWN :SERVICE COMPANY
DATE        .                                             UNKNOWN :LOG DATE
UWI         .                                            W-C-446D :UNIQUE WELL ID
XCOORD      .                                       598705.170000 :SURFACE X
YCOORD      .                                      2143305.170000 :SURFACE Y
LAT         .                                           19.382621 :LATITUDE
LON         .                                          -92.060061 :LONGITUDE
ELEV        .M                                            28.0000 :SURFACE ELEV
ELEV_TYPE   .                                                  KB :ELEV TYPE
~CURVE INFORMATION
#MNEMONIC.UNIT        API CODE       : CURVE DESCRIPTION
#------------------------------------------------------------------------------
DEPTH    .M                          : Measured Depth
CALI     .inches      UNKNOWN        : CALI:litodensidad:rC:NONE:v0 (auto-composite)
CGR      .API         UNKNOWN        : CGR:CGR-Load:rC:NONE:v0 (auto-composite)
DRHO     .g/cm3       UNKNOWN        : DRHO:litodensidad:rC:NONE:v0 (auto-composite)
DT       .us/ft       UNKNOWN        : DT:DT-Load:rC:NONE:v0 (auto-composite)
GR       .UNKNOWN     UNKNOWN        : GR:PETROWORKS:rC:NONE:v1 
LLD      .ohm.m       UNKNOWN        : LLD:PETROWORKS:rC:NONE:v1 
LLS      .UNKNOWN     UNKNOWN        : LLS:PETROWORKS:rC:NONE:v1 
MSFL     .UNKNOWN     UNKNOWN        : MSFL:PETROWORKS:rC:NONE:v1 
NPHI     .v/v_decimal UNKNOWN        : NPHI:PETROWORKS:rC:NONE:v2 
PEF      .UNKNOWN     UNKNOWN        : PEF:litodensidad:rC:NONE:v0 (auto-composite)
POTA     .UNKNOWN     UNKNOWN        : POTA:radioactividad:rC:NONE:v0 (auto-composite)
RHOB     .g/cm3       UNKNOWN        : RHOB:litodensidad:rC:NONE:v0 (auto-composite)
THOR     .ppm         UNKNOWN        : THOR:radioactividad:rC:NONE:v0 (auto-composite)
URAN     .ppm         UNKNOWN        : URAN:radioactividad:rC:NONE:v0 (auto-composite)
~A     DEPTH         CALI          CGR         DRHO           DT           GR          LLD          LLS         MSFL         NPHI          PEF         POTA         RHOB         THOR         URAN
# ...
   2834.9216       6.7291      14.3966       0.0028      55.3453      29.4701      71.1891      65.8403      74.5682       0.0199       5.3422       0.0060       2.6525       0.6950       1.6244
   2835.0740       6.7888      14.0558       0.0023      55.9785      29.1055      66.5528      61.7661      81.8737       0.0210       5.2902       0.0060       2.6381       0.5921       1.5914
   2835.2263       6.8522      13.3077       0.0018      56.1000      28.8782      64.7102      58.8466      77.9340       0.0209       5.2647       0.0057       2.6254       0.5729       1.6341
   2835.3789       6.7428      13.4901       0.0040      54.7846      29.8219      64.1197      57.6662     120.3027       0.0220       5.2713       0.0054       2.6248       0.7160       1.7285
   2835.5312       6.7483      12.2546       0.0063      55.1443      28.2414      64.2978      57.4005     101.7845       0.0213       5.5870       0.0050       2.6349       0.6339       1.6878
   2835.6836       6.8342      11.1424       0.0089      55.5892      26.4124      64.7051      57.1202      79.0538       0.0202       5.6436       0.0044       2.6444       0.6213       1.6162
   2835.8359       6.8310      11.4779       0.0090      55.1835      26.5574      63.7771      56.2548      74.3069       0.0191       5.5300       0.0044       2.6429       0.7137       1.6224
   2835.9883       6.7970      10.8439       0.0082      55.3546      25.3897      63.7726      55.7911      73.9135       0.0186       5.5610       0.0045       2.6410       0.5317       1.5395
   2836.1409       6.7590       9.7785       0.0054      56.4187      23.7389      64.0783      55.9136      65.5847       0.0190       5.4878       0.0042       2.6390       0.3795       1.4689
   2836.2932       6.7505       9.2786       0.0052      56.3877      22.6524      64.2720      56.0615      75.8561       0.0192       5.5380       0.0043       2.6414       0.2712       1.4154
   2836.4456       6.7932      10.2316       0.0049      55.9259      23.7106      64.9670      56.4259      76.3103       0.0190       5.2564       0.0046       2.6405       0.3636       1.4585
   2836.5979       6.7766       9.2416       0.0031      55.8076      23.0412      64.5990      56.3593      70.7409       0.0192       5.2200       0.0043       2.6382       0.2893       1.4605
   2836.7505       6.7210      10.0878       0.0022      58.2615      26.2241      63.2736      55.4055      95.7572       0.0198       5.2732       0.0033       2.6345       0.8554       1.8054
   2836.9028       6.7065       7.1732       0.0013      57.0866      23.3412      61.3853      54.0580      80.1198       0.0206       5.2492       0.0023       2.6337       0.6431       1.7046
   2837.0552       6.7838       6.2269      -0.0021      58.0722      21.8491      59.4731      52.3189      66.2643       0.0207       5.1337       0.0022       2.6316       0.4755       1.6450
   2837.2075       6.7831       6.6565      -0.0020      59.5724      21.6988      55.3102      49.3731      60.7123       0.0220       5.1756       0.0025       2.6279       0.4412       1.6061
   2837.3601       6.7655       5.2227      -0.0017      60.0122      19.1319      51.1471      45.6197      46.8732       0.0241       5.4645       0.0017       2.6169       0.4297       1.4378
   2837.5125       6.7574       6.4018      -0.0021      60.6443      19.3689      46.9408      42.1021      49.8048       0.0264       5.7705       0.0024       2.6073       0.4358       1.3757
   2837.6648       6.7706       7.5795      -0.0016      62.3189      20.1726      43.6980      39.4841      54.4877       0.0276       5.8582       0.0030       2.6016       0.4165       1.3409
   2837.8171       6.8103       7.8069       0.0005      62.4728      19.6970      43.4905      38.8846      62.4183       0.0273       5.3014       0.0033       2.5979       0.3509       1.2631
   2837.9695       6.7601       7.5244      -0.0004      62.2379      18.3775      44.2294      39.6205      44.8053       0.0273       4.9136       0.0035       2.5999       0.2366       1.1558
   2838.1221       6.6880       6.8836       0.0009      61.8604      15.7892      46.3380      41.5354      48.9493       0.0270       4.7640       0.0036       2.6073       0.0410       0.8958
   2838.2744       6.7031       8.5155       0.0029      57.4687      16.6284      52.4731      45.1458      78.7415       0.0250       5.1918       0.0043       2.6244       0.1085       0.8639
   2838.4268       6.7490       8.2664       0.0057      57.3786      16.0287      54.3706      47.4531      90.8281       0.0215       5.4001       0.0043       2.6338       0.0311       0.7468
   2838.5791       6.7375       6.2297       0.0063      55.3366      20.1308      54.8753      47.9272     125.1384       0.0187       5.4693       0.0031       2.6468       0.0883       1.4717
   2838.7317       6.7288       7.5162       0.0059      54.3134      23.5590      56.7426      49.5566      76.1069       0.0177       5.6662       0.0036       2.6528       0.1633       1.6780
   2838.8840       6.7628       8.6911       0.0043      54.1151      27.8166      60.6188      53.2936     157.8929       0.0181       5.7759       0.0035       2.6537       0.4332       2.0240
   2839.0364       6.8987       7.0144       0.0036      54.0576      25.4256      68.9246      60.4334     166.7015       0.0182       5.5979       0.0032       2.6536       0.2160       1.9292
   2839.1887       6.9110       5.6370       0.0017      55.1103      22.9585      84.3533      68.6348     141.3497       0.0189       5.2765       0.0027       2.6502       0.1270       1.8334
   2839.3413       6.7797       6.2126       0.0084      56.1486      24.1607      73.5487      64.7587     107.3871       0.0201       5.2854       0.0028       2.6412       0.2110       1.8418
   2839.4937       6.7968      14.7669       0.0113      60.5451      29.5645      49.6706      47.3525     108.1489       0.0217       5.3665       0.0054       2.6278       0.9872       1.5661
   2839.6460       6.8257      18.7379       0.0124      61.0032      34.1128      36.5534      33.5351      36.3663       0.0290       5.3926       0.0067       2.6149       1.3743       1.6269
   2839.7983       6.8188      21.9831       0.0135      61.4165      38.3233      31.1073      28.3276      40.9002       0.0380       5.4037       0.0075       2.6175       1.7363       1.7248
   2839.9507       6.7872      20.6913       0.0132      58.5302      36.2042      29.8342      27.5544      49.0911       0.0427       5.4414       0.0071       2.6195       1.6117       1.6355
   2840.1033       6.7819      19.0301       0.0048      56.2598      33.5037      34.7812      30.5323      66.5260       0.0384       5.5994       0.0065       2.6129       1.4922       1.5288
   2840.2556       6.7306      18.4103       0.0019      57.8608      32.1736      38.3508      34.2071      49.4845       0.0347       5.5529       0.0065       2.6070       1.3738       1.4899
   2840.4080       6.7619      13.6707       0.0000      58.3697      28.5402      38.2996      34.5395      33.4396       0.0349       5.7753       0.0045       2.5971       1.1307       1.5530
   2840.5603       6.7726      12.8775      -0.0003      60.6058      28.0161      35.9790      32.8141      27.5882       0.0386       5.5725       0.0039       2.5834       1.2119       1.6208
   2840.7129       6.7590      11.8683       0.0007      62.0185      26.3728      34.3429      31.4910      33.0857       0.0428       5.4291       0.0034       2.5754       1.1991       1.5578
   2840.8652       6.7699      10.5551       0.0024      62.1151      21.5345      35.5615      31.9961      40.6880       0.0449       4.3147       0.0038       2.5632       0.7425       1.1279
   2841.0176       6.6968      10.3536       0.0038      61.9728      20.6725      38.0838      33.9564      48.8143       0.0454       4.0745       0.0033       2.5642       0.9037       1.1037
   2841.1699       6.7129       9.3309       0.0055      61.6955      20.1143      41.1491      36.9134      77.8874       0.0436       4.0034       0.0026       2.5640       0.9838       1.1288
