#------------------------------------------------------------------------------
#
#   Created by  : [OpenWorks] Log Export Utility (LEXP)
#   Created on  : 2016-05-23 11:55:56
#   Project     : CANT971
#   User        : R5K
#   Interpreter : PEP
#
#------------------------------------------------------------------------------
~VERSION INFORMATION
VERS. 2.0 : CWLS Log ASCII Standard - version 2.0
WRAP.  NO : One line per depth step
~WELL INFORMATION
#MNEMONIC   .UNIT                                           VALUE :DESCRIPTION
#------------------------------------------------------------------------------
STRT        .M                                          3767.4790 :START DEPTH
STOP        .M                                          5548.2729 :STOP DEPTH
STEP        .M                                             0.1524 :STEP
NULL        .                                           -999.2500 :NULL VALUE
COMP        .                                             UNKNOWN :COMPANY
WELL        .                                            418D-ST2 :WELL
FLD         .                                             UNKNOWN :FIELD
LOC         .                                             UNKNOWN :LOCATION
CNTY        .                                             UNKNOWN :COUNTY
STAT        .                                             UNKNOWN :STATE
CTRY        .                                             UNKNOWN :COUNTRY
SRVC        .                                             UNKNOWN :SERVICE COMPANY
DATE        .                                             UNKNOWN :LOG DATE
UWI         .                                            418D-ST2 :UNIQUE WELL ID
XCOORD      .                                       597130.010000 :SURFACE X
YCOORD      .                                      2144879.410000 :SURFACE Y
LAT         .                                           19.396924 :LATITUDE
LON         .                                          -92.074978 :LONGITUDE
ELEV        .M                                             0.0000 :SURFACE ELEV
ELEV_TYPE   .                                                  NA :ELEV TYPE
~CURVE INFORMATION
#MNEMONIC.UNIT        API CODE       : CURVE DESCRIPTION
#------------------------------------------------------------------------------
DEPTH    .M                          : Measured Depth
CALI     .inches      UNKNOWN        : CALI:PETROWORKS:rC:NONE:v1 
CGR      .API         UNKNOWN        : CGR:PETROWORKS:rC:NONE:v2 
DRHO     .g/cm3       UNKNOWN        : DRHO:PETROWORKS:rC:NONE:v1 
DT       .us/ft       UNKNOWN        : DT:PETROWORKS:rC:NONE:v2 
GR       .API         UNKNOWN        : GR:PETROWORKS:rC:NONE:v2 
ILD      .ohm.m       UNKNOWN        : ILD:PETROWORKS:rC:NONE:v2 
ILM      .ohm.m       UNKNOWN        : ILM:PETROWORKS:rC:NONE:v2 
NPHI     .v/v_decimal UNKNOWN        : NPHI:PETROWORKS:rC:NONE:v3 
PEF      .b/elec      UNKNOWN        : PEF:PETROWORKS:rC:NONE:v1 
POTA     .wtpercent   UNKNOWN        : POTA:PETROWORKS:rC:NONE:v2 
RHOB     .UNKNOWN     UNKNOWN        : RHOB:PETROWORKS:rC:NONE:v1 
THOR     .ppm         UNKNOWN        : THOR:PETROWORKS:rC:NONE:v2 
URAN     .ppm         UNKNOWN        : URAN:PETROWORKS:rC:NONE:v2 
~A     DEPTH         CALI          CGR         DRHO           DT           GR          ILD          ILM         NPHI          PEF         POTA         RHOB         THOR         URAN
# ...
   5028.1318       6.1570      18.5449       0.0259      44.4951      51.1112   20000.0000   20000.0000       0.0212       4.8682       0.0082       2.8002       1.6580       4.4368
   5028.2842       6.1598      21.7063       0.0291      44.8795      52.8506   20000.0000   20000.0000       0.0212       4.9001       0.0094       2.7967       2.0552       4.2431
   5028.4365       6.1588      25.2887       0.0294      44.9024      54.9746   20000.0000   20000.0000       0.0209       4.8969       0.0109       2.7933       2.4263       4.0444
   5028.5889       6.1583      27.9251       0.0263      44.7755      56.6640   20000.0000   20000.0000       0.0207       4.9047       0.0119       2.7949       2.7352       3.9154
   5028.7412       6.1615      30.1784       0.0235      44.7617      57.9606   20000.0000   20000.0000       0.0204       4.9128       0.0127       2.7996       3.0595       3.7850
   5028.8940       6.1661      31.5301       0.0242      44.8539      58.4579   20000.0000   20000.0000       0.0202       4.9162       0.0131       2.8037       3.2824       3.6686
   5029.0464       6.1740      31.7381       0.0269      44.9969      58.4164   20000.0000   20000.0000       0.0199       4.9389       0.0132       2.8037       3.2921       3.6346
   5029.1987       6.1711      30.0363       0.0279      45.0045      57.2248   20000.0000   20000.0000       0.0196       5.0561       0.0120       2.7970       3.0781       3.7042
   5029.3511       6.1651      26.7243       0.0258      44.6554      55.3500   20000.0000   20000.0000       0.0199       5.1787       0.0108       2.7918       2.5147       3.9000
   5029.5034       6.1700      21.9311       0.0206      44.2713      53.0414   20000.0000   20000.0000       0.0204       5.2051       0.0097       2.7939       1.7965       4.2384
   5029.6558       6.1733      19.1739       0.0181      44.1781      51.6057   20000.0000   20000.0000       0.0209       5.1514       0.0090       2.7979       1.4131       4.4185
   5029.8081       6.1767      18.8291       0.0198      44.4211      50.8757   20000.0000   20000.0000       0.0218       5.0630       0.0089       2.7951       1.3408       4.3660
   5029.9604       6.1768      18.6362       0.0202      44.6464      50.2131   20000.0000   20000.0000       0.0226       5.0393       0.0084       2.7857       1.3335       4.3020
   5030.1128       6.1733      16.6748       0.0147      44.9233      48.8588   20000.0000   20000.0000       0.0239       5.0978       0.0071       2.7708       1.2413       4.3847
   5030.2656       6.1735      14.5089       0.0100      45.1332      47.2129   20000.0000   20000.0000       0.0250       5.1126       0.0059       2.7613       1.2028       4.4556
   5030.4180       6.1783      13.7265       0.0144      45.2573      45.9756   20000.0000   20000.0000       0.0258       5.0365       0.0058       2.7658       1.3131       4.3936
   5030.5703       6.1784      13.9734       0.0226      45.2303      45.4440   20000.0000   20000.0000       0.0263       4.9714       0.0061       2.7727       1.4330       4.2875
   5030.7227       6.1683      14.7604       0.0269      45.0717      45.4684   20000.0000   20000.0000       0.0260       4.9392       0.0066       2.7749       1.4854       4.1837
   5030.8750       6.1604      15.4870       0.0250      45.0188      45.5983   20000.0000   20000.0000       0.0250       4.8994       0.0068       2.7742       1.5004       4.1023
   5031.0273       6.1632      15.8792       0.0157      45.1168      45.7132   20000.0000   20000.0000       0.0246       4.8245       0.0069       2.7763       1.4631       4.0646
   5031.1797       6.1690      15.5564       0.0090      45.1541      45.6198   20000.0000   20000.0000       0.0245       4.7737       0.0068       2.7809       1.3510       4.0958
   5031.3320       6.1644      14.2125       0.0110      45.0845      45.2685   20000.0000   20000.0000       0.0244       4.7906       0.0066       2.7858       1.0162       4.2311
   5031.4844       6.1556      13.1867       0.0176      45.0943      44.8970   20000.0000   20000.0000       0.0239       4.8299       0.0065       2.7891       0.7523       4.3202
   5031.6372       6.1555      12.9565       0.0219      45.2850      44.5096   20000.0000   20000.0000       0.0234       4.8521       0.0066       2.7914       0.7103       4.2988
   5031.7896       6.1625      12.9158       0.0236      45.3371      43.7517   20000.0000   20000.0000       0.0237       4.8633       0.0062       2.7984       0.7299       4.2011
   5031.9419       6.1649      12.2855       0.0250      45.0329      42.8178   20000.0000   20000.0000       0.0244       4.8725       0.0057       2.8054       0.7117       4.1597
   5032.0942       6.1569      11.2842       0.0294      44.8005      41.8945   20000.0000   20000.0000       0.0248       4.8714       0.0053       2.8061       0.7219       4.1703
   5032.2466       6.1515      10.7942       0.0330      44.8237      41.3159   20000.0000   20000.0000       0.0252       4.8563       0.0050       2.8007       0.7463       4.1583
   5032.3989       6.1598      10.2858       0.0303      44.9106      40.5237   20000.0000   20000.0000       0.0250       4.8176       0.0046       2.7867       0.7560       4.1196
   5032.5513       6.1665       9.6071       0.0239      44.9116      39.5550   20000.0000   20000.0000       0.0240       4.7802       0.0042       2.7723       0.7596       4.0801
   5032.7036       6.1666       9.1900       0.0165      44.8392      38.8234   20000.0000   20000.0000       0.0222       4.7579       0.0043       2.7624       0.7080       4.0372
   5032.8564       6.1641       9.1630       0.0128      44.8167      38.4866   20000.0000   20000.0000       0.0208       4.7510       0.0044       2.7602       0.6674       3.9950
   5033.0088       6.1587       8.9283       0.0167      44.8417      38.2235   20000.0000   20000.0000       0.0207       4.7756       0.0040       2.7734       0.6741       3.9912
   5033.1611       6.1610       8.4324       0.0227      44.8100      37.7725   20000.0000   20000.0000       0.0209       4.8134       0.0036       2.7879       0.6978       3.9973
   5033.3135       6.1658       8.2788       0.0298      44.6375      37.4147   20000.0000   20000.0000       0.0218       4.8680       0.0037       2.7943       0.7418       3.9694
   5033.4658       6.1666       8.5186       0.0350      44.5888      37.2903   20000.0000   20000.0000       0.0229       4.9189       0.0038       2.7968       0.7855       3.9199
   5033.6182       6.1599       8.6014       0.0339      44.5669      37.0613   20000.0000   20000.0000       0.0243       4.9352       0.0039       2.7993       0.8185       3.8773
   5033.7705       6.1545       8.8459       0.0308      44.5247      36.8342   20000.0000   20000.0000       0.0259       4.8890       0.0039       2.8011       0.8538       3.8132
   5033.9229       6.1620       9.3509       0.0287      44.4563      36.6119   20000.0000   20000.0000       0.0258       4.8092       0.0040       2.7920       0.8851       3.7140
   5034.0752       6.1672       9.5214       0.0262      44.4067      36.2844   20000.0000   20000.0000       0.0248       4.7647       0.0038       2.7728       0.9336       3.6462
   5034.2280       6.1682       9.0010       0.0203      44.3607      36.0350   20000.0000   20000.0000       0.0224       4.7162       0.0033       2.7451       0.9741       3.6831
   5034.3804       6.1662       8.3110       0.0138      44.3276      36.0333   20000.0000   20000.0000       0.0205       4.6633       0.0029       2.7303       0.9992       3.7769
   5034.5327       6.1611       7.9202       0.0106      44.2907      36.3026   20000.0000   20000.0000       0.0195       4.6227       0.0029       2.7478       1.0058       3.8668
   5034.6851       6.1682       7.9665       0.0149      44.2627      36.7924   20000.0000   20000.0000       0.0191       4.6253       0.0032       2.7776       0.9833       3.9272
