#------------------------------------------------------------------------------
#
#   Created by  : [OpenWorks] Log Export Utility (LEXP)
#   Created on  : 2016-05-23 11:57:27
#   Project     : CANT971
#   User        : R5K
#   Interpreter : PEP
#
#------------------------------------------------------------------------------
~VERSION INFORMATION
VERS. 2.0 : CWLS Log ASCII Standard - version 2.0
WRAP.  NO : One line per depth step
~WELL INFORMATION
#MNEMONIC   .UNIT                                           VALUE :DESCRIPTION
#------------------------------------------------------------------------------
STRT        .M                                           813.0000 :START DEPTH
STOP        .M                                          2589.2219 :STOP DEPTH
STEP        .M                                             0.1524 :STEP
NULL        .                                           -999.2500 :NULL VALUE
COMP        .                                   PEMEX EXPL & PROD :COMPANY
WELL        .                                                  84 :WELL
FLD         .                                           CANTARELL :FIELD
LOC         .                                             UNKNOWN :LOCATION
CNTY        .                                      CD. DEL CARMEN :COUNTY
STAT        .                                            CAMPECHE :STATE
CTRY        .                                              MEXICO :COUNTRY
SRVC        .                                             UNKNOWN :SERVICE COMPANY
DATE        .                                             UNKNOWN :LOG DATE
UWI         .                                          3060000616 :UNIQUE WELL ID
XCOORD      .                                       601709.550000 :SURFACE X
YCOORD      .                                      2142344.590000 :SURFACE Y
LAT         .                                           19.373791 :LATITUDE
LON         .                                          -92.031505 :LONGITUDE
ELEV        .M                                            24.0000 :SURFACE ELEV
ELEV_TYPE   .                                                  KB :ELEV TYPE
~CURVE INFORMATION
#MNEMONIC.UNIT        API CODE       : CURVE DESCRIPTION
#------------------------------------------------------------------------------
DEPTH    .M                          : Measured Depth
CALI     .in          UNKNOWN        : CALI:UNKNOWN:rC:NONE:v0 (auto-composite)
DRHO     .g/cm3       UNKNOWN        : DRHO:UNKNOWN:rC:NONE:v0 (auto-composite)
DT       .us/ft       UNKNOWN        : DT:DT:rC:NONE:v0 (auto-composite)
ILD      .ohmm        UNKNOWN        : ILD:UNKNOWN:rC:NONE:v0 (auto-composite)
ILM      .ohmm        UNKNOWN        : ILM:UNKNOWN:rC:NONE:v0 (auto-composite)
LLD      .ohmm        UNKNOWN        : LLD:UNKNOWN:rC:NONE:v0 (auto-composite)
LLS      .ohmm        UNKNOWN        : LLS:UNKNOWN:rC:NONE:v0 (auto-composite)
MSFL     .ohmm        UNKNOWN        : MSFL:UNKNOWN:rC:NONE:v0 (auto-composite)
NPHI     .v/v_decimal UNKNOWN        : NPHI:NPHI:rC:NONE:v0 (auto-composite)
PEF      .b/elec      UNKNOWN        : PEF:UNKNOWN:rC:NONE:v0 (auto-composite)
RG       .UNKNOWN     UNKNOWN        : RG:UNKNOWN:rC:NONE:v0 (auto-composite)
RHOB     .g/cm3       UNKNOWN        : RHOB:UNKNOWN:rC:NONE:v0 (auto-composite)
~A     DEPTH         CALI         DRHO           DT          ILD          ILM          LLD          LLS         MSFL         NPHI          PEF           RG         RHOB
# ...
   1288.4880       0.0000      -0.1000    -999.2500       0.6144       0.6696       0.0000       0.0000       0.0000    -999.2500       0.0000      52.0919       0.0000
   1288.6404       0.0000      -0.1000    -999.2500       0.6209       0.6866       0.0000       0.0000       0.0000    -999.2500       0.0000      46.7352       0.0000
   1288.7928       0.0000      -0.1000    -999.2500       0.6250       0.6984       0.0000       0.0000       0.0000    -999.2500       0.0000      42.6658       0.0000
   1288.9452       0.0000      -0.1000    -999.2500       0.6205       0.6909       0.0000       0.0000       0.0000    -999.2500       0.0000      43.2926       0.0000
   1289.0977       0.0000      -0.1000    -999.2500       0.6129       0.6800       0.0000       0.0000       0.0000    -999.2500       0.0000      43.6601       0.0000
   1289.2500       0.0000      -0.1000    -999.2500       0.5944       0.6575       0.0000       0.0000       0.0000    -999.2500       0.0000      43.1123       0.0000
   1289.4023       0.0000      -0.1000    -999.2500       0.5762       0.6360       0.0000       0.0000       0.0000    -999.2500       0.0000      42.9811       0.0000
   1289.5548       0.0000      -0.1000    -999.2500       0.5591       0.6185       0.0000       0.0000       0.0000    -999.2500       0.0000      44.2812       0.0000
   1289.7072       0.0000      -0.1000    -999.2500       0.5459       0.6064       0.0000       0.0000       0.0000    -999.2500       0.0000      44.6730       0.0000
   1289.8596       0.0000      -0.1000    -999.2500       0.5454       0.6124       0.0000       0.0000       0.0000    -999.2500       0.0000      42.0407       0.0000
   1290.0120       0.0000      -0.1000    -999.2500       0.5513       0.6234       0.0000       0.0000       0.0000    -999.2500       0.0000      39.7236       0.0000
   1290.1644       0.0000      -0.1000    -999.2500       0.5778       0.6505       0.0000       0.0000       0.0000    -999.2500       0.0000      38.4240       0.0000
   1290.3168       0.0000      -0.1000    -999.2500       0.6054       0.6779       0.0000       0.0000       0.0000    -999.2500       0.0000      38.0806       0.0000
   1290.4692       0.0000      -0.1000    -999.2500       0.6360       0.7065       0.0000       0.0000       0.0000    -999.2500       0.0000      40.7440       0.0000
   1290.6216       0.0000      -0.1000    -999.2500       0.6632       0.7317       0.0000       0.0000       0.0000    -999.2500       0.0000      42.7307       0.0000
   1290.7740       0.0000      -0.1000    -999.2500       0.6803       0.7468       0.0000       0.0000       0.0000    -999.2500       0.0000      42.6525       0.0000
   1290.9264       0.0000      -0.1000    -999.2500       0.6912       0.7555       0.0000       0.0000       0.0000    -999.2500       0.0000      42.5900       0.0000
   1291.0789       0.0000      -0.1000    -999.2500       0.6842       0.7454       0.0000       0.0000       0.0000    -999.2500       0.0000      42.5739       0.0000
   1291.2312       0.0000      -0.1000    -999.2500       0.6768       0.7363       0.0000       0.0000       0.0000    -999.2500       0.0000      42.3646       0.0000
   1291.3835       0.0000      -0.1000    -999.2500       0.6683       0.7298       0.0000       0.0000       0.0000    -999.2500       0.0000      41.5970       0.0000
   1291.5360       0.0000      -0.1000    -999.2500       0.6588       0.7232       0.0000       0.0000       0.0000    -999.2500       0.0000      41.4385       0.0000
   1291.6884       0.0000      -0.1000    -999.2500       0.6468       0.7161       0.0000       0.0000       0.0000    -999.2500       0.0000      42.9898       0.0000
   1291.8408       0.0000      -0.1000    -999.2500       0.6346       0.7094       0.0000       0.0000       0.0000    -999.2500       0.0000      43.8939       0.0000
   1291.9932       0.0000      -0.1000    -999.2500       0.6221       0.7034       0.0000       0.0000       0.0000    -999.2500       0.0000      43.0324       0.0000
   1292.1456       0.0000      -0.1000    -999.2500       0.6109       0.6952       0.0000       0.0000       0.0000    -999.2500       0.0000      42.2778       0.0000
   1292.2980       0.0000      -0.1000    -999.2500       0.6034       0.6811       0.0000       0.0000       0.0000    -999.2500       0.0000      41.8080       0.0000
   1292.4504       0.0000      -0.1000    -999.2500       0.5974       0.6706       0.0000       0.0000       0.0000    -999.2500       0.0000      41.1942       0.0000
   1292.6028       0.0000      -0.1000    -999.2500       0.5954       0.6691       0.0000       0.0000       0.0000    -999.2500       0.0000      40.2073       0.0000
   1292.7552       0.0000      -0.1000    -999.2500       0.5956       0.6720       0.0000       0.0000       0.0000    -999.2500       0.0000      39.4689       0.0000
   1292.9076       0.0000      -0.1000    -999.2500       0.6011       0.6860       0.0000       0.0000       0.0000    -999.2500       0.0000      39.3591       0.0000
   1293.0601       0.0000      -0.1000    -999.2500       0.6076       0.6992       0.0000       0.0000       0.0000    -999.2500       0.0000      39.3579       0.0000
   1293.2124       0.0000      -0.1000    -999.2500       0.6166       0.7102       0.0000       0.0000       0.0000    -999.2500       0.0000      39.6241       0.0000
   1293.3647       0.0000      -0.1000    -999.2500       0.6267       0.7187       0.0000       0.0000       0.0000    -999.2500       0.0000      40.2269       0.0000
   1293.5172       0.0000      -0.1000    -999.2500       0.6392       0.7212       0.0000       0.0000       0.0000    -999.2500       0.0000      41.6368       0.0000
   1293.6696       0.0000      -0.1000    -999.2500       0.6490       0.7243       0.0000       0.0000       0.0000    -999.2500       0.0000      41.8753       0.0000
   1293.8220       0.0000      -0.1000    -999.2500       0.6526       0.7289       0.0000       0.0000       0.0000    -999.2500       0.0000      39.3683       0.0000
   1293.9744       0.0000      -0.1000    -999.2500       0.6533       0.7335       0.0000       0.0000       0.0000    -999.2500       0.0000      37.6154       0.0000
   1294.1268       0.0000      -0.1000    -999.2500       0.6478       0.7385       0.0000       0.0000       0.0000    -999.2500       0.0000      37.5838       0.0000
   1294.2792       0.0000      -0.1000    -999.2500       0.6448       0.7400       0.0000       0.0000       0.0000    -999.2500       0.0000      37.7903       0.0000
   1294.4316       0.0000      -0.1000    -999.2500       0.6473       0.7335       0.0000       0.0000       0.0000    -999.2500       0.0000      38.5266       0.0000
   1294.5840       0.0000      -0.1000    -999.2500       0.6481       0.7281       0.0000       0.0000       0.0000    -999.2500       0.0000      39.4208       0.0000
   1294.7365       0.0000      -0.1000    -999.2500       0.6450       0.7250       0.0000       0.0000       0.0000    -999.2500       0.0000      40.6587       0.0000
   1294.8888       0.0000      -0.1000    -999.2500       0.6411       0.7222       0.0000       0.0000       0.0000    -999.2500       0.0000      41.1888       0.0000
   1295.0413       0.0000      -0.1000    -999.2500       0.6351       0.7197       0.0000       0.0000       0.0000    -999.2500       0.0000      40.2175       0.0000
   1295.1936       0.0000      -0.1000    -999.2500       0.6331       0.7185       0.0000       0.0000       0.0000    -999.2500       0.0000      39.1544       0.0000
   1295.3459       0.0000      -0.1000    -999.2500       0.6396       0.7200       0.0000       0.0000       0.0000    -999.2500       0.0000      37.9009       0.0000
   1295.4984       0.0000      -0.1000    -999.2500       0.6481       0.7250       0.0000       0.0000       0.0000    -999.2500       0.0000      37.7357       0.0000
   1295.6508       0.0000      -0.1000    -999.2500       0.6607       0.7370       0.0000       0.0000       0.0000    -999.2500       0.0000      39.7729       0.0000
