#------------------------------------------------------------------------------
#
#   Created by  : [OpenWorks] Log Export Utility (LEXP)
#   Created on  : 2016-05-23 11:50:56
#   Project     : CANT971
#   User        : R5K
#   Interpreter : PEP
#
#------------------------------------------------------------------------------
~VERSION INFORMATION
VERS. 2.0 : CWLS Log ASCII Standard - version 2.0
WRAP.  NO : One line per depth step
~WELL INFORMATION
#MNEMONIC   .UNIT                                           VALUE :DESCRIPTION
#------------------------------------------------------------------------------
STRT        .M                                           679.7040 :START DEPTH
STOP        .M                                          2836.1641 :STOP DEPTH
STEP        .M                                             0.1524 :STEP
NULL        .                                           -999.2500 :NULL VALUE
COMP        .                                   PEMEX EXPL & PROD :COMPANY
WELL        .                                                1044 :WELL
FLD         .                                           CANTARELL :FIELD
LOC         .                                             UNKNOWN :LOCATION
CNTY        .                                      CD. DEL CARMEN :COUNTY
STAT        .                                            CAMPECHE :STATE
CTRY        .                                              MEXICO :COUNTRY
SRVC        .                                             UNKNOWN :SERVICE COMPANY
DATE        .                                             UNKNOWN :LOG DATE
UWI         .                                          3060000497 :UNIQUE WELL ID
XCOORD      .                                       596164.320000 :SURFACE X
YCOORD      .                                      2150609.730000 :SURFACE Y
LAT         .                                           19.448753 :LATITUDE
LON         .                                          -92.083884 :LONGITUDE
ELEV        .M                                            30.0000 :SURFACE ELEV
ELEV_TYPE   .                                                  KB :ELEV TYPE
~CURVE INFORMATION
#MNEMONIC.UNIT        API CODE       : CURVE DESCRIPTION
#------------------------------------------------------------------------------
DEPTH    .M                          : Measured Depth
CALI     .inches      UNKNOWN        : CALI:litodensidad:rC:NONE:v0 (auto-composite)
DRHO     .g/cm3       UNKNOWN        : DRHO:litodensidad:rC:NONE:v0 (auto-composite)
DT       .us/ft       UNKNOWN        : DT:DT:rC:NONE:v0 (auto-composite)
GR       .API         UNKNOWN        : GR:UNKNOWN:rC:NONE:v0 (auto-composite)
ILD      .ohm.m       UNKNOWN        : ILD:UNKNOWN:rC:NONE:v0 (auto-composite)
ILM      .ohm.m       UNKNOWN        : ILM:UNKNOWN:rC:NONE:v0 (auto-composite)
LLD      .ohm.m       UNKNOWN        : LLD:UNKNOWN:rC:NONE:v0 (auto-composite)
LLS      .ohm.m       UNKNOWN        : LLS:UNKNOWN:rC:NONE:v0 (auto-composite)
MSFL     .ohm.m       UNKNOWN        : MSFL:UNKNOWN:rC:NONE:v0 (auto-composite)
NPHI     .v/v_decimal UNKNOWN        : NPHI:NPHI:rC:NONE:v0 (auto-composite)
PEF      .b/elec      UNKNOWN        : PEF:UNKNOWN:rC:NONE:v0 (auto-composite)
RHOB     .g/cm3       UNKNOWN        : RHOB:UNKNOWN:rC:NONE:v0 (auto-composite)
~A     DEPTH         CALI         DRHO           DT           GR          ILD          ILM          LLD          LLS         MSFL         NPHI          PEF         RHOB
# ...
   2574.3408      10.8550       0.2930      79.2140     109.1520    -999.2500    -999.2500       8.2640       6.7971       5.6595       0.2042       3.2540       2.4770
   2574.4932      10.8295       0.2905      78.8875     103.5940    -999.2500    -999.2500       8.8615       7.3109       6.5232       0.2399       3.2141       2.4785
   2574.6455      10.8040       0.2880      78.5600      98.0460    -999.2500    -999.2500       9.4609       7.8263       7.3895       0.2756       3.1740       2.4800
   2574.7981      10.4273       0.2500      73.8826      98.3117    -999.2500    -999.2500       9.6756       8.0379       8.2567       0.2732       3.1670       2.5055
   2574.9504      10.0500       0.2120      69.1980      98.5770    -999.2500    -999.2500       9.8907       8.2498       9.1253       0.2708       3.1600       2.5310
   2575.1028       9.6563       0.1720      66.7760     102.5666    -999.2500    -999.2500       9.2480       7.7800       9.4129       0.2213       3.0721       2.5765
   2575.2551       9.2620       0.1320      64.3500     106.5500    -999.2500    -999.2500       8.6042       7.3094       9.7009       0.1718       2.9840       2.6220
   2575.4075       9.2705       0.1350      64.6093     112.0094    -999.2500    -999.2500       7.8609       6.7715       9.7526       0.1722       2.9845       2.6195
   2575.5601       9.2790       0.1380      64.8690     117.4610    -999.2500    -999.2500       7.1163       6.2325       9.8043       0.1725       2.9850       2.6170
   2575.7124       9.5507       0.1380      73.9913     115.0931    -999.2500    -999.2500       6.8951       6.1154      10.2968       0.1790       3.0125       2.5830
   2575.8647       9.8230       0.1380      83.1310     112.7320    -999.2500    -999.2500       6.6734       5.9980      10.7903       0.1854       3.0400       2.5490
   2576.0171       9.8200       0.1350      82.9991     113.2843    -999.2500    -999.2500       6.7105       6.0666      11.0739       0.2277       3.0385       2.4736
   2576.1697       9.8170       0.1320      82.8670     113.8350    -999.2500    -999.2500       6.7476       6.1352      11.3581       0.2701       3.0370       2.3980
   2576.3220       9.7760       0.1305      76.3106     129.9824    -999.2500    -999.2500       6.5741       6.0144      10.7870       0.2671       2.9386       2.4340
   2576.4744       9.7350       0.1290      69.7400     146.0870    -999.2500    -999.2500       6.4002       5.8932      10.2148       0.2641       2.8400       2.4700
   2576.6267       9.6801       0.1240      70.0481     145.9623    -999.2500    -999.2500       5.9593       5.5319       8.8732       0.2189       2.8505       2.4565
   2576.7793       9.6250       0.1190      70.3570     145.8380    -999.2500    -999.2500       5.5174       5.1698       7.5286       0.1737       2.8610       2.4430
   2576.9316       9.6135       0.0895      79.9140     144.2090    -999.2500    -999.2500       5.1891       4.7921       6.1092       0.2146       2.9878       2.4435
   2577.0840       9.6020       0.0600      89.4940     142.5840    -999.2500    -999.2500       4.8602       4.4136       4.6863       0.2556       3.1150       2.4440
   2577.2363       9.5376       0.0605      89.4910     140.4886    -999.2500    -999.2500       5.1860       4.5169       4.6005       0.2544       3.2468       2.4485
   2577.3887       9.4730       0.0610      89.4880     138.3980    -999.2500    -999.2500       5.5126       4.6205       4.5145       0.2531       3.3790       2.4530
   2577.5413       9.1160       0.0670      89.3657     129.8433    -999.2500    -999.2500       5.9737       5.0493       5.1547       0.2544       3.3735       2.4595
   2577.6936       8.7580       0.0730      89.2430     121.3070    -999.2500    -999.2500       6.4360       5.4793       5.7966       0.2557       3.3680       2.4660
   2577.8459       8.7730       0.0840      87.7236     121.5853    -999.2500    -999.2500       6.8784       5.7899       6.1796       0.2541       3.2891       2.4920
   2577.9983       8.7880       0.0950      86.2000     121.8630    -999.2500    -999.2500       7.3220       6.1013       6.5637       0.2525       3.2100       2.5180
   2578.1509       8.9832       0.1075      77.8207     121.5552    -999.2500    -999.2500       7.6726       6.3895       7.0639       0.2165       2.9943       2.5684
   2578.3032       9.1790       0.1200      69.4170     121.2480    -999.2500    -999.2500       8.0242       6.6784       7.5655       0.1803       2.7780       2.6190
   2578.4556       9.0647       0.1190      74.0190     117.2600    -999.2500    -999.2500       9.1490       7.3265       8.9008       0.1816       2.7865       2.6165
   2578.6079       8.9500       0.1180      78.6350     113.2790    -999.2500    -999.2500      10.2772       7.9765      10.2401       0.1830       2.7950       2.6140
   2578.7605       8.9735       0.1025      78.4981     105.6898    -999.2500    -999.2500      14.5944      11.7621      17.0297       0.2113       2.9004       2.5815
   2578.9128       8.9970       0.0870      78.3610      98.1130    -999.2500    -999.2500      18.9183      15.5537      23.8299       0.2395       3.0060       2.5490
   2579.0652       8.9905       0.0685      76.3817      90.1419    -999.2500    -999.2500     114.0624      65.4731      56.9567       0.2379       3.2403       2.5535
   2579.2175       8.9840       0.0500      74.3990      82.1830    -999.2500    -999.2500     209.3666     115.4764      90.1392       0.2363       3.4750       2.5580
   2579.3699       8.9081       0.0410      68.4409      77.5883    -999.2500    -999.2500     471.7521     246.6062     169.6241       0.2166       3.4655       2.6070
   2579.5225       8.8320       0.0320      62.4720      73.0000    -999.2500    -999.2500     734.6123     377.9733     249.2528       0.1968       3.4560       2.6560
   2579.6748       8.7526       0.0145      56.9928      63.4198    -999.2500    -999.2500     949.3118     489.0885     346.9002       0.1622       3.3331       2.6735
   2579.8271       8.6730      -0.0030      51.5030      53.8670    -999.2500    -999.2500    1164.4265     600.4186     444.7365       0.1276       3.2100       2.6910
   2579.9795       8.5486      -0.0030      51.5420      46.7137    -999.2500    -999.2500    1251.1108     651.1075     504.2152       0.1000       3.2145       2.7115
   2580.1321       8.4240      -0.0030      51.5810      39.5800    -999.2500    -999.2500    1337.9739     701.9009     563.8165       0.0724       3.2190       2.7320
   2580.2844       8.4150      -0.0030      52.0765      37.5984    -999.2500    -999.2500    1189.1715     634.9006     527.9223       0.0730       3.2719       2.7315
   2580.4368       8.4060      -0.0030      52.5730      35.6220    -999.2500    -999.2500    1040.0439     567.7540     491.9497       0.0736       3.3250       2.7310
   2580.5891       8.3526      -0.0000      53.7766      35.0423    -999.2500    -999.2500     801.1936     453.3607     426.7470       0.0804       3.3075       2.7235
   2580.7417       8.2990       0.0030      54.9830      34.4640    -999.2500    -999.2500     561.7908     338.7029     361.3936       0.0872       3.2900       2.7160
   2580.8940       8.3025       0.0030      56.2275      33.1324    -999.2500    -999.2500     410.8360     259.3185     312.1486       0.1011       3.2930       2.6925
   2581.0464       8.3060       0.0030      57.4750      31.8040    -999.2500    -999.2500     259.5133     179.7407     262.7836       0.1150       3.2960       2.6690
   2581.1987       8.3445       0.0000      59.0615      31.9106    -999.2500    -999.2500     198.1526     142.4038     253.3046       0.1356       3.3624       2.6241
   2581.3511       8.3830      -0.0030      60.6520      32.0170    -999.2500    -999.2500     136.6344     104.9711     243.8012       0.1563       3.4290       2.5790
   2581.5037       8.4269      -0.0030      62.9534      33.1817    -999.2500    -999.2500     111.7886      87.6542     230.7897       0.1555       3.4290       2.5790
