#------------------------------------------------------------------------------
#
#   Created by  : [OpenWorks] Log Export Utility (LEXP)
#   Created on  : 2016-05-23 11:57:25
#   Project     : CANT971
#   User        : R5K
#   Interpreter : PEP
#
#------------------------------------------------------------------------------
~VERSION INFORMATION
VERS. 2.0 : CWLS Log ASCII Standard - version 2.0
WRAP.  NO : One line per depth step
~WELL INFORMATION
#MNEMONIC   .UNIT                                           VALUE :DESCRIPTION
#------------------------------------------------------------------------------
STRT        .M                                           497.5860 :START DEPTH
STOP        .M                                          2904.1343 :STOP DEPTH
STEP        .M                                             0.1524 :STEP
NULL        .                                           -999.2500 :NULL VALUE
COMP        .                                   PEMEX EXPL & PROD :COMPANY
WELL        .                                                 82A :WELL
FLD         .                                           CANTARELL :FIELD
LOC         .                                             UNKNOWN :LOCATION
CNTY        .                                      CD. DEL CARMEN :COUNTY
STAT        .                                            CAMPECHE :STATE
CTRY        .                                              MEXICO :COUNTRY
SRVC        .                                             UNKNOWN :SERVICE COMPANY
DATE        .                                             UNKNOWN :LOG DATE
UWI         .                                          3060000184 :UNIQUE WELL ID
XCOORD      .                                       601716.340000 :SURFACE X
YCOORD      .                                      2142348.150000 :SURFACE Y
LAT         .                                           19.373822 :LATITUDE
LON         .                                          -92.031440 :LONGITUDE
ELEV        .M                                            24.0000 :SURFACE ELEV
ELEV_TYPE   .                                                  KB :ELEV TYPE
~CURVE INFORMATION
#MNEMONIC.UNIT        API CODE       : CURVE DESCRIPTION
#------------------------------------------------------------------------------
DEPTH    .M                          : Measured Depth
CAL      .inches      UNKNOWN        : CAL:UNKNOWN:rC:NONE:v0 (auto-composite)
DRHO     .g/cm3       UNKNOWN        : DRHO:UNKNOWN:rC:NONE:v0 (auto-composite)
DT       .us/ft       UNKNOWN        : DT:DT:rC:NONE:v0 (auto-composite)
GR       .api         UNKNOWN        : GR:GR-Load:rC:NONE:v0 (auto-composite)
ILD      .ohm.m       UNKNOWN        : ILD:PETROWORKS:rC:NONE:v1 
LLD      .ohmm        UNKNOWN        : LLD:UNKNOWN:rC:NONE:v0 (auto-composite)
LLS      .ohmm        UNKNOWN        : LLS:UNKNOWN:rC:NONE:v0 (auto-composite)
MSFL     .ohmm        UNKNOWN        : MSFL:PETROWORKS:rC:NONE:v1 
NPHI     .v/v_decimal UNKNOWN        : NPHI:NPHI:rC:NONE:v0 (auto-composite)
PEF      .b/elec      UNKNOWN        : PEF:UNKNOWN:rC:NONE:v0 (auto-composite)
RG       .API         UNKNOWN        : RG:UNKNOWN:rC:NONE:v0 (auto-composite)
RHOB     .g/cm3       UNKNOWN        : RHOB:UNKNOWN:rC:NONE:v0 (auto-composite)
~A     DEPTH          CAL         DRHO           DT           GR          ILD          LLD          LLS         MSFL         NPHI          PEF           RG         RHOB
# ...
   2750.6675       5.7597       0.0130      49.3201      15.0992    -999.2500     209.7518     172.5790    -999.2500       6.8054       3.5351      18.9672       2.7755
   2750.8201       5.7650       0.0125      49.2794      14.9996    -999.2500     201.7618     166.7637    -999.2500       6.4938       3.4751      17.8975       2.7745
   2750.9724       5.7690       0.0095      49.2439      15.1465    -999.2500     186.8817     155.9081    -999.2500       6.3047       3.3618      16.8803       2.7695
   2751.1248       5.7730       0.0063      50.0587      16.2780    -999.2500     177.9324     149.5551    -999.2500       6.4087       3.2361      16.2956       2.7616
   2751.2771       5.7770       0.0028      50.9225      17.4020    -999.2500     175.1441     147.8793    -999.2500       6.5613       3.0977      16.1601       2.7506
   2751.4297       5.7792       0.0012      51.5899      18.4959    -999.2500     174.2532     147.4057    -999.2500       6.8299       3.0412      15.7917       2.7426
   2751.5820       5.7797       0.0017      52.2462      19.2545    -999.2500     175.3403     148.1854    -999.2500       7.0154       3.0702      15.1805       2.7376
   2751.7344       5.7829       0.0037      52.3700      18.6723    -999.2500     176.5871     149.0642    -999.2500       7.0034       3.1304      14.9889       2.7350
   2751.8867       5.7889       0.0072      52.4641      18.2270    -999.2500     178.0009     150.0468    -999.2500       6.8481       3.2234      15.2363       2.7350
   2752.0393       5.7978       0.0097      52.1358      18.3264    -999.2500     183.1165     154.0105    -999.2500       6.3535       3.3005      15.9880       2.7326
   2752.1917       5.8098       0.0112      51.7841      18.4720    -999.2500     192.1174     161.1033    -999.2500       5.9243       3.3609      17.2689       2.7276
   2752.3440       5.8022       0.0110      52.1474      18.8021    -999.2500     197.1039     164.7186    -999.2500       5.6497       3.4061      18.2337       2.7240
   2752.4963       5.7737       0.0090      52.5495      19.0225    -999.2500     197.8351     164.6476    -999.2500       5.4551       3.4351      18.8634       2.7220
   2752.6487       5.7575       0.0065      52.6255      18.8060    -999.2500     192.5906     159.8721    -999.2500       5.4486       3.4265      18.9231       2.7193
   2752.8013       5.7545       0.0035      52.6841      18.7941    -999.2500     180.9896     150.0923    -999.2500       5.4422       3.3780      18.3763       2.7158
   2752.9536       5.7530       0.0018      52.9436      19.5943    -999.2500     176.8000     146.0210    -999.2500       5.4362       3.3639      18.2307       2.7237
   2753.1060       5.7530       0.0013      53.2137      20.1212    -999.2500     180.5215     148.0430    -999.2500       5.5089       3.3863      18.5134       2.7436
   2753.2583       5.7537       0.0024      52.8181      19.5585    -999.2500     192.3087     156.8117    -999.2500       5.7655       3.4038      18.7151       2.7622
   2753.4109       5.7552       0.0054      52.3879      18.8746    -999.2500     212.7908     172.8533    -999.2500       5.8991       3.4158      18.8295       2.7792
   2753.5632       5.7579       0.0106      51.6532      17.7102    -999.2500     225.8571     182.6756    -999.2500       5.7466       3.4246      18.9226       2.7892
   2753.7156       5.7619       0.0181      50.9029      16.6188    -999.2500     230.9015     185.7702    -999.2500       5.5847       3.4301      18.9926       2.7917
   2753.8679       5.7650       0.0263      50.7779      15.8156    -999.2500     227.5099     182.4694    -999.2500       5.4011       3.4409      19.3029       2.8002
   2754.0205       5.7670       0.0353      50.6844      15.3135    -999.2500     214.9613     172.2263    -999.2500       5.3210       3.4574      19.8742       2.8152
   2754.1729       5.7675       0.0350      50.4079      16.0073    -999.2500     207.4232     166.4072    -999.2500       5.4801       3.4545      19.7876       2.8199
   2754.3252       5.7665       0.0245      50.1223      16.6996    -999.2500     205.3428     165.4070    -999.2500       5.6482       3.4306      18.9846       2.8134
   2754.4775       5.7631       0.0161      50.0270      17.3864    -999.2500     211.4487     171.1553    -999.2500       5.8373       3.3683      17.9838       2.8048
   2754.6299       5.7571       0.0101      49.9409      17.9249    -999.2500     226.5602     184.3277    -999.2500       6.0710       3.2638      16.7653       2.7938
   2754.7825       5.7530       0.0082      50.2167      17.8799    -999.2500     231.0359     189.0428    -999.2500       6.4071       3.2325      15.9695       2.7899
   2754.9348       5.7511       0.0107      50.5098      17.9642    -999.2500     223.7711     184.4223    -999.2500       6.6093       3.2820      15.6401       2.7939
   2755.0872       5.7543       0.0137      50.3477      18.5599    -999.2500     208.4498     172.1833    -999.2500       6.5053       3.3206      15.8122       2.7960
   2755.2395       5.7633       0.0172      50.1641      18.8426    -999.2500     184.2042     151.5052    -999.2500       6.3976       3.3471      16.5399       2.7960
   2755.3921       5.7692       0.0171      49.9098      17.8922    -999.2500     165.6444     135.8777    -999.2500       6.2816       3.3485      17.1865       2.7913
   2755.5444       5.7717       0.0131      49.6522      16.9452    -999.2500     153.4044     125.8640    -999.2500       6.1823       3.3220      17.7428       2.7813
   2755.6968       5.7718       0.0136      49.9998      16.0111    -999.2500     147.1481     120.4514    -999.2500       6.1213       3.3525      18.0403       2.7732
   2755.8491       5.7693       0.0191      50.3750      15.2462    -999.2500     147.6089     120.2041    -999.2500       6.1127       3.4470      18.0473       2.7672
   2756.0017       5.7668       0.0222      50.6338      15.1481    -999.2500     153.7235     125.0177    -999.2500       6.2228       3.4775      18.2331       2.7668
   2756.1541       5.7643       0.0227      50.8873      15.3516    -999.2500     166.2071     135.5327    -999.2500       6.2558       3.4360      18.6205       2.7728
   2756.3064       5.7614       0.0192      50.6551      16.7381    -999.2500     177.7521     146.0763    -999.2500       6.1153       3.3617      18.2794       2.7781
   2756.4587       5.7579       0.0113      50.4015      18.0483    -999.2500     188.2362     156.6522    -999.2500       5.8658       3.2504      17.1148       2.7826
   2756.6111       5.7572       0.0072      50.2898      19.0604    -999.2500     194.2957     162.7672    -999.2500       5.3715       3.1770      16.1727       2.7834
   2756.7637       5.7597       0.0077      50.1843      19.8408    -999.2500     195.3038     163.7893    -999.2500       5.0159       3.1470      15.4845       2.7799
   2756.9160       5.7612       0.0085      49.6511      19.7118    -999.2500     191.2677     159.6885    -999.2500       4.9734       3.1517      15.2446       2.7750
   2757.0684       5.7617       0.0095      49.0999      19.6031    -999.2500     181.4529     149.7188    -999.2500       4.9928       3.1962      15.5185       2.7685
   2757.2207       5.7618       0.0095      49.4233      19.5741    -999.2500     175.5560     143.4038    -999.2500       5.1514       3.1881      16.3007       2.7641
   2757.3733       5.7613       0.0085      49.7830      19.5007    -999.2500     174.1631     141.2902    -999.2500       5.2837       3.1197      17.6671       2.7621
   2757.5256       5.7610       0.0071      50.2027      19.2548    -999.2500     183.7536     148.0501    -999.2500       5.3572       3.0744      18.7656       2.7633
   2757.6780       5.7610       0.0051      50.6248      18.6532    -999.2500     206.0146     165.0466    -999.2500       5.4287       3.0559      19.5551       2.7683
   2757.8303       5.7605       0.0024      50.8551      16.6600    -999.2500     221.4958     177.2952    -999.2500       5.4958       3.0478      19.8625       2.7708
