#------------------------------------------------------------------------------
#
#   Created by  : [OpenWorks] Log Export Utility (LEXP)
#   Created on  : 2016-05-23 11:55:46
#   Project     : CANT971
#   User        : R5K
#   Interpreter : PEP
#
#------------------------------------------------------------------------------
~VERSION INFORMATION
VERS. 2.0 : CWLS Log ASCII Standard - version 2.0
WRAP.  NO : One line per depth step
~WELL INFORMATION
#MNEMONIC   .UNIT                                           VALUE :DESCRIPTION
#------------------------------------------------------------------------------
STRT        .M                                           292.5192 :START DEPTH
STOP        .M                                          2727.7188 :STOP DEPTH
STEP        .M                                             0.1524 :STEP
NULL        .                                           -999.2500 :NULL VALUE
COMP        .                                   PEMEX EXPL & PROD :COMPANY
WELL        .                                                  39 :WELL
FLD         .                                           CANTARELL :FIELD
LOC         .                                             UNKNOWN :LOCATION
CNTY        .                                      CD. DEL CARMEN :COUNTY
STAT        .                                            CAMPECHE :STATE
CTRY        .                                              MEXICO :COUNTRY
SRVC        .                                             UNKNOWN :SERVICE COMPANY
DATE        .                                             UNKNOWN :LOG DATE
UWI         .                                          3060000161 :UNIQUE WELL ID
XCOORD      .                                       603360.280000 :SURFACE X
YCOORD      .                                      2145098.760000 :SURFACE Y
LAT         .                                           19.398594 :LATITUDE
LON         .                                          -92.015639 :LONGITUDE
ELEV        .M                                            27.1400 :SURFACE ELEV
ELEV_TYPE   .                                                  KB :ELEV TYPE
~CURVE INFORMATION
#MNEMONIC.UNIT        API CODE       : CURVE DESCRIPTION
#------------------------------------------------------------------------------
DEPTH    .M                          : Measured Depth
CALI     .inches      UNKNOWN        : CALI:Import:rC:NONE:v0 (auto-composite)
DRHO     .g/cm3       UNKNOWN        : DRHO:Import:rC:NONE:v0 (auto-composite)
DT       .us/ft       UNKNOWN        : DT:Import:rC:NONE:v0 (auto-composite)
GR       .API         UNKNOWN        : GR:Import:rC:NONE:v0 (auto-composite)
ILD      .ohm.m       UNKNOWN        : ILD:Import:rC:NONE:v0 (auto-composite)
LLD      .ohm.m       UNKNOWN        : LLD:Import:rC:NONE:v0 (auto-composite)
LLS      .ohm.m       UNKNOWN        : LLS:Import:rC:NONE:v0 (auto-composite)
MSFL     .ohm.m       UNKNOWN        : MSFL:Import:rC:NONE:v0 (auto-composite)
NPHI     .v/v_decimal UNKNOWN        : NPHI:Import:rC:NONE:v0 (auto-composite)
RHOB     .g/cm3       UNKNOWN        : RHOB:Import:rC:NONE:v0 (auto-composite)
~A     DEPTH         CALI         DRHO           DT           GR          ILD          LLD          LLS         MSFL         NPHI         RHOB
# ...
   2716.2888      17.0000      -0.1000      54.4440     130.0000       0.2000       0.2282       0.2000       0.2000       0.4467       1.9500
   2716.4412      17.0000      -0.1000      54.4440     130.0000       0.2000       0.2137       0.2000       0.2000       0.4467       1.9500
   2716.5935      17.0000      -0.1000      54.4440     130.0000       0.2000       0.2000       0.2000       0.2000       0.4467       1.9500
   2716.7461      17.0000      -0.1000      54.4440     130.0000       0.2000       0.2000       0.2000       0.2000       0.4467       1.9500
   2716.8984      17.0000      -0.1000      54.4440     130.0000       0.2000       0.2000       0.2000       0.2000       0.4467       1.9500
   2717.0508      17.0000      -0.1000      54.4440     130.0000       0.2000       0.2000       0.2000       0.2000       0.4467       1.9500
   2717.2031      17.0000      -0.1000      54.4440     130.0000       0.2000       0.2000       0.2000       0.2000       0.4467       1.9500
   2717.3557      17.0000      -0.1000      54.4440     130.0000       0.2000       0.2000       0.2000       0.2000       0.4467       1.9500
   2717.5081      17.0000      -0.1000      54.4478     130.0000       0.2000       0.2000       0.2000       0.2000       0.4467       1.9500
   2717.6604      17.0000      -0.1000      54.5060     130.0000       0.2000       0.2000       0.2000       0.2000       0.4467       1.9500
   2717.8127      17.0000      -0.1000      54.7521     130.0000       0.2000       0.2000       0.2000       0.2000       0.4467       1.9500
   2717.9651      17.0000      -0.1000      57.4641     130.0000       0.2000       0.2000       0.2000       0.2000       0.4467       1.9500
   2718.1177      17.0000      -0.1000      61.0296     130.0000       0.2000       0.2000       0.2000       0.2000       0.4467       1.9500
   2718.2700      17.0000      -0.1000      74.9176     130.0000       0.2000       0.2000       0.2000       0.2000       0.4467       1.9500
   2718.4224      17.0000      -0.1000      88.7600     130.0000       0.2000       0.2000       0.2000       0.2000       0.4468       1.9500
   2718.5747      17.0000      -0.1000     102.0437     130.0000       0.2000       0.2000       0.2000       0.2000       0.4482       1.9500
   2718.7273      17.0000      -0.1000     114.8238     130.0000       0.2000       0.2000       0.2000       0.2000       0.4496       1.9500
   2718.8796      17.0000      -0.1000     121.7698     130.0000       0.2000       0.2000       0.2000       0.2000       0.4498       1.9500
   2719.0320      17.0000      -0.1000     128.4228     130.0000       0.2000       0.2000       0.2000       0.2000       0.4500       1.9500
   2719.1843      17.0000      -0.1000     131.6403     130.0000       0.2000       0.2000       0.2000       0.2000       0.4500       1.9500
   2719.3369      17.0000      -0.1000     134.7805     130.0000       0.2000       0.2000       0.2000       0.2000       0.4500       1.9500
   2719.4893      17.0000      -0.1000     137.0804     130.0000       0.2000       0.2000       0.2000       0.2000       0.4500       1.9500
   2719.6416      17.0000      -0.1000     139.1861     130.0000       0.2000       0.2000       0.2000       0.2000       0.4500       1.9500
   2719.7939      17.0000      -0.1000     139.3209     130.0000       0.2000       0.2000       0.2000       0.2000       0.4500       1.9500
   2719.9463      17.0000      -0.1000     139.4440     130.0000       0.2000       0.2000       0.2000       0.2000       0.4500       1.9500
   2720.0989      17.0000      -0.1000     139.4440     130.0000       0.2000       0.2000       0.2000       0.2000       0.4500       1.9500
   2720.2512      17.0000      -0.1000     139.4698     130.0000       0.2000       0.2000       0.2000       0.2000       0.4500       1.9500
   2720.4036      17.0000      -0.1000     139.7477     130.0000       0.2000       0.2000       0.2000       0.2000       0.4500       1.9500
   2720.5559      17.0000      -0.1000     140.0000     130.0000       0.2000       0.2000       0.2000       0.2000       0.4500       1.9500
   2720.7085      17.0000      -0.1000     140.0000     130.0000       0.2000       0.2000       0.2000       0.2000       0.4500       1.9500
   2720.8608      17.0000      -0.1000     140.0000     130.0000       0.2000       0.2000       0.2000       0.2000       0.4500       1.9500
   2721.0132      17.0000      -0.1000     140.0000     130.0000       0.2000       0.2000       0.2000       0.2000       0.4500       1.9500
   2721.1655      17.0000      -0.1000     140.0000     130.0000       0.2000       0.2000       0.2000       0.2000       0.4500       1.9500
   2721.3181      17.0000      -0.1000     140.0000     130.0000       0.2000       0.2000       0.2000       0.2000       0.4500       1.9500
   2721.4705      17.0000      -0.1000     140.0000     130.0000       0.2000       0.2000       0.2000       0.2000       0.4500       1.9500
   2721.6228      17.0000      -0.1000     140.0000     130.0000       0.2000       0.2000       0.2000       0.2000       0.4500       1.9500
   2721.7751      17.0000      -0.1000     140.0000     130.0000       0.2000       0.2000       0.2000       0.2000       0.4500       1.9500
   2721.9275      17.0000      -0.1000     140.0000     130.0000       0.2000       0.2000       0.2000       0.2000       0.4500       1.9500
   2722.0801      17.0000      -0.1000     140.0000     130.0000       0.2000       0.2000       0.2000       0.2000       0.4500       1.9500
   2722.2324      17.0000      -0.1000     140.0000     130.0000       0.2000       0.2000       0.2000       0.2000       0.4500       1.9500
   2722.3848      17.0000      -0.1000     140.0000     130.0000       0.2000       0.2000       0.2000       0.2000       0.4500       1.9500
   2722.5371      17.0000      -0.1000     140.0000     130.0000       0.2000       0.2000       0.2000       0.2000       0.4500       1.9500
   2722.6897      17.0000      -0.1000     140.0000     130.0000       0.2000       0.2000       0.2000       0.2000       0.4500       1.9500
   2722.8420      17.0000      -0.1000     140.0000     130.0000       0.2000       0.2000       0.2000       0.2000       0.4500       1.9500
   2722.9944      17.0000      -0.1000     140.0000     130.0000       0.2000       0.2000       0.2000       0.2000       0.4500       1.9500
   2723.1467      17.0000      -0.1000     140.0000     130.0000       0.2000       0.2000       0.2000       0.2000       0.4500       1.9500
   2723.2993      17.0000      -0.1000     140.0000     130.0000       0.2000       0.2000       0.2000       0.2000       0.4500       1.9500
   2723.4517      17.0000      -0.1000     140.0000     130.0000       0.2000       0.2000       0.2000       0.2000       0.4500       1.9500
   2723.6040      17.0000      -0.1000     140.0000     130.0000       0.2000       0.2000       0.2000       0.2000       0.4500       1.9500
   2723.7563      17.0000      -0.1000     140.0000     130.0000       0.2000       0.2000       0.2000       0.2000       0.4500       1.9500
   2723.9087      17.0000      -0.1000     140.0000     130.0000       0.2000       0.2000       0.2000       0.2000       0.4500       1.9500
   2724.0613      17.0000      -0.1000     140.0000     130.0000       0.2000       0.2000       0.2000       0.2000       0.4500       1.9500
   2724.2136      17.0000      -0.1000     140.0000     130.0000       0.2000       0.2000       0.2000       0.2000       0.4500       1.9500
   2724.3660      17.0000      -0.1000     140.0000     130.0000       0.2000       0.2000       0.2000       0.2000       0.4500       1.9500
   2724.5183      16.7708      -0.1020     138.6517     130.0000       0.2000       0.2000       0.2000       0.2000       0.4500       1.9500
   2724.6709      14.9678      -0.1181     128.0448     130.0000       0.2000       0.2000       0.2000       0.2000       0.4500       1.9500
