#------------------------------------------------------------------------------
#
#   Created by  : [OpenWorks] Log Export Utility (LEXP)
#   Created on  : 2016-05-23 11:56:43
#   Project     : CANT971
#   User        : R5K
#   Interpreter : PEP
#
#------------------------------------------------------------------------------
~VERSION INFORMATION
VERS. 2.0 : CWLS Log ASCII Standard - version 2.0
WRAP.  NO : One line per depth step
~WELL INFORMATION
#MNEMONIC   .UNIT                                           VALUE :DESCRIPTION
#------------------------------------------------------------------------------
STRT        .M                                           650.2150 :START DEPTH
STOP        .M                                          2618.6135 :STOP DEPTH
STEP        .M                                             0.1524 :STEP
NULL        .                                           -999.2500 :NULL VALUE
COMP        .                                   PEMEX EXPL & PROD :COMPANY
WELL        .                                                  4D :WELL
FLD         .                                           CANTARELL :FIELD
LOC         .                                             UNKNOWN :LOCATION
CNTY        .                                      CD. DEL CARMEN :COUNTY
STAT        .                                            CAMPECHE :STATE
CTRY        .                                              MEXICO :COUNTRY
SRVC        .                                             UNKNOWN :SERVICE COMPANY
DATE        .                                             UNKNOWN :LOG DATE
UWI         .                                          3060000662 :UNIQUE WELL ID
XCOORD      .                                       598468.500000 :SURFACE X
YCOORD      .                                      2145023.700000 :SURFACE Y
LAT         .                                           19.398162 :LATITUDE
LON         .                                          -92.062225 :LONGITUDE
ELEV        .M                                            26.5400 :SURFACE ELEV
ELEV_TYPE   .                                                  KB :ELEV TYPE
~CURVE INFORMATION
#MNEMONIC.UNIT        API CODE       : CURVE DESCRIPTION
#------------------------------------------------------------------------------
DEPTH    .M                          : Measured Depth
CAL      .inches      UNKNOWN        : CAL:UNKNOWN:rC:NONE:v0 (auto-composite)
CGR      .UNKNOWN     UNKNOWN        : CGR:UNKNOWN:rC:NONE:v0 (auto-composite)
DRHO     .UNKNOWN     UNKNOWN        : DRHO:UNKNOWN:rC:NONE:v0 (auto-composite)
DT       .us/ft       UNKNOWN        : DT:DT:rC:NONE:v0 (auto-composite)
GR       .API         UNKNOWN        : GR:UNKNOWN:rC:NONE:v0 (auto-composite)
ILD      .UNKNOWN     UNKNOWN        : ILD:UNKNOWN:rC:NONE:v0 (auto-composite)
ILM      .UNKNOWN     UNKNOWN        : ILM:UNKNOWN:rC:NONE:v0 (auto-composite)
LLD      .UNKNOWN     UNKNOWN        : LLD:UNKNOWN:rC:NONE:v0 (auto-composite)
LLS      .UNKNOWN     UNKNOWN        : LLS:UNKNOWN:rC:NONE:v0 (auto-composite)
MSFL     .UNKNOWN     UNKNOWN        : MSFL:UNKNOWN:rC:NONE:v0 (auto-composite)
NPHI     .v/v_decimal UNKNOWN        : NPHI:PETROWORKS:rC:NONE:v1 
PEF      .UNKNOWN     UNKNOWN        : PEF:UNKNOWN:rC:NONE:v0 (auto-composite)
POTA     .UNKNOWN     UNKNOWN        : POTA:UNKNOWN:rC:NONE:v0 (auto-composite)
RHOB     .UNKNOWN     UNKNOWN        : RHOB:UNKNOWN:rC:NONE:v0 (auto-composite)
THOR     .UNKNOWN     UNKNOWN        : THOR:UNKNOWN:rC:NONE:v0 (auto-composite)
URAN     .UNKNOWN     UNKNOWN        : URAN:UNKNOWN:rC:NONE:v0 (auto-composite)
~A     DEPTH          CAL          CGR         DRHO           DT           GR          ILD          ILM          LLD          LLS         MSFL         NPHI          PEF         POTA         RHOB         THOR         URAN
# ...
   2595.6011       6.7067      24.0812       0.0491      62.8846      47.2318    -999.2500    -999.2500      26.4672      22.8198       3.5213       0.1051       3.5942       0.0096       2.6773       2.0132       2.7517
   2595.7534       6.7452      32.7844       0.0611      61.2030      56.5588    -999.2500    -999.2500      25.2292      21.7013       6.6909       0.1049       3.4851       0.0131       2.6793       2.7225       2.8267
   2595.9058       6.7727      38.8663       0.0717      59.6328      62.9103    -999.2500    -999.2500      23.7739      20.3422       8.7999       0.1065       3.3714       0.0155       2.6851       3.2229       2.8599
   2596.0581       6.7477      32.1717       0.0757      58.5937      54.7587    -999.2500    -999.2500      21.2590      17.8238       5.7387       0.1041       3.2355       0.0125       2.7086       2.7051       2.6890
   2596.2107       6.7155      27.1495       0.0763      58.0924      49.8209    -999.2500    -999.2500      18.9851      15.5612       4.3675       0.1030       3.1347       0.0103       2.7254       2.2648       2.6906
   2596.3630       6.6490      30.3292       0.0608      60.1692      60.1199    -999.2500    -999.2500      17.8932      14.5253      11.2840       0.1049       3.2028       0.0123       2.7104       2.2048       3.5384
   2596.5154       6.5992      32.5309       0.0465      61.9391      68.9650    -999.2500    -999.2500      17.6728      14.1945      35.0156       0.1108       3.2533       0.0136       2.6993       2.2371       4.2447
   2596.6677       6.6292      29.9615       0.0380      62.2455      70.8746    -999.2500    -999.2500      21.7040      17.2267     140.7794       0.1328       3.2203       0.0111       2.7068       2.7199       4.2607
   2596.8203       6.6581      28.2272       0.0322      62.3333      68.6960    -999.2500    -999.2500      26.4418      20.7278     209.6978       0.1391       3.1826       0.0090       2.7158       3.2051       3.8743
   2596.9727       6.6821      30.5915       0.0392      61.3724      46.8983    -999.2500    -999.2500      34.6473      26.4789      97.7600       0.1153       3.1226       0.0090       2.7324       3.7017       1.5124
   2597.1250       6.7010      32.4314       0.0447      60.4193      30.1391    -999.2500    -999.2500      39.9547      30.1128       5.0338       0.0902       3.0894       0.0089       2.7431       4.1309      -0.2789
   2597.2773       6.6956      31.7102       0.0427      59.5032      37.9817    -999.2500    -999.2500      31.1110      23.6391       6.1148       0.0912       3.1838       0.0084       2.7267       4.2304       0.7156
   2597.4299       6.6802      30.4068       0.0419      59.0529      44.9943    -999.2500    -999.2500      23.2893      17.9246       7.4728       0.0992       3.2611       0.0087       2.7104       4.0095       1.6890
   2597.5823       6.6177      26.2427       0.0469      60.8395      47.9289    -999.2500    -999.2500      20.4883      15.8563      10.1913       0.1231       3.2561       0.0127       2.6954       2.2148       2.5583
   2597.7346       6.5697      23.6898       0.0507      62.1758      50.9838    -999.2500    -999.2500      18.2627      14.2199      12.1018       0.1423       3.2390       0.0159       2.6846       0.8449       3.2395
   2597.8870       6.5912      29.0108       0.0492      61.3596      54.6067    -999.2500    -999.2500      18.8494      14.6467      10.0635       0.1403       3.1641       0.0154       2.6936       1.5506       3.0009
   2598.0393       6.6199      34.1062       0.0477      60.8526      58.2658    -999.2500    -999.2500      19.1893      14.8932       9.2451       0.1382       3.1179       0.0152       2.7034       2.2190       2.8058
   2598.1919       6.6835      38.1050       0.0457      61.8320      62.0966    -999.2500    -999.2500      18.3291      14.2730      14.3574       0.1417       3.2105       0.0162       2.7174       2.7058       2.8223
   2598.3442       6.7348      39.5477       0.0429      62.4995      62.9340    -999.2500    -999.2500      18.4073      14.3133      17.4943       0.1426       3.2860       0.0162       2.7280       2.9627       2.7837
   2598.4966       6.7278      28.4876       0.0364      61.6757      49.2944    -999.2500    -999.2500      23.0750      17.5130      10.9684       0.1368       3.2805       0.0117       2.7220       2.0949       2.4756
   2598.6489       6.7110      19.9744       0.0314      60.8322      38.9283    -999.2500    -999.2500      27.7243      20.8129       7.1475       0.1278       3.2611       0.0083       2.7160       1.4185       2.2537
   2598.8015       6.6475      23.8542       0.0339      59.8952      44.4912    -999.2500    -999.2500      32.2838      24.5952      16.4889       0.1093       3.1751       0.0103       2.7100       1.6733       2.4517
   2598.9539       6.6024      26.6030       0.0367      59.0655      47.9362    -999.2500    -999.2500      35.3786      27.1933      22.9622       0.1021       3.1108       0.0117       2.7020       1.8783       2.5457
   2599.1062       6.6454      23.8145       0.0407      58.7498      41.4665    -999.2500    -999.2500      31.3021      24.1227      15.3929       0.1163       3.1503       0.0097       2.6845       1.8388       2.1310
   2599.2585       6.6768      21.7524       0.0430      58.7071      36.4423    -999.2500    -999.2500      27.2707      21.1709      10.0380       0.1318       3.2019       0.0081       2.6661       1.8417       1.7830
   2599.4111       6.6523      23.2283       0.0370      59.9635      38.2251    -999.2500    -999.2500      23.4594      18.7915      15.4682       0.1308       3.3109       0.0086       2.6436       2.0511       1.7595
   2599.5635       6.6427      26.4364       0.0337      61.1628      41.9852    -999.2500    -999.2500      19.6566      16.3062      18.5775       0.1295       3.3880       0.0100       2.6283       2.2884       1.7774
   2599.7158       6.7047      38.1332       0.0437      62.0881      55.2185    -999.2500    -999.2500      15.8957      13.3136      10.3139       0.1277       3.3130       0.0160       2.6473       2.6625       1.9980
   2599.8682       6.7522      48.5277       0.0513      62.7901      67.1056    -999.2500    -999.2500      13.0633      11.1032       3.8024       0.1288       3.2577       0.0211       2.6654       3.1014       2.2084
   2600.0205       6.7302      52.5734       0.0473      62.4272      72.5043    -999.2500    -999.2500      14.7571      12.6211       5.8315       0.1418       3.2962       0.0216       2.6794       3.8556       2.3693
   2600.1731       6.7155      52.5077       0.0458      61.7371      72.8809    -999.2500    -999.2500      17.6039      15.1111       8.9434       0.1461       3.2985       0.0206       2.6962       4.2012       2.4287
   2600.3254       6.7360      32.2762       0.0563      59.4778      48.9039    -999.2500    -999.2500      26.1060      22.2627      17.3660       0.1272       3.1274       0.0126       2.7262       2.5431       1.9900
   2600.4778       6.7617      18.9529       0.0643      57.6841      33.0392    -999.2500    -999.2500      31.5974      26.7592     192.3076       0.1067       3.0236       0.0068       2.7398       1.7107       1.6587
   2600.6301       6.8122      39.3351       0.0603      58.1114      55.0231    -999.2500    -999.2500      22.3988      18.5898    1179.7031       0.0902       3.2405       0.0113       2.6754       4.9074       1.8511
   2600.7827       6.8454      59.8043       0.0573      58.6387      76.8864    -999.2500    -999.2500      14.2295      11.4818    1830.9075       0.0891       3.4140       0.0165       2.6237       7.7973       2.0193
   2600.9351       6.7954      80.7005       0.0588      59.6461      98.1772    -999.2500    -999.2500      11.1123       9.4680     831.7302       0.1439       3.3789       0.0255       2.6337       9.1818       2.0683
   2601.0874       6.7448      92.5387       0.0626      60.2523     109.5030    -999.2500    -999.2500       9.3747       8.5294       7.2431       0.1824       3.3397       0.0310       2.6517       9.7478       2.0311
