#------------------------------------------------------------------------------
#
#   Created by  : [OpenWorks] Log Export Utility (LEXP)
#   Created on  : 2016-05-12 17:01:20
#   Project     : CANT971
#   User        : R5K
#   Interpreter : PEP
#
#------------------------------------------------------------------------------
~VERSION INFORMATION
VERS. 2.0 : CWLS Log ASCII Standard - version 2.0
WRAP.  NO : One line per depth step
~WELL INFORMATION
#MNEMONIC   .UNIT                                           VALUE :DESCRIPTION
#------------------------------------------------------------------------------
STRT        .M                                           993.9530 :START DEPTH
STOP        .M                                          2371.9539 :STOP DEPTH
STEP        .M                                             0.1524 :STEP
NULL        .                                           -999.2500 :NULL VALUE
COMP        .                                   PEMEX EXPL & PROD :COMPANY
WELL        .                                                  55 :WELL
FLD         .                                           CANTARELL :FIELD
LOC         .                                             UNKNOWN :LOCATION
CNTY        .                                      CD. DEL CARMEN :COUNTY
STAT        .                                            CAMPECHE :STATE
CTRY        .                                              MEXICO :COUNTRY
SRVC        .                                             UNKNOWN :SERVICE COMPANY
DATE        .                                             UNKNOWN :LOG DATE
UWI         .                                          3060000168 :UNIQUE WELL ID
XCOORD      .                                       602149.520000 :SURFACE X
YCOORD      .                                      2147170.290000 :SURFACE Y
LAT         .                                           19.417375 :LATITUDE
LON         .                                          -92.027057 :LONGITUDE
ELEV        .M                                            28.1700 :SURFACE ELEV
ELEV_TYPE   .                                                  KB :ELEV TYPE
~CURVE INFORMATION
#MNEMONIC.UNIT        API CODE       : CURVE DESCRIPTION
#------------------------------------------------------------------------------
DEPTH    .M                          : Measured Depth
CALI     .inches      UNKNOWN        : CALI:CALI-Load:rC:NONE:v0 (auto-composite)
DRHO     .UNKNOWN     UNKNOWN        : DRHO:DRHO-Load:rC:NONE:v0 (auto-composite)
DT       .us/ft       UNKNOWN        : DT:DT:rC:NONE:v0 (auto-composite)
GR       .UNKNOWN     UNKNOWN        : GR:GR-Load:rC:NONE:v0 (auto-composite)
ILD      .UNKNOWN     UNKNOWN        : ILD:ILD-Load:rC:NONE:v0 (auto-composite)
LLD      .UNKNOWN     UNKNOWN        : LLD:LLD-Load:rC:NONE:v0 (auto-composite)
LLS      .UNKNOWN     UNKNOWN        : LLS:LLS-Load:rC:NONE:v0 (auto-composite)
MSFL     .UNKNOWN     UNKNOWN        : MSFL:MSFL-Load:rC:NONE:v0 (auto-composite)
NPHI     .v/v_decimal UNKNOWN        : NPHI:NPHI:rC:NONE:v0 (auto-composite)
RHOB     .UNKNOWN     UNKNOWN        : RHOB:RHOB-Load:rC:NONE:v0 (auto-composite)
SP       .UNKNOWN     UNKNOWN        : SP:SP-Load:rC:NONE:v0 (auto-composite)
~A     DEPTH         CALI         DRHO           DT           GR          ILD          LLD          LLS         MSFL         NPHI         RHOB           SP
# ...
   1073.2010    -999.2500       0.0030    -999.2500      46.2600       1.1320    -999.2500    -999.2500    -999.2500      38.8250       2.2200     103.8500
   1073.3534    -999.2500       0.0030    -999.2500      45.5902       1.1320    -999.2500    -999.2500    -999.2500      37.7229       2.2200     103.9010
   1073.5059    -999.2500       0.0030    -999.2500      44.9200       1.1320    -999.2500    -999.2500    -999.2500      36.6200       2.2200     103.9520
   1073.6582    -999.2500       0.0035    -999.2500      43.7994       1.1320    -999.2500    -999.2500    -999.2500      36.6450       2.2225     104.1019
   1073.8105    -999.2500       0.0040    -999.2500      42.6780       1.1320    -999.2500    -999.2500    -999.2500      36.6700       2.2250     104.2520
   1073.9630    -999.2500       0.0040    -999.2500      42.0933       1.1375    -999.2500    -999.2500    -999.2500      36.4049       2.2325     104.2960
   1074.1154    -999.2500       0.0040    -999.2500      41.5080       1.1430    -999.2500    -999.2500    -999.2500      36.1400       2.2400     104.3400
   1074.2678    -999.2500       0.0075    -999.2500      40.4441       1.1585    -999.2500    -999.2500    -999.2500      36.2300       2.2425     104.3400
   1074.4202    -999.2500       0.0110    -999.2500      39.3800       1.1740    -999.2500    -999.2500    -999.2500      36.3200       2.2450     104.3400
   1074.5726    -999.2500       0.0090    -999.2500      39.5785       1.1725    -999.2500    -999.2500    -999.2500      34.8547       2.2675     104.2070
   1074.7250    -999.2500       0.0070    -999.2500      39.7770       1.1710    -999.2500    -999.2500    -999.2500      33.3900       2.2900     104.0740
   1074.8774    -999.2500       0.0105    -999.2500      41.6838       1.1660    -999.2500    -999.2500    -999.2500      33.6270       2.2875     103.5609
   1075.0298    -999.2500       0.0140    -999.2500      43.5900       1.1610    -999.2500    -999.2500    -999.2500      33.8640       2.2850     103.0480
   1075.1823    -999.2500       0.0130    -999.2500      42.8149       1.1515    -999.2500    -999.2500    -999.2500      35.0871       2.2705     102.2439
   1075.3346    -999.2500       0.0120    -999.2500      42.0400       1.1420    -999.2500    -999.2500    -999.2500      36.3100       2.2560     101.4400
   1075.4871    -999.2500       0.0085    -999.2500      42.1920       1.1190    -999.2500    -999.2500    -999.2500      38.0590       2.2355     101.5510
   1075.6394    -999.2500       0.0050    -999.2500      42.3440       1.0960    -999.2500    -999.2500    -999.2500      39.8080       2.2150     101.6620
   1075.7917    -999.2500       0.0010    -999.2500      43.2220       1.0625    -999.2500    -999.2500    -999.2500      41.2089       2.1925     102.0865
   1075.9442    -999.2500      -0.0030    -999.2500      44.1000       1.0290    -999.2500    -999.2500    -999.2500      42.6100       2.1700     102.5110
   1076.0966    -999.2500      -0.0015    -999.2500      45.9198       1.0360    -999.2500    -999.2500    -999.2500      42.0551       2.1715     102.9405
   1076.2490    -999.2500       0.0000    -999.2500      47.7400       1.0430    -999.2500    -999.2500    -999.2500      41.5000       2.1730     103.3700
   1076.4014    -999.2500       0.0045    -999.2500      47.6115       1.0290    -999.2500    -999.2500    -999.2500      41.6950       2.1805     103.3215
   1076.5538    -999.2500       0.0090    -999.2500      47.4830       1.0150    -999.2500    -999.2500    -999.2500      41.8900       2.1880     103.2730
   1076.7062    -999.2500       0.0080    -999.2500      47.0116       1.0170    -999.2500    -999.2500    -999.2500      39.9354       2.1990     103.1260
   1076.8586    -999.2500       0.0070    -999.2500      46.5400       1.0190    -999.2500    -999.2500    -999.2500      37.9800       2.2100     102.9790
   1077.0110    -999.2500       0.0020    -999.2500      47.0648       1.0265    -999.2500    -999.2500    -999.2500      38.3394       2.2050     102.8145
   1077.1635    -999.2500      -0.0030    -999.2500      47.5900       1.0340    -999.2500    -999.2500    -999.2500      38.6990       2.2000     102.6500
   1077.3158    -999.2500       0.0005    -999.2500      47.5705       1.0410    -999.2500    -999.2500    -999.2500      40.4796       2.2000     102.6500
   1077.4683    -999.2500       0.0040    -999.2500      47.5510       1.0480    -999.2500    -999.2500    -999.2500      42.2600       2.2000     102.6500
   1077.6206    -999.2500       0.0020    -999.2500      47.4755       1.0500    -999.2500    -999.2500    -999.2500      41.4997       2.2015     102.5850
   1077.7729    -999.2500       0.0000    -999.2500      47.4000       1.0520    -999.2500    -999.2500    -999.2500      40.7400       2.2030     102.5200
   1077.9254    -999.2500       0.0005    -999.2500      46.1206       1.0520    -999.2500    -999.2500    -999.2500      40.7855       2.2165     102.5370
   1078.0778    -999.2500       0.0010    -999.2500      44.8400       1.0520    -999.2500    -999.2500    -999.2500      40.8310       2.2300     102.5540
   1078.2302    -999.2500       0.0160    -999.2500      45.0195       1.0520    -999.2500    -999.2500    -999.2500      41.3356       2.2285     102.6500
   1078.3826    -999.2500       0.0310    -999.2500      45.1990       1.0520    -999.2500    -999.2500    -999.2500      41.8400       2.2270     102.7460
   1078.5350    -999.2500       0.0305    -999.2500      45.7696       1.0520    -999.2500    -999.2500    -999.2500      41.4349       2.2185     102.9555
   1078.6874    -999.2500       0.0300    -999.2500      46.3400       1.0520    -999.2500    -999.2500    -999.2500      41.0300       2.2100     103.1650
   1078.8398    -999.2500       0.0250    -999.2500      45.3899       1.0520    -999.2500    -999.2500    -999.2500      39.8303       2.2100     103.4195
   1078.9922    -999.2500       0.0200    -999.2500      44.4400       1.0520    -999.2500    -999.2500    -999.2500      38.6310       2.2100     103.6740
   1079.1447    -999.2500       0.0215    -999.2500      44.5490       1.0535    -999.2500    -999.2500    -999.2500      38.3905       2.2150     103.7775
   1079.2970    -999.2500       0.0230    -999.2500      44.6580       1.0550    -999.2500    -999.2500    -999.2500      38.1500       2.2200     103.8810
   1079.4495    -999.2500       0.0210    -999.2500      45.1390       1.0705    -999.2500    -999.2500    -999.2500      38.2135       2.2150     104.1105
   1079.6018    -999.2500       0.0190    -999.2500      45.6200       1.0860    -999.2500    -999.2500    -999.2500      38.2770       2.2100     104.3400
   1079.7542    -999.2500       0.0220    -999.2500      46.4060       1.0790    -999.2500    -999.2500    -999.2500      38.5440       2.2125     104.2925
   1079.9066    -999.2500       0.0250    -999.2500      47.1920       1.0720    -999.2500    -999.2500    -999.2500      38.8110       2.2150     104.2450
   1080.0590    -999.2500       0.0355    -999.2500      48.4659       1.0720    -999.2500    -999.2500    -999.2500      39.6204       2.2275     103.9275
   1080.2114    -999.2500       0.0460    -999.2500      49.7400       1.0720    -999.2500    -999.2500    -999.2500      40.4300       2.2400     103.6100
   1080.3638    -999.2500       0.0425    -999.2500      49.5365       1.0705    -999.2500    -999.2500    -999.2500      40.3650       2.2375     103.6405
   1080.5162    -999.2500       0.0390    -999.2500      49.3330       1.0690    -999.2500    -999.2500    -999.2500      40.3000       2.2350     103.6710
   1080.6686    -999.2500       0.0225    -999.2500      48.5617       1.0605    -999.2500    -999.2500    -999.2500      41.2248       2.2025     103.8105
   1080.8210    -999.2500       0.0060    -999.2500      47.7900       1.0520    -999.2500    -999.2500    -999.2500      42.1500       2.1700     103.9500
   1080.9734    -999.2500       0.0125    -999.2500      48.3898       1.0520    -999.2500    -999.2500    -999.2500      42.0750       2.1715     104.1014
