#------------------------------------------------------------------------------
#
#   Created by  : [OpenWorks] Log Export Utility (LEXP)
#   Created on  : 2016-05-23 11:57:10
#   Project     : CANT971
#   User        : R5K
#   Interpreter : PEP
#
#------------------------------------------------------------------------------
~VERSION INFORMATION
VERS. 2.0 : CWLS Log ASCII Standard - version 2.0
WRAP.  NO : One line per depth step
~WELL INFORMATION
#MNEMONIC   .UNIT                                           VALUE :DESCRIPTION
#------------------------------------------------------------------------------
STRT        .M                                           345.0980 :START DEPTH
STOP        .M                                          2040.8528 :STOP DEPTH
STEP        .M                                             0.1524 :STEP
NULL        .                                           -999.2500 :NULL VALUE
COMP        .                                   PEMEX EXPL & PROD :COMPANY
WELL        .                                                  71 :WELL
FLD         .                                           CANTARELL :FIELD
LOC         .                                             UNKNOWN :LOCATION
CNTY        .                                      CD. DEL CARMEN :COUNTY
STAT        .                                            CAMPECHE :STATE
CTRY        .                                              MEXICO :COUNTRY
SRVC        .                                             UNKNOWN :SERVICE COMPANY
DATE        .                                             UNKNOWN :LOG DATE
UWI         .                                          3060000175 :UNIQUE WELL ID
XCOORD      .                                       599724.470000 :SURFACE X
YCOORD      .                                      2147216.900000 :SURFACE Y
LAT         .                                           19.417919 :LATITUDE
LON         .                                          -92.050150 :LONGITUDE
ELEV        .M                                            27.8000 :SURFACE ELEV
ELEV_TYPE   .                                                  KB :ELEV TYPE
~CURVE INFORMATION
#MNEMONIC.UNIT        API CODE       : CURVE DESCRIPTION
#------------------------------------------------------------------------------
DEPTH    .M                          : Measured Depth
DT       .us/ft       UNKNOWN        : DT:DT:rC:NONE:v0 (auto-composite)
GR       .UNKNOWN     UNKNOWN        : GR:GR-Load:rC:NONE:v0 (auto-composite)
ILD      .UNKNOWN     UNKNOWN        : ILD:ILD-Load:rC:NONE:v0 (auto-composite)
NPHI     .v/v_decimal UNKNOWN        : NPHI:NPHI:rC:NONE:v0 (auto-composite)
RG       .UNKNOWN     UNKNOWN        : RG:RG-Loader:rC:NONE:v0 (auto-composite)
RHOB     .UNKNOWN     UNKNOWN        : RHOB:RHOB-Load:rC:NONE:v0 (auto-composite)
~A     DEPTH           DT           GR          ILD         NPHI           RG         RHOB
# ...
   1417.9940    -999.2500      20.5029      19.9601      40.9352    -999.2500    -999.2500
   1418.1464    -999.2500      22.1433      20.0126      40.3447    -999.2500    -999.2500
   1418.2988    -999.2500      22.8869      20.0695      40.5320    -999.2500    -999.2500
   1418.4512    -999.2500      22.3944      20.1325      41.7950    -999.2500    -999.2500
   1418.6036    -999.2500      22.6608      20.1602      42.3954    -999.2500    -999.2500
   1418.7560    -999.2500      23.9732      20.1392      42.0794    -999.2500    -999.2500
   1418.9084    -999.2500      24.7048      20.1040      41.3659    -999.2500    -999.2500
   1419.0608    -999.2500      24.6352      20.0495      40.1024    -999.2500    -999.2500
   1419.2133    -999.2500      24.2459      19.9894      38.5525    -999.2500    -999.2500
   1419.3656    -999.2500      23.4170      19.9214      36.6060    -999.2500    -999.2500
   1419.5181    -999.2500      23.2970      19.8822      34.5051    -999.2500    -999.2500
   1419.6704    -999.2500      24.1519      19.8827      32.1901    -999.2500    -999.2500
   1419.8229    -999.2500      25.5571      19.8834      32.0286    -999.2500    -999.2500
   1419.9752    -999.2500      27.7190      19.8844      34.8485    -999.2500    -999.2500
   1420.1276    -999.2500      29.1711      19.8856      36.4583    -999.2500    -999.2500
   1420.2800    -999.2500      29.6466      19.8871      36.3923    -999.2500    -999.2500
   1420.4324    -999.2500      29.6926      19.8886      36.2574    -999.2500    -999.2500
   1420.5848    -999.2500      29.1477      19.8901      36.0269    -999.2500    -999.2500
   1420.7372    -999.2500      27.7300      19.8914      35.6499    -999.2500    -999.2500
   1420.8896    -999.2500      25.1111      19.8924      35.0699    -999.2500    -999.2500
   1421.0420    -999.2500      23.6018      19.8936      34.2219    -999.2500    -999.2500
   1421.1945    -999.2500      23.6203      19.8951      33.0024    -999.2500    -999.2500
   1421.3468    -999.2500      23.9978      19.8966      31.9948    -999.2500    -999.2500
   1421.4993    -999.2500      24.8698      19.8981      31.2808    -999.2500    -999.2500
   1421.6516    -999.2500      25.2223      19.8994      30.6089    -999.2500    -999.2500
   1421.8041    -999.2500      24.8593      19.9004      29.9951    -999.2500    -999.2500
   1421.9564    -999.2500      23.7176      19.9016      29.3914    -999.2500    -999.2500
   1422.1088    -999.2500      21.5026      19.9031      28.8014    -999.2500    -999.2500
   1422.2612    -999.2500      20.2190      19.9147      27.8793    -999.2500    -999.2500
   1422.4136    -999.2500      20.2190      19.9402      26.4978    -999.2500    -999.2500
   1422.5660    -999.2500      20.5986      19.9881      25.9647    -999.2500    -999.2500
   1422.7184    -999.2500      21.5016      20.0666      26.6052    -999.2500    -999.2500
   1422.8708    -999.2500      23.1433      20.1320      26.4620    -999.2500    -999.2500
   1423.0232    -999.2500      25.8038      20.1795      25.2346    -999.2500    -999.2500
   1423.1757    -999.2500      27.3429      20.2076      24.6057    -999.2500    -999.2500
   1423.3280    -999.2500      27.3404      20.2091      24.8052    -999.2500    -999.2500
   1423.4805    -999.2500      27.0550      20.2104      25.6780    -999.2500    -999.2500
   1423.6328    -999.2500      26.3806      20.2114      27.4830    -999.2500    -999.2500
   1423.7853    -999.2500      25.2094      20.2126      28.5270    -999.2500    -999.2500
   1423.9376    -999.2500      23.3549      20.2141      28.5175    -999.2500    -999.2500
   1424.0900    -999.2500      22.5573      20.2156      28.3011    -999.2500    -999.2500
   1424.2424    -999.2500      23.2138      20.2171      27.7981    -999.2500    -999.2500
   1424.3948    -999.2500      23.0417      20.2184      26.9011    -999.2500    -999.2500
   1424.5472    -999.2500      21.7292      20.2194      25.4581    -999.2500    -999.2500
   1424.6996    -999.2500      21.0971      20.2206      24.8627    -999.2500    -999.2500
   1424.8521    -999.2500      21.4016      20.2221      25.4417    -999.2500    -999.2500
   1425.0044    -999.2500      22.2387      20.2238      26.5841    -999.2500    -999.2500
   1425.1569    -999.2500      23.8091      20.2258      28.5076    -999.2500    -999.2500
   1425.3092    -999.2500      24.0683      20.2321      29.4162    -999.2500    -999.2500
   1425.4617    -999.2500      22.5213      20.2441      28.9181    -999.2500    -999.2500
   1425.6140    -999.2500      22.1770      20.2992      28.0084    -999.2500    -999.2500
   1425.7665    -999.2500      23.4894      20.4137      26.5299    -999.2500    -999.2500
   1425.9188    -999.2500      24.2204      20.4756      25.2204    -999.2500    -999.2500
   1426.0712    -999.2500      24.1499      20.4651      24.1444    -999.2500    -999.2500
   1426.2236    -999.2500      24.2913      20.4379      23.5739    -999.2500    -999.2500
   1426.3760    -999.2500      24.7247      20.3879      23.7024    -999.2500    -999.2500
   1426.5284    -999.2500      26.1503      20.3226      23.7132    -999.2500    -999.2500
   1426.6808    -999.2500      28.9437      20.2361      23.5612    -999.2500    -999.2500
   1426.8333    -999.2500      29.3737      20.1498      23.1424    -999.2500    -999.2500
   1426.9856    -999.2500      26.5441      20.0638      22.3545    -999.2500    -999.2500
   1427.1381    -999.2500      24.9060      19.9782      21.4509    -999.2500    -999.2500
   1427.2904    -999.2500      24.9060      19.8932      20.3875    -999.2500    -999.2500
   1427.4429    -999.2500      25.2809      19.8086      19.6756    -999.2500    -999.2500
   1427.5952    -999.2500      26.1714      19.7246      19.4506    -999.2500    -999.2500
   1427.7477    -999.2500      26.1314      19.6408      19.0363    -999.2500    -999.2500
   1427.9000    -999.2500      24.8114      19.5573      18.3598    -999.2500    -999.2500
   1428.0524    -999.2500      24.4283      19.4820      18.1194    -999.2500    -999.2500
   1428.2048    -999.2500      25.3343      19.4180      18.4829    -999.2500    -999.2500
   1428.3572    -999.2500      25.7538      19.3812      19.2637    -999.2500    -999.2500
   1428.5096    -999.2500      25.5038      19.3817      20.6226    -999.2500    -999.2500
   1428.6620    -999.2500      25.5399      19.3826      21.3646    -999.2500    -999.2500
   1428.8145    -999.2500      25.9699      19.3841      21.2516    -999.2500    -999.2500
   1428.9668    -999.2500      26.1633      19.3861      21.0691    -999.2500    -999.2500
   1429.1193    -999.2500      26.0308      19.3886      20.7901    -999.2500    -999.2500
   1429.2716    -999.2500      25.7937      19.3915      20.6429    -999.2500    -999.2500
   1429.4241    -999.2500      25.4128      19.3950      20.6784    -999.2500    -999.2500
   1429.5764    -999.2500      24.4123      19.3983      20.7850    -999.2500    -999.2500
   1429.7289    -999.2500      22.5584      19.4013      20.9900    -999.2500    -999.2500
   1429.8812    -999.2500      21.6755      19.4045      21.0870    -999.2500    -999.2500
   1430.0336    -999.2500      22.1310      19.4080      21.0345    -999.2500    -999.2500
   1430.1860    -999.2500      23.0574      19.4115      21.3294    -999.2500    -999.2500
   1430.3384    -999.2500      24.6328      19.4150      22.1049    -999.2500    -999.2500
   1430.4908    -999.2500      26.6106      19.4185      22.4444    -999.2500    -999.2500
   1430.6432    -999.2500      29.1430      19.4220      22.1810    -999.2500    -999.2500
   1430.7957    -999.2500      30.2422      19.4255      22.4326    -999.2500    -999.2500
   1430.9480    -999.2500      29.3713      19.4290      23.3971    -999.2500    -999.2500
   1431.1005    -999.2500      28.0879      19.4323      23.9283    -999.2500    -999.2500
   1431.2528    -999.2500      26.2374      19.4353      23.8598    -999.2500    -999.2500
