#------------------------------------------------------------------------------
#
#   Created by  : [OpenWorks] Log Export Utility (LEXP)
#   Created on  : 2016-05-12 17:01:14
#   Project     : CANT971
#   User        : R5K
#   Interpreter : PEP
#
#------------------------------------------------------------------------------
~VERSION INFORMATION
VERS. 2.0 : CWLS Log ASCII Standard - version 2.0
WRAP.  NO : One line per depth step
~WELL INFORMATION
#MNEMONIC   .UNIT                                           VALUE :DESCRIPTION
#------------------------------------------------------------------------------
STRT        .M                                          1708.0991 :START DEPTH
STOP        .M                                          2834.0303 :STOP DEPTH
STEP        .M                                             0.1524 :STEP
NULL        .                                           -999.2500 :NULL VALUE
COMP        .                                             UNKNOWN :COMPANY
WELL        .                                                3016 :WELL
FLD         .                                           CANTARELL :FIELD
LOC         .                                             UNKNOWN :LOCATION
CNTY        .                                             UNKNOWN :COUNTY
STAT        .                                            CAMPECHE :STATE
CTRY        .                                              MEXICO :COUNTRY
SRVC        .                                             UNKNOWN :SERVICE COMPANY
DATE        .                                             UNKNOWN :LOG DATE
UWI         .                                                3016 :UNIQUE WELL ID
XCOORD      .                                       192548.498000 :SURFACE X
YCOORD      .                                        92151.948000 :SURFACE Y
LAT         .                                            0.832805 :LATITUDE
LON         .                                          -95.762171 :LONGITUDE
ELEV        .M                                            46.0000 :SURFACE ELEV
ELEV_TYPE   .                                                  KB :ELEV TYPE
~CURVE INFORMATION
#MNEMONIC.UNIT        API CODE       : CURVE DESCRIPTION
#------------------------------------------------------------------------------
DEPTH    .M                          : Measured Depth
CALI     .inches      UNKNOWN        : CALI:litodensidad:rC:NONE:v0 (auto-composite)
CGR      .API         UNKNOWN        : CGR:Espectrometria:rC:NONE:v0 (auto-composite)
DRHO     .g/cm3       UNKNOWN        : DRHO:litodensidad:rC:NONE:v0 (auto-composite)
DT       .us/ft       UNKNOWN        : DT:DT-Load:rC:NONE:v0 (auto-composite)
GR       .API         UNKNOWN        : GR:PETROWORKS:rC:NONE:v1 
GR-LWD   .API         UNKNOWN        : GR-LWD:PETROWORKS:rC:NONE:v1 
ILD-LWD  .ohm.m       UNKNOWN        : ILD-LWD:PETROWORKS:rC:NONE:v1 
ILM-LWD  .ohm.m       UNKNOWN        : ILM-LWD:PETROWORKS:rC:NONE:v1 
LLD      .ohm.m       UNKNOWN        : LLD:Resistivos:rC:NONE:v0 (auto-composite)
LLS      .ohm.m       UNKNOWN        : LLS:Resistivos:rC:NONE:v0 (auto-composite)
MSFL     .ohm.m       UNKNOWN        : MSFL:Resistivos:rC:NONE:v0 (auto-composite)
NPHI     .v/v_decimal UNKNOWN        : NPHI:Porosidad:rC:NONE:v0 (auto-composite)
PEF      .UNKNOWN     UNKNOWN        : PEF:litodensidad:rC:NONE:v0 (auto-composite)
POTA     .wtpercent   UNKNOWN        : POTA:Espectrometria:rC:NONE:v0 (auto-composite)
RHOB     .g/cm3       UNKNOWN        : RHOB:litodensidad:rC:NONE:v0 (auto-composite)
SP       .mV          UNKNOWN        : SP:SP-Load:rC:NONE:v0 (auto-composite)
THOR     .ppm         UNKNOWN        : THOR:Espectrometria:rC:NONE:v0 (auto-composite)
URAN     .ppm         UNKNOWN        : URAN:Espectrometria:rC:NONE:v0 (auto-composite)
~A     DEPTH         CALI          CGR         DRHO           DT           GR       GR-LWD      ILD-LWD      ILM-LWD          LLD          LLS         MSFL         NPHI          PEF         POTA         RHOB           SP         THOR         URAN
# ...
   2633.4719       8.9756      18.0068       0.0824      62.8066     129.3827    -999.2500    -999.2500    -999.2500     353.6773     226.1876      33.9519       0.1943       2.9752       0.0078       2.5592    -126.0625       1.1706      13.9231
   2633.6243       8.7455      19.1040       0.1061      65.0352     129.8221    -999.2500    -999.2500    -999.2500     401.0626     242.5305     109.8548       0.1626       3.1921       0.0086       2.5794    -126.3750       1.1105      13.9160
   2633.7766       8.7168      21.3941       0.1214      65.7427     136.6553    -999.2500    -999.2500    -999.2500     353.1630     246.0047     386.8603       0.1454       3.1339       0.0095       2.5286    -125.5625       1.3062      14.5335
   2633.9292       8.7311      22.7137       0.1420      68.3205     147.3248    -999.2500    -999.2500    -999.2500     280.2969     168.5064      93.5588       0.1639       3.1937       0.0100       2.5327    -123.7500       1.4120      15.6815
   2634.0815       8.7311      23.5872       0.1614      70.8799     151.6976    -999.2500    -999.2500    -999.2500     256.9382     141.2101      68.8697       0.1996       3.0333       0.0113       2.5263    -121.4375       0.9453      16.1219
   2634.2339       8.9971      20.4955       0.1346      68.4880     141.5183    -999.2500    -999.2500    -999.2500     236.7530     133.3082      12.0841       0.2141       3.0985       0.0098       2.5749    -116.9375       0.8100      15.2695
   2634.3862       8.7887      15.2266       0.1110      66.0961     114.2293    -999.2500    -999.2500    -999.2500     230.1423     127.8221      56.0474       0.2073       3.1611       0.0074       2.6659    -116.6250       0.5270      12.5896
   2634.5388       8.8030       9.2180       0.0988      56.1277      78.6035    -999.2500    -999.2500    -999.2500     321.0442     195.0553     180.5904       0.1793       3.4236       0.0046       2.8402    -114.5000       0.2771       8.8225
   2634.6912       8.8030       5.9783       0.0473      54.8635      49.1603    -999.2500    -999.2500    -999.2500     457.0977     289.1859      49.8024       0.1451       3.2512       0.0030       2.8236    -109.3750       0.1686       5.4823
   2634.8435       8.8102       4.6764       0.0129      53.9905      37.3623    -999.2500    -999.2500    -999.2500     619.0933     406.5741     313.2147       0.1066       3.3057       0.0022       2.7924    -107.6250       0.2293       4.1635
   2634.9958       8.8605       4.4794       0.0131      58.2314      35.3035    -999.2500    -999.2500    -999.2500    1124.9275     784.4523     164.6284       0.0701       3.2101       0.0021       2.7714    -108.4375       0.1956       4.0176
   2635.1484       8.8318       5.9675       0.0074      59.8209      39.3312    -999.2500    -999.2500    -999.2500     912.2488     656.8388     646.2305       0.0628       3.2711       0.0026       2.7229    -107.4375       0.3623       4.3740
   2635.3008       8.7815       7.3364       0.0027      57.0615      45.3392    -999.2500    -999.2500    -999.2500     545.3176     325.1789     485.6122       0.0697       3.2276       0.0029       2.6816    -106.8125       0.6310       4.9216
   2635.4531       8.8174       9.4464       0.0002      57.3893      51.2244    -999.2500    -999.2500    -999.2500     305.1877     176.9285     399.5562       0.0717       3.3414       0.0040       2.6611    -106.8125       0.7092       5.3215
   2635.6055       8.8102      10.5751       0.0005      62.1098      53.4069    -999.2500    -999.2500    -999.2500     231.6349     127.0457     277.3852       0.0827       3.2305       0.0043       2.6612    -106.5625       0.8691       5.4599
   2635.7578       8.9109       9.8614      -0.0004      62.6507      50.7567    -999.2500    -999.2500    -999.2500     227.4015     115.5488      74.8990       0.0964       3.0920       0.0039       2.6544    -106.9375       0.8723       5.2260
   2635.9104       9.0331       8.6019       0.0044      62.4353      44.6814    -999.2500    -999.2500    -999.2500     232.4595     121.7475      63.3919       0.1065       2.9118       0.0034       2.6423    -109.0000       0.7367       4.6858
   2636.0627       8.8965       7.8303       0.0075      59.6639      37.4320    -999.2500    -999.2500    -999.2500     355.5767     176.9070     168.2199       0.1086       3.0010       0.0031       2.6372    -110.6875       0.7014       3.8133
   2636.2151       8.8965       7.2259       0.0101      61.0145      32.4871    -999.2500    -999.2500    -999.2500     602.1717     330.1703     192.3318       0.1121       3.1723       0.0027       2.6250    -112.1250       0.7165       3.2059
   2636.3674       8.9324       6.0322       0.0111      59.6591      29.7087    -999.2500    -999.2500    -999.2500     642.7159     400.6730     456.6619       0.1161       3.2118       0.0021       2.6237    -112.1250       0.6807       3.0151
   2636.5200       9.0403       4.5950       0.0110      59.1412      24.4022    -999.2500    -999.2500    -999.2500     624.4194     353.9590     523.4094       0.1159       3.1771       0.0017       2.6183    -114.6250       0.4679       2.5114
   2636.6724       9.2071       4.7374       0.0113      59.4716      21.2516    -999.2500    -999.2500    -999.2500     541.7967     298.5465     160.8551       0.1034       3.2209       0.0018       2.6085    -116.5000       0.4674       2.0609
   2636.8247       9.0115       4.1161       0.0124      58.0512      20.3062    -999.2500    -999.2500    -999.2500     403.3865     247.1589      50.2378       0.0986       3.3103       0.0017       2.5954    -116.6250       0.3350       2.0167
   2636.9771       9.0187       4.7554       0.0128      57.9550      23.6493    -999.2500    -999.2500    -999.2500     414.4413     228.4765      56.3638       0.0929       3.4788       0.0022       2.5851    -116.6250       0.2588       2.3201
   2637.1296       8.9396       4.9398       0.0137      58.0433      26.8418    -999.2500    -999.2500    -999.2500     372.5523     217.3652      54.4851       0.0994       3.4566       0.0022       2.6117    -116.6250       0.2859       2.7506
   2637.2820       8.9612       5.3063       0.0140      57.6398      29.5157    -999.2500    -999.2500    -999.2500     368.6841     226.2903     216.8518       0.0954       3.3412       0.0025       2.6429    -116.5000       0.2077       3.0426
   2637.4343       9.0690       5.9891       0.0107      58.4980      28.3820    -999.2500    -999.2500    -999.2500     388.7076     246.7104     103.9236       0.0947       3.2693       0.0028       2.6747    -114.6875       0.2517       2.7804
   2637.5867       9.0475       5.3837       0.0097      55.9098      26.2241    -999.2500    -999.2500    -999.2500     397.3372     262.1280     169.5018       0.0901       3.0734       0.0027       2.6806    -112.0625       0.1724       2.5721
   2637.7390       9.0547       4.6504       0.0070      55.1762      23.9960    -999.2500    -999.2500    -999.2500     364.1537     214.3562     469.0698       0.0903       3.0712       0.0024       2.6863    -110.6250       0.0895       2.3809
   2637.8916       8.9468       4.5353       0.0103      56.1869      23.7476    -999.2500    -999.2500    -999.2500     263.3010     157.9669     384.5455       0.0869       3.0207       0.0024       2.6825    -106.8750       0.0419       2.3656
   2638.0439       8.9109       4.5589       0.0134      56.7492      25.1314    -999.2500    -999.2500    -999.2500     247.6989     150.0654     266.6425       0.0903       3.1985       0.0024       2.6864    -106.7500       0.0448       2.5513
   2638.1963       8.9971       4.8623       0.0125      56.1086      25.1677    -999.2500    -999.2500    -999.2500     257.0145     154.7058      70.4613       0.0878       3.0661       0.0025       2.6812    -106.0625       0.0925       2.5032
   2638.3486       8.9971       4.6486       0.0110      56.3405      23.5456    -999.2500    -999.2500    -999.2500     294.7384     175.9569     220.1537       0.0882       3.0665       0.0022       2.7004    -102.9375       0.1944       2.3315
