#------------------------------------------------------------------------------
#
#   Created by  : [OpenWorks] Log Export Utility (LEXP)
#   Created on  : 2016-05-23 11:57:01
#   Project     : CANT971
#   User        : R5K
#   Interpreter : PEP
#
#------------------------------------------------------------------------------
~VERSION INFORMATION
VERS. 2.0 : CWLS Log ASCII Standard - version 2.0
WRAP.  NO : One line per depth step
~WELL INFORMATION
#MNEMONIC   .UNIT                                           VALUE :DESCRIPTION
#------------------------------------------------------------------------------
STRT        .M                                           485.8514 :START DEPTH
STOP        .M                                          3526.5361 :STOP DEPTH
STEP        .M                                             0.1524 :STEP
NULL        .                                           -999.2500 :NULL VALUE
COMP        .                                   PEMEX EXPL & PROD :COMPANY
WELL        .                                                  62 :WELL
FLD         .                                           CANTARELL :FIELD
LOC         .                                             UNKNOWN :LOCATION
CNTY        .                                      CD. DEL CARMEN :COUNTY
STAT        .                                            CAMPECHE :STATE
CTRY        .                                              MEXICO :COUNTRY
SRVC        .                                             UNKNOWN :SERVICE COMPANY
DATE        .                                             UNKNOWN :LOG DATE
UWI         .                                          3060000468 :UNIQUE WELL ID
XCOORD      .                                       601711.280000 :SURFACE X
YCOORD      .                                      2142346.320000 :SURFACE Y
LAT         .                                           19.373806 :LATITUDE
LON         .                                          -92.031488 :LONGITUDE
ELEV        .M                                            24.0000 :SURFACE ELEV
ELEV_TYPE   .                                                  KB :ELEV TYPE
~CURVE INFORMATION
#MNEMONIC.UNIT        API CODE       : CURVE DESCRIPTION
#------------------------------------------------------------------------------
DEPTH    .M                          : Measured Depth
CALI     .inches      UNKNOWN        : CALI:editado:rC:NONE:v0 (auto-composite)
DRHO     .g/cm3       UNKNOWN        : DRHO:editado:rC:NONE:v0 (auto-composite)
DT       .us/ft       UNKNOWN        : DT:editado:rC:NONE:v0 (auto-composite)
GR       .API         UNKNOWN        : GR:editado:rC:NONE:v0 (auto-composite)
ILD      .ohm.m       UNKNOWN        : ILD:editado:rC:NONE:v0 (auto-composite)
ILM      .ohm.m       UNKNOWN        : ILM:editado:rC:NONE:v0 (auto-composite)
LLD      .ohm.m       UNKNOWN        : LLD:editado:rC:NONE:v0 (auto-composite)
LLS      .ohm.m       UNKNOWN        : LLS:editado:rC:NONE:v0 (auto-composite)
MSFL     .ohm.m       UNKNOWN        : MSFL:editado:rC:NONE:v0 (auto-composite)
NPHI     .v/v_decimal UNKNOWN        : NPHI:editado:rC:NONE:v0 (auto-composite)
PEF      .b/elec      UNKNOWN        : PEF:editado:rC:NONE:v0 (auto-composite)
RHOB     .g/cm3       UNKNOWN        : RHOB:editado:rC:NONE:v0 (auto-composite)
~A     DEPTH         CALI         DRHO           DT           GR          ILD          ILM          LLD          LLS         MSFL         NPHI          PEF         RHOB
# ...
   2285.3906       8.6370      -0.0040      50.8980      39.2930    -999.2500    -999.2500    7333.4248    1086.7889     183.8850       0.0269       4.6560       2.7950
   2285.5430       8.5762      -0.0065      51.2889      36.2343    -999.2500    -999.2500    4539.1553    1017.8904     208.0769       0.0274       4.3196       2.7840
   2285.6953       8.5160      -0.0090      51.6790      33.1920    -999.2500    -999.2500    1764.2400     949.4690     232.0630       0.0278       3.9860       2.7730
   2285.8479       8.5210      -0.0080      52.1520      31.8856    -999.2500    -999.2500    1895.5808     887.4347     178.7297       0.0286       4.1462       2.7830
   2286.0002       8.5260      -0.0070      52.6240      30.5860    -999.2500    -999.2500    2026.0291     825.8220     125.8440       0.0300       4.3050       2.7930
   2286.1526       8.5601      -0.0035      53.5629      29.2075    -999.2500    -999.2500    1874.1094     768.8975     133.7672       0.0336       4.2889       2.7915
   2286.3049       8.5940       0.0000      54.5000      27.8360    -999.2500    -999.2500    1723.2040     712.3530     141.6250       0.0384       4.2730       2.7900
   2286.4575       8.5895      -0.0065      54.3324      28.4726    -999.2500    -999.2500    1233.4972     638.4788     124.1790       0.0455       4.1706       2.7724
   2286.6099       8.5850      -0.0130      54.1650      29.1060    -999.2500    -999.2500     747.7780     565.2060     106.8750       0.0515       4.0690       2.7550
   2286.7622       8.5699      -0.0120      53.4539      32.7257    -999.2500    -999.2500    1051.1935     528.5205     176.1842       0.0517       4.1865       2.7595
   2286.9146       8.5550      -0.0110      52.7440      36.3280    -999.2500    -999.2500    1352.1780     492.1290     244.9380       0.0490       4.3030       2.7640
   2287.0669       8.5565      -0.0075      52.0360      34.2296    -999.2500    -999.2500    1279.2225     472.1281     187.3040       0.0423       4.2618       2.7605
   2287.2195       8.5580      -0.0040      51.3290      32.1410    -999.2500    -999.2500    1206.8430     452.2850     130.1250       0.0362       4.2210       2.7570
   2287.3718       8.5660       0.0005      50.6635      33.1894    -999.2500    -999.2500     998.5355     412.5287     182.4006       0.0361       4.0528       2.7635
   2287.5242       8.5740       0.0050      50.0000      34.2330    -999.2500    -999.2500     791.8450     373.0810     234.1870       0.0397       3.8860       2.7700
   2287.6765       8.6272       0.0075      50.2028      39.3890    -999.2500    -999.2500     673.2211     326.6390     223.6529       0.0493       3.9518       2.7554
   2287.8291       8.6800       0.0100      50.4050      44.5220    -999.2500    -999.2500     555.5040     280.5520     213.2160       0.0584       4.0170       2.7410
   2287.9814       8.6700       0.0256      51.3117      53.2719    -999.2500    -999.2500     461.2901     247.1274     152.4563       0.0594       4.4118       2.7465
   2288.1338       8.6600       0.0410      52.2160      61.9840    -999.2500    -999.2500     367.7840     213.9540      92.2500       0.0584       4.8030       2.7520
   2288.2861       8.6700       0.0370      53.2188      60.9178    -999.2500    -999.2500     333.4059     205.0892     200.5486       0.0582       4.7904       2.7505
   2288.4387       8.6800       0.0330      54.2190      59.8560    -999.2500    -999.2500     299.2820     196.2900     307.8750       0.0588       4.7780       2.7490
   2288.5911       8.6679       0.0134      54.0438      53.9790    -999.2500    -999.2500     270.6656     177.6633     261.0425       0.0614       4.6605       2.7415
   2288.7434       8.6560      -0.0060      53.8690      48.1260    -999.2500    -999.2500     242.2570     159.1720     214.6250       0.0660       4.5440       2.7340
   2288.8958       8.6560      -0.0060      53.0901      35.7771    -999.2500    -999.2500     202.1000     134.7071     215.9433       0.0749       4.2040       2.7215
   2289.0481       8.6560      -0.0060      52.3130      23.4770    -999.2500    -999.2500     162.2300     110.4170     217.2500       0.0823       3.8670       2.7090
   2289.2007       8.6650      -0.0045      52.7570      26.7940    -999.2500    -999.2500     142.6859      99.3331     206.9471       0.0797       3.8801       2.7145
   2289.3530       8.6740      -0.0030      53.2000      30.0930    -999.2500    -999.2500     123.2790      88.3270     196.7330       0.0755       3.8930       2.7200
   2289.5054       8.7122      -0.0025      55.0965      59.8283    -999.2500    -999.2500     124.6166      89.1508     157.1597       0.0759       4.0823       2.7165
   2289.6577       8.7500      -0.0020      56.9890      89.4060    -999.2500    -999.2500     125.9450      89.9690     117.9220       0.0760       4.2700       2.7130
   2289.8103       8.7324      -0.0020      63.0941      86.2654    -999.2500    -999.2500     135.5866      95.6773     133.9867       0.0704       4.2419       2.7145
   2289.9626       8.7150      -0.0020      69.1870      83.1410    -999.2500    -999.2500     145.1630     101.3470     149.9170       0.0648       4.2140       2.7160
   2290.1150       8.7286       0.0020      67.1636      70.4610    -999.2500    -999.2500     216.1599     125.8364     351.6638       0.0646       4.1051       2.7366
   2290.2673       8.7420       0.0060      65.1440      57.8450    -999.2500    -999.2500     286.6850     150.1630     551.7500       0.0654       3.9970       2.7570
   2290.4199       8.8007       0.0060      58.8636      46.4309    -999.2500    -999.2500     252.2574     142.3910     512.0254       0.0644       4.0944       2.7525
   2290.5723       8.8590       0.0060      52.5940      35.0730    -999.2500    -999.2500     218.1090     134.6820     472.6230       0.0621       4.1910       2.7480
   2290.7246       8.7395       0.0045      52.8752      29.7447    -999.2500    -999.2500     222.1572     136.1755     274.3171       0.0568       4.1795       2.7490
   2290.8770       8.6210       0.0030      53.1560      24.4420    -999.2500    -999.2500     226.1730     137.6570      77.5940       0.0509       4.1680       2.7500
   2291.0293       8.6561       0.0035      53.1330      24.1137    -999.2500    -999.2500     256.6629     149.8725     312.3449       0.0455       4.1233       2.7550
   2291.1819       8.6910       0.0040      53.1100      23.7870    -999.2500    -999.2500     286.9130     161.9920     545.2500       0.0407       4.0790       2.7600
   2291.3342       8.6905       0.0035      52.7860      23.0403    -999.2500    -999.2500     365.5666     195.0162     542.9684       0.0371       4.0469       2.7720
   2291.4866       8.6900       0.0030      52.4630      22.2970    -999.2500    -999.2500     443.6120     227.7850     540.7080       0.0346       4.0150       2.7840
   2291.6389       8.6759       0.0015      51.1046      23.3518    -999.2500    -999.2500     480.0763     248.5581     504.1861       0.0347       3.9889       2.7830
   2291.7915       8.6620       0.0000      49.7500      24.4020    -999.2500    -999.2500     516.2630     269.1730     468.0000       0.0360       3.9630       2.7820
   2291.9438       8.6158      -0.0040      49.7540      29.5566    -999.2500    -999.2500     573.8405     312.2718     642.5423       0.0388       3.8917       2.7659
   2292.0962       8.5700      -0.0080      49.7580      34.6890    -999.2500    -999.2500     630.9870     355.0480     815.5000       0.0420       3.8210       2.7500
   2292.2485       8.5876      -0.0100      49.9878      44.6152    -999.2500    -999.2500     590.6595     349.5964     637.2652       0.0453       3.8702       2.7515
   2292.4011       8.6050      -0.0120      50.2170      54.5000    -999.2500    -999.2500     550.6290     344.1850     460.6250       0.0479       3.9190       2.7530
   2292.5535       8.6602      -0.0120      50.9844      52.5961    -999.2500    -999.2500     554.9271     347.6410     541.4192       0.0478       4.2017       2.7620
