#------------------------------------------------------------------------------
#
#   Created by  : [OpenWorks] Log Export Utility (LEXP)
#   Created on  : 2016-05-23 11:57:24
#   Project     : CANT971
#   User        : R5K
#   Interpreter : PEP
#
#------------------------------------------------------------------------------
~VERSION INFORMATION
VERS. 2.0 : CWLS Log ASCII Standard - version 2.0
WRAP.  NO : One line per depth step
~WELL INFORMATION
#MNEMONIC   .UNIT                                           VALUE :DESCRIPTION
#------------------------------------------------------------------------------
STRT        .M                                           648.1292 :START DEPTH
STOP        .M                                          2685.5647 :STOP DEPTH
STEP        .M                                             0.1524 :STEP
NULL        .                                           -999.2500 :NULL VALUE
COMP        .                                   PEMEX EXPL & PROD :COMPANY
WELL        .                                                 81D :WELL
FLD         .                                           CANTARELL :FIELD
LOC         .                                             UNKNOWN :LOCATION
CNTY        .                                      CD. DEL CARMEN :COUNTY
STAT        .                                            CAMPECHE :STATE
CTRY        .                                              MEXICO :COUNTRY
SRVC        .                                             UNKNOWN :SERVICE COMPANY
DATE        .                                             UNKNOWN :LOG DATE
UWI         .                                          3060000666 :UNIQUE WELL ID
XCOORD      .                                       601717.100000 :SURFACE X
YCOORD      .                                      2142375.260000 :SURFACE Y
LAT         .                                           19.374067 :LATITUDE
LON         .                                          -92.031430 :LONGITUDE
ELEV        .M                                            30.0000 :SURFACE ELEV
ELEV_TYPEF  .b/elec                                            KB :ELEV TYPE
~CURVE INFORMATION
#MNEMONIC.UNIT        API CODE       : CURVE DESCRIPTION
#------------------------------------------------------------------------------
DEPTH    .M                          : Measured Depth
CALI     .in          UNKNOWN        : CALI:UNKNOWN:rC:NONE:v0 (auto-composite)
CGR      .API         UNKNOWN        : CGR:UNKNOWN:rC:NONE:v0 (auto-composite)
DRHO     .g/cm3       UNKNOWN        : DRHO:UNKNOWN:rC:NONE:v0 (auto-composite)
DT       .us/ft       UNKNOWN        : DT:DT:rC:NONE:v0 (auto-composite)
GR       .API         UNKNOWN        : GR:UNKNOWN:rC:NONE:v0 (auto-composite)
ILD      .ohmm        UNKNOWN        : ILD:UNKNOWN:rC:NONE:v0 (auto-composite)
ILM      .ohmm        UNKNOWN        : ILM:UNKNOWN:rC:NONE:v0 (auto-composite)
LLD      .ohmm        UNKNOWN        : LLD:UNKNOWN:rC:NONE:v0 (auto-composite)
LLS      .ohmm        UNKNOWN        : LLS:UNKNOWN:rC:NONE:v0 (auto-composite)
NPHI     .v/v_decimal UNKNOWN        : NPHI:NPHI:rC:NONE:v0 (auto-composite)
PEF      .b/elec      UNKNOWN        : PEF:UNKNOWN:rC:NONE:v0 (auto-composite)
POTA     .%           UNKNOWN        : POTA:UNKNOWN:rC:NONE:v0 (auto-composite)
RHOB     .g/cm3       UNKNOWN        : RHOB:UNKNOWN:rC:NONE:v0 (auto-composite)
THOR     .ppm         UNKNOWN        : THOR:UNKNOWN:rC:NONE:v0 (auto-composite)
URAN     .ppm         UNKNOWN        : URAN:UNKNOWN:rC:NONE:v0 (auto-composite)
~A     DEPTH         CALI          CGR         DRHO           DT           GR          ILD          ILM          LLD          LLS         NPHI          PEF         POTA         RHOB         THOR         URAN
# ...
   2425.2656       5.2182       6.1382    -999.2500    -999.2500      36.7139    -999.2500    -999.2500     839.0881     468.6434       8.2490    -999.2500       0.1888    -999.2500       0.9540       3.4070
   2425.4180       5.2149       5.8214    -999.2500    -999.2500      33.3609    -999.2500    -999.2500     903.4425     519.5903       7.7206    -999.2500       0.1463    -999.2500       1.1439       3.0658
   2425.5703       5.2099       5.3326    -999.2500    -999.2500      29.1536    -999.2500    -999.2500     965.6169     569.2116       7.2732    -999.2500       0.0898    -999.2500       1.3798       2.6430
   2425.7229       5.1952       4.4012    -999.2500    -999.2500      29.8257    -999.2500    -999.2500     834.6274     498.5528       6.9236    -999.2500       0.0584    -999.2500       1.2018       2.8159
   2425.8752       5.1782       3.3648    -999.2500    -999.2500      31.6305    -999.2500    -999.2500     659.2717     400.2678       6.6191    -999.2500       0.0329    -999.2500       0.9257       3.1301
   2426.0276       5.1073       2.9729    -999.2500    -999.2500      33.1313    -999.2500    -999.2500     549.8206     345.0199       6.8029    -999.2500       0.0284    -999.2500       0.8087       3.3445
   2426.1799       5.0239       2.7330    -999.2500    -999.2500      34.5612    -999.2500    -999.2500     455.5928     299.7132       7.1600    -999.2500       0.0289    -999.2500       0.7292       3.5354
   2426.3325       4.9979       3.3787    -999.2500    -999.2500      35.3794    -999.2500    -999.2500     432.5470     293.5678       7.8008    -999.2500       0.0294    -999.2500       0.9351       3.5477
   2426.4849       4.9854       4.2346    -999.2500    -999.2500      36.0541    -999.2500    -999.2500     425.8639     296.4246       8.5944    -999.2500       0.0299    -999.2500       1.2087       3.5177
   2426.6372       4.9789       5.8111    -999.2500    -999.2500      37.9943    -999.2500    -999.2500     422.0146     293.6422       9.6891    -999.2500       0.0895    -999.2500       1.4083       3.5593
   2426.7896       4.9739       7.5577    -999.2500    -999.2500      40.2332    -999.2500    -999.2500     418.8204     289.5562      10.8324    -999.2500       0.1630    -999.2500       1.5904       3.6179
   2426.9419       4.9783      10.3692    -999.2500    -999.2500      45.8052    -999.2500    -999.2500     418.2230     288.7920      11.8657    -999.2500       0.3563    -999.2500       1.4477       3.9451
   2427.0945       4.9848      13.4309    -999.2500    -999.2500      52.1440    -999.2500    -999.2500     418.2230     288.7920      12.8020    -999.2500       0.5777    -999.2500       1.2288       4.3354
   2427.2468       4.9803      13.7550    -999.2500    -999.2500      51.7488    -999.2500    -999.2500     418.2230     288.7920      10.5644    -999.2500       0.5727    -999.2500       1.4067       4.2275
   2427.3992       4.9733      13.4324    -999.2500    -999.2500      49.7957    -999.2500    -999.2500     418.2230     288.7920       7.7387    -999.2500       0.5141    -999.2500       1.6783       4.0019
   2427.5515       4.9773      11.3878    -999.2500    -999.2500      41.9628    -999.2500    -999.2500     418.2230     288.7920       6.3055    -999.2500       0.3683    -999.2500       1.8057       3.3613
   2427.7041       4.9838       8.9384    -999.2500    -999.2500      32.7617    -999.2500    -999.2500     418.2230     288.7920       5.5799    -999.2500       0.2018    -999.2500       1.8991       2.6232
   2427.8564       4.9793       7.9465    -999.2500    -999.2500      30.6362    -999.2500    -999.2500     418.2230     288.7920       5.6662    -999.2500       0.1486    -999.2500       1.8130       2.5083
   2428.0088       4.9723       7.2993    -999.2500    -999.2500      30.1663    -999.2500    -999.2500     418.2230     288.7920       6.0603    -999.2500       0.1220    -999.2500       1.6845       2.5408
   2428.1611       4.9738       7.0947    -999.2500    -999.2500      30.1180    -999.2500    -999.2500     418.2230     288.7920       6.3035    -999.2500       0.1227    -999.2500       1.6491       2.5539
   2428.3137       4.9773       6.9942    -999.2500    -999.2500      30.1700    -999.2500    -999.2500     418.2230     288.7920       6.4269    -999.2500       0.1297    -999.2500       1.6356       2.5624
   2428.4661       4.9820       7.4992    -999.2500    -999.2500      29.9728    -999.2500    -999.2500     418.2230     288.7920       6.1528    -999.2500       0.1460    -999.2500       1.6925       2.4948
   2428.6184       4.9871       8.1474    -999.2500    -999.2500      29.7161    -999.2500    -999.2500     418.2230     288.7920       5.6780    -999.2500       0.1645    -999.2500       1.7660       2.4093
   2428.7708       4.9819       7.0890    -999.2500    -999.2500      28.3099    -999.2500    -999.2500     418.2230     288.7920       5.4054    -999.2500       0.1106    -999.2500       1.6979       2.3513
   2428.9231       4.9744       5.6286    -999.2500    -999.2500      26.6387    -999.2500    -999.2500     418.2230     288.7920       5.2557    -999.2500       0.0396    -999.2500       1.5964       2.2999
   2429.0757       4.9775       5.3122    -999.2500    -999.2500      26.6763    -999.2500    -999.2500     418.2230     288.7920       5.4617    -999.2500       0.0260    -999.2500       1.5681       2.3458
   2429.2280       4.9830       5.2667    -999.2500    -999.2500      27.1102    -999.2500    -999.2500     418.2230     288.7920       5.8617    -999.2500       0.0260    -999.2500       1.5571       2.4148
   2429.3804       4.9800       5.3874    -999.2500    -999.2500      26.7825    -999.2500    -999.2500     418.2230     288.7920       6.1904    -999.2500       0.0256    -999.2500       1.5987       2.3689
   2429.5327       4.9750       5.5474    -999.2500    -999.2500      26.2752    -999.2500    -999.2500     418.2230     288.7920       6.3195    -999.2500       0.0251    -999.2500       1.6527       2.2960
   2429.6853       4.9764       5.6273    -999.2500    -999.2500      26.1184    -999.2500    -999.2500     418.2230     288.7920       5.4526    -999.2500       0.0250    -999.2500       1.6784       2.2723
   2429.8376       4.9794       5.6884    -999.2500    -999.2500      26.0447    -999.2500    -999.2500     418.2230     288.7920       4.1430    -999.2500       0.0250    -999.2500       1.6974       2.2603
   2429.9900       4.9841       5.8650    -999.2500    -999.2500      26.7518    -999.2500    -999.2500     418.2230     288.7920       3.9364    -999.2500       0.0258    -999.2500       1.7511       2.3170
   2430.1423       4.9891       6.0689    -999.2500    -999.2500      27.6375    -999.2500    -999.2500     418.2230     288.7920       4.0994    -999.2500       0.0268    -999.2500       1.8131       2.3900
   2430.2949       4.9770       6.0558    -999.2500    -999.2500      27.4656    -999.2500    -999.2500     418.2230     288.7920       4.5022    -999.2500       0.0266    -999.2500       1.8092       2.3668
   2430.4473       4.9610       5.9913    -999.2500    -999.2500      27.0506    -999.2500    -999.2500     418.2230     288.7920       5.0137    -999.2500       0.0261    -999.2500       1.7897       2.3208
   2430.5996       4.9450       6.0959    -999.2500    -999.2500      27.2548    -999.2500    -999.2500     418.2230     288.7920       5.6337    -999.2500       0.0264    -999.2500       1.8232       2.3419
   2430.7520       4.9290       6.2405    -999.2500    -999.2500      27.6036    -999.2500    -999.2500     418.2230     288.7920       6.2931    -999.2500       0.0269    -999.2500       1.8692       2.3790
   2430.9043       4.9256       5.9649    -999.2500    -999.2500      27.5976    -999.2500    -999.2500     418.2230     288.7920       6.6735    -999.2500       0.0513    -999.2500       1.6833       2.4054
   2431.0569       4.9251       5.5905    -999.2500    -999.2500      27.5081    -999.2500    -999.2500     418.2230     288.7920       6.7654    -999.2500       0.0813    -999.2500       1.4429       2.4294
