#------------------------------------------------------------------------------
#
#   Created by  : [OpenWorks] Log Export Utility (LEXP)
#   Created on  : 2016-05-23 11:55:58
#   Project     : CANT971
#   User        : R5K
#   Interpreter : PEP
#
#------------------------------------------------------------------------------
~VERSION INFORMATION
VERS. 2.0 : CWLS Log ASCII Standard - version 2.0
WRAP.  NO : One line per depth step
~WELL INFORMATION
#MNEMONIC   .UNIT                                           VALUE :DESCRIPTION
#------------------------------------------------------------------------------
STRT        .M                                           646.6334 :START DEPTH
STOP        .M                                          2755.8494 :STOP DEPTH
STEP        .M                                             0.1524 :STEP
NULL        .                                           -999.2500 :NULL VALUE
COMP        .                                   PEMEX EXPL & PROD :COMPANY
WELL        .                                                  42 :WELL
FLD         .                                           CANTARELL :FIELD
LOC         .                                             UNKNOWN :LOCATION
CNTY        .                                      CD. DEL CARMEN :COUNTY
STAT        .                                            CAMPECHE :STATE
CTRY        .                                              MEXICO :COUNTRY
SRVC        .                                             UNKNOWN :SERVICE COMPANY
DATE        .                                             UNKNOWN :LOG DATE
UWI         .                                          3060000464 :UNIQUE WELL ID
XCOORD      .                                       599690.710000 :SURFACE X
YCOORD      .                                      2143036.470000 :SURFACE Y
LAT         .                                           19.380144 :LATITUDE
LON         .                                          -92.050691 :LONGITUDE
ELEV        .M                                            26.7400 :SURFACE ELEV
ELEV_TYPE   .                                                  KB :ELEV TYPE
~CURVE INFORMATION
#MNEMONIC.UNIT        API CODE       : CURVE DESCRIPTION
#------------------------------------------------------------------------------
DEPTH    .M                          : Measured Depth
CALI     .inches      UNKNOWN        : CALI:Import:rC:NONE:v0 (auto-composite)
DRHO     .g/cm3       UNKNOWN        : DRHO:Import:rC:NONE:v0 (auto-composite)
DT       .us/ft       UNKNOWN        : DT:Import:rC:NONE:v0 (auto-composite)
GR       .API         UNKNOWN        : GR:Import:rC:NONE:v0 (auto-composite)
ILD      .ohm.m       UNKNOWN        : ILD:Import:rC:NONE:v0 (auto-composite)
ILM      .ohm.m       UNKNOWN        : ILM:Import:rC:NONE:v0 (auto-composite)
LLD      .ohm.m       UNKNOWN        : LLD:Import:rC:NONE:v0 (auto-composite)
LLS      .ohm.m       UNKNOWN        : LLS:Import:rC:NONE:v0 (auto-composite)
MSFL     .ohm.m       UNKNOWN        : MSFL:Import:rC:NONE:v0 (auto-composite)
NPHI     .v/v_decimal UNKNOWN        : NPHI:Import:rC:NONE:v0 (auto-composite)
PEF      .b/elec      UNKNOWN        : PEF:Import:rC:NONE:v0 (auto-composite)
RHOB     .g/cm3       UNKNOWN        : RHOB:Import:rC:NONE:v0 (auto-composite)
~A     DEPTH         CALI         DRHO           DT           GR          ILD          ILM          LLD          LLS         MSFL         NPHI          PEF         RHOB
# ...
   2504.6941       8.9060       0.0015      50.3690      28.0554    -999.2500    -999.2500    4574.9209    5472.2324    -999.2500       0.0602       4.1390       2.6750
   2504.8467       8.9060      -0.0020      50.4570      26.6010    -999.2500    -999.2500    2184.2971    5644.6099    -999.2500       0.0637       4.4540       2.6570
   2504.9990       8.9060      -0.0040      51.1560      25.2143    -999.2500    -999.2500    2363.9133    6757.1587    -999.2500       0.0631       4.4425       2.6575
   2505.1514       8.9060      -0.0060      51.8550      23.8230    -999.2500    -999.2500    2543.5420    7869.7861    -999.2500       0.0625       4.4310       2.6580
   2505.3037       8.9060      -0.0040      51.8065      22.0575    -999.2500    -999.2500    5492.6836    6642.3135    -999.2500       0.0568       4.2660       2.6755
   2505.4561       8.9060      -0.0020      51.7580      20.2860    -999.2500    -999.2500    8442.4033    5414.6001    -999.2500       0.0510       4.1010       2.6930
   2505.6086       8.9060      -0.0020      51.8055      20.3833    -999.2500    -999.2500    4773.5811    6738.8252    -999.2500       0.0515       4.1160       2.6925
   2505.7610       8.9060      -0.0020      51.8530      20.4810    -999.2500    -999.2500    1103.5780    8063.4761    -999.2500       0.0520       4.1310       2.6920
   2505.9133       8.9060      -0.0030      52.1467      21.1623    -999.2500    -999.2500    1201.5935    6489.1016    -999.2500       0.0557       4.0775       2.6880
   2506.0657       8.9060      -0.0040      52.4400      21.8460    -999.2500    -999.2500    1299.4960    4916.5449    -999.2500       0.0594       4.0240       2.6840
   2506.2183       8.9060      -0.0060      52.9588      22.8746    -999.2500    -999.2500    2689.8093    4921.5249    -999.2500       0.0658       4.0330       2.6760
   2506.3706       8.9060      -0.0080      53.4770      23.9070    -999.2500    -999.2500    4078.6931    4926.5000    -999.2500       0.0722       4.0420       2.6680
   2506.5229       8.9060      -0.0115      55.3053      25.0348    -999.2500    -999.2500    2403.0972    5130.5332    -999.2500       0.0768       4.1060       2.6590
   2506.6753       8.9060      -0.0150      57.1320      26.1670    -999.2500    -999.2500     729.0150    5334.3818    -999.2500       0.0813       4.1700       2.6500
   2506.8279       8.9060      -0.0145      56.9304      26.1281    -999.2500    -999.2500    3339.0254    6520.0757    -999.2500       0.0812       4.3291       2.6430
   2506.9802       8.9060      -0.0140      56.7290      26.0890    -999.2500    -999.2500    5947.0068    7704.8481    -999.2500       0.0811       4.4880       2.6360
   2507.1326       8.9060      -0.0130      54.9639      25.7622    -999.2500    -999.2500    4795.7900    7568.6953    -999.2500       0.0803       4.4795       2.6365
   2507.2849       8.9060      -0.0120      53.2000      25.4340    -999.2500    -999.2500    3645.3240    7432.6309    -999.2500       0.0795       4.4710       2.6370
   2507.4373       8.9060      -0.0085      53.2015      24.2236    -999.2500    -999.2500    3739.9490    6708.5288    -999.2500       0.0757       4.4285       2.6515
   2507.5898       8.9060      -0.0050      53.2030      23.0080    -999.2500    -999.2500    3834.5239    5984.8081    -999.2500       0.0719       4.3860       2.6660
   2507.7422       8.9060      -0.0055      53.5496      23.3303    -999.2500    -999.2500    4497.2964    5084.7896    -999.2500       0.0728       4.3425       2.6650
   2507.8945       8.9060      -0.0060      53.8960      23.6540    -999.2500    -999.2500    5159.8032    4185.1318    -999.2500       0.0736       4.2990       2.6640
   2508.0469       8.9060      -0.0055      53.8820      23.5976    -999.2500    -999.2500    5991.5352    4349.0459    -999.2500       0.0735       4.1240       2.6530
   2508.1995       8.9060      -0.0050      53.8680      23.5410    -999.2500    -999.2500    6823.0381    4512.9150    -999.2500       0.0733       3.9490       2.6420
   2508.3518       8.9060      -0.0020      53.2315      22.8461    -999.2500    -999.2500    7562.6704    5930.4385    -999.2500       0.0716       3.8810       2.6430
   2508.5042       8.9060       0.0010      52.5950      22.1480    -999.2500    -999.2500    8302.1914    7347.7490    -999.2500       0.0699       3.8130       2.6440
   2508.6565       8.9060       0.0010      52.6430      22.7660    -999.2500    -999.2500    8237.6357    7342.8716    -999.2500       0.0644       3.8435       2.6510
   2508.8091       8.9060       0.0010      52.6910      23.3870    -999.2500    -999.2500    8173.0811    7337.9941    -999.2500       0.0589       3.8740       2.6580
   2508.9614       8.9060       0.0005      53.5485      23.3056    -999.2500    -999.2500    7870.9756    7256.8120    -999.2500       0.0537       4.0575       2.6670
   2509.1138       8.9060       0.0000      54.4060      23.2240    -999.2500    -999.2500    7568.8398    7175.6221    -999.2500       0.0486       4.2410       2.6760
   2509.2661       8.9060      -0.0035      54.3970      22.0296    -999.2500    -999.2500    7417.9033    5475.1006    -999.2500       0.0460       4.4855       2.6800
   2509.4185       8.9060      -0.0070      54.3880      20.8310    -999.2500    -999.2500    7266.9321    3774.1931    -999.2500       0.0435       4.7300       2.6840
   2509.5710       8.9060      -0.0070      53.4354      21.1210    -999.2500    -999.2500    6129.0112    6453.6831    -999.2500       0.0400       4.7195       2.6900
   2509.7234       8.9060      -0.0070      52.4840      21.4120    -999.2500    -999.2500    4990.6890    9134.1182    -999.2500       0.0366       4.7090       2.6960
   2509.8757       8.9060      -0.0060      53.8007      22.8234    -999.2500    -999.2500    5058.8691    8561.9990    -999.2500       0.0373       4.6470       2.7205
   2510.0281       8.9060      -0.0050      55.1160      24.2400    -999.2500    -999.2500    5126.9731    7990.5229    -999.2500       0.0383       4.5850       2.7450
   2510.1807       8.9060      -0.0035      55.1050      24.9167    -999.2500    -999.2500    6866.2915    5760.8604    -999.2500       0.0451       4.5135       2.7415
   2510.3330       8.9060      -0.0020      55.0940      25.5960    -999.2500    -999.2500    8603.8750    3533.4221    -999.2500       0.0518       4.4420       2.7380
   2510.4854       8.9060       0.0000      54.5102      25.4373    -999.2500    -999.2500    8120.2280    4441.0571    -999.2500       0.0478       4.4335       2.7225
   2510.6377       8.9060       0.0020      53.9270      25.2780    -999.2500    -999.2500    7637.0029    5347.8999    -999.2500       0.0437       4.4250       2.7070
   2510.7903       8.9060       0.0100      54.1411      24.3055    -999.2500    -999.2500    5660.8081    4386.1875    -999.2500       0.0446       4.2304       2.7350
   2510.9426       8.9060       0.0180      54.3550      23.3290    -999.2500    -999.2500    3686.0891    3425.1931    -999.2500       0.0457       4.0360       2.7630
   2511.0950       8.9060       0.0175      56.3081      22.0891    -999.2500    -999.2500    2573.2183    3666.2310    -999.2500       0.0522       4.0495       2.7600
   2511.2473       8.9060       0.0170      58.2600      20.8440    -999.2500    -999.2500    1461.0389    3907.1189    -999.2500       0.0589       4.0630       2.7570
   2511.3997       8.9130       0.0145      63.0527      20.6539    -999.2500    -999.2500    1698.9489    5392.4038    -999.2500       0.0730       4.1490       2.7065
   2511.5522       8.9200       0.0120      67.8430      20.4630    -999.2500    -999.2500    1936.7410    6876.9521    -999.2500       0.0869       4.2350       2.6560
   2511.7046       8.9885       0.0100      67.4609      19.6568    -999.2500    -999.2500    5230.2939    7752.0459    -999.2500       0.0863       4.1470       2.6565
   2511.8569       9.0570       0.0080      67.0790      18.8470    -999.2500    -999.2500    8522.6270    8626.8154    -999.2500       0.0854       4.0590       2.6570
