#------------------------------------------------------------------------------
#
#   Created by  : [OpenWorks] Log Export Utility (LEXP)
#   Created on  : 2016-05-23 11:50:53
#   Project     : CANT971
#   User        : R5K
#   Interpreter : PEP
#
#------------------------------------------------------------------------------
~VERSION INFORMATION
VERS. 2.0 : CWLS Log ASCII Standard - version 2.0
WRAP.  NO : One line per depth step
~WELL INFORMATION
#MNEMONIC   .UNIT                                           VALUE :DESCRIPTION
#------------------------------------------------------------------------------
STRT        .M                                           494.4622 :START DEPTH
STOP        .M                                          2707.4626 :STOP DEPTH
STEP        .M                                             0.1524 :STEP
NULL        .                                           -999.2500 :NULL VALUE
COMP        .                                   PEMEX EXPL & PROD :COMPANY
WELL        .                                                1042 :WELL
FLD         .                                           CANTARELL :FIELD
LOC         .                                             UNKNOWN :LOCATION
CNTY        .                                      CD. DEL CARMEN :COUNTY
STAT        .                                            CAMPECHE :STATE
CTRY        .                                              MEXICO :COUNTRY
SRVC        .                                             UNKNOWN :SERVICE COMPANY
DATE        .                                             UNKNOWN :LOG DATE
UWI         .                                          3060000495 :UNIQUE WELL ID
XCOORD      .                                       596162.680000 :SURFACE X
YCOORD      .                                      2150604.600000 :SURFACE Y
LAT         .                                           19.448706 :LATITUDE
LON         .                                          -92.083900 :LONGITUDE
ELEV        .M                                            30.0000 :SURFACE ELEV
ELEV_TYPE   .                                                  KB :ELEV TYPE
~CURVE INFORMATION
#MNEMONIC.UNIT        API CODE       : CURVE DESCRIPTION
#------------------------------------------------------------------------------
DEPTH    .M                          : Measured Depth
CALI     .inches      UNKNOWN        : CALI:litodensidad:rC:NONE:v0 (auto-composite)
DT       .us/ft       UNKNOWN        : DT:DT:rC:NONE:v0 (auto-composite)
GR       .API         UNKNOWN        : GR:GR-Load:rC:NONE:v0 (auto-composite)
ILD      .ohmm        UNKNOWN        : ILD:UNKNOWN:rC:NONE:v0 (auto-composite)
LLD      .ohmm        UNKNOWN        : LLD:UNKNOWN:rC:NONE:v0 (auto-composite)
LLS      .ohmm        UNKNOWN        : LLS:UNKNOWN:rC:NONE:v0 (auto-composite)
MSFL     .ohmm        UNKNOWN        : MSFL:UNKNOWN:rC:NONE:v0 (auto-composite)
NPHI     .v/v_decimal UNKNOWN        : NPHI:NPHI:rC:NONE:v0 (auto-composite)
~A     DEPTH         CALI           DT           GR          ILD          LLD          LLS         MSFL         NPHI
# ...
   2145.4114    -999.2500    -999.2500      22.7908       0.2000     159.1911     116.1544     161.2594       0.1092
   2145.5640    -999.2500    -999.2500      20.4297       0.2000     127.9397      93.9022     114.9023       0.1100
   2145.7163    -999.2500    -999.2500      17.4876       0.2000     110.5345      81.4041      73.9633       0.1024
   2145.8687    -999.2500    -999.2500      18.9880       0.2000     106.8719      79.6917      80.1047       0.0930
   2146.0210    -999.2500    -999.2500      24.9344       0.2000     111.8658      84.7733     115.9014       0.0818
   2146.1733    -999.2500    -999.2500      26.8372       0.2000     110.7000      85.8538     149.5141       0.0774
   2146.3259    -999.2500    -999.2500      24.6789       0.2000     105.7443      84.4725     181.7831       0.0798
   2146.4783    -999.2500    -999.2500      22.7140       0.2000      88.3421      72.9792     177.1611       0.0831
   2146.6306    -999.2500    -999.2500      20.9427       0.2000      63.4601      55.4090     150.3694       0.0876
   2146.7830    -999.2500    -999.2500      20.0607       0.2000      58.3852      52.4741     101.1958       0.0888
   2146.9355    -999.2500    -999.2500      20.0722       0.2000      64.9347      58.1282      38.8870       0.0868
   2147.0879    -999.2500    -999.2500      18.8921       0.2000      94.1665      84.0331      15.6315       0.0839
   2147.2402    -999.2500    -999.2500      16.5181       0.2000     136.4863     121.6228      14.9100       0.0800
   2147.3926    -999.2500    -999.2500      16.0883       0.2000     190.4033     155.9370      46.2955       0.0772
   2147.5452    -999.2500    -999.2500      17.6128       0.2000     250.8534     188.4060      95.7682       0.0754
   2147.6975    -999.2500    -999.2500      21.6323       0.2000     227.3879     160.6256      96.0462       0.0761
   2147.8499    -999.2500    -999.2500      28.1525       0.2000     157.7769      99.7138      69.2720       0.0791
   2148.0022    -999.2500    -999.2500      30.8425       0.2000     133.6624      74.4062      48.2869       0.0798
   2148.1545    -999.2500    -999.2500      29.6800       0.2000     133.9657      68.2076      30.4089       0.0783
   2148.3071    -999.2500    -999.2500      27.2040       0.2000     125.3036      62.1724      23.3367       0.0743
   2148.4595    -999.2500    -999.2500      23.4106       0.2000     111.9461      56.2229      21.9238       0.0678
   2148.6118    -999.2500    -999.2500      22.2130       0.2000      96.6828      51.3708      23.9610       0.0611
   2148.7642    -999.2500    -999.2500      23.6276       0.2000      80.4458      47.0793      27.7610       0.0541
   2148.9167    -999.2500    -999.2500      23.7897       0.2000     158.6479     100.0552      23.5177       0.0481
   2149.0691    -999.2500    -999.2500      22.6953       0.2000     284.2591     181.7798      15.2368       0.0429
   2149.2214    -999.2500    -999.2500      22.7566       0.2000     515.5325     321.7440       9.8078       0.0441
   2149.3738    -999.2500    -999.2500      23.9741       0.2000     798.5385     490.2225       5.7751       0.0517
   2149.5264    -999.2500    -999.2500      24.8341       0.2000     707.5623     435.3127      54.9293       0.0586
   2149.6787    -999.2500    -999.2500      25.3353       0.2000     438.0462     273.7568     129.4749       0.0649
   2149.8311    -999.2500    -999.2500      24.7735       0.2000     276.4826     171.7020     242.1565       0.0733
   2149.9834    -999.2500    -999.2500      23.1477       0.2000     165.1600      97.3389     372.5865       0.0838
   2150.1357    -999.2500    -999.2500      21.5539       0.2000     165.6806      92.5227     418.7453       0.0919
   2150.2883    -999.2500    -999.2500      19.9923       0.2000     216.9321     119.2524     426.6794       0.0977
   2150.4407    -999.2500    -999.2500      21.9472       0.2000     233.4338     134.4061     380.2317       0.1022
   2150.5930    -999.2500    -999.2500      27.4233       0.2000     234.4612     144.4048     309.5674       0.1057
   2150.7454    -999.2500    -999.2500      33.9036       0.2000     196.4084     130.9240     457.5992       0.1131
   2150.8979    -999.2500    -999.2500      41.3929       0.2000     141.4019     107.2574     700.5056       0.1247
   2151.0503    -999.2500    -999.2500      39.4553       0.2000     129.0508     109.4133     515.5295       0.1343
   2151.2026    -999.2500    -999.2500      28.0732       0.2000     134.7220     122.4795     149.7686       0.1419
   2151.3550    -999.2500    -999.2500      22.4433       0.2000     169.2347     155.0929      39.3980       0.1417
   2151.5076    -999.2500    -999.2500      22.5964       0.2000     215.6123     195.7476      34.0898       0.1337
   2151.6599    -999.2500    -999.2500      24.2055       0.2000     243.3015     217.6517      38.9413       0.1253
   2151.8123    -999.2500    -999.2500      27.2742       0.2000     263.5075     232.0476      47.8610       0.1163
   2151.9646    -999.2500    -999.2500      26.6515       0.2000     280.1785     246.3018      44.0136       0.1174
   2152.1169    -999.2500    -999.2500      22.3159       0.2000     295.4722     260.5008      35.1917       0.1283
   2152.2695    -999.2500    -999.2500      21.7794       0.2000     341.2475     303.0313      48.4372       0.1437
   2152.4219    -999.2500    -999.2500      25.0530       0.2000     398.6687     356.3862      70.1138       0.1635
   2152.5742    -999.2500    -999.2500      24.6071       0.2000     418.1205     371.0966      67.8050       0.2143
   2152.7266    -999.2500    -999.2500      20.4181       0.2000     423.4648     371.4486      56.5844       0.2957
   2152.8792    -999.2500    -999.2500      18.3395       0.2000     409.3352     354.5253      68.5396       0.3574
   2153.0315    -999.2500    -999.2500      18.3785       0.2000     388.1715     331.3621      88.8660       0.3992
   2153.1838    -999.2500    -999.2500      18.2676       0.2000     330.5984     277.6446     148.7637       0.3981
   2153.3362    -999.2500    -999.2500      18.0067       0.2000     260.2454     213.2025     222.5513       0.3542
   2153.4888    -999.2500    -999.2500      17.1309       0.2000     198.4291     158.5836     173.9427       0.3173
   2153.6411    -999.2500    -999.2500      15.6379       0.2000     139.5235     107.3140      83.6016       0.2873
   2153.7935    -999.2500    -999.2500      15.5894       0.2000     120.1178      91.3512      45.4669       0.2731
   2153.9458    -999.2500    -999.2500      16.9868       0.2000     113.9016      87.1776      24.7645       0.2745
   2154.0981    -999.2500    -999.2500      17.4839       0.2000     122.9738      94.9716     121.9653       0.2625
   2154.2507    -999.2500    -999.2500      17.0767       0.2000     137.0011     106.6444     257.3807       0.2369
   2154.4031    -999.2500    -999.2500      16.5466       0.2000     150.4316     117.5582     469.7148       0.2107
   2154.5554    -999.2500    -999.2500      15.8934       0.2000     163.6743     128.2333     706.2375       0.1840
   2154.7078    -999.2500    -999.2500      16.3556       0.2000     177.4833     139.5739     482.3479       0.1668
   2154.8604    -999.2500    -999.2500      17.9387       0.2000     191.4651     151.1174     118.0515       0.1592
   2155.0127    -999.2500    -999.2500      19.2717       0.2000     197.0861     155.3302      39.2809       0.1511
   2155.1650    -999.2500    -999.2500      20.3543       0.2000     200.2358     157.3763      44.9075       0.1425
   2155.3174    -999.2500    -999.2500      21.5205       0.2000     192.5658     148.9866      50.7807       0.1334
   2155.4700    -999.2500    -999.2500      22.7710       0.2000     181.7689     137.5810      56.7252       0.1238
   2155.6223    -999.2500    -999.2500      23.6586       0.2000     173.1908     129.0097      49.3758       0.1300
   2155.7747    -999.2500    -999.2500      24.1823       0.2000     165.2338     121.2316      38.3061       0.1519
