#------------------------------------------------------------------------------
#
#   Created by  : [OpenWorks] Log Export Utility (LEXP)
#   Created on  : 2016-05-23 11:56:31
#   Project     : CANT971
#   User        : R5K
#   Interpreter : PEP
#
#------------------------------------------------------------------------------
~VERSION INFORMATION
VERS. 2.0 : CWLS Log ASCII Standard - version 2.0
WRAP.  NO : One line per depth step
~WELL INFORMATION
#MNEMONIC   .UNIT                                           VALUE :DESCRIPTION
#------------------------------------------------------------------------------
STRT        .M                                          1639.8856 :START DEPTH
STOP        .M                                          2789.8960 :STOP DEPTH
STEP        .M                                             0.1524 :STEP
NULL        .                                           -999.2500 :NULL VALUE
COMP        .                                             UNKNOWN :COMPANY
WELL        .                                                 477 :WELL
FLD         .                                             UNKNOWN :FIELD
LOC         .                                             UNKNOWN :LOCATION
CNTY        .                                             UNKNOWN :COUNTY
STAT        .                                             UNKNOWN :STATE
CTRY        .                                             UNKNOWN :COUNTRY
SRVC        .                                             UNKNOWN :SERVICE COMPANY
DATE        .                                             UNKNOWN :LOG DATE
UWI         .                                                 477 :UNIQUE WELL ID
XCOORD      .                                       598704.070000 :SURFACE X
YCOORD      .                                      2143268.860000 :SURFACE Y
LAT         .                                           19.382293 :LATITUDE
LON         .                                          -92.060073 :LONGITUDE
ELEV        .M                                             0.0000 :SURFACE ELEV
ELEV_TYPE   .                                                  KB :ELEV TYPE
~CURVE INFORMATION
#MNEMONIC.UNIT        API CODE       : CURVE DESCRIPTION
#------------------------------------------------------------------------------
DEPTH    .M                          : Measured Depth
CALI     .inches      UNKNOWN        : CALI:litodensidad:rC:NONE:v0 (auto-composite)
CGR      .API         UNKNOWN        : CGR:Espectrometria:rC:NONE:v0 (auto-composite)
DRHO     .g/cm3       UNKNOWN        : DRHO:litodensidad:rC:NONE:v0 (auto-composite)
DT       .us/ft       UNKNOWN        : DT:Sonico:rC:NONE:v0 (auto-composite)
GR       .API         UNKNOWN        : GR:Espectrometria:rC:NONE:v0 (auto-composite)
GR-LWD   .API         UNKNOWN        : GR-LWD:resistivos-LWD:rC:NONE:v0 (auto-composite)
LLD      .ohm.m       UNKNOWN        : LLD:resistivos:rC:NONE:v0 (auto-composite)
LLD-LWD  .ohm.m       UNKNOWN        : LLD-LWD:resistivos-LWD:rC:NONE:v0 (auto-composite)
LLS      .ohm.m       UNKNOWN        : LLS:resistivos:rC:NONE:v0 (auto-composite)
LLS-LWD  .ohm.m       UNKNOWN        : LLS-LWD:resistivos-LWD:rC:NONE:v0 (auto-composite)
MSFL     .ohm.m       UNKNOWN        : MSFL:resistivos:rC:NONE:v0 (auto-composite)
MSFL-LWD .ohm.m       UNKNOWN        : MSFL-LWD:resistivos-LWD:rC:NONE:v0 (auto-composite)
NPHI     .UNKNOWN     UNKNOWN        : NPHI:porosidad:rC:NONE:v0 (auto-composite)
PEF      .UNKNOWN     UNKNOWN        : PEF:litodensidad:rC:NONE:v0 (auto-composite)
POTA     .wtpercent   UNKNOWN        : POTA:PETROWORKS:rC:NONE:v1 
RHOB     .g/cm3       UNKNOWN        : RHOB:litodensidad:rC:NONE:v0 (auto-composite)
THOR     .ppm         UNKNOWN        : THOR:Espectrometria:rC:NONE:v0 (auto-composite)
URAN     .ppm         UNKNOWN        : URAN:Espectrometria:rC:NONE:v0 (auto-composite)
~A     DEPTH         CALI          CGR         DRHO           DT           GR       GR-LWD          LLD      LLD-LWD          LLS      LLS-LWD         MSFL     MSFL-LWD         NPHI          PEF         POTA         RHOB         THOR         URAN
# ...
   2198.1267       9.0291       2.9941       0.0218    -999.2500      10.1669    -999.2500    3505.5159    -999.2500     664.9181    -999.2500      23.7670    -999.2500       0.0362       3.4701       0.0014       2.6485       0.2930       0.7986
   2198.2793       9.0302       2.6378       0.0219    -999.2500      11.8956    -999.2500    3926.7839    -999.2500     785.4231    -999.2500      28.0111    -999.2500       0.0356       3.5020       0.0015       2.6635       0.1398       1.0307
   2198.4316       9.0053       1.6524       0.0199    -999.2500      15.5270    -999.2500    3971.5469    -999.2500     801.1669    -999.2500      32.5660    -999.2500       0.0365       3.5323       0.0010       2.6608       0.0758       1.5447
   2198.5840       8.9718       1.1862       0.0239    -999.2500      21.4157    -999.2500    3252.1221    -999.2500     638.0687    -999.2500      34.5055    -999.2500       0.0398       3.5665       0.0003       2.6595       0.2198       2.2522
   2198.7363       8.7928       1.9515       0.0275    -999.2500      28.2946    -999.2500    2586.4873    -999.2500     493.7541    -999.2500      34.4245    -999.2500       0.0447       3.6052       0.0003       2.6575       0.4471       2.9329
   2198.8889       8.7698       2.5576       0.0252    -999.2500      33.5850    -999.2500    2189.4810    -999.2500     413.5752    -999.2500      34.5859    -999.2500       0.0490       3.6328       0.0003       2.6439       0.6178       3.4544
   2199.0413       8.8410       2.8541       0.0206    -999.2500      36.4283    -999.2500    1980.0475    -999.2500     383.1445    -999.2500      39.7716    -999.2500       0.0521       3.6334       0.0004       2.6191       0.6670       3.7379
   2199.1936       8.7953       3.7533       0.0218    -999.2500      38.3138    -999.2500    1916.1451    -999.2500     381.9141    -999.2500      48.3244    -999.2500       0.0543       3.6037       0.0012       2.6026       0.5942       3.8478
   2199.3459       8.7536       4.7144       0.0226    -999.2500      40.2133    -999.2500    1894.6333    -999.2500     382.4118    -999.2500      49.8593    -999.2500       0.0553       3.5369       0.0021       2.5973       0.4854       3.9523
   2199.4985       8.7238       6.6528       0.0164    -999.2500      43.2461    -999.2500    1873.6754    -999.2500     375.0130    -999.2500      49.3712    -999.2500       0.0560       3.4395       0.0034       2.5918       0.5285       4.0741
   2199.6509       8.7177       7.6813       0.0036    -999.2500      46.8532    -999.2500    1847.3522    -999.2500     364.7363    -999.2500      48.4191    -999.2500       0.0560       3.3744       0.0041       2.5817       0.5389       4.3612
   2199.8032       8.7148       8.3442      -0.0037    -999.2500      50.0035    -999.2500    1874.6021    -999.2500     361.9712    -999.2500      37.2968    -999.2500       0.0564       3.3749       0.0045       2.5803       0.5747       4.6381
   2199.9556       8.7179       7.7507      -0.0035    -999.2500      50.1054    -999.2500    1902.2693    -999.2500     353.1492    -999.2500      39.4084    -999.2500       0.0612       3.4254       0.0040       2.5810       0.6067       4.7155
   2200.1079       8.7208       7.3875       0.0002    -999.2500      46.4126    -999.2500    1947.2891    -999.2500     347.6998    -999.2500      44.4076    -999.2500       0.0669       3.4632       0.0039       2.5722       0.5530       4.3448
   2200.2605       8.7776       5.9756       0.0100    -999.2500      38.9104    -999.2500    1937.2755    -999.2500     335.9416    -999.2500      44.8244    -999.2500       0.0646       3.4790       0.0034       2.5553       0.3479       3.6668
   2200.4128       9.1902       4.4552       0.0278    -999.2500      31.0655    -999.2500    1872.1014    -999.2500     325.2105    -999.2500      35.7433    -999.2500       0.0531       3.4879       0.0025       2.5576       0.2539       2.9626
   2200.5652      10.1101       3.0548       0.0473    -999.2500      25.7775    -999.2500    1655.7340    -999.2500     306.4994    -999.2500      29.5643    -999.2500       0.0381       3.4988       0.0017       2.5785       0.1959       2.5298
   2200.7175      10.8481       2.5552       0.0614    -999.2500      23.8521    -999.2500    1276.7877    -999.2500     261.4547    -999.2500      20.4954    -999.2500       0.0293       3.5089       0.0014       2.5969       0.1628       2.3710
   2200.8701      10.3122       2.5410       0.0685    -999.2500      25.5859    -999.2500     927.1958    -999.2500     203.2352    -999.2500      15.1001    -999.2500       0.0306       3.5168       0.0017       2.6030       0.0633       2.5657
   2201.0225      10.2579       3.1052       0.0742    -999.2500      31.1023    -999.2500     715.1606    -999.2500     157.5425    -999.2500      14.0483    -999.2500       0.0346       3.5459       0.0020       2.5997       0.0749       3.1170
   2201.1748      10.3659       4.6486       0.0867    -999.2500      38.6488    -999.2500     610.9437    -999.2500     131.1870    -999.2500      16.9742    -999.2500       0.0375       3.6343       0.0028       2.5904       0.2092       3.7854
   2201.3271       9.5375       5.2309       0.1060    -999.2500      44.7743    -999.2500     554.5009    -999.2500     116.4639    -999.2500      13.0032    -999.2500       0.0410       3.7537       0.0035       2.5809       0.0875       4.4025
   2201.4797       9.2496       4.3468       0.1172    -999.2500      50.6799    -999.2500     529.6559    -999.2500     110.2672    -999.2500      10.5812    -999.2500       0.0431       3.8110       0.0029       2.5898       0.0855       5.1584
   2201.6321       9.1512       1.8118       0.1013    -999.2500      45.5902    -999.2500     470.7774    -999.2500      95.6326    -999.2500       7.6332    -999.2500       0.0426       3.7417       0.0011       2.6060       0.0956       4.8740
   2201.7844       9.2670       1.0649       0.0663    -999.2500      37.1874    -999.2500     375.0509    -999.2500      73.9223    -999.2500      13.0061    -999.2500       0.0417       3.6105       0.0003       2.6116       0.1935       4.0216
   2201.9368       9.3220       0.8976       0.0332    -999.2500      30.0007    -999.2500     286.1383    -999.2500      54.1753    -999.2500      39.3858    -999.2500       0.0420       3.5190       0.0003       2.5955       0.1498       3.2402
   2202.0891       9.4442       0.4506       0.0178    -999.2500      25.6464    -999.2500     227.9141    -999.2500      41.7364    -999.2500      66.4237    -999.2500       0.0437       3.4962       0.0002       2.5821       0.0387       2.8052
   2202.2417       9.2254       0.4556       0.0229    -999.2500      24.7769    -999.2500     198.3063    -999.2500      36.3667    -999.2500      35.6114    -999.2500       0.0480       3.5234       0.0002       2.5838       0.0348       2.7078
   2202.3940       9.3217       0.4810       0.0402    -999.2500      25.8544    -999.2500     187.7116    -999.2500      35.5406    -999.2500      21.6328    -999.2500       0.0532       3.5658       0.0002       2.5910       0.0426       2.8249
   2202.5464       9.5514       0.8498       0.0543    -999.2500      26.7136    -999.2500     187.5998    -999.2500      36.0263    -999.2500      16.4154    -999.2500       0.0557       3.6020       0.0005       2.5851       0.0452       2.8795
   2202.6987      10.4728       1.9929       0.0634    -999.2500      28.0521    -999.2500     194.1861    -999.2500      37.6465    -999.2500      10.1067    -999.2500       0.0556       3.6173       0.0013       2.5693       0.0446       2.9013
   2202.8513      10.8882       3.9736       0.0761    -999.2500      27.7266    -999.2500     209.7839    -999.2500      41.0244    -999.2500       7.2715    -999.2500       0.0556       3.6406       0.0027       2.5563       0.0662       2.6445
   2203.0037      11.0609       5.2346       0.0932    -999.2500      28.9257    -999.2500     233.2178    -999.2500      44.6852    -999.2500       8.1328    -999.2500       0.0580       3.6710       0.0036       2.5649       0.0611       2.6376
