#------------------------------------------------------------------------------
#
#   Created by  : [OpenWorks] Log Export Utility (LEXP)
#   Created on  : 2016-05-23 11:57:21
#   Project     : CANT971
#   User        : R5K
#   Interpreter : PEP
#
#------------------------------------------------------------------------------
~VERSION INFORMATION
VERS. 2.0 : CWLS Log ASCII Standard - version 2.0
WRAP.  NO : One line per depth step
~WELL INFORMATION
#MNEMONIC   .UNIT                                           VALUE :DESCRIPTION
#------------------------------------------------------------------------------
STRT        .M                                           117.7290 :START DEPTH
STOP        .M                                          2309.5459 :STOP DEPTH
STEP        .M                                             0.1524 :STEP
NULL        .                                           -999.2500 :NULL VALUE
COMP        .                                   PEMEX EXPL & PROD :COMPANY
WELL        .                                                  7A :WELL
FLD         .                                           CANTARELL :FIELD
LOC         .                                             UNKNOWN :LOCATION
CNTY        .                                      CD. DEL CARMEN :COUNTY
STAT        .                                            CAMPECHE :STATE
CTRY        .                                              MEXICO :COUNTRY
SRVC        .                                             UNKNOWN :SERVICE COMPANY
DATE        .                                             UNKNOWN :LOG DATE
UWI         .                                          3060000143 :UNIQUE WELL ID
XCOORD      .                                       603360.310000 :SURFACE X
YCOORD      .                                      2145096.320000 :SURFACE Y
LAT         .                                           19.398572 :LATITUDE
LON         .                                          -92.015639 :LONGITUDE
ELEV        .M                                            27.1400 :SURFACE ELEV
ELEV_TYPE   .                                                  KB :ELEV TYPE
~CURVE INFORMATION
#MNEMONIC.UNIT        API CODE       : CURVE DESCRIPTION
#------------------------------------------------------------------------------
DEPTH    .M                          : Measured Depth
CALI     .in          UNKNOWN        : CALI:resistivos:rC:NONE:v0 (auto-composite)
DRHO     .g/cm3       UNKNOWN        : DRHO:PETROWORKS:rC:NONE:v2 
DT       .us/ft       UNKNOWN        : DT:DT:rC:NONE:v0 (auto-composite)
GR       .API         UNKNOWN        : GR:UNKNOWN:rC:NONE:v0 (auto-composite)
ILD      .ohmm        UNKNOWN        : ILD:resistivos:rC:NONE:v0 (auto-composite)
LLD      .ohm.m       UNKNOWN        : LLD:UNKNOWN:rC:NONE:v0 (auto-composite)
LLS      .ohm.m       UNKNOWN        : LLS:UNKNOWN:rC:NONE:v0 (auto-composite)
MSFL     .ohm.m       UNKNOWN        : MSFL:UNKNOWN:rC:NONE:v0 (auto-composite)
NPHI     .v/v_decimal     UNKNOWN        : NPHI:PETROWORKS:rC:NONE:v1 
RHOB     .g/cm3       UNKNOWN        : RHOB:UNKNOWN:rC:NONE:v0 (auto-composite)
SN       .ohm.m       UNKNOWN        : SN:UNKNOWN:rC:NONE:v0 (auto-composite)
~A     DEPTH         CALI         DRHO           DT           GR          ILD          LLD          LLS         MSFL         NPHI         RHOB           SN
# ...
   2146.4778       6.9036       0.0000      56.0930      22.1861    -999.2500     137.8244     122.8846      80.0824       0.0903       2.7095    -999.2500
   2146.6301       6.9486       0.0000      55.7632      21.5764    -999.2500     117.1569     106.4892      83.8598       0.0914       2.6985    -999.2500
   2146.7827       6.9858       0.0000      55.4390      21.4450    -999.2500     106.9613      93.9826      79.6014       0.0916       2.7000    -999.2500
   2146.9351       7.0153       0.0000      55.1203      21.8000    -999.2500     107.4115      85.4294      67.1740       0.0920       2.7140    -999.2500
   2147.0874       7.0343       0.0000      54.6442      22.0384    -999.2500     111.3755      86.8329      61.4552       0.0926       2.7265    -999.2500
   2147.2397       7.0428       0.0000      54.0125      22.1608    -999.2500     118.8333      98.1366      62.4067       0.0931       2.7375    -999.2500
   2147.3921       7.0216       0.0000      53.3845      22.2220    -999.2500     117.4845     101.8352      52.3404       0.0932       2.7373    -999.2500
   2147.5447       6.9711       0.0000      52.7603      22.2220    -999.2500     107.3490      97.9460      31.2808       0.0924       2.7258    -999.2500
   2147.6970       6.9038       0.0000      52.6207      22.2245    -999.2500     109.0310      99.3201      27.2390       0.0884       2.7257    -999.2500
   2147.8494       6.8198       0.0000      52.9600      22.2295    -999.2500     122.6206     105.9977      40.3448       0.0839       2.7372    -999.2500
   2148.0017       6.7780       0.0000      53.5996      22.5056    -999.2500     143.8601     119.6470      59.2193       0.0776       2.7455    -999.2500
   2148.1543       6.7780       0.0000      54.5369      23.0559    -999.2500     172.8346     140.3456      83.9267       0.0728       2.7505    -999.2500
   2148.3066       6.7873       0.0000      55.1420      23.2404    -999.2500     185.8233     149.4465      95.8630       0.0723       2.7505    -999.2500
   2148.4590       6.8058       0.0000      55.4183      23.0539    -999.2500     182.5923     146.7801      94.8417       0.0728       2.7455    -999.2500
   2148.6113       6.8298       0.0000      55.3705      22.4056    -999.2500     169.3930     138.9028      90.6908       0.0760       2.7405    -999.2500
   2148.7639       6.8593       0.0000      55.0008      21.2989    -999.2500     146.3015     125.8544      83.4343       0.0788       2.7355    -999.2500
   2148.9163       6.8964       0.0000      54.9318      20.7892    -999.2500     127.1037     109.3785      76.3947       0.0807       2.7380    -999.2500
   2149.0686       6.9408       0.0000      55.1602      20.8776    -999.2500     111.8083      89.4676      69.5727       0.0825       2.7480    -999.2500
   2149.2209       6.9695       0.0000      55.5677      20.9818    -999.2500     110.4115      82.2163      74.0691       0.0839       2.7525    -999.2500
   2149.3733       6.9825       0.0000      56.1529      21.1018    -999.2500     122.9921      87.6964      89.9482       0.0854       2.7515    -999.2500
   2149.5259       6.9639       0.0000      56.7512      21.3647    -999.2500     122.0166      92.6141     104.6309       0.0872       2.7527    -999.2500
   2149.6782       6.9139       0.0000      57.3624      21.7721    -999.2500     107.3609      96.9643     118.1061       0.0890       2.7562    -999.2500
   2149.8306       6.8890       0.0000      57.7591      22.0380    -999.2500      94.0739      91.8980     115.9428       0.0906       2.7558    -999.2500
   2149.9829       6.8890       0.0000      57.9440      22.1607    -999.2500      82.1730      77.2962      97.9433       0.0925       2.7513    -999.2500
   2150.1355       6.9048       0.0000      57.6686      21.9049    -999.2500      74.0334      70.4182      80.8818       0.0956       2.7427    -999.2500
   2150.2878       6.9363       0.0000      56.9373      21.2717    -999.2500      69.6433      71.2394      64.7553       0.0978       2.7302    -999.2500
   2150.4402       6.9623       0.0000      56.3180      20.7496    -999.2500      70.3814      76.8136      66.6024       0.0976       2.7210    -999.2500
   2150.5925       6.9828       0.0000      55.8092      20.3388    -999.2500      76.2488      87.1422      86.4279       0.0966       2.7150    -999.2500
   2150.7451       6.9948       0.0000      55.9338      20.0208    -999.2500      82.1660      90.9433      90.7110       0.0932       2.7110    -999.2500
   2150.8975       6.9983       0.0000      56.6861      19.7961    -999.2500      88.1332      88.1926      79.3939       0.0909       2.7090    -999.2500
   2151.0498       7.0000       0.0000      57.5246      19.3219    -999.2500      92.2772      84.4526      71.7839       0.0922       2.7001    -999.2500
   2151.2021       7.0000       0.0000      58.4482      18.5947    -999.2500      94.5732      79.7097      67.9316       0.0946       2.6841    -999.2500
   2151.3545       7.0000       0.0000      59.4081      18.5643    -999.2500      95.0104      76.6919      71.9803       0.1008       2.6633    -999.2500
   2151.5071       7.0000       0.0000      60.4039      19.2427    -999.2500      93.5569      75.4289      84.0658       0.1075       2.6378    -999.2500
   2151.6594       7.0000       0.0000      61.2315      19.4825    -999.2500      92.8320      74.8464      74.9827       0.1154       2.6195    -999.2500
   2151.8118       7.0000       0.0000      61.8927      19.2861    -999.2500      92.8320      74.9408      44.8397       0.1233       2.6085    -999.2500
   2151.9641       7.0000       0.0000      61.7946      18.9111    -999.2500      92.8320      77.2539      32.1881       0.1315       2.6008    -999.2500
   2152.1167       7.0000       0.0000      60.9433      18.3578    -999.2500      92.8320      81.7818      36.9981       0.1393       2.5963    -999.2500
   2152.2690       6.9942       0.0000      60.3305      17.9466    -999.2500      92.3564      83.9891      46.2017       0.1463       2.5957    -999.2500
   2152.4214       6.9827       0.0000      59.9537      17.6787    -999.2500      91.4013      83.8566      59.8348       0.1513       2.5992    -999.2500
   2152.5737       6.9411       0.0000      59.6455      17.3254    -999.2500      88.1457      80.8206      63.0875       0.1492       2.6062    -999.2500
   2152.7263       6.8696       0.0000      59.4054      16.8857    -999.2500      82.5628      74.8470      55.8384       0.1456       2.6168    -999.2500
   2152.8787       6.8385       0.0000      59.0805      16.6670    -999.2500      80.1050      71.8760      54.0181       0.1368       2.6328    -999.2500
   2153.0310       6.8475       0.0000      58.6717      16.6670    -999.2500      80.7398      71.8760      57.5696       0.1284       2.6543    -999.2500
   2153.1833       6.8871       0.0000      57.6247      16.8660    -999.2500      86.7855      74.7353      63.1726       0.1214       2.6743    -999.2500
   2153.3357       6.9572       0.0000      55.9441      17.2625    -999.2500      98.2039      80.4338      70.8127       0.1149       2.6927    -999.2500
   2153.4883       6.9905       0.0000      54.4784      17.7807    -999.2500     111.9786      88.5135      68.0076       0.1103       2.7092    -999.2500
   2153.6406       6.9875       0.0000      53.2254      18.4209    -999.2500     128.1161      98.9810      54.7283       0.1057       2.7237    -999.2500
   2153.7930       6.9592       0.0000      52.3676      19.0016    -999.2500     145.9671     108.4321      41.1601       0.1009       2.7382    -999.2500
   2153.9453       6.9056       0.0000      51.8998      19.5224    -999.2500     165.5421     116.8604      27.3010       0.0961       2.7527    -999.2500
   2154.0979       6.8376       0.0000      51.9183      19.8377    -999.2500     185.1062     126.8187      27.0151       0.0914       2.7645    -999.2500
   2154.2502       6.7551       0.0000      52.4185      19.9457    -999.2500     204.6593     138.3217      40.4343       0.0871       2.7735    -999.2500
