#------------------------------------------------------------------------------
#
#   Created by  : [OpenWorks] Log Export Utility (LEXP)
#   Created on  : 2016-05-23 11:57:01
#   Project     : CANT971
#   User        : R5K
#   Interpreter : PEP
#
#------------------------------------------------------------------------------
~VERSION INFORMATION
VERS. 2.0 : CWLS Log ASCII Standard - version 2.0
WRAP.  NO : One line per depth step
~WELL INFORMATION
#MNEMONIC   .UNIT                                           VALUE :DESCRIPTION
#------------------------------------------------------------------------------
STRT        .M                                           485.8514 :START DEPTH
STOP        .M                                          3526.5361 :STOP DEPTH
STEP        .M                                             0.1524 :STEP
NULL        .                                           -999.2500 :NULL VALUE
COMP        .                                   PEMEX EXPL & PROD :COMPANY
WELL        .                                                  62 :WELL
FLD         .                                           CANTARELL :FIELD
LOC         .                                             UNKNOWN :LOCATION
CNTY        .                                      CD. DEL CARMEN :COUNTY
STAT        .                                            CAMPECHE :STATE
CTRY        .                                              MEXICO :COUNTRY
SRVC        .                                             UNKNOWN :SERVICE COMPANY
DATE        .                                             UNKNOWN :LOG DATE
UWI         .                                          3060000468 :UNIQUE WELL ID
XCOORD      .                                       601711.280000 :SURFACE X
YCOORD      .                                      2142346.320000 :SURFACE Y
LAT         .                                           19.373806 :LATITUDE
LON         .                                          -92.031488 :LONGITUDE
ELEV        .M                                            24.0000 :SURFACE ELEV
ELEV_TYPE   .                                                  KB :ELEV TYPE
~CURVE INFORMATION
#MNEMONIC.UNIT        API CODE       : CURVE DESCRIPTION
#------------------------------------------------------------------------------
DEPTH    .M                          : Measured Depth
CALI     .inches      UNKNOWN        : CALI:editado:rC:NONE:v0 (auto-composite)
DRHO     .g/cm3       UNKNOWN        : DRHO:editado:rC:NONE:v0 (auto-composite)
DT       .us/ft       UNKNOWN        : DT:editado:rC:NONE:v0 (auto-composite)
GR       .API         UNKNOWN        : GR:editado:rC:NONE:v0 (auto-composite)
ILD      .ohm.m       UNKNOWN        : ILD:editado:rC:NONE:v0 (auto-composite)
ILM      .ohm.m       UNKNOWN        : ILM:editado:rC:NONE:v0 (auto-composite)
LLD      .ohm.m       UNKNOWN        : LLD:editado:rC:NONE:v0 (auto-composite)
LLS      .ohm.m       UNKNOWN        : LLS:editado:rC:NONE:v0 (auto-composite)
MSFL     .ohm.m       UNKNOWN        : MSFL:editado:rC:NONE:v0 (auto-composite)
NPHI     .v/v_decimal UNKNOWN        : NPHI:editado:rC:NONE:v0 (auto-composite)
PEF      .b/elec      UNKNOWN        : PEF:editado:rC:NONE:v0 (auto-composite)
RHOB     .g/cm3       UNKNOWN        : RHOB:editado:rC:NONE:v0 (auto-composite)
~A     DEPTH         CALI         DRHO           DT           GR          ILD          ILM          LLD          LLS         MSFL         NPHI          PEF         RHOB
# ...
   2175.6626       8.9600       0.0340      55.4790      86.7170    -999.2500    -999.2500     275.4360     125.7100     248.0540       0.1038       4.0760       2.6750
   2175.8149       8.9294       0.0209      53.7387      73.9804    -999.2500    -999.2500    1261.9875     327.0652     660.3546       0.0861       4.0403       2.6815
   2175.9675       8.8990       0.0080      52.0000      61.2960    -999.2500    -999.2500    2241.3540     526.9540    1069.0000       0.0691       4.0050       2.6880
   2176.1199       8.8438       0.0060      52.0040      51.4199    -999.2500    -999.2500    2078.1724     501.0127     827.0979       0.0601       4.0376       2.7006
   2176.2722       8.7890       0.0040      52.0080      41.5830    -999.2500    -999.2500    1916.1580     475.2570     587.3120       0.0547       4.0700       2.7130
   2176.4246       8.8282      -0.0015      52.1291      40.5635    -999.2500    -999.2500    2221.9814     488.6717    1202.3057       0.0518       3.9615       2.7155
   2176.5769       8.8670      -0.0070      52.2500      39.5480    -999.2500    -999.2500    2525.6541     501.9920    1812.0000       0.0495       3.8540       2.7180
   2176.7295       8.8570      -0.0055      52.2190      36.9361    -999.2500    -999.2500    2356.4080     567.5405    1173.0975       0.0463       3.8902       2.7270
   2176.8818       8.8470      -0.0040      52.1880      34.3380    -999.2500    -999.2500    2188.6001     632.5320     539.6250       0.0419       3.9260       2.7360
   2177.0342       8.7983      -0.0045      51.9187      31.6701    -999.2500    -999.2500    2298.2383     716.1287     764.8799       0.0345       4.0555       2.7581
   2177.1865       8.7500      -0.0050      51.6500      29.0160    -999.2500    -999.2500    2406.9590     799.0260     988.2500       0.0283       4.1840       2.7800
   2177.3391       8.7565      -0.0040      50.4644      29.0917    -999.2500    -999.2500    2894.0603     842.5034     893.6096       0.0286       3.9074       2.7800
   2177.4915       8.7630      -0.0030      49.2810      29.1670    -999.2500    -999.2500    3377.1431     885.6220     799.7500       0.0351       3.6330       2.7800
   2177.6438       8.7997       0.0020      49.4101      29.9229    -999.2500    -999.2500    3327.0400     870.2240    1319.9012       0.0536       3.6752       2.7720
   2177.7961       8.8360       0.0070      49.5390      30.6750    -999.2500    -999.2500    3277.3440     854.9510    1835.0000       0.0711       3.7170       2.7640
   2177.9487       8.8184       0.0060      51.9279      34.5654    -999.2500    -999.2500    3116.9790     795.6624    1110.2152       0.0738       4.0134       2.7384
   2178.1011       8.8010       0.0050      54.3130      38.4370    -999.2500    -999.2500    2957.8970     736.8480     392.3750       0.0690       4.3070       2.7130
   2178.2534       8.8166       0.0015      53.3433      38.3117    -999.2500    -999.2500    2719.9678     743.1960     925.5858       0.0567       4.2723       2.7160
   2178.4058       8.8320      -0.0020      52.3750      38.1870    -999.2500    -999.2500    2483.9109     749.4940    1453.7500       0.0452       4.2380       2.7190
   2178.5581       8.8300      -0.0020      55.0643      38.3975    -999.2500    -999.2500    2634.2053     784.7708     867.9540       0.0430       4.1225       2.7295
   2178.7107       8.8280      -0.0020      57.7500      38.6070    -999.2500    -999.2500    2783.3350     819.7740     287.6250       0.0434       4.0080       2.7400
   2178.8630       8.8144       0.0030      57.2647      39.8728    -999.2500    -999.2500    3358.6516     802.6467     369.5651       0.0425       3.9291       2.7305
   2179.0154       8.8010       0.0080      56.7800      41.1330    -999.2500    -999.2500    3929.5840     785.6500     450.7500       0.0401       3.8510       2.7210
   2179.1677       8.7754       0.0075      54.9995      46.1789    -999.2500    -999.2500    4535.9463     939.7610     338.6865       0.0353       4.1298       2.7240
   2179.3203       8.7500       0.0070      53.2210      51.2030    -999.2500    -999.2500    5137.7598    1092.7159     227.6410       0.0300       4.4060       2.7270
   2179.4727       8.7560       0.0040      51.7973      50.8017    -999.2500    -999.2500    5068.7822    1082.4351     241.7899       0.0258       4.3648       2.7426
   2179.6250       8.7620       0.0010      50.3750      50.4020    -999.2500    -999.2500    5000.3130    1072.2300     255.8120       0.0227       4.3240       2.7580
   2179.7773       8.7605       0.0136      50.7031      47.4921    -999.2500    -999.2500    4579.0269    1074.4280     187.4475       0.0213       3.9780       2.7570
   2179.9299       8.7590       0.0260      51.0310      44.5940    -999.2500    -999.2500    4160.7959    1076.6100     119.6870       0.0209       3.6350       2.7560
   2180.0823       8.7444       0.0235      50.4213      49.5803    -999.2500    -999.2500    3382.0745    1043.3285     321.0025       0.0215       3.7138       2.7580
   2180.2346       8.7300       0.0210      49.8130      54.5470    -999.2500    -999.2500    2608.8989    1010.2840     520.5630       0.0237       3.7920       2.7600
   2180.3870       8.7913       0.0130      49.8440      54.3261    -999.2500    -999.2500    2619.5022     841.3003     328.2685       0.0293       3.7774       2.7580
   2180.5393       8.8520       0.0050      49.8750      54.1060    -999.2500    -999.2500    2630.0310     673.5000     137.6250       0.0394       3.7630       2.7560
   2180.6919       8.8440      -0.0015      50.2569      44.6686    -999.2500    -999.2500    2680.3706     678.2009     478.3803       0.0588       3.6691       2.7178
   2180.8442       8.8360      -0.0080      50.6380      35.2810    -999.2500    -999.2500    2730.2839     682.8620     816.2500       0.0761       3.5760       2.6800
   2180.9966       8.8360      -0.0075      52.1640      35.6575    -999.2500    -999.2500    3973.6592     898.8203     795.3499       0.0779       3.5976       2.6815
   2181.1489       8.8360      -0.0070      53.6870      36.0320    -999.2500    -999.2500    5206.6680    1112.9780     774.6240       0.0705       3.6190       2.6830
   2181.3015       8.8360      -0.0035      53.6134      42.8692    -999.2500    -999.2500    4966.0825    1038.9769     587.6060       0.0523       3.7033       2.7287
   2181.4539       8.8360       0.0000      53.5400      49.6720    -999.2500    -999.2500    4727.4741     965.5840     402.1250       0.0354       3.7870       2.7740
   2181.6062       8.8360      -0.0005      52.1753      49.1452    -999.2500    -999.2500    4742.3350     973.9016     802.6265       0.0330       3.8614       2.7730
   2181.7585       8.8360      -0.0010      50.8130      48.6210    -999.2500    -999.2500    4757.0752     982.1520    1199.2500       0.0417       3.9350       2.7720
   2181.9109       8.8360      -0.0045      51.2759      46.5125    -999.2500    -999.2500    4712.1885    1035.3429    1073.8120       0.0671       3.9114       2.7564
   2182.0635       8.8360      -0.0080      51.7380      44.4140    -999.2500    -999.2500    4667.6592    1088.1100     949.5720       0.0908       3.8880       2.7410
   2182.2158       8.8385      -0.0075      54.3239      41.8535    -999.2500    -999.2500    4333.8047    1075.9102     687.2436       0.0934       3.9081       2.7003
   2182.3682       8.8410      -0.0070      56.9060      39.3050    -999.2500    -999.2500    4002.5669    1063.8060     427.3900       0.0895       3.9280       2.6600
   2182.5205       8.8505      -0.0030      56.7384      35.8787    -999.2500    -999.2500    4112.9966    1014.3607     371.4976       0.0887       3.9154       2.6700
   2182.6731       8.8600       0.0010      56.5710      32.4680    -999.2500    -999.2500    4222.5732     965.2970     316.1250       0.0894       3.9030       2.6800
   2182.8254       8.8992      -0.0010      54.7999      30.7592    -999.2500    -999.2500    4220.6216     966.3284     828.6664       0.0912       3.7523       2.6755
