#------------------------------------------------------------------------------
#
#   Created by  : [OpenWorks] Log Export Utility (LEXP)
#   Created on  : 2016-05-23 11:56:14
#   Project     : CANT971
#   User        : R5K
#   Interpreter : PEP
#
#------------------------------------------------------------------------------
~VERSION INFORMATION
VERS. 2.0 : CWLS Log ASCII Standard - version 2.0
WRAP.  NO : One line per depth step
~WELL INFORMATION
#MNEMONIC   .UNIT                                           VALUE :DESCRIPTION
#------------------------------------------------------------------------------
STRT        .M                                          1862.0000 :START DEPTH
STOP        .M                                          3052.8535 :STOP DEPTH
STEP        .M                                             0.1524 :STEP
NULL        .                                           -999.2500 :NULL VALUE
COMP        .                                   PEMEX EXPL & PROD :COMPANY
WELL        .                                                446D :WELL
FLD         .                                           CANTARELL :FIELD
LOC         .                                             UNKNOWN :LOCATION
CNTY        .                                      CD. DEL CARMEN :COUNTY
STAT        .                                            CAMPECHE :STATE
CTRY        .                                              MEXICO :COUNTRY
SRVC        .                                             UNKNOWN :SERVICE COMPANY
DATE        .                                             UNKNOWN :LOG DATE
UWI         .                                            W-C-446D :UNIQUE WELL ID
XCOORD      .                                       598705.170000 :SURFACE X
YCOORD      .                                      2143305.170000 :SURFACE Y
LAT         .                                           19.382621 :LATITUDE
LON         .                                          -92.060061 :LONGITUDE
ELEV        .M                                            28.0000 :SURFACE ELEV
ELEV_TYPE   .                                                  KB :ELEV TYPE
~CURVE INFORMATION
#MNEMONIC.UNIT        API CODE       : CURVE DESCRIPTION
#------------------------------------------------------------------------------
DEPTH    .M                          : Measured Depth
CALI     .inches      UNKNOWN        : CALI:litodensidad:rC:NONE:v0 (auto-composite)
CGR      .API         UNKNOWN        : CGR:CGR-Load:rC:NONE:v0 (auto-composite)
DRHO     .g/cm3       UNKNOWN        : DRHO:litodensidad:rC:NONE:v0 (auto-composite)
DT       .us/ft       UNKNOWN        : DT:DT-Load:rC:NONE:v0 (auto-composite)
GR       .UNKNOWN     UNKNOWN        : GR:PETROWORKS:rC:NONE:v1 
LLD      .ohm.m       UNKNOWN        : LLD:PETROWORKS:rC:NONE:v1 
LLS      .UNKNOWN     UNKNOWN        : LLS:PETROWORKS:rC:NONE:v1 
MSFL     .UNKNOWN     UNKNOWN        : MSFL:PETROWORKS:rC:NONE:v1 
NPHI     .v/v_decimal UNKNOWN        : NPHI:PETROWORKS:rC:NONE:v2 
PEF      .UNKNOWN     UNKNOWN        : PEF:litodensidad:rC:NONE:v0 (auto-composite)
POTA     .UNKNOWN     UNKNOWN        : POTA:radioactividad:rC:NONE:v0 (auto-composite)
RHOB     .g/cm3       UNKNOWN        : RHOB:litodensidad:rC:NONE:v0 (auto-composite)
THOR     .ppm         UNKNOWN        : THOR:radioactividad:rC:NONE:v0 (auto-composite)
URAN     .ppm         UNKNOWN        : URAN:radioactividad:rC:NONE:v0 (auto-composite)
~A     DEPTH         CALI          CGR         DRHO           DT           GR          LLD          LLS         MSFL         NPHI          PEF         POTA         RHOB         THOR         URAN
# ...
   2764.5127       6.9722       4.8973       0.0374      50.3787      25.2900    2222.1758    1323.7615     159.9148       0.0148       3.5339       0.0025       2.7855       0.0490       2.1428
   2764.6653       6.9148       9.6789       0.0249      47.9489      31.5361    1637.1149     935.9898      42.3035       0.0157       3.5078       0.0046       2.7545       0.2350       2.3508
   2764.8176       6.9871      10.4986       0.0277      50.1249      33.2671    1404.1798     781.9356      24.6365       0.0156       3.4043       0.0050       2.7831       0.2438       2.3796
   2764.9700       6.9582      13.8083       0.0288      50.4304      36.4587    1325.2299     750.6909     190.5309       0.0158       3.4321       0.0061       2.8074       0.5217       2.4039
   2765.1223       6.8965      15.5409       0.0133      49.8910      37.9558    1552.7003     854.8842     418.8302       0.0151       3.3225       0.0064       2.8152       0.7751       2.4818
   2765.2749       6.9004       6.6206       0.0047      50.3092      30.2728    2112.3103    1049.3351     528.9556       0.0144       3.4405       0.0023       2.8080       0.5029       2.4934
   2765.4272       6.9190       4.4960       0.0053      51.9283      27.7044    1932.0657    1006.5881     295.0037       0.0137       3.3920       0.0017       2.8123       0.3088       2.4617
   2765.5796       6.8945       3.6553       0.0097      55.2530      26.3577    1235.6644     681.4907     218.4066       0.0142       3.6014       0.0017       2.8113       0.1079       2.4028
   2765.7319       6.7982       2.6990       0.0114      58.4294      24.6107     912.5928     446.8541     270.5405       0.0157       3.6197       0.0016       2.8022      -0.0793       2.3130
   2765.8845       6.7630       2.0552       0.0131      59.6637      23.2088     826.9253     393.9335     218.3080       0.0188       3.5802       0.0015       2.7854      -0.1783       2.2390
   2766.0369       6.7623       2.7389       0.0140      56.5741      23.6266     804.1329     389.1608      82.9313       0.0221       3.3315       0.0015       2.7862      -0.0234       2.2776
   2766.1892       6.7331       4.1453       0.0138      52.5234      20.1711     798.3386     420.1913      94.8053       0.0229       3.2801       0.0017       2.7940       0.2117       1.6963
   2766.3416       6.8526       4.3413       0.0092      50.4159      19.0557    1038.5748     538.3427     175.3129       0.0189       3.3122       0.0017       2.8044       0.2371       1.5787
   2766.4939       6.9578       3.0884       0.0057      48.8349      17.3155    1336.8903     731.2765     201.3314       0.0147       3.5318       0.0014       2.8090       0.0660       1.5058
   2766.6465       6.8919       4.9329       0.0017      46.6477      19.8655    1332.9089     896.3964     146.8173       0.0140       3.6533       0.0019       2.8071       0.2967       1.6222
   2766.7988       6.7964       5.1934      -0.0001      46.3000      20.5284    1249.1747     971.6619     157.3190       0.0156       3.7523       0.0020       2.8092       0.3008       1.6234
   2766.9512       6.8640       6.4841       0.0017      50.4985      27.2882    1011.6840     828.9517     555.8969       0.0181       3.6171       0.0009       2.8000       1.0529       1.9627
   2767.1035       6.9369      17.9225       0.0050      55.3219      53.1960     272.7701     391.7787     597.6656       0.0284       3.5752       0.0059       2.7921       1.4933       3.6721
   2767.2561       6.9149      49.7247       0.0050      59.9115     109.0302      54.3098      64.0397     178.4019       0.0519       3.5922       0.0171       2.7216       3.8835       6.8305
   2767.4084       6.8248      54.3601      -0.0019      64.1660     122.9144      20.3719      24.3904      17.8350       0.0980       3.5575       0.0188       2.6362       4.1847       7.2707
   2767.5608       6.8373      51.2450      -0.0089      66.6657     115.7228      13.4671      14.6394      14.0702       0.1402       3.4519       0.0179       2.5666       3.8685       7.0896
   2767.7131       6.8396      35.5494      -0.0069      67.5513      80.6586      12.4969      13.2661      16.6919       0.1354       3.2823       0.0119       2.5883       2.8699       4.6547
   2767.8655       6.9774      17.3076       0.0445      65.9953      53.2383      13.2612      14.2745     183.8550       0.0877       3.2986       0.0054       2.6671       1.5862       3.7091
   2768.0181       6.9315      11.2431       0.0753      61.3705      43.6440      18.8145      20.2805     278.6177       0.0376       3.2223       0.0041       2.6908       0.7980       3.4834
   2768.1704       6.8000       2.4177       0.0693      65.5180      32.8947      32.0376      34.2069      64.1232       0.0433       3.1860       0.0019       2.6440      -0.2313       3.1900
   2768.3228       6.8543       0.0347       0.0745      57.7498      29.9429      46.9090      52.4267       5.1374       0.0615       3.0940       0.0010       2.6560      -0.3970       3.1190
   2768.4751       6.8863       3.3055       0.0921      55.3940      32.7657      63.8770      81.5895      21.1680       0.0629       3.1944       0.0025       2.7452      -0.3186       3.1212
   2768.6277       6.8145       8.2147       0.0414      37.3828      39.8072     131.3843     126.9915      44.3998       0.0448       3.3500       0.0025       2.7758       0.7770       3.2066
   2768.7800       6.7983      21.9728       0.0098      32.5866      56.9000     141.6011     137.2660      11.1420       0.0325       3.2962       0.0077       2.7776       1.6177       3.6971
   2768.9324       6.9273      24.2030       0.0069      33.7419      59.8502     101.1300     102.3859      28.3050       0.0402       3.3267       0.0087       2.7761       1.7074       3.7695
   2769.0847       6.9613      24.4237       0.0063      34.2545      59.8375      86.3713      79.8345     197.2101       0.0513       3.3031       0.0091       2.7589       1.5934       3.7482
   2769.2373       6.8500      22.3616       0.0066      40.3680      54.1632      92.2317      75.9707      77.8982       0.0588       3.4885       0.0087       2.7523       1.3319       3.6217
   2769.3896       6.7945      14.0938       0.0080      40.4736      31.4876     104.7169      96.7448      52.4263       0.0581       3.4429       0.0070       2.7393       0.2102       1.8426
   2769.5420       6.9019       8.3872       0.0108      40.8936      22.0636     417.1330     294.2003      73.9633       0.0515       3.5851       0.0037       2.7487       0.3074       1.3950
   2769.6943       6.9435       6.9293       0.0120      37.5225      19.4219    1460.4792     896.2650     242.7711       0.0445       3.4851       0.0029       2.7586       0.3403       1.3223
   2769.8467       6.9261       6.9985       0.0135      31.2996      19.9862    2731.4509    1591.9883     224.6094       0.0369       3.5517       0.0026       2.7814       0.4572       1.3648
   2769.9993       6.8572       8.0633       0.0140      18.5850      21.5561    2904.9841    1685.8057     265.0752       0.0304       3.4440       0.0027       2.7987       0.6479       1.4271
   2770.1516       6.9615       9.0767       0.0139      20.5766      22.9691    2013.5284    1226.3920     156.3890       0.0270       3.3840       0.0026       2.8066       0.9140       1.4658
   2770.3040       7.0301      10.3839       0.0115      22.9966      24.5907    1397.1986     833.9106     103.6310       0.0294       3.4175       0.0028       2.7873       1.1289       1.5113
   2770.4563       7.0152       9.5045       0.0103      21.8153      23.5483    1102.5033     674.8708     127.1004       0.0335       3.3932       0.0023       2.7658       1.1310       1.4546
   2770.6089       6.9220      10.2388       0.0077      21.2529      24.5540    1047.3260     687.7362     164.9352       0.0375       3.4237       0.0024       2.7523       1.2812       1.5250
   2770.7612       6.9222       9.9576       0.0075      18.3129      25.0920    1427.0239     920.7738      70.1404       0.0375       3.3763       0.0018       2.7589       1.4462       1.5553
