#------------------------------------------------------------------------------
#
#   Created by  : [OpenWorks] Log Export Utility (LEXP)
#   Created on  : 2016-05-23 11:52:56
#   Project     : CANT971
#   User        : R5K
#   Interpreter : PEP
#
#------------------------------------------------------------------------------
~VERSION INFORMATION
VERS. 2.0 : CWLS Log ASCII Standard - version 2.0
WRAP.  NO : One line per depth step
~WELL INFORMATION
#MNEMONIC   .UNIT                                           VALUE :DESCRIPTION
#------------------------------------------------------------------------------
STRT        .M                                           340.6189 :START DEPTH
STOP        .M                                          3243.0769 :STOP DEPTH
STEP        .M                                             0.1524 :STEP
NULL        .                                           -999.2500 :NULL VALUE
COMP        .                                   PEMEX EXPL & PROD :COMPANY
WELL        .                                                2098 :WELL
FLD         .                                           CANTARELL :FIELD
LOC         .                                             UNKNOWN :LOCATION
CNTY        .                                      CD. DEL CARMEN :COUNTY
STAT        .                                            CAMPECHE :STATE
CTRY        .                                              MEXICO :COUNTRY
SRVC        .                                             UNKNOWN :SERVICE COMPANY
DATE        .                                             UNKNOWN :LOG DATE
UWI         .                                          3060000229 :UNIQUE WELL ID
XCOORD      .                                       599692.800000 :SURFACE X
YCOORD      .                                      2143031.510000 :SURFACE Y
LAT         .                                           19.380099 :LATITUDE
LON         .                                          -92.050671 :LONGITUDE
ELEV        .M                                            26.7400 :SURFACE ELEV
ELEV_TYPE   .                                                  KB :ELEV TYPE
~CURVE INFORMATION
#MNEMONIC.UNIT        API CODE       : CURVE DESCRIPTION
#------------------------------------------------------------------------------
DEPTH    .M                          : Measured Depth
CALI     .inches      UNKNOWN        : CALI:litodensidad:rC:NONE:v0 (auto-composite)
CGR      .API         UNKNOWN        : CGR:Espectrometria:rC:NONE:v0 (auto-composite)
DRHO     .g/cm3       UNKNOWN        : DRHO:litodensidad:rC:NONE:v0 (auto-composite)
DT       .us/ft       UNKNOWN        : DT:DT-Load:rC:NONE:v0 (auto-composite)
GR       .API         UNKNOWN        : GR:GR-load:rC:NONE:v0 (auto-composite)
ILD      .UNKNOWN     UNKNOWN        : ILD:resistivos:rC:NONE:v0 (auto-composite)
LLD      .ohm.m       UNKNOWN        : LLD:resistivos:rC:NONE:v0 (auto-composite)
LLS      .UNKNOWN     UNKNOWN        : LLS:resistivos:rC:NONE:v0 (auto-composite)
MSFL     .UNKNOWN     UNKNOWN        : MSFL:resistivos:rC:NONE:v0 (auto-composite)
NPHI     .v/v_decimal UNKNOWN        : NPHI:porosidad:rC:NONE:v0 (auto-composite)
PEF      .UNKNOWN     UNKNOWN        : PEF:litodensidad:rC:NONE:v0 (auto-composite)
POTA     .UNKNOWN     UNKNOWN        : POTA:Espectrometria:rC:NONE:v0 (auto-composite)
RHOB     .UNKNOWN     UNKNOWN        : RHOB:litodensidad:rC:NONE:v0 (auto-composite)
THOR     .ppm         UNKNOWN        : THOR:Espectrometria:rC:NONE:v0 (auto-composite)
URAN     .ppm         UNKNOWN        : URAN:Espectrometria:rC:NONE:v0 (auto-composite)
~A     DEPTH         CALI          CGR         DRHO           DT           GR          ILD          LLD          LLS         MSFL         NPHI          PEF         POTA         RHOB         THOR         URAN
# ...
   2634.8484       9.0866    -999.2500       0.0389      59.4962      43.8056    -999.2500      29.4329      41.6144      88.5437       0.0875    -999.2500    -999.2500       2.6330    -999.2500    -999.2500
   2635.0010       9.1412    -999.2500       0.0357      59.6885      44.3646    -999.2500      32.0729      45.2906      86.8837       0.0865    -999.2500    -999.2500       2.6319    -999.2500    -999.2500
   2635.1533       9.1127    -999.2500       0.0272      59.6385      43.6649    -999.2500      32.0694      43.8791      74.2896       0.0866    -999.2500    -999.2500       2.6279    -999.2500    -999.2500
   2635.3057       9.0850    -999.2500       0.0190      59.5808      42.9866    -999.2500      32.0754      42.5220      62.1086       0.0867    -999.2500    -999.2500       2.6241    -999.2500    -999.2500
   2635.4580       9.0850    -999.2500       0.0180      59.2880      43.0056    -999.2500      32.3433      42.6660      62.4387       0.0874    -999.2500    -999.2500       2.6286    -999.2500    -999.2500
   2635.6104       9.0857    -999.2500       0.0172      59.0069      43.0296    -999.2500      32.7458      42.8441      62.8315       0.0881    -999.2500    -999.2500       2.6328    -999.2500    -999.2500
   2635.7629       9.1127    -999.2500       0.0237      59.1035      43.2120    -999.2500      36.9523      43.9870      65.0778       0.0896    -999.2500    -999.2500       2.6263    -999.2500    -999.2500
   2635.9153       9.1389    -999.2500       0.0300      59.2196      43.4060    -999.2500      41.0072      45.2407      67.3913       0.0911    -999.2500    -999.2500       2.6200    -999.2500    -999.2500
   2636.0676       9.1369    -999.2500       0.0295      59.9427      43.9812    -999.2500      40.8687      49.5574      71.6480       0.0932    -999.2500    -999.2500       2.6210    -999.2500    -999.2500
   2636.2200       9.1337    -999.2500       0.0289      60.6437      44.5807    -999.2500      40.7061      53.7125      75.8123       0.0952    -999.2500    -999.2500       2.6222    -999.2500    -999.2500
   2636.3726       9.0836    -999.2500       0.0269      60.6352      45.9541    -999.2500      39.8573      53.2863      77.2338       0.0950    -999.2500    -999.2500       2.6287    -999.2500    -999.2500
   2636.5249       9.0352    -999.2500       0.0248      60.6191      47.2486    -999.2500      38.9179      52.7134      78.1093       0.0947    -999.2500    -999.2500       2.6349    -999.2500    -999.2500
   2636.6772       9.0422    -999.2500       0.0193      60.3637      45.9477    -999.2500      35.4669      48.0714      63.1453       0.0928    -999.2500    -999.2500       2.6329    -999.2500    -999.2500
   2636.8296       9.0497    -999.2500       0.0138      60.0845      44.6862    -999.2500      32.1483      43.5920      48.6799       0.0908    -999.2500    -999.2500       2.6308    -999.2500    -999.2500
   2636.9822       9.0747    -999.2500       0.0078      59.0411      44.6927    -999.2500      32.5984      43.7401      49.0765       0.0849    -999.2500    -999.2500       2.6238    -999.2500    -999.2500
   2637.1345       9.0988    -999.2500       0.0020      58.0316      44.7164    -999.2500      33.1095      43.9440      49.5717       0.0793    -999.2500    -999.2500       2.6169    -999.2500    -999.2500
   2637.2869       9.0923    -999.2500       0.0030      58.0847      45.3107    -999.2500      35.3156      45.7038      52.9363       0.0798    -999.2500    -999.2500       2.6118    -999.2500    -999.2500
   2637.4392       9.0853    -999.2500       0.0043      58.1524      45.8836    -999.2500      37.5825      47.5721      56.8278       0.0803    -999.2500    -999.2500       2.6070    -999.2500    -999.2500
   2637.5916       9.0588    -999.2500       0.0153      58.6712      45.7706    -999.2500      41.5875      52.5420      76.4836       0.0822    -999.2500    -999.2500       2.6075    -999.2500    -999.2500
   2637.7441       9.0336    -999.2500       0.0260      59.1726      45.6153    -999.2500      45.4363      57.3253      95.4541       0.0841    -999.2500    -999.2500       2.6081    -999.2500    -999.2500
   2637.8965       9.0587    -999.2500       0.0255      59.1276      44.0522    -999.2500      44.9246      56.8986      94.3996       0.0861    -999.2500    -999.2500       2.6111    -999.2500    -999.2500
   2638.0488       9.0815    -999.2500       0.0247      59.0761      42.5547    -999.2500      44.3534      56.3924      93.1243       0.0881    -999.2500    -999.2500       2.6139    -999.2500    -999.2500
   2638.2012       9.0254    -999.2500       0.0147      58.8247      43.1800    -999.2500      42.1543      53.7120      85.2229       0.0895    -999.2500    -999.2500       2.6114    -999.2500    -999.2500
   2638.3538       8.9712    -999.2500       0.0050      58.5868      43.7785    -999.2500      40.0504      51.1259      77.9708       0.0910    -999.2500    -999.2500       2.6087    -999.2500    -999.2500
   2638.5061       8.9782    -999.2500       0.0050      58.7738      43.5331    -999.2500      40.6131      51.1799      89.7643       0.0935    -999.2500    -999.2500       2.6002    -999.2500    -999.2500
   2638.6584       8.9856    -999.2500       0.0052      58.9772      43.2659    -999.2500      41.1495      51.2455     101.1340       0.0961    -999.2500    -999.2500       2.5917    -999.2500    -999.2500
   2638.8108       9.0071    -999.2500       0.0102      59.6824      42.2915    -999.2500      40.9646      51.6278      99.7325       0.0992    -999.2500    -999.2500       2.5832    -999.2500    -999.2500
   2638.9634       9.0272    -999.2500       0.0150      60.3867      41.3193    -999.2500      40.7315      51.9878      98.1155       0.1021    -999.2500    -999.2500       2.5750    -999.2500    -999.2500
   2639.1157       8.9987    -999.2500       0.0145      61.0630      40.4132    -999.2500      39.1429      51.7197      90.1549       0.1014    -999.2500    -999.2500       2.5755    -999.2500    -999.2500
   2639.2681       8.9710    -999.2500       0.0140      61.7160      39.5058    -999.2500      37.6172      51.4206      82.0193       0.1006    -999.2500    -999.2500       2.5763    -999.2500    -999.2500
   2639.4204       8.9710    -999.2500       0.0135      61.6515      38.5564    -999.2500      37.8226      50.2701      68.5878       0.0980    -999.2500    -999.2500       2.5873    -999.2500    -999.2500
   2639.5728       8.9714    -999.2500       0.0130      61.5808      37.6473    -999.2500      37.9699      49.0654      55.6471       0.0955    -999.2500    -999.2500       2.5980    -999.2500    -999.2500
   2639.7253       8.9859    -999.2500       0.0120      61.3127      38.0192    -999.2500      36.4769      46.3309      57.2066       0.0943    -999.2500    -999.2500       2.5975    -999.2500    -999.2500
   2639.8777       8.9996    -999.2500       0.0109      61.0429      38.4475    -999.2500      35.0653      43.7298      59.0708       0.0930    -999.2500    -999.2500       2.5970    -999.2500    -999.2500
   2640.0300       8.9851    -999.2500       0.0069      60.7180      40.7264    -999.2500      35.9050      44.8113      69.7282       0.0925    -999.2500    -999.2500       2.5955    -999.2500    -999.2500
   2640.1824       8.9712    -999.2500       0.0030      60.3777      42.9064    -999.2500      36.8271      46.1053      79.9147       0.0921    -999.2500    -999.2500       2.5941    -999.2500    -999.2500
   2640.3350       8.9782    -999.2500       0.0030      59.5454      41.9318    -999.2500      40.0869      53.4170      76.1353       0.0906    -999.2500    -999.2500       2.5966    -999.2500    -999.2500
   2640.4873       8.9863    -999.2500       0.0031      58.7453      40.9956    -999.2500      43.2962      60.4738      72.8064       0.0892    -999.2500    -999.2500       2.5993    -999.2500    -999.2500
   2640.6396       9.0364    -999.2500       0.0056      58.9477      41.3207    -999.2500      45.1094      60.4693      82.5307       0.0876    -999.2500    -999.2500       2.6103    -999.2500    -999.2500
