#------------------------------------------------------------------------------
#
#   Created by  : [OpenWorks] Log Export Utility (LEXP)
#   Created on  : 2016-05-23 11:50:56
#   Project     : CANT971
#   User        : R5K
#   Interpreter : PEP
#
#------------------------------------------------------------------------------
~VERSION INFORMATION
VERS. 2.0 : CWLS Log ASCII Standard - version 2.0
WRAP.  NO : One line per depth step
~WELL INFORMATION
#MNEMONIC   .UNIT                                           VALUE :DESCRIPTION
#------------------------------------------------------------------------------
STRT        .M                                           679.7040 :START DEPTH
STOP        .M                                          2836.1641 :STOP DEPTH
STEP        .M                                             0.1524 :STEP
NULL        .                                           -999.2500 :NULL VALUE
COMP        .                                   PEMEX EXPL & PROD :COMPANY
WELL        .                                                1044 :WELL
FLD         .                                           CANTARELL :FIELD
LOC         .                                             UNKNOWN :LOCATION
CNTY        .                                      CD. DEL CARMEN :COUNTY
STAT        .                                            CAMPECHE :STATE
CTRY        .                                              MEXICO :COUNTRY
SRVC        .                                             UNKNOWN :SERVICE COMPANY
DATE        .                                             UNKNOWN :LOG DATE
UWI         .                                          3060000497 :UNIQUE WELL ID
XCOORD      .                                       596164.320000 :SURFACE X
YCOORD      .                                      2150609.730000 :SURFACE Y
LAT         .                                           19.448753 :LATITUDE
LON         .                                          -92.083884 :LONGITUDE
ELEV        .M                                            30.0000 :SURFACE ELEV
ELEV_TYPE   .                                                  KB :ELEV TYPE
~CURVE INFORMATION
#MNEMONIC.UNIT        API CODE       : CURVE DESCRIPTION
#------------------------------------------------------------------------------
DEPTH    .M                          : Measured Depth
CALI     .inches      UNKNOWN        : CALI:litodensidad:rC:NONE:v0 (auto-composite)
DRHO     .g/cm3       UNKNOWN        : DRHO:litodensidad:rC:NONE:v0 (auto-composite)
DT       .us/ft       UNKNOWN        : DT:DT:rC:NONE:v0 (auto-composite)
GR       .API         UNKNOWN        : GR:UNKNOWN:rC:NONE:v0 (auto-composite)
ILD      .ohm.m       UNKNOWN        : ILD:UNKNOWN:rC:NONE:v0 (auto-composite)
ILM      .ohm.m       UNKNOWN        : ILM:UNKNOWN:rC:NONE:v0 (auto-composite)
LLD      .ohm.m       UNKNOWN        : LLD:UNKNOWN:rC:NONE:v0 (auto-composite)
LLS      .ohm.m       UNKNOWN        : LLS:UNKNOWN:rC:NONE:v0 (auto-composite)
MSFL     .ohm.m       UNKNOWN        : MSFL:UNKNOWN:rC:NONE:v0 (auto-composite)
NPHI     .v/v_decimal UNKNOWN        : NPHI:NPHI:rC:NONE:v0 (auto-composite)
PEF      .b/elec      UNKNOWN        : PEF:UNKNOWN:rC:NONE:v0 (auto-composite)
RHOB     .g/cm3       UNKNOWN        : RHOB:UNKNOWN:rC:NONE:v0 (auto-composite)
~A     DEPTH         CALI         DRHO           DT           GR          ILD          ILM          LLD          LLS         MSFL         NPHI          PEF         RHOB
# ...
   2515.8191       9.1370       0.0160      65.8130     106.0180    -999.2500    -999.2500       8.2160       7.3303      16.0738       0.1281       3.4120       2.7360
   2515.9717       9.1670       0.0095      67.4661     106.9299    -999.2500    -999.2500       7.3881       6.5910      14.7109       0.1353       3.3761       2.7260
   2516.1240       9.1970       0.0030      69.1240     107.8400    -999.2500    -999.2500       6.5578       5.8496      13.3439       0.1424       3.3400       2.7160
   2516.2764       9.2324       0.0090      65.6618     114.9638    -999.2500    -999.2500       5.8264       5.1684      12.1277       0.1542       3.3500       2.7055
   2516.4287       9.2680       0.0150      62.1890     122.0750    -999.2500    -999.2500       5.0928       4.4851      10.9079       0.1659       3.3600       2.6950
   2516.5813       9.5710       0.0265      62.5879     129.8514    -999.2500    -999.2500       4.5494       3.9787       9.3419       0.1793       3.2906       2.6256
   2516.7336       9.8750       0.0380      62.9880     137.6150    -999.2500    -999.2500       4.0043       3.4707       7.7709       0.1928       3.2210       2.5560
   2516.8860      10.3717       0.0575      73.1083     137.5655    -999.2500    -999.2500       3.7791       3.2624       6.2753       0.2278       3.1671       2.4691
   2517.0383      10.8700       0.0770      83.2620     137.5160    -999.2500    -999.2500       3.5531       3.0534       4.7748       0.2630       3.1130       2.3820
   2517.1907      10.8435       0.1040      88.2919     134.4804    -999.2500    -999.2500       3.6978       3.1694       4.1551       0.3018       3.0086       2.3131
   2517.3433      10.8170       0.1310      93.3310     131.4490    -999.2500    -999.2500       3.8426       3.2857       3.5342       0.3406       2.9040       2.2440
   2517.4956      10.8724       0.1290      96.1368     127.2185    -999.2500    -999.2500       4.1646       3.5491       3.4048       0.3495       2.8725       2.2270
   2517.6479      10.9280       0.1270      98.9480     123.0000    -999.2500    -999.2500       4.4872       3.8129       3.2752       0.3583       2.8410       2.2100
   2517.8003      10.8196       0.1140      97.3851     118.2710    -999.2500    -999.2500       4.7324       4.0135       3.1631       0.3370       2.8914       2.2515
   2517.9529      10.7110       0.1010      95.8190     113.5550    -999.2500    -999.2500       4.9781       4.2145       3.0507       0.3157       2.9420       2.2930
   2518.1052      10.4523       0.0875      89.9929     110.4374    -999.2500    -999.2500       5.2158       4.4001       3.1289       0.2856       2.8786       2.3350
   2518.2576      10.1930       0.0740      84.1540     107.3280    -999.2500    -999.2500       5.4541       4.5860       3.2073       0.2554       2.8150       2.3770
   2518.4099      10.0257       0.0675      85.6308     106.6872    -999.2500    -999.2500       5.7375       4.8021       3.9353       0.2468       2.6916       2.3660
   2518.5625       9.8580       0.0610      87.1110     106.0480    -999.2500    -999.2500       6.0216       5.0186       4.6650       0.2382       2.5680       2.3550
   2518.7148      10.0258       0.0490      86.9847     105.1189    -999.2500    -999.2500       6.0153       5.0278       5.8186       0.2811       2.5021       2.3031
   2518.8672      10.1940       0.0370      86.8580     104.1920    -999.2500    -999.2500       6.0089       5.0370       6.9751       0.3241       2.4360       2.2510
   2519.0195       9.9623       0.0310      78.3779     107.8075    -999.2500    -999.2500       5.8579       4.9214       7.5850       0.2928       2.6268       2.3329
   2519.1719       9.7300       0.0250      69.8760     111.4150    -999.2500    -999.2500       5.7064       4.8055       8.1964       0.2614       2.8180       2.4150
   2519.3245       9.9108       0.0130      62.8949     117.2446    -999.2500    -999.2500       5.2780       4.4549       8.0298       0.2115       2.7166       2.3176
   2519.4768      10.0920       0.0010      55.8950     123.0620    -999.2500    -999.2500       4.8484       4.1033       7.8626       0.1615       2.6150       2.2200
   2519.6292      11.2593      -0.0075      66.2693     122.7457    -999.2500    -999.2500       4.4259       3.7344       6.9200       0.1878       2.4812       1.9634
   2519.7815      12.4300      -0.0160      76.6730     122.4300    -999.2500    -999.2500       4.0022       3.3645       5.9748       0.2142       2.3470       1.7060
   2519.9341      13.3087      -0.0010      82.3222     122.7973    -999.2500    -999.2500       3.7955       3.1607       5.0812       0.2603       2.3725       1.5492
   2520.0864      14.1900       0.0140      87.9880     123.1640    -999.2500    -999.2500       3.5882       2.9564       4.1850       0.3065       2.3980       1.3920
   2520.2388      13.5160       0.0390      89.7653     125.6677    -999.2500    -999.2500       3.5922       2.9405       3.8385       0.3201       2.6881       1.5223
   2520.3911      12.8400       0.0640      91.5480     128.1670    -999.2500    -999.2500       3.5962       2.9245       3.4908       0.3337       2.9790       1.6530
   2520.5437      12.8490       0.0750      95.0842     125.7371    -999.2500    -999.2500       3.8271       3.1108       3.6412       0.3501       3.1313       1.8107
   2520.6960      12.8580       0.0860      98.6260     123.3110    -999.2500    -999.2500       4.0587       3.2977       3.7920       0.3665       3.2840       1.9690
   2520.8484      13.3791       0.0730      95.9573     115.2861    -999.2500    -999.2500       4.5611       3.6960       4.2902       0.4199       3.0050       1.9430
   2521.0007      13.9010       0.0600      93.2840     107.2730    -999.2500    -999.2500       5.0651       4.0956       4.7901       0.4733       2.7250       1.9170
   2521.1531      12.7176       0.0510      82.8007     100.7601    -999.2500    -999.2500       5.6440       4.5311       5.9248       0.4454       2.8354       2.0219
   2521.3057      11.5320       0.0420      72.2980      94.2560    -999.2500    -999.2500       6.2241       4.9675       7.0615       0.4175       2.9460       2.1270
   2521.4580      10.7922       0.0720      68.4683      91.9753    -999.2500    -999.2500       6.4345       5.1330       8.6310       0.3442       3.0834       2.3193
   2521.6104      10.0510       0.1020      64.6310      89.7010    -999.2500    -999.2500       6.6453       5.2988      10.2036       0.2707       3.2210       2.5120
   2521.7627       9.9476       0.1225      66.3087      91.5044    -999.2500    -999.2500       6.4493       5.1466      10.6655       0.2418       3.2090       2.5674
   2521.9153       9.8440       0.1430      67.9900      93.3030    -999.2500    -999.2500       6.2530       4.9941      11.1283       0.2128       3.1970       2.6230
   2522.0676      10.0293       0.1585      68.9165      99.1450    -999.2500    -999.2500       5.8391       4.6479      10.7438       0.2001       3.1391       2.5551
   2522.2200      10.2150       0.1740      69.8450     104.9720    -999.2500    -999.2500       5.4243       4.3010      10.3583       0.1873       3.0810       2.4870
   2522.3723      10.9212       0.1765      70.4827     108.3281    -999.2500    -999.2500       5.0440       3.9748       8.8917       0.2072       3.0321       2.3601
   2522.5247      11.6290       0.1790      71.1220     111.6760    -999.2500    -999.2500       4.6628       3.6478       7.4215       0.2272       2.9830       2.2330
   2522.6772      13.1966       0.1660      76.2526     111.3386    -999.2500    -999.2500       4.5503       3.5031       6.1088       0.2420       2.8696       2.0917
   2522.8296      14.7680       0.1530      81.3960     111.0020    -999.2500    -999.2500       4.4375       3.3582       4.7929       0.2569       2.7560       1.9500
   2522.9819      14.3166       0.1375      86.0569     111.4550    -999.2500    -999.2500       4.6361       3.4479       4.5453       0.2843       2.5652       1.8611
