#------------------------------------------------------------------------------
#
#   Created by  : [OpenWorks] Log Export Utility (LEXP)
#   Created on  : 2016-05-12 17:01:19
#   Project     : CANT971
#   User        : R5K
#   Interpreter : PEP
#
#------------------------------------------------------------------------------
~VERSION INFORMATION
VERS. 2.0 : CWLS Log ASCII Standard - version 2.0
WRAP.  NO : One line per depth step
~WELL INFORMATION
#MNEMONIC   .UNIT                                           VALUE :DESCRIPTION
#------------------------------------------------------------------------------
STRT        .M                                           300.0760 :START DEPTH
STOP        .M                                          2081.9368 :STOP DEPTH
STEP        .M                                             0.1524 :STEP
NULL        .                                           -999.2500 :NULL VALUE
COMP        .                                   PEMEX EXPL & PROD :COMPANY
WELL        .                                                  37 :WELL
FLD         .                                           CANTARELL :FIELD
LOC         .                                             UNKNOWN :LOCATION
CNTY        .                                      CD. DEL CARMEN :COUNTY
STAT        .                                            CAMPECHE :STATE
CTRY        .                                              MEXICO :COUNTRY
SRVC        .                                             UNKNOWN :SERVICE COMPANY
DATE        .                                             UNKNOWN :LOG DATE
UWI         .                                          3060000160 :UNIQUE WELL ID
XCOORD      .                                       602154.560000 :SURFACE X
YCOORD      .                                      2147169.070000 :SURFACE Y
LAT         .                                           19.417364 :LATITUDE
LON         .                                          -92.027009 :LONGITUDE
ELEV        .M                                            28.1700 :SURFACE ELEV
ELEV_TYPE   .                                                  KB :ELEV TYPE
~CURVE INFORMATION
#MNEMONIC.UNIT        API CODE       : CURVE DESCRIPTION
#------------------------------------------------------------------------------
DEPTH    .M                          : Measured Depth
CALI     .inches      UNKNOWN        : CALI:Import:rC:NONE:v0 (auto-composite)
DRHO     .g/cm3       UNKNOWN        : DRHO:Import:rC:NONE:v0 (auto-composite)
DT       .us/ft       UNKNOWN        : DT:Import:rC:NONE:v0 (auto-composite)
GR       .API         UNKNOWN        : GR:Import:rC:NONE:v0 (auto-composite)
ILD      .ohm.m       UNKNOWN        : ILD:Import:rC:NONE:v0 (auto-composite)
NPHI     .v/v_decimal UNKNOWN        : NPHI:Import:rC:NONE:v0 (auto-composite)
RHOB     .g/cm3       UNKNOWN        : RHOB:Import:rC:NONE:v0 (auto-composite)
~A     DEPTH         CALI         DRHO           DT           GR          ILD         NPHI         RHOB
# ...
   2036.8264       6.2430       0.0150      53.7550      28.8890    1576.1760       4.4410       2.7990
   2036.9788       6.1910       0.0070      53.5099      30.9882    1590.9312       4.8117       2.7800
   2037.1312       6.1390      -0.0010      53.2650      33.0850    1605.6689       5.1820       2.7610
   2037.2836       6.1390      -0.0020      54.0314      34.0840    1658.9200       5.6012       2.7470
   2037.4360       6.1390      -0.0030      54.7970      35.0820    1712.1150       6.0200       2.7330
   2037.5884       6.1390      -0.0025      54.3058      34.8314    1210.0410       6.4302       2.7300
   2037.7408       6.1390      -0.0020      53.8150      34.5810     708.4340       6.8400       2.7270
   2037.8932       6.1390      -0.0025      52.5380      33.7293    1128.2034       6.8100       2.7150
   2038.0455       6.1390      -0.0030      51.2620      32.8790    1547.6350       6.7800       2.7030
   2038.1980       6.1911      -0.0100      50.3062      31.2301    1646.0624       6.5998       2.6850
   2038.3503       6.2430      -0.0170      49.3510      29.5850    1744.3440       6.4200       2.6670
   2038.5028       6.2430      -0.0060      49.3540      29.7867    1920.2794       6.4205       2.6985
   2038.6552       6.2430       0.0050      49.3570      29.9880    2095.8359       6.4210       2.7300
   2038.8076       6.1909      -0.0085      51.0819      32.3379    2048.3333       6.7613       2.7005
   2038.9600       6.1390      -0.0220      52.8060      34.6830    2000.9270       7.1010       2.6710
   2039.1124       6.1910      -0.0140      53.3526      34.2821    1848.4495       7.2617       2.6745
   2039.2648       6.2430      -0.0060      53.8990      33.8820    1696.2620       7.4220       2.6780
   2039.4172       6.2430       0.0015      61.0260      30.4810    1650.8011       8.3238       2.6885
   2039.5696       6.2430       0.0090      68.1460      27.0860    1605.4210       9.2240       2.6990
   2039.7220       6.2430       0.0045      74.4642      27.1861    1196.7285      10.1743       2.6905
   2039.8744       6.2430       0.0000      80.7720      27.2860     788.7110      11.1230       2.6820
   2040.0267       6.2430      -0.0085      82.9982      27.6363     463.7190      12.6832       2.6525
   2040.1792       6.2430      -0.0170      85.2210      27.9860     139.2230      14.2410       2.6230
   2040.3315       6.2685      -0.0170      89.7217      27.4361     156.5041      16.6342       2.6230
   2040.4840       6.2940      -0.0170      94.2160      26.8870     173.7610      19.0240       2.6230
   2040.6364       6.2945      -0.0445      93.8683      28.6871     316.9278      19.5929       2.5610
   2040.7888       6.2950      -0.0720      93.5210      30.4850     459.9120      20.1610       2.4990
   2040.9412       6.4496      -0.0595      90.4953      29.7311     414.0276      19.7192       2.5165
   2041.0936       6.6040      -0.0470      87.4730      28.9780     368.1960      19.2780       2.5340
   2041.2460       6.5264      -0.0450      84.9692      23.7318     251.7569      17.9983       2.5440
   2041.3984       6.4490      -0.0430      82.4680      18.4910     135.4370      16.7200       2.5540
   2041.5508       6.4490      -0.0355      83.2864      19.3909     187.5059      16.4304       2.5510
   2041.7032       6.4490      -0.0280      84.1040      20.2900     239.5280      16.1410       2.5480
   2041.8556       6.3714      -0.0480      88.6828      20.1894     264.9998      16.2816       2.5250
   2042.0079       6.2940      -0.0680      93.2580      20.0890     290.4520      16.4220       2.5020
   2042.1604       6.4492      -0.0540      95.3262      19.5879     217.3921      16.6943       2.5295
   2042.3127       6.6040      -0.0400      97.3930      19.0880     144.4380      16.9660       2.5570
   2042.4652       6.5264      -0.0650      97.2950      18.4889     153.7419      18.8855       2.5130
   2042.6176       6.4490      -0.0900      97.1970      17.8910     163.0260      20.8010       2.4690
   2042.7700       6.7338      -0.0750      95.4181      18.8940     892.3643      20.2685       2.5165
   2042.9224       7.0180      -0.0600      93.6400      19.8950    1620.2460      19.7370       2.5640
   2043.0748       6.6301      -0.0475      87.2481      20.6927    1598.1903      18.5459       2.5820
   2043.2272       6.2430      -0.0350      80.8580      21.4890    1576.1760      17.3570       2.6000
   2043.3796       6.2430      -0.0245      77.9863      20.8389    1576.1760      15.3432       2.5790
   2043.5320       6.2430      -0.0140      75.1150      20.1900    1576.1760      13.3330       2.5580
   2043.6844       6.4236      -0.0075      77.9166      21.6902    1524.6102      11.1037       2.5905
   2043.8368       6.6040      -0.0010      80.7160      23.1880    1473.1281       8.8780       2.6230
   2043.9891       6.4234      -0.0045      86.0180      22.5881     877.3945       8.3991       2.6510
   2044.1416       6.2430      -0.0080      91.3120      21.9890     282.5520       7.9210       2.6790
   2044.2939       6.2685      -0.0055     101.9403      21.1890     551.7985       9.6252       2.6680
   2044.4464       6.2940      -0.0030     112.5540      20.3900     820.6760      11.3270       2.6570
   2044.5988       6.3205      -0.0380     121.0468      20.6917     490.0352      14.6961       2.6065
   2044.7512       6.3470      -0.0730     129.5290      20.9930     159.8060      18.0610       2.5560
   2044.9036       6.4756      -0.0730     126.1991      22.1917     200.2016      17.7613       2.6140
   2045.0560       6.6040      -0.0730     122.8730      23.3890     240.5520      17.4620       2.6720
   2045.2084       6.3713      -0.0395     107.2297      24.8887     976.6993      13.1684       2.6585
   2045.3608       6.1390      -0.0060      91.6020      26.3870    1712.1150       8.8790       2.6450
   2045.5132       6.1390      -0.0065      85.5809      24.9863     918.6304       8.0373       2.6510
   2045.6656       6.1390      -0.0070      79.5650      23.5880     125.8350       7.1970       2.6570
   2045.8180       6.1911      -0.0015      76.4669      24.6888     851.2750       6.0967       2.7051
   2045.9703       6.2430       0.0040      73.3710      25.7870    1576.1760       4.9990       2.7530
   2046.1228       6.1909       0.0025      70.0455      25.4867    1394.1029       4.6291       2.7700
   2046.2751       6.1390       0.0010      66.7220      25.1870    1212.2880       4.2600       2.7870
   2046.4276       6.1390       0.0045      62.0288      25.2876     721.0402       4.3406       2.7830
   2046.5800       6.1390       0.0080      57.3380      25.3880     230.8200       4.4210       2.7790
   2046.7324       6.1395       0.0035      55.4216      26.6883     861.8309       4.5912       2.7685
   2046.8848       6.1400      -0.0010      53.5060      27.9860    1491.6010       4.7610       2.7580
   2047.0372       6.1915       0.0100      52.8209      27.0341    1377.6130       5.0408       2.7620
   2047.1896       6.2430       0.0210      52.1360      26.0840    1263.8350       5.3200       2.7660
   2047.3420       6.2430       0.0220      52.8030      25.2853    1002.5698       5.5007       2.7545
   2047.4944       6.2430       0.0230      53.4700      24.4880     741.7530       5.6810       2.7430
   2047.6467       6.1910       0.0160      53.2014      24.0862     833.3708       5.7210       2.7430
   2047.7992       6.1390       0.0090      52.9330      23.6850     924.8430       5.7610       2.7430
   2047.9515       6.1911       0.0075      54.0209      22.6358     872.7004       5.9712       2.7555
   2048.1040       6.2430       0.0060      55.1080      21.5890     820.6760       6.1810       2.7680
   2048.2563       6.1909      -0.0035      56.3638      21.7392    1198.8303       6.4408       2.7159
   2048.4087       6.1390      -0.0130      57.6190      21.8890    1576.1760       6.7000       2.6640
