#------------------------------------------------------------------------------
#
#   Created by  : [OpenWorks] Log Export Utility (LEXP)
#   Created on  : 2016-05-23 11:56:16
#   Project     : CANT971
#   User        : R5K
#   Interpreter : PEP
#
#------------------------------------------------------------------------------
~VERSION INFORMATION
VERS. 2.0 : CWLS Log ASCII Standard - version 2.0
WRAP.  NO : One line per depth step
~WELL INFORMATION
#MNEMONIC   .UNIT                                           VALUE :DESCRIPTION
#------------------------------------------------------------------------------
STRT        .M                                           785.0543 :START DEPTH
STOP        .M                                          3464.0940 :STOP DEPTH
STEP        .M                                             0.1524 :STEP
NULL        .                                           -999.2500 :NULL VALUE
COMP        .                                   PEMEX EXPL & PROD :COMPANY
WELL        .                                                448D :WELL
FLD         .                                           CANTARELL :FIELD
LOC         .                                             UNKNOWN :LOCATION
CNTY        .                                      CD. DEL CARMEN :COUNTY
STAT        .                                            CAMPECHE :STATE
CTRY        .                                              MEXICO :COUNTRY
SRVC        .                                             UNKNOWN :SERVICE COMPANY
DATE        .                                             UNKNOWN :LOG DATE
UWI         .                                          3060000822 :UNIQUE WELL ID
XCOORD      .                                       598710.240000 :SURFACE X
YCOORD      .                                      2143307.000000 :SURFACE Y
LAT         .                                           19.382637 :LATITUDE
LON         .                                          -92.060012 :LONGITUDE
ELEV        .M                                            28.0000 :SURFACE ELEV
ELEV_TYPE   .                                                  KB :ELEV TYPE
~CURVE INFORMATION
#MNEMONIC.UNIT        API CODE       : CURVE DESCRIPTION
#------------------------------------------------------------------------------
DEPTH    .M                          : Measured Depth
CALI     .inches      UNKNOWN        : CALI:registros:rC:NONE:v0 (auto-composite)
DRHO     .g/cm3       UNKNOWN        : DRHO:registros:rC:NONE:v0 (auto-composite)
DT       .us/ft       UNKNOWN        : DT:registros:rC:NONE:v0 (auto-composite)
GR       .API         UNKNOWN        : GR:registros:rC:NONE:v0 (auto-composite)
LLD      .ohm.m       UNKNOWN        : LLD:registros:rC:NONE:v0 (auto-composite)
LLS      .ohm.m       UNKNOWN        : LLS:registros:rC:NONE:v0 (auto-composite)
MSFL     .ohm.m       UNKNOWN        : MSFL:registros:rC:NONE:v0 (auto-composite)
NPHI     .v/v_decimal UNKNOWN        : NPHI:registros:rC:NONE:v0 (auto-composite)
PEF      .b/elec      UNKNOWN        : PEF:registros:rC:NONE:v0 (auto-composite)
RHOB     .g/cm3       UNKNOWN        : RHOB:registros:rC:NONE:v0 (auto-composite)
~A     DEPTH         CALI         DRHO           DT           GR          LLD          LLS         MSFL         NPHI          PEF         RHOB
# ...
   2619.9504      17.4941       0.0602      50.1379      51.1819    1664.2963     241.2022    1276.6406       0.0173       3.2557       2.7821
   2620.1028      17.4779       0.0534      51.0595      41.9233    1621.8735     244.6998     393.5818       0.0259       3.2247       2.7266
   2620.2551      17.4906       0.0333      53.1430      26.8989    1267.7714     229.4765     418.8664       0.0387       3.3225       2.6606
   2620.4075      17.6153       0.0165      51.8819      21.6774    1337.9565     237.9679     859.0745       0.0616       3.4710       2.6234
   2620.5598      17.6737       0.0111      53.5837      21.0401    1337.5721     241.3939    1840.4425       0.0858       3.5590       2.6262
   2620.7124      17.5428       0.0104      53.2369      19.3992    1225.3799     236.4357    1690.8967       0.0944       3.4649       2.6432
   2620.8647      17.4792       0.0055      55.5373      18.4387    1247.5372     242.0336    1717.8146       0.0914       3.3698       2.6390
   2621.0171      17.3918       0.0053      57.5303      15.5422    1334.3016     251.8159    1228.2926       0.0833       3.1243       2.6397
   2621.1694      17.2918       0.0016      58.0908      16.5580    1298.4197     252.8117     175.8533       0.0871       3.0641       2.6477
   2621.3220      17.2964       0.0012      58.8926      16.4231    1296.7577     258.0867     283.6242       0.0851       3.0659       2.6690
   2621.4744      17.2564       0.0003      58.7237      17.9578    1303.4154     261.4302     189.1316       0.0664       3.1347       2.6960
   2621.6267      17.2095      -0.0004      58.1329      17.3002    1379.9956     269.3730     176.0971       0.0440       3.2621       2.7086
   2621.7791      17.1275       0.0022      57.5593      19.2589    1579.1494     286.1225     171.3619       0.0286       3.3507       2.7102
   2621.9316      17.0302       0.0079      56.2353      23.7679    1752.2830     297.2798     223.5823       0.0308       3.5117       2.7102
   2622.0840      16.9119       0.0092      54.1204      26.9694    1854.1028     304.0744     351.9795       0.0336       3.5952       2.7100
   2622.2363      16.8003       0.0155      52.6782      26.5177    2104.2671     317.2613     422.6138       0.0338       3.6070       2.7156
   2622.3887      16.7176       0.0288      52.2805      22.6826    2315.3315     330.1038     483.1915       0.0281       3.4096       2.7279
   2622.5410      16.6765       0.0278      52.0393      21.6283    2230.1060     329.8780     527.8381       0.0253       3.2988       2.7211
   2622.6936      16.6679       0.0318      52.1965      20.7931    2418.3777     341.2829     566.2031       0.0259       3.4474       2.7297
   2622.8459      16.6335       0.0348      53.3170      20.8343    2296.4050     337.7946     838.5372       0.0256       3.3558       2.7474
   2622.9983      16.5399       0.0312      53.1815      19.4116    2137.8442     330.6557    1057.4492       0.0237       3.3886       2.7565
   2623.1506      16.5237       0.0197      52.1984      18.9282    2412.6306     345.2448    1367.9608       0.0189       3.3873       2.7574
   2623.3032      16.5279       0.0137      50.9723      18.4535    2447.3147     348.0872     774.8618       0.0168       3.3871       2.7534
   2623.4556      16.5190       0.0107      51.1186      16.5705    2447.1460     349.5327     814.7567       0.0172       3.3887       2.7439
   2623.6079      16.5198       0.0108      51.0372      18.8413    2703.4604     357.0725     994.3312       0.0192       3.2810       2.7207
   2623.7603      16.6221       0.0165      50.4801      21.3622    2991.9177     368.4960    1864.2371       0.0198       2.9834       2.7147
   2623.9128      16.8498       0.0296      49.9220      24.8411    2158.0217     340.4294    1600.4417       0.0178       2.7534       2.7333
   2624.0652      17.3134       0.0416      49.5808      24.7070    1765.1404     322.8312    1349.4211       0.0138       2.7070       2.7725
   2624.2175      17.6505       0.0507      51.7884      22.8698    1722.3408     321.6277     935.7968       0.0097       3.0818       2.7965
   2624.3699      17.5322       0.0499      54.0542      23.2116    1717.5424     322.6596     598.0411       0.0079       3.1532       2.7939
   2624.5222      17.0398       0.0365      53.2942      24.8054    1670.5198     322.3653     406.4107       0.0090       2.8611       2.7627
   2624.6748      16.5517       0.0164      53.1590      28.7047    1218.5073     288.9633     550.5304       0.0123       2.5231       2.7126
   2624.8271      16.4766       0.0158      51.2325      32.2226     918.3680     256.0327     546.8386       0.0179       2.4802       2.7030
   2624.9795      16.5162       0.0182      49.0072      39.4124     805.1353     241.6519     387.2869       0.0228       2.7920       2.7056
   2625.1318      16.5287       0.0193      48.4120      49.4256     727.9774     230.1995     307.7269       0.0229       3.1921       2.7266
   2625.2844      16.5411       0.0285      51.0353      53.7034     653.3495     218.7203     283.7717       0.0195       3.5300       2.7543
   2625.4368      16.5837       0.0434      51.7491      53.0362     728.1615     231.2404     205.2922       0.0143       3.6214       2.7739
   2625.5891      16.5720       0.0399      50.1210      45.1232     846.0767     247.7766     282.0866       0.0122       3.6983       2.7530
   2625.7415      16.6036       0.0260      50.6393      41.0658     903.5688     254.3963     406.9757       0.0130       3.6812       2.7155
   2625.8940      16.6138       0.0210      49.8201      35.9843     996.4390     264.9482     374.5424       0.0185       3.6153       2.6990
   2626.0464      16.6042       0.0179      50.2870      34.9002    1226.3683     287.8581     715.2653       0.0236       3.5287       2.7164
   2626.1987      16.6235       0.0140      51.4088      31.6912    1249.2153     287.6107    1234.8431       0.0214       3.5316       2.7421
   2626.3511      16.7153       0.0125      52.3456      31.8599    1353.8500     291.2328     457.4726       0.0151       3.5230       2.7505
   2626.5034      16.7267       0.0128      53.2793      31.1145    2102.9014     329.2973     660.8348       0.0093       3.3677       2.7458
   2626.6560      16.7293       0.0093      51.9998      34.1066    3095.0593     367.2743    2000.0000       0.0077       3.2663       2.7267
   2626.8083      16.7554       0.0097      51.0529      32.6642    3088.2856     370.7033    1990.3058       0.0087       3.3225       2.7293
   2626.9607      16.7764       0.0104      48.6737      29.9858    2482.0095     363.1979    1944.1895       0.0120       3.5158       2.7415
   2627.1130      16.6957       0.0122      49.4039      27.3016    2221.4670     356.9164    1534.8788       0.0160       3.6760       2.7589
   2627.2656      16.7150       0.0115      51.4692      25.7588    2113.4626     353.7634     547.1580       0.0163       3.6370       2.7785
   2627.4180      16.6886       0.0121      50.1353      27.7526    1886.8423     337.7979     743.8593       0.0162       3.6908       2.7859
   2627.5703      16.6598       0.0152      50.2477      27.8087    1697.3387     321.0051    1365.3204       0.0144       3.7618       2.7874
   2627.7227      16.6812       0.0201      50.4278      27.1776    1915.1516     333.3902     785.1194       0.0137       3.8051       2.7923
   2627.8750      16.6565       0.0249      50.8001      25.5672    1904.2996     334.2906     984.8460       0.0121       3.7136       2.7935
   2628.0276      16.6299       0.0320      50.0639      23.1958    2245.4321     348.8312     526.7040       0.0129       3.6239       2.7943
   2628.1799      16.6465       0.0377      49.5771      23.3951    3504.1748     392.1314     603.9885       0.0145       3.5265       2.7912
   2628.3323      16.6562       0.0379      48.9837      21.6030    4297.0000     412.6375     974.1054       0.0154       3.3912       2.7850
