#------------------------------------------------------------------------------
#
#   Created by  : [OpenWorks] Log Export Utility (LEXP)
#   Created on  : 2016-05-12 17:18:19
#   Project     : CANT971
#   User        : R5K
#   Interpreter : PEP
#
#------------------------------------------------------------------------------
~VERSION INFORMATION
VERS. 2.0 : CWLS Log ASCII Standard - version 2.0
WRAP.  NO : One line per depth step
~WELL INFORMATION
#MNEMONIC   .UNIT                                           VALUE :DESCRIPTION
#------------------------------------------------------------------------------
STRT        .M                                           134.7982 :START DEPTH
STOP        .M                                          2692.2227 :STOP DEPTH
STEP        .M                                             0.1524 :STEP
NULL        .                                           -999.2500 :NULL VALUE
COMP        .                                   PEMEX EXPL & PROD :COMPANY
WELL        .                                                 57A :WELL
FLD         .                                           CANTARELL :FIELD
LOC         .                                             UNKNOWN :LOCATION
CNTY        .                                      CD. DEL CARMEN :COUNTY
STAT        .                                            CAMPECHE :STATE
CTRY        .                                              MEXICO :COUNTRY
SRVC        .                                             UNKNOWN :SERVICE COMPANY
DATE        .                                             UNKNOWN :LOG DATE
UWI         .                                          3060000169 :UNIQUE WELL ID
XCOORD      .                                       602151.210000 :SURFACE X
YCOORD      .                                      2147168.830000 :SURFACE Y
LAT         .                                           19.417362 :LATITUDE
LON         .                                          -92.027041 :LONGITUDE
ELEV        .M                                            28.1700 :SURFACE ELEV
ELEV_TYPE   .                                                  KB :ELEV TYPE
~CURVE INFORMATION
#MNEMONIC.UNIT        API CODE       : CURVE DESCRIPTION
#------------------------------------------------------------------------------
DEPTH    .M                          : Measured Depth
CALI     .inches      UNKNOWN        : CALI:UNKNOWN:r1:MAIN:v1 
DRHO     .UNKNOWN     UNKNOWN        : DRHO:UNKNOWN:r1:MAIN:v1 
DT       .us/ft       UNKNOWN        : DT:UNKNOWN:r1:MAIN:v1 
GR       .API         UNKNOWN        : GR:GR:r1:MAIN:v1 
ILD      .UNKNOWN     UNKNOWN        : ILD:UNKNOWN:r1:MAIN:v1 
LLD      .UNKNOWN     UNKNOWN        : LLD:UNKNOWN:r1:MAIN:v1 
LLS      .UNKNOWN     UNKNOWN        : LLS:UNKNOWN:r1:MAIN:v1 
MSFL     .UNKNOWN     UNKNOWN        : MSFL:UNKNOWN:r1:MAIN:v1 
NORM     .UNKNOWN     UNKNOWN        : NORM:NORM-Load:r1:MAIN:v1 
NPHI     .v/v_decimal UNKNOWN        : NPHI:UNKNOWN:r1:MAIN:v1 
RHOB     .UNKNOWN     UNKNOWN        : RHOB:UNKNOWN:r1:MAIN:v1 
SP       .mV          UNKNOWN        : SP:PETROWORKS:rC:NONE:v1 
~A     DEPTH         CALI         DRHO           DT           GR          ILD          LLD          LLS         MSFL         NORM         NPHI         RHOB           SP
# ...
   2607.3359      10.0696       0.0510      68.4902      70.4824      11.3908       9.6457      10.8512       8.5695    -999.2500       0.1219       2.7545     193.1789
   2607.4883      10.1097       0.0595      67.3124      71.6001      11.3031      10.3076      11.1355       6.6306    -999.2500       0.1229       2.7295     193.1465
   2607.6406      10.2150       0.0520      66.1342      69.7424      11.1686      11.4733      12.6623       7.3572    -999.2500       0.1165       2.7252     193.2925
   2607.7930      10.3243       0.0434      64.9559      67.7012      11.0312      12.6701      14.2657       8.2482    -999.2500       0.1097       2.7222     193.3646
   2607.9453      10.2654       0.0359      66.5201      65.6249      10.7257      11.5159      14.0588       8.7149    -999.2500       0.1091       2.7234     193.1483
   2608.0979      10.1972       0.0284      68.2363      63.5467      10.4108      10.2314      13.7514       9.1582    -999.2500       0.1089       2.7249     192.9154
   2608.2502      10.2795       0.0323      70.7009      61.8951       9.9535       9.3716      11.6250       6.6886    -999.2500       0.1226       2.6992     192.6197
   2608.4026      10.3693       0.0368      73.2023      60.2646       9.4892       8.5328       9.4089       4.0753    -999.2500       0.1369       2.6721     192.2865
   2608.5549      10.6950       0.0279      73.0229      60.3787       8.8404       7.9073       8.5158       3.6008    -999.2500       0.1505       2.6374     191.8162
   2608.7075      11.0309       0.0183      72.7276      60.5682       8.1836       7.2911       7.6800       3.2187    -999.2500       0.1641       2.6023     191.4632
   2608.8599      11.1488       0.0262      73.7559      61.4371       7.8127       7.4323       7.6799       2.9944    -999.2500       0.1636       2.5923     191.5246
   2609.0122      11.2585       0.0347      74.8335      62.3314       7.4525       7.6016       7.7110       2.7760    -999.2500       0.1626       2.5833     191.6140
   2609.1646      10.9091       0.0360      78.5242      63.1531       7.5284       7.5119       7.6076       4.8425    -999.2500       0.1704       2.5801     191.8002
   2609.3171      10.5446       0.0370      82.3012      63.9724       7.6186       7.4136       7.4998       6.9844    -999.2500       0.1785       2.5771     191.9387
   2609.4695      10.4105       0.0892      83.4988      65.3725       7.6234       6.3586       6.9801       5.1504    -999.2500       0.2102       2.5628     191.9176
   2609.6218      10.2827       0.1429      84.6265      66.7884       7.6259       5.2776       6.4491       3.2085    -999.2500       0.2426       2.5483     191.7882
   2609.7742      10.4646       0.1361      81.1429      67.9491       7.5209       5.4258       6.3737       2.6712    -999.2500       0.2256       2.5352     191.3068
   2609.9265      10.6531       0.1281      77.5609      69.1043       7.4136       5.6003       6.3080       2.1638    -999.2500       0.2075       2.5222     190.7636
   2610.0791      10.6175       0.0900      77.7464      70.1499       7.7768       6.0301       7.0214       2.0494    -999.2500       0.1827       2.5496     190.0253
   2610.2314      10.5780       0.0510      77.9930      71.2040       8.1510       6.4680       7.7540       1.9400    -999.2500       0.1576       2.5780     189.3385
   2610.3838      10.4421       0.0679      77.6041      70.5085       8.4933       6.0607       7.0302       4.9492    -999.2500       0.1726       2.5959     188.8086
   2610.5361      10.3040       0.0850      77.2090      69.8020       8.8410       5.6470       6.2950       8.0060    -999.2500       0.1877       2.6140     188.3685
   2610.6887      10.3050       0.0651      76.5740      68.6595       8.4791       5.6993       6.3224       7.0315    -999.2500       0.1985       2.6005     188.1947
   2610.8411      10.3060       0.0450      75.9350      67.5100       8.1150       5.7520       6.3500       6.0510    -999.2500       0.2093       2.5870     188.0789
   2610.9934      10.2178       0.0465      76.2778      65.6564       7.6754       6.2923       6.8422       4.3944    -999.2500       0.2120       2.5860     188.1312
   2611.1458      10.1300       0.0480      76.6190      63.8120       7.2380       6.8300       7.3320       2.7460    -999.2500       0.2148       2.5850     188.2182
   2611.2983       9.9128       0.0344      82.6838      64.1512       7.1170       6.1864       6.5094       4.2092    -999.2500       0.2339       2.5296     188.4031
   2611.4507       9.6990       0.0210      88.6520      64.4850       6.9980       5.5530       5.7000       5.6490    -999.2500       0.2528       2.4750     188.5005
   2611.6030       9.8789       0.0276      92.4697      64.8636       7.0228       4.8440       5.1440       5.3596    -999.2500       0.2889       2.3985     188.3580
   2611.7554      10.0521       0.0348      96.1938      65.2333       7.0458       4.1534       4.6033       5.0681    -999.2500       0.3239       2.3234     188.1357
   2611.9077       9.9348       0.0809      96.7328      65.3099       6.9746       4.1168       4.6208       4.4604    -999.2500       0.3186       2.2888     187.7005
   2612.0603       9.8194       0.1248      97.0981      65.3662       6.9091       4.0876       4.6499       3.8354    -999.2500       0.3125       2.2556     187.1960
   2612.2126       9.7903       0.0697      89.6955      64.4397       7.0985       4.3902       5.1924       2.4377    -999.2500       0.2704       2.2832     186.5115
   2612.3650       9.7636       0.0157      82.3991      63.4565       7.3050       4.7016       5.7355       1.0734    -999.2500       0.2293       2.3087     185.9690
   2612.5173       9.8237       0.0052      79.1110      60.3384       8.1574       5.3444       6.2960       0.9736    -999.2500       0.2290       2.2591     185.7880
   2612.6699       9.8805      -0.0041      76.0937      57.2086       8.9991       5.9629       6.8226       0.8988    -999.2500       0.2287       2.2123     185.6545
   2612.8223       9.8318       0.0255      81.4405      53.7199       9.5110       5.8310       6.3012       1.5932    -999.2500       0.2320       2.2534     185.6383
   2612.9746       9.7810       0.0546      86.3202      50.3629      10.0095       5.7164       5.8216       2.2764    -999.2500       0.2348       2.2987     185.6675
   2613.1270       9.6732       0.0712      79.0100      50.4421      10.1594       6.0528       6.4327       2.6680    -999.2500       0.2227       2.4536     185.8060
   2613.2793       9.5709       0.0861      71.8163      50.5923      10.3287       6.4158       7.0890       3.0057    -999.2500       0.2097       2.6041     186.0535
   2613.4319       9.5914       0.0656      67.2532      52.3432      10.9344       7.3780       8.7616       2.1268    -999.2500       0.1797       2.6548     186.5565
   2613.5842       9.6162       0.0447      62.8149      54.1279      11.5354       8.3763      10.4501       1.3568    -999.2500       0.1510       2.7041     187.1591
   2613.7366       9.7255       0.0187      60.8530      56.5842      12.0439      10.0917      12.4536       2.7480    -999.2500       0.1463       2.7261     187.9895
   2613.8889       9.8393      -0.0058      59.0134      58.9450      12.5225      11.7331      14.3527       4.1265    -999.2500       0.1413       2.7468     188.7119
   2614.0415      10.0373      -0.0023      59.4054      59.6184      12.4548      12.0244      14.3467       5.2716    -999.2500       0.1321       2.7423     189.1921
   2614.1938      10.2218       0.0021      59.8793      60.1999      12.3503      12.2032      14.2278       6.5376    -999.2500       0.1233       2.7346     189.6025
   2614.3462      10.1832       0.0211      61.6933      59.2764      11.6418      10.5355      12.2589       9.7846    -999.2500       0.1201       2.6754     189.8605
   2614.4985      10.1315       0.0407      63.4703      58.5002      10.9109       8.9511      10.3848      12.7500    -999.2500       0.1179       2.6167     190.0173
