#------------------------------------------------------------------------------
#
#   Created by  : [OpenWorks] Log Export Utility (LEXP)
#   Created on  : 2016-05-23 11:50:40
#   Project     : CANT971
#   User        : R5K
#   Interpreter : PEP
#
#------------------------------------------------------------------------------
~VERSION INFORMATION
VERS. 2.0 : CWLS Log ASCII Standard - version 2.0
WRAP.  NO : One line per depth step
~WELL INFORMATION
#MNEMONIC   .UNIT                                           VALUE :DESCRIPTION
#------------------------------------------------------------------------------
STRT        .M                                           697.2303 :START DEPTH
STOP        .M                                          3650.8948 :STOP DEPTH
STEP        .M                                             0.1524 :STEP
NULL        .                                           -999.2500 :NULL VALUE
COMP        .                                   PEMEX EXPL & PROD :COMPANY
WELL        .                                                1026 :WELL
FLD         .                                           CANTARELL :FIELD
LOC         .                                             UNKNOWN :LOCATION
CNTY        .                                      CD. DEL CARMEN :COUNTY
STAT        .                                            CAMPECHE :STATE
CTRY        .                                              MEXICO :COUNTRY
SRVC        .                                             UNKNOWN :SERVICE COMPANY
DATE        .                                             UNKNOWN :LOG DATE
UWI         .                                          3060000491 :UNIQUE WELL ID
XCOORD      .                                       596159.330000 :SURFACE X
YCOORD      .                                      2150607.710000 :SURFACE Y
LAT         .                                           19.448735 :LATITUDE
LON         .                                          -92.083932 :LONGITUDE
ELEV        .M                                            30.0000 :SURFACE ELEV
ELEV_TYPE   .                                                  KB :ELEV TYPE
~CURVE INFORMATION
#MNEMONIC.UNIT        API CODE       : CURVE DESCRIPTION
#------------------------------------------------------------------------------
DEPTH    .M                          : Measured Depth
CALI     .inches      UNKNOWN        : CALI:registros:rC:NONE:v0 (auto-composite)
DRHO     .g/cm3       UNKNOWN        : DRHO:registros:rC:NONE:v0 (auto-composite)
DT       .us/ft       UNKNOWN        : DT:registros:rC:NONE:v0 (auto-composite)
GR       .API         UNKNOWN        : GR:registros:rC:NONE:v0 (auto-composite)
ILD      .ohm.m       UNKNOWN        : ILD:registros:rC:NONE:v0 (auto-composite)
ILM      .ohm.m       UNKNOWN        : ILM:registros:rC:NONE:v0 (auto-composite)
LLD      .ohm.m       UNKNOWN        : LLD:registros:rC:NONE:v0 (auto-composite)
LLS      .ohm.m       UNKNOWN        : LLS:registros:rC:NONE:v0 (auto-composite)
MSFL     .ohm.m       UNKNOWN        : MSFL:registros:rC:NONE:v0 (auto-composite)
NPHI     .v/v_decimal UNKNOWN        : NPHI:registros:rC:NONE:v0 (auto-composite)
PEF      .b/elec      UNKNOWN        : PEF:registros:rC:NONE:v0 (auto-composite)
RHOB     .g/cm3       UNKNOWN        : RHOB:registros:rC:NONE:v0 (auto-composite)
~A     DEPTH         CALI         DRHO           DT           GR          ILD          ILM          LLD          LLS         MSFL         NPHI          PEF         RHOB
# ...
   3367.2783       9.8950       0.0120      65.0996     111.0299    -999.2500    -999.2500     183.7133     242.3100       3.7738       0.1326       3.1742       2.6150
   3367.4307       9.9330       0.0120      72.5280     105.7440    -999.2500    -999.2500      68.6720      99.3410       4.3860       0.1500       3.4340       2.6390
   3367.5830      10.0095       0.0055      98.8279      95.3129    -999.2500    -999.2500      71.0482     101.9432       6.7662       0.1810       3.3321       2.5725
   3367.7356      10.0860      -0.0010     125.1870      84.8750    -999.2500    -999.2500      73.4260     104.5470       9.1480       0.2075       3.2300       2.5060
   3367.8879      10.0720       0.0015     111.2665      91.5389    -999.2500    -999.2500     115.7942     159.0555      15.3451       0.2109       3.2310       2.5085
   3368.0403      10.0580       0.0040      97.3130      98.2080    -999.2500    -999.2500     158.1950     213.6060      21.5470       0.1955       3.2320       2.5110
   3368.1926       9.9316       0.0145     131.2978     111.4106    -999.2500    -999.2500     476.8863     587.1188      16.4088       0.1651       3.3260       2.5505
   3368.3450       9.8050       0.0250     165.3130     124.6250    -999.2500    -999.2500     795.8630     960.9660      11.2660       0.1245       3.4200       2.5900
   3368.4976       9.8050       0.0230     160.8518     110.5212    -999.2500    -999.2500    2080.5342    1981.5944      14.6210       0.0784       3.3330       2.6780
   3368.6499       9.8050       0.0210     156.3860      96.4030    -999.2500    -999.2500    3364.4580    3001.6289      17.9740       0.0423       3.2460       2.7660
   3368.8022       9.8325       0.0165     145.6806      59.2543    -999.2500    -999.2500    3300.2439    2679.5000      36.1471       0.0317       3.3474       2.7625
   3368.9546       9.8600       0.0120     134.9630      22.0630    -999.2500    -999.2500    3236.0591    2357.5181      54.3120       0.0363       3.4490       2.7590
   3369.1072       9.9025       0.0125     111.2151      22.7136    -999.2500    -999.2500    3531.3218    2453.9766      42.1855       0.0453       3.3546       2.7250
   3369.2595       9.9450       0.0130      87.4370      23.3650    -999.2500    -999.2500    3826.4871    2550.4031      30.0630       0.0524       3.2600       2.6910
   3369.4119       9.9805       0.0145     106.3927      26.2705    -999.2500    -999.2500    4863.6875    2932.5728      54.2530       0.0513       3.3155       2.6930
   3369.5642      10.0160       0.0160     125.3750      29.1800    -999.2500    -999.2500    5900.6758    3314.6641      78.4380       0.0441       3.3710       2.6950
   3369.7168      10.0020       0.0195     118.8030      33.6646    -999.2500    -999.2500    9392.8506    7134.2402      76.9609       0.0333       3.2756       2.7130
   3369.8691       9.9880       0.0230     112.2210      38.1560    -999.2500    -999.2500   12884.7471   10953.5127      75.4840       0.0241       3.1800       2.7310
   3370.0215       9.9465       0.0165      92.0337      35.5646    -999.2500    -999.2500   22285.5801   10904.3672      63.5548       0.0217       3.1930       2.7560
   3370.1738       9.9050       0.0100      71.8130      32.9690    -999.2500    -999.2500   31686.8477   10855.2197      51.6250       0.0260       3.2060       2.7810
   3370.3262       9.8550       0.0135      98.1017      26.7555    -999.2500    -999.2500   28011.4316    9592.5586      54.3748       0.0366       3.2455       2.7870
   3370.4788       9.8050       0.0170     124.4370      20.5310    -999.2500    -999.2500   24335.3828    8329.6797      57.1250       0.0586       3.2850       2.7930
   3370.6311       9.8050       0.0150     119.5387      21.1954    -999.2500    -999.2500   18218.0137    6251.4717      48.5323       0.0970       3.2460       2.7695
   3370.7834       9.8050       0.0130     114.6310      21.8610    -999.2500    -999.2500   12098.8252    4172.6460      39.9370       0.1292       3.2070       2.7460
   3370.9358       9.8050       0.0130      95.4285      25.3858    -999.2500    -999.2500    9116.9150    3143.4321      45.6393       0.1320       3.2135       2.6961
   3371.0884       9.8050       0.0130      76.1870      28.9120    -999.2500    -999.2500    6133.7432    2113.7830      51.3440       0.1179       3.2200       2.6460
   3371.2407       9.8175       0.0275      85.6148      35.0478    -999.2500    -999.2500    4861.8862    1551.5302      45.9315       0.0996       3.2545       2.6934
   3371.3931       9.8300       0.0420      95.0630      41.1870    -999.2500    -999.2500    3589.3320     988.9690      40.5160       0.0819       3.2890       2.7410
   3371.5454       9.8640       0.0405      94.9107      38.7103    -999.2500    -999.2500    3112.4343     998.8616      32.1213       0.0697       3.2745       2.7380
   3371.6980       9.8980       0.0390      94.7580      36.2320    -999.2500    -999.2500    2635.2151    1008.7610      23.7210       0.0630       3.2600       2.7350
   3371.8503       9.8555       0.0325      93.2893      32.1021    -999.2500    -999.2500    2692.9338    1007.7953      13.0648       0.0617       3.2046       2.7075
   3372.0027       9.8130       0.0260      91.8170      27.9690    -999.2500    -999.2500    2750.6990    1006.8290       2.4000       0.0620       3.1490       2.6800
   3372.1550       9.8870       0.0160      85.4739      29.2909    -999.2500    -999.2500    2703.3225     979.0654       5.4956       0.0602       3.0181       2.6865
   3372.3074       9.9610       0.0060      79.1250      30.6140    -999.2500    -999.2500    2655.9021     951.2760       8.5940       0.0569       2.8870       2.6930
   3372.4600       9.8830       0.0070      89.9318      33.2671    -999.2500    -999.2500    2803.7017     994.6375       8.1564       0.0529       2.9155       2.7175
   3372.6123       9.8050       0.0080     100.7500      35.9230    -999.2500    -999.2500    2951.4199    1037.9750       7.7190       0.0472       2.9440       2.7420
   3372.7646       9.8050       0.0100      97.3965      37.2887    -999.2500    -999.2500    3721.1626    1269.5352       8.0416       0.0387       2.9865       2.7255
   3372.9170       9.8050       0.0120      94.0390      38.6560    -999.2500    -999.2500    4490.5781    1500.9969       8.3640       0.0313       3.0290       2.7090
   3373.0696       9.8165       0.0175      86.1906      38.3212    -999.2500    -999.2500    6168.2979    1969.0547      11.5890       0.0290       3.0325       2.7100
   3373.2219       9.8280       0.0230      78.3320      37.9860    -999.2500    -999.2500    7845.5142    2436.9719      14.8130       0.0303       3.0360       2.7110
   3373.3743       9.8230       0.0325      66.3930      35.6517    -999.2500    -999.2500    7712.5361    2344.6890      14.7660       0.0338       3.1050       2.7200
   3373.5266       9.8180       0.0420      54.4370      33.3140    -999.2500    -999.2500    7579.5811    2252.4221      14.7190       0.0391       3.1740       2.7290
   3373.6792       9.7451       0.0410      57.3113      30.2844    -999.2500    -999.2500    7019.6646    1846.8837      15.9375       0.0453       3.0541       2.7010
   3373.8315       9.6720       0.0400      60.1900      27.2500    -999.2500    -999.2500    6459.7749    1441.3650      17.1560       0.0507       2.9340       2.6730
   3373.9839       9.6720       0.0435      64.4949      27.7341    -999.2500    -999.2500    5661.6904    1451.9081      11.8577       0.0534       2.9555       2.6760
   3374.1362       9.6720       0.0470      68.8070      28.2190    -999.2500    -999.2500    4863.5449    1462.4520       6.5590       0.0542       2.9770       2.6790
   3374.2886       9.6720       0.0595      72.4317      27.5286    -999.2500    -999.2500    4219.1577    1420.5938      11.5835       0.0540       3.1503       2.7055
   3374.4412       9.6720       0.0720      76.0630      26.8370    -999.2500    -999.2500    3574.6399    1378.7271      16.6090       0.0554       3.3240       2.7320
