#------------------------------------------------------------------------------
#
#   Created by  : [OpenWorks] Log Export Utility (LEXP)
#   Created on  : 2016-05-23 11:57:10
#   Project     : CANT971
#   User        : R5K
#   Interpreter : PEP
#
#------------------------------------------------------------------------------
~VERSION INFORMATION
VERS. 2.0 : CWLS Log ASCII Standard - version 2.0
WRAP.  NO : One line per depth step
~WELL INFORMATION
#MNEMONIC   .UNIT                                           VALUE :DESCRIPTION
#------------------------------------------------------------------------------
STRT        .M                                           345.0980 :START DEPTH
STOP        .M                                          2040.8528 :STOP DEPTH
STEP        .M                                             0.1524 :STEP
NULL        .                                           -999.2500 :NULL VALUE
COMP        .                                   PEMEX EXPL & PROD :COMPANY
WELL        .                                                  71 :WELL
FLD         .                                           CANTARELL :FIELD
LOC         .                                             UNKNOWN :LOCATION
CNTY        .                                      CD. DEL CARMEN :COUNTY
STAT        .                                            CAMPECHE :STATE
CTRY        .                                              MEXICO :COUNTRY
SRVC        .                                             UNKNOWN :SERVICE COMPANY
DATE        .                                             UNKNOWN :LOG DATE
UWI         .                                          3060000175 :UNIQUE WELL ID
XCOORD      .                                       599724.470000 :SURFACE X
YCOORD      .                                      2147216.900000 :SURFACE Y
LAT         .                                           19.417919 :LATITUDE
LON         .                                          -92.050150 :LONGITUDE
ELEV        .M                                            27.8000 :SURFACE ELEV
ELEV_TYPE   .                                                  KB :ELEV TYPE
~CURVE INFORMATION
#MNEMONIC.UNIT        API CODE       : CURVE DESCRIPTION
#------------------------------------------------------------------------------
DEPTH    .M                          : Measured Depth
DT       .us/ft       UNKNOWN        : DT:DT:rC:NONE:v0 (auto-composite)
GR       .UNKNOWN     UNKNOWN        : GR:GR-Load:rC:NONE:v0 (auto-composite)
ILD      .UNKNOWN     UNKNOWN        : ILD:ILD-Load:rC:NONE:v0 (auto-composite)
NPHI     .v/v_decimal UNKNOWN        : NPHI:NPHI:rC:NONE:v0 (auto-composite)
RG       .UNKNOWN     UNKNOWN        : RG:RG-Loader:rC:NONE:v0 (auto-composite)
RHOB     .UNKNOWN     UNKNOWN        : RHOB:RHOB-Load:rC:NONE:v0 (auto-composite)
~A     DEPTH           DT           GR          ILD         NPHI           RG         RHOB
# ...
    358.5092     102.2475      31.5199     246.7288    -999.2500    -999.2500    -999.2500
    358.6616     110.8611      31.7909     220.6745    -999.2500    -999.2500    -999.2500
    358.8140     119.3033      33.5120     192.8675    -999.2500    -999.2500    -999.2500
    358.9664     127.5115      37.2348     162.6550    -999.2500    -999.2500    -999.2500
    359.1188     131.9234      39.0582     145.9342    -999.2500    -999.2500    -999.2500
    359.2712     131.1534      38.2586     147.7356    -999.2500    -999.2500    -999.2500
    359.4236     126.0626      38.2160     154.4241    -999.2500    -999.2500    -999.2500
    359.5760     115.0724      39.2180     167.8235    -999.2500    -999.2500    -999.2500
    359.7284     109.4460      39.7702     174.7111    -999.2500    -999.2500    -999.2500
    359.8808     111.1389      39.7017     172.6617    -999.2500    -999.2500    -999.2500
    360.0332     116.1995      38.5851     166.6148    -999.2500    -999.2500    -999.2500
    360.1856     125.8567      36.0215     155.0801    -999.2500    -999.2500    -999.2500
    360.3380     134.9561      34.6640     142.8969    -999.2500    -999.2500    -999.2500
    360.4904     143.2938      34.9710     129.8230    -999.2500    -999.2500    -999.2500
    360.6428     150.2419      35.7785     117.1115    -999.2500    -999.2500    -999.2500
    360.7952     155.2922      37.2770     104.8974    -999.2500    -999.2500    -999.2500
    360.9476     157.1928      38.3287      95.0710    -999.2500    -999.2500    -999.2500
    361.1000     154.7944      38.7638      88.5222    -999.2500    -999.2500    -999.2500
    361.2524     153.9848      39.3236      84.1875    -999.2500    -999.2500    -999.2500
    361.4048     155.3442      40.0555      82.8929    -999.2500    -999.2500    -999.2500
    361.5572     156.0666      40.8615      82.2962    -999.2500    -999.2500    -999.2500
    361.7096     155.9191      41.7694      82.6572    -999.2500    -999.2500    -999.2500
    361.8620     155.4424      42.2370      83.9150    -999.2500    -999.2500    -999.2500
    362.0144     154.5165      42.0965      86.4039    -999.2500    -999.2500    -999.2500
    362.1668     152.2249      41.7242      89.8779    -999.2500    -999.2500    -999.2500
    362.3192     148.0690      41.0322      94.7042    -999.2500    -999.2500    -999.2500
    362.4716     138.9608      39.9136      99.7084    -999.2500    -999.2500    -999.2500
    362.6240     123.0902      38.2062     104.9567    -999.2500    -999.2500    -999.2500
    362.7764     115.2998      37.2893     109.7708    -999.2500    -999.2500    -999.2500
    362.9288     118.5367      37.4638     113.9886    -999.2500    -999.2500    -999.2500
    363.0812     126.7598      37.3778     117.7943    -999.2500    -999.2500    -999.2500
    363.2336     141.7893      36.9323     121.0342    -999.2500    -999.2500    -999.2500
    363.3860     149.7604      37.4538     122.6113    -999.2500    -999.2500    -999.2500
    363.5384     148.0938      39.3097     121.9047    -999.2500    -999.2500    -999.2500
    363.6908     147.2071      40.2352     119.8607    -999.2500    -999.2500    -999.2500
    363.8432     147.3846      39.8762     115.9808    -999.2500    -999.2500    -999.2500
    363.9956     148.1838      39.7810     111.7859    -999.2500    -999.2500    -999.2500
    364.1480     149.8318      40.0500     107.1585    -999.2500    -999.2500    -999.2500
    364.3004     152.7850      40.1732     102.6882    -999.2500    -999.2500    -999.2500
    364.4528     157.5203      40.0952      98.4334    -999.2500    -999.2500    -999.2500
    364.6052     160.0244      40.1895      93.4277    -999.2500    -999.2500    -999.2500
    364.7576     159.4839      40.5215      87.3914    -999.2500    -999.2500    -999.2500
    364.9100     158.1452      40.3296      83.9024    -999.2500    -999.2500    -999.2500
    365.0624     155.7167      39.4146      83.9104    -999.2500    -999.2500    -999.2500
    365.2148     153.3686      39.2773      83.9460    -999.2500    -999.2500    -999.2500
    365.3672     151.1302      40.2132      84.0195    -999.2500    -999.2500    -999.2500
    365.5196     150.1335      40.6403      84.1452    -999.2500    -999.2500    -999.2500
    365.6720     150.8325      40.3648      84.3427    -999.2500    -999.2500    -999.2500
    365.8244     152.5663      40.2544      84.5493    -999.2500    -999.2500    -999.2500
    365.9768     155.7122      40.3719      84.7683    -999.2500    -999.2500    -999.2500
    366.1292     158.1983      40.6898      84.8668    -999.2500    -999.2500    -999.2500
    366.2816     159.7838      41.2843      84.7998    -999.2500    -999.2500    -999.2500
    366.4340     161.3148      42.1241      84.5842    -999.2500    -999.2500    -999.2500
    366.5864     162.7713      43.3026      84.1647    -999.2500    -999.2500    -999.2500
    366.7388     163.5670      43.6447      83.4746    -999.2500    -999.2500    -999.2500
    366.8912     163.4605      42.8321      82.4132    -999.2500    -999.2500    -999.2500
    367.0436     163.0430      43.3005      81.0161    -999.2500    -999.2500    -999.2500
    367.1960     162.2010      45.5365      79.1581    -999.2500    -999.2500    -999.2500
    367.3484     161.7979      45.6686      77.8652    -999.2500    -999.2500    -999.2500
    367.5008     161.9939      42.8972      77.3481    -999.2500    -999.2500    -999.2500
    367.6532     162.4846      41.3194      76.9179    -999.2500    -999.2500    -999.2500
    367.8056     163.3776      41.3894      76.6069    -999.2500    -999.2500    -999.2500
    367.9580     163.8294      41.7340      76.3880    -999.2500    -999.2500    -999.2500
    368.1104     163.6789      42.4575      76.2955    -999.2500    -999.2500    -999.2500
    368.2628     163.6095      42.8484      76.2304    -999.2500    -999.2500    -999.2500
    368.4152     163.6510      42.7804      76.2029    -999.2500    -999.2500    -999.2500
    368.5676     163.5849      42.6152      76.1752    -999.2500    -999.2500    -999.2500
    368.7200     163.3719      42.3157      76.1472    -999.2500    -999.2500    -999.2500
    368.8724     162.0863      41.7207      76.1044    -999.2500    -999.2500    -999.2500
    369.0248     159.3363      40.7183      76.0415    -999.2500    -999.2500    -999.2500
    369.1772     157.9606      40.2763      76.0128    -999.2500    -999.2500    -999.2500
    369.3296     158.4611      40.6078      76.0313    -999.2500    -999.2500    -999.2500
    369.4820     158.0006      41.5333      76.1295    -999.2500    -999.2500    -999.2500
    369.6344     156.2287      43.2787      76.3370    -999.2500    -999.2500    -999.2500
    369.7868     155.3933      44.2757      76.9949    -999.2500    -999.2500    -999.2500
    369.9392     155.8363      44.2392      78.2714    -999.2500    -999.2500    -999.2500
    370.0916     157.3206      43.9478      78.9931    -999.2500    -999.2500    -999.2500
    370.2440     160.2265      43.3049      78.9531    -999.2500    -999.2500    -999.2500
    370.3964     161.2735      43.3729      78.8008    -999.2500    -999.2500    -999.2500
    370.5488     159.7819      44.4224      78.4943    -999.2500    -999.2500    -999.2500
    370.7012     158.9252      45.0310      77.7601    -999.2500    -999.2500    -999.2500
    370.8536     158.9352      45.0310      76.4386    -999.2500    -999.2500    -999.2500
    371.0060     158.8049      45.0842      75.7260    -999.2500    -999.2500    -999.2500
    371.1584     158.4829      45.2106      75.8496    -999.2500    -999.2500    -999.2500
    371.3108     157.7563      45.1737      76.2291    -999.2500    -999.2500    -999.2500
    371.4632     156.4772      44.9112      76.9601    -999.2500    -999.2500    -999.2500
    371.6156     153.8387      44.9550      77.9745    -999.2500    -999.2500    -999.2500
    371.7680     149.3448      45.4215      79.3780    -999.2500    -999.2500    -999.2500
