#------------------------------------------------------------------------------
#
#   Created by  : [OpenWorks] Log Export Utility (LEXP)
#   Created on  : 2016-05-23 11:52:48
#   Project     : CANT971
#   User        : R5K
#   Interpreter : PEP
#
#------------------------------------------------------------------------------
~VERSION INFORMATION
VERS. 2.0 : CWLS Log ASCII Standard - version 2.0
WRAP.  NO : One line per depth step
~WELL INFORMATION
#MNEMONIC   .UNIT                                           VALUE :DESCRIPTION
#------------------------------------------------------------------------------
STRT        .M                                           688.5826 :START DEPTH
STOP        .M                                          3180.0178 :STOP DEPTH
STEP        .M                                             0.1524 :STEP
NULL        .                                           -999.2500 :NULL VALUE
COMP        .                                   PEMEX EXPL & PROD :COMPANY
WELL        .                                               2092D :WELL
FLD         .                                           CANTARELL :FIELD
LOC         .                                             UNKNOWN :LOCATION
CNTY        .                                      CD. DEL CARMEN :COUNTY
STAT        .                                            CAMPECHE :STATE
CTRY        .                                              MEXICO :COUNTRY
SRVC        .                                             UNKNOWN :SERVICE COMPANY
DATE        .                                             UNKNOWN :LOG DATE
UWI         .                                          3060000657 :UNIQUE WELL ID
XCOORD      .                                       601715.500000 :SURFACE X
YCOORD      .                                      2142373.650000 :SURFACE Y
LAT         .                                           19.374053 :LATITUDE
LON         .                                          -92.031447 :LONGITUDE
ELEV        .M                                            30.0000 :SURFACE ELEV
ELEV_TYPEF  .b/elec                                            KB :ELEV TYPE
~CURVE INFORMATION
#MNEMONIC.UNIT        API CODE       : CURVE DESCRIPTION
#------------------------------------------------------------------------------
DEPTH    .M                          : Measured Depth
CALI     .in          UNKNOWN        : CALI:UNKNOWN:rC:NONE:v0 (auto-composite)
CGR      .API         UNKNOWN        : CGR:UNKNOWN:rC:NONE:v0 (auto-composite)
DRHO     .g/cm3       UNKNOWN        : DRHO:UNKNOWN:rC:NONE:v0 (auto-composite)
DT       .us/ft       UNKNOWN        : DT:DT:rC:NONE:v0 (auto-composite)
GR       .API         UNKNOWN        : GR:UNKNOWN:rC:NONE:v0 (auto-composite)
ILD      .ohmm        UNKNOWN        : ILD:UNKNOWN:rC:NONE:v0 (auto-composite)
ILM      .ohmm        UNKNOWN        : ILM:UNKNOWN:rC:NONE:v0 (auto-composite)
LLD      .ohmm        UNKNOWN        : LLD:UNKNOWN:rC:NONE:v0 (auto-composite)
LLS      .ohmm        UNKNOWN        : LLS:UNKNOWN:rC:NONE:v0 (auto-composite)
MSFL     .ohmm        UNKNOWN        : MSFL:UNKNOWN:rC:NONE:v0 (auto-composite)
NPHI     .v/v_decimal UNKNOWN        : NPHI:PETROWORKS:rC:NONE:v1 
PEF      .b/elec      UNKNOWN        : PEF:UNKNOWN:rC:NONE:v0 (auto-composite)
POTA     .wtpercent   UNKNOWN        : POTA:UNKNOWN:rC:NONE:v0 (auto-composite)
RHOB     .g/cm3       UNKNOWN        : RHOB:UNKNOWN:rC:NONE:v0 (auto-composite)
SFLU     .ohmm       UNKNOWN        : SFLU:induccion:rC:NONE:v0 (auto-composite)
THOR     .ppm         UNKNOWN        : THOR:UNKNOWN:rC:NONE:v0 (auto-composite)
URAN     .ppm         UNKNOWN        : URAN:UNKNOWN:rC:NONE:v0 (auto-composite)
~A     DEPTH         CALI          CGR         DRHO           DT           GR          ILD          ILM          LLD          LLS         MSFL         NPHI          PEF         POTA         RHOB         SFLU         THOR         URAN
# ...
   2075.4226      11.0126       7.1703       0.0293      59.7092      40.1598    -999.2500    -999.2500    1068.5400     738.0921     159.4197       0.0475       3.4462       0.0006       2.6022    -999.2500       1.9601       3.8052
   2075.5750      11.0390       8.5639       0.0294      59.5830      41.5242    -999.2500    -999.2500    1010.1476     783.6434     188.0496       0.0456       3.4097       0.0019       2.5950    -999.2500       1.7199       3.7545
   2075.7273      11.0800      10.3457       0.0314      60.1563      43.1750    -999.2500    -999.2500     899.4879     817.8726     249.2352       0.0423       3.3697       0.0038       2.5880    -999.2500       1.3146       3.6365
   2075.8799      11.1192      11.1583       0.0260      60.2848      44.1519    -999.2500    -999.2500     665.3541     629.7916     293.4257       0.0388       3.3453       0.0047       2.5789    -999.2500       1.1133       3.6709
   2076.0322      11.1577      11.5701       0.0175      60.2618      44.8501    -999.2500    -999.2500     380.1483     349.7576     330.5866       0.0351       3.3273       0.0051       2.5689    -999.2500       0.9963       3.7684
   2076.1846      11.1418      12.7029       0.0235      60.4564      45.3154    -999.2500    -999.2500     248.0133     215.9750     299.6343       0.0293       3.3770       0.0059       2.5875    -999.2500       0.9359       3.6612
   2076.3369      11.1034      14.1352       0.0355      60.8010      45.6839    -999.2500    -999.2500     179.4568     142.9386     240.3908       0.0221       3.4549       0.0069       2.6180    -999.2500       0.8989       3.4689
   2076.4895      11.0401      16.2718       0.0425      59.2999      45.5293    -999.2500    -999.2500     188.5250     151.3707     171.5004       0.0155       3.5140       0.0083       2.6072    -999.2500       0.8435       3.2136
   2076.6418      10.9664      18.7046       0.0475      57.3481      45.1548    -999.2500    -999.2500     230.2195     194.0450      98.5552       0.0102       3.5651       0.0099       2.5792    -999.2500       0.7803       2.9318
   2076.7942      10.9418      14.6888       0.0263      58.5658      42.7262    -999.2500    -999.2500     438.4411     374.0095      63.4393       0.0152       3.4984       0.0074       2.4682    -999.2500       0.8354       3.1330
   2076.9465      10.9373       8.0341      -0.0057      61.7566      39.4571    -999.2500    -999.2500     714.8077     610.1550      43.8038       0.0260       3.3835       0.0032       2.3232    -999.2500       0.9389       3.5318
   2077.0989      10.9427       5.1934      -0.0185      67.3302      39.0193    -999.2500    -999.2500    1019.3787     805.2518      79.4242       0.0335       3.3078       0.0013       2.2750    -999.2500       0.9725       3.7369
   2077.2515      10.9522       3.9200      -0.0235      74.0513      39.7450    -999.2500    -999.2500    1335.5397     983.4803     137.7510       0.0392       3.2484       0.0005       2.2665    -999.2500       0.9775       3.8624
   2077.4038      10.9508       4.5947      -0.0077      75.0508      40.9585    -999.2500    -999.2500    1393.5924     969.0067     252.9130       0.0279       3.3116       0.0010       2.3683    -999.2500       0.9447       3.9485
   2077.5562      10.9448       6.0734       0.0168      73.1296      42.3732    -999.2500    -999.2500    1345.1362     875.0141     391.5281       0.0110       3.4255       0.0020       2.5156    -999.2500       0.8963       4.0184
   2077.7085      10.9462       5.1012       0.0212      67.6297      43.1027    -999.2500    -999.2500    1311.9603     808.1962     391.6842       0.0060       3.4163       0.0015       2.5731    -999.2500       0.8066       4.2417
   2077.8611      10.9507       3.1056       0.0172      59.8141      43.5460    -999.2500    -999.2500    1285.1654     752.7261     334.0211       0.0088       3.3559       0.0005       2.5931    -999.2500       0.6996       4.5291
   2078.0134      10.9499       2.2398       0.0255      58.0007      42.7444    -999.2500    -999.2500    1272.5380     726.4803     394.2878       0.0104       3.3811       0.0003       2.5898    -999.2500       0.5698       4.5144
   2078.1658      10.9469       1.8477       0.0391      58.6815      41.4207    -999.2500    -999.2500    1265.8514     712.4890     504.0060       0.0117       3.4423       0.0006       2.5768    -999.2500       0.4304       4.3730
   2078.3181      10.9581       2.8001       0.0313      59.2207      41.0061    -999.2500    -999.2500    1245.8562     713.0602     429.2740       0.0139       3.4472       0.0012       2.5577    -999.2500       0.3772       4.2227
   2078.4705      10.9751       4.3015       0.0148      59.6610      40.9626    -999.2500    -999.2500    1220.4276     719.5764     279.2408       0.0169       3.4292       0.0019       2.5362    -999.2500       0.3592       4.0688
   2078.6230      10.9711       6.3626       0.0146      60.4615      41.5797    -999.2500    -999.2500    1180.0735     693.8430     275.4289       0.0187       3.4587       0.0030       2.5438    -999.2500       0.4348       3.9092
   2078.7754      10.9587       8.6533       0.0211      61.2348      42.4676    -999.2500    -999.2500    1133.6002     654.8885     331.5622       0.0201       3.5076       0.0042       2.5633    -999.2500       0.5486       3.7474
   2078.9277      10.9437      10.8414       0.0188      60.9084      42.7884    -999.2500    -999.2500    1102.2456     646.5229     318.1836       0.0227       3.4884       0.0052       2.5923    -999.2500       0.7812       3.5301
   2079.0801      10.9277      12.9870       0.0128      59.8548      42.8739    -999.2500    -999.2500    1077.1635     650.8480     275.9659       0.0259       3.4410       0.0060       2.6253    -999.2500       1.0631       3.2897
   2079.2327      10.9385      13.2991       0.0255      58.2961      42.6792    -999.2500    -999.2500    1074.0005     646.2607     244.5770       0.0259       3.4150       0.0061       2.6586    -999.2500       1.0649       3.2388
   2079.3850      10.9605      12.8473       0.0460      56.5505      42.3678    -999.2500    -999.2500    1079.9694     637.9603     217.6996       0.0247       3.3980       0.0060       2.6921    -999.2500       0.9499       3.2667
   2079.5374      10.9946      12.3312       0.0471      55.2125      42.4637    -999.2500    -999.2500    1100.6414     649.1961     240.1658       0.0252       3.3824       0.0058       2.6903    -999.2500       0.9103       3.3316
   2079.6897      11.0337      11.7882       0.0400      54.1913      42.7299    -999.2500    -999.2500    1127.4642     668.6049     283.2748       0.0264       3.3674       0.0055       2.6738    -999.2500       0.9023       3.4118
   2079.8423      11.0145      11.2758       0.0366      54.2992      42.6335    -999.2500    -999.2500    1149.1956     680.4117     270.8851       0.0265       3.3580       0.0052       2.6722    -999.2500       0.8819       3.4620
   2079.9946      10.9715      10.7759       0.0346      55.0538      42.3893    -999.2500    -999.2500    1168.8533     689.1225     235.8917       0.0260       3.3510       0.0050       2.6767    -999.2500       0.8564       3.4999
   2080.1470      10.9356       9.9211       0.0276      55.1356      41.8781    -999.2500    -999.2500    1151.9695     672.2856     255.1622       0.0280       3.3794       0.0043       2.6469    -999.2500       0.9318       3.5496
   2080.2993      10.9027       8.9201       0.0186      55.2058      41.2569    -999.2500    -999.2500    1120.0238     644.9185     296.7992       0.0309       3.4224       0.0035       2.6029    -999.2500       1.0488       3.6041
   2080.4517      10.9022       9.1943       0.0086      57.0816      41.0259    -999.2500    -999.2500    1101.4469     626.5067     264.1982       0.0323       3.4039       0.0034       2.5596    -999.2500       1.1873       3.5426
   2080.6042      10.9152       9.9965      -0.0019      60.1903      40.9564    -999.2500    -999.2500    1088.4036     611.8015     200.8695       0.0326       3.3599       0.0036       2.5166    -999.2500       1.3347       3.4331
