#------------------------------------------------------------------------------
#
#   Created by  : [OpenWorks] Log Export Utility (LEXP)
#   Created on  : 2016-05-23 11:56:20
#   Project     : CANT971
#   User        : R5K
#   Interpreter : PEP
#
#------------------------------------------------------------------------------
~VERSION INFORMATION
VERS. 2.0 : CWLS Log ASCII Standard - version 2.0
WRAP.  NO : One line per depth step
~WELL INFORMATION
#MNEMONIC   .UNIT                                           VALUE :DESCRIPTION
#------------------------------------------------------------------------------
STRT        .M                                          1446.1469 :START DEPTH
STOP        .M                                          3739.7668 :STOP DEPTH
STEP        .M                                             0.1524 :STEP
NULL        .                                           -999.2500 :NULL VALUE
COMP        .                                             UNKNOWN :COMPANY
WELL        .                                               468-V :WELL
FLD         .                                             UNKNOWN :FIELD
LOC         .                                             UNKNOWN :LOCATION
CNTY        .                                             UNKNOWN :COUNTY
STAT        .                                             UNKNOWN :STATE
CTRY        .                                             UNKNOWN :COUNTRY
SRVC        .                                             UNKNOWN :SERVICE COMPANY
DATE        .                                             UNKNOWN :LOG DATE
UWI         .                                               468-V :UNIQUE WELL ID
XCOORD      .                                       598699.140000 :SURFACE X
YCOORD      .                                      2143301.650000 :SURFACE Y
LAT         .                                           19.382589 :LATITUDE
LON         .                                          -92.060118 :LONGITUDE
ELEV        .M                                             0.0000 :SURFACE ELEV
ELEV_TYPE   .                                                  NA :ELEV TYPE
~CURVE INFORMATION
#MNEMONIC.UNIT        API CODE       : CURVE DESCRIPTION
#------------------------------------------------------------------------------
DEPTH    .M                          : Measured Depth
CALI     .inches      UNKNOWN        : CALI:PETROWORKS:rC:NONE:v1 
DRHO     .g/cm3       UNKNOWN        : DRHO:PETROWORKS:rC:NONE:v1 
DT       .us/ft       UNKNOWN        : DT:sonico:rC:NONE:v0 (auto-composite)
GR       .API         UNKNOWN        : GR:PETROWORKS:rC:NONE:v1 
GR-LWD   .API         UNKNOWN        : GR-LWD:PETROWORKS:rC:NONE:v3 
ILD-LWD  .ohm.m       UNKNOWN        : ILD-LWD:PETROWORKS:rC:NONE:v3 
ILM-LWD  .UNKNOWN     UNKNOWN        : ILM-LWD:PETROWORKS:rC:NONE:v3 
NPHI     .v/v_decimal UNKNOWN        : NPHI:PETROWORKS:rC:NONE:v1 
PEF      .b/elec      UNKNOWN        : PEF:PETROWORKS:rC:NONE:v1 
RHOB     .g/cm3       UNKNOWN        : RHOB:PETROWORKS:rC:NONE:v1 
~A     DEPTH         CALI         DRHO           DT           GR       GR-LWD      ILD-LWD      ILM-LWD         NPHI          PEF         RHOB
# ...
   2973.8044       6.5401       0.0890      51.7628      39.8789      25.1034      85.0194      82.4968       0.0538       3.1778       2.5811
   2973.9568       6.5362       0.0877      51.7128      40.0098      25.2495      88.9923      82.9351       0.0516       3.2030       2.5658
   2974.1091       6.5371       0.0873      51.8451      40.6198      25.7117      88.8218      83.8492       0.0509       3.3093       2.6162
   2974.2617       6.5581       0.0884      52.5087      38.8757      27.0541      84.5614      80.7056       0.0514       3.3826       2.6650
   2974.4141       6.5647       0.0910      53.1273      36.8894      27.8928      83.8126      80.4183       0.0519       3.3644       2.6918
   2974.5664       6.5934       0.0968      53.6709      39.6625      26.9305      85.0949      81.9443       0.0529       3.1054       2.7147
   2974.7188       6.5964       0.1008      53.9348      43.0923      25.2768      83.6370      81.3280       0.0526       2.8585       2.7340
   2974.8713       6.5923       0.1033      53.6801      40.1451      24.7568      83.4745      81.0559       0.0507       2.6965       2.7539
   2975.0237       6.5934       0.1043      53.4248      37.2307      25.8615      80.3778      78.2207       0.0495       2.6910       2.7662
   2975.1760       6.6013       0.1036      53.0427      36.1070      26.8770      79.3384      77.0398       0.0497       2.7356       2.7578
   2975.3284       6.5964       0.1012      53.2732      35.6534      27.3424      80.5100      77.5182       0.0511       2.7630       2.7315
   2975.4810       6.5971       0.0944      53.6358      37.2725      27.5300      76.6027      75.8104       0.0520       2.8413       2.6663
   2975.6333       6.6015       0.0850      54.8253      37.0246      26.9983      75.6112      74.0747       0.0533       2.9153       2.5784
   2975.7856       6.6363       0.0729      55.7196      34.9979      25.4091      71.5634      69.0424       0.0577       2.9160       2.4578
   2975.9380       6.6702       0.0675      55.6368      33.6260      23.3023      69.5763      65.8846       0.0619       2.8058       2.3466
   2976.0903       6.6849       0.0650      54.7803      33.9261      22.1858      71.0737      67.6345       0.0633       2.6441       2.2029
   2976.2429       6.6392       0.0646      53.7023      35.0396      22.2641      71.4591      69.0068       0.0621       2.6201       2.1947
   2976.3953       6.5922       0.0661      52.5934      35.3964      22.6527      69.0917      67.4448       0.0587       2.7323       2.3445
   2976.5476       6.5697       0.0704      52.1227      34.3574      23.3137      67.0220      64.4358       0.0560       2.7812       2.4719
   2976.7000       6.5616       0.0791      51.8455      34.6648      24.0354      66.2673      63.3368       0.0558       2.7355       2.5622
   2976.8525       6.5643       0.0882      52.0031      38.9370      25.1706      64.0483      61.6751       0.0560       2.6996       2.6216
   2977.0049       6.5659       0.0952      52.0888      42.9028      26.4859      62.1437      59.8053       0.0559       2.7102       2.6620
   2977.1572       6.5663       0.0962      52.2736      44.5588      26.8996      60.9819      58.8935       0.0549       2.7539       2.6659
   2977.3096       6.5679       0.0957      52.8433      41.6835      25.4704      59.2350      57.3653       0.0538       2.8154       2.6790
   2977.4622       6.5693       0.0953      53.1739      34.2809      22.7913      59.9906      56.9476       0.0535       2.9049       2.6975
   2977.6145       6.5717       0.0949      53.9836      31.9717      21.0570      61.6220      58.3042       0.0536       3.0547       2.7084
   2977.7668       6.5835       0.0945      54.4668      35.1798      21.6396      61.1648      58.7060       0.0545       3.3109       2.7053
   2977.9192       6.5668       0.0955      54.5626      37.6574      22.8159      58.0616      57.3762       0.0544       3.4422       2.6971
   2978.0715       6.5613       0.0979      54.4029      37.7065      22.6365      56.6177      55.4723       0.0571       3.4980       2.6658
   2978.2241       6.5481       0.0993      54.2900      36.6115      22.9240      54.9417      53.4764       0.0605       3.5156       2.6510
   2978.3765       6.5561       0.1012      54.2981      33.6288      24.1265      55.3621      53.6130       0.0636       3.5368       2.6867
   2978.5288       6.5593       0.1020      54.2170      32.6905      25.1179      57.1000      55.7200       0.0657       3.5557       2.7208
   2978.6812       6.5630       0.1021      53.8499      35.8074      25.6142      57.2981      56.0802       0.0635       3.5334       2.7391
   2978.8337       6.5630       0.1021      52.4890      39.1409      26.2545      57.9605      56.9522       0.0586       3.4757       2.7406
   2978.9861       6.5534       0.1015      51.9824      41.4546      27.2273      58.4323      57.0093       0.0569       3.4208       2.7343
   2979.1384       6.5461       0.1011      51.2921      43.0705      27.5300      58.0497      57.1154       0.0562       3.4056       2.7302
   2979.2908       6.5530       0.1013      51.6826      42.0924      27.5300      58.1770      57.9699       0.0562       3.3941       2.7286
   2979.4434       6.5647       0.1017      52.1272      39.1277      27.4121      60.2309      59.0894       0.0560       3.3632       2.7288
   2979.5957       6.5659       0.1020      53.0828      39.4656      26.8654      61.6226      59.9441       0.0550       3.2973       2.7396
   2979.7480       6.5632       0.1027      53.5682      42.6096      26.0441      61.3378      59.9977       0.0545       3.2664       2.7607
   2979.9004       6.5558       0.1038      53.6785      42.4282      25.5319      61.9294      60.3705       0.0555       3.2895       2.7727
   2980.0527       6.5625       0.1043      53.2392      39.0787      25.6987      64.3298      62.4782       0.0557       3.3086       2.7607
   2980.2053       6.5645       0.1040      52.6386      37.6850      25.8216      64.3131      63.0942       0.0554       3.2850       2.7500
   2980.3577       6.5539       0.1030      51.6951      39.6588      25.2711      67.7739      66.0010       0.0539       3.2471       2.7456
   2980.5100       6.5416       0.1014      51.4951      39.1904      24.7240      70.4092      68.2068       0.0536       3.2094       2.7344
   2980.6624       6.5405       0.0994      51.5500      34.3147      24.3459      69.0760      67.4932       0.0540       3.1795       2.7300
   2980.8149       6.5424       0.0973      51.9188      33.3019      23.9333      69.5656      67.9005       0.0537       3.1608       2.7342
   2980.9673       6.5426       0.0960      51.9968      36.3246      24.1824      69.8646      69.4851       0.0537       3.1545       2.7475
   2981.1196       6.5396       0.0957      52.0312      36.5583      25.3141      70.1610      70.3974       0.0544       3.1544       2.7519
   2981.2720       6.5436       0.0965      51.9827      38.3088      25.7386      72.5852      70.6713       0.0532       3.1953       2.7500
   2981.4246       6.5432       0.0970      52.0149      40.5802      26.1272      73.8103      70.7136       0.0520       3.2165       2.7521
   2981.5769       6.5394       0.0970      52.1518      38.5468      25.8560      76.3532      72.9896       0.0518       3.1923       2.7577
   2981.7292       6.5412       0.0976      52.2865      36.7602      26.5165      78.4438      75.3685       0.0520       3.1780       2.7648
   2981.8816       6.5439       0.0992      52.4134      38.1760      27.2892      80.0500      78.1491       0.0527       3.2029       2.7778
   2982.0339       6.5423       0.1000      52.4317      39.7566      27.8948      86.3112      83.4740       0.0531       3.2687       2.7758
   2982.1865       6.5353       0.1007      52.4302      40.0387      28.4819      87.7909      84.1266       0.0532       3.3730       2.7567
