#------------------------------------------------------------------------------
#
#   Created by  : [OpenWorks] Log Export Utility (LEXP)
#   Created on  : 2016-05-11 12:45:43
#   Project     : CANT971
#   User        : R5K
#   Interpreter : PEP
#
#------------------------------------------------------------------------------
~VERSION INFORMATION
VERS. 2.0 : CWLS Log ASCII Standard - version 2.0
WRAP.  NO : One line per depth step
~WELL INFORMATION
#MNEMONIC   .UNIT                                           VALUE :DESCRIPTION
#------------------------------------------------------------------------------
STRT        .M                                            80.3144 :START DEPTH
STOP        .M                                          1350.4160 :STOP DEPTH
STEP        .M                                             0.1524 :STEP
NULL        .                                           -999.2500 :NULL VALUE
COMP        .                                   PEMEX EXPL & PROD :COMPANY
WELL        .                                         CANTARELL-3 :WELL
FLD         .                                           CANTARELL :FIELD
LOC         .                                             UNKNOWN :LOCATION
CNTY        .                                      CD. DEL CARMEN :COUNTY
STAT        .                                            CAMPECHE :STATE
CTRY        .                                              MEXICO :COUNTRY
SRVC        .                                             UNKNOWN :SERVICE COMPANY
DATE        .                                             UNKNOWN :LOG DATE
UWI         .                                          3060000139 :UNIQUE WELL ID
XCOORD      .                                       600825.370000 :SURFACE X
YCOORD      .                                      2145118.460000 :SURFACE Y
LAT         .                                           19.398901 :LATITUDE
LON         .                                          -92.039777 :LONGITUDE
ELEV        .M                                            27.7000 :SURFACE ELEV
ELEV_TYPE   .                                                  KB :ELEV TYPE
~CURVE INFORMATION
#MNEMONIC.UNIT        API CODE       : CURVE DESCRIPTION
#------------------------------------------------------------------------------
DEPTH    .M                          : Measured Depth
CALI     .inches      UNKNOWN        : CALI:Import:rC:NONE:v0 (auto-composite)
DRHO     .g/cm3       UNKNOWN        : DRHO:Import:rC:NONE:v0 (auto-composite)
DT       .us/ft       UNKNOWN        : DT:Import:rC:NONE:v0 (auto-composite)
GR       .API         UNKNOWN        : GR:Import:rC:NONE:v0 (auto-composite)
ILD      .ohm.m       UNKNOWN        : ILD:Import:rC:NONE:v0 (auto-composite)
NPHI     .v/v_decimal UNKNOWN        : NPHI:Import:rC:NONE:v0 (auto-composite)
RHOB     .g/cm3       UNKNOWN        : RHOB:Import:rC:NONE:v0 (auto-composite)
SP       .mV          UNKNOWN        : SP:Import:rC:NONE:v0 (auto-composite)
~A     DEPTH         CALI         DRHO           DT           GR          ILD         NPHI         RHOB           SP
# ...
   1215.9991      15.3216       0.0140      91.1850      33.7042       1.4615       0.2710       2.4260     132.8536
   1216.1516      15.3840       0.0130      92.5567      32.9280       1.5120       0.2672       2.4220     133.3500
   1216.3040      15.3554       0.0160      93.9220      32.0520       1.5720       0.2603       2.4265     134.0813
   1216.4564      15.3270       0.0190      88.4644      31.1800       1.6320       0.2532       2.4310     134.8140
   1216.6088      15.3270       0.0185      83.0320      31.3905       1.7055       0.2482       2.4455     135.0912
   1216.7612      15.3270       0.0180      84.9438      31.6000       1.7790       0.2435       2.4600     135.3690
   1216.9136      15.3576       0.0155      86.8470      31.5153       1.8370       0.2393       2.4620     134.8520
   1217.0660      15.3880       0.0130      85.8298      31.4310       1.8950       0.2357       2.4640     134.3340
   1217.2184      15.3760       0.0070      84.8170      31.4340       1.8890       0.2354       2.4625     134.3994
   1217.3708      15.3640       0.0010      75.2642      31.4370       1.8830       0.2357       2.4610     134.4650
   1217.5232      15.2984       0.0025      65.7520      32.3574       1.8610       0.2381       2.4530     134.6922
   1217.6757      15.2330       0.0040      66.8112      33.2740       1.8390       0.2410       2.4450     134.9200
   1217.8280      15.2405       0.0085      67.8660      32.9879       1.8185       0.2478       2.4335     135.0749
   1217.9803      15.2480       0.0130      71.5268      32.7030       1.7980       0.2548       2.4220     135.2300
   1218.1328      15.3011       0.0160      75.1700      32.7321       1.7665       0.2584       2.4140     135.4464
   1218.2852      15.3540       0.0190      85.2310      32.7610       1.7350       0.2616       2.4060     135.6630
   1218.4376      15.3450       0.0225      95.2370      32.9504       1.7005       0.2640       2.4130     135.6190
   1218.5900      15.3360       0.0260      80.4881      33.1390       1.6660       0.2665       2.4200     135.5750
   1218.7424      15.3535       0.0385      65.8180      33.5002       1.6370       0.2704       2.4195     135.2672
   1218.8948      15.3710       0.0510      67.0016      33.8600       1.6080       0.2746       2.4190     134.9590
   1219.0472      15.4406       0.0505      68.1790      34.0744       1.5805       0.2801       2.4100     136.0563
   1219.1996      15.5100       0.0500      75.9713      34.2880       1.5530       0.2861       2.4010     137.1550
   1219.3521      15.5646       0.0460      83.7240      34.5751       1.5185       0.2958       2.4015     137.1475
   1219.5044      15.6190       0.0420      96.6801      34.8610       1.4840       0.3050       2.4020     137.1400
   1219.6569      15.6270       0.0430     109.5720      35.3241       1.4595       0.3058       2.4090     136.9761
   1219.8092      15.6350       0.0440     110.2917      35.7850       1.4350       0.3058       2.4160     136.8120
   1219.9615      15.6505       0.0420     111.0080      36.4325       1.4410       0.3054       2.4130     136.2565
   1220.1140      15.6660       0.0400     111.3819      37.0770       1.4470       0.3048       2.4100     135.7000
   1220.2664      15.7507       0.0335     111.7540      36.5919       1.4450       0.3033       2.3885     135.0366
   1220.4188      15.8350       0.0270     111.0078      36.1090       1.4430       0.3016       2.3670     134.3720
   1220.5712      15.7769       0.0245     110.2650      36.2233       1.4345       0.2998       2.3700     134.4859
   1220.7236      15.7190       0.0220     107.5950      36.3370       1.4260       0.2976       2.3730     134.6000
   1220.8760      15.7315       0.0195     104.9370      35.7552       1.4165       0.2914       2.3865     134.9616
   1221.0284      15.7440       0.0170     103.0309      35.1760       1.4070       0.2846       2.4000     135.3240
   1221.1808      15.8016       0.0250     101.1330      35.6876       1.3960       0.2760       2.4160     135.3814
   1221.3333      15.8590       0.0330      96.5158      36.1970       1.3850       0.2680       2.4320     135.4390
   1221.4856      15.8520       0.0330      91.9180      36.1509       1.3650       0.2674       2.4290     135.4570
   1221.6379      15.8450       0.0330      99.8712      36.1050       1.3450       0.2676       2.4260     135.4750
   1221.7904      15.8144       0.0310     107.7920      35.9457       1.3490       0.2686       2.4160     135.4950
   1221.9427      15.7840       0.0290     107.4737      35.7870       1.3530       0.2695       2.4060     135.5150
   1222.0952      15.8341       0.0255     107.1570      35.5531       1.3940       0.2687       2.4015     135.5465
   1222.2476      15.8840       0.0220      97.1448      35.3200       1.4350       0.2678       2.3970     135.5780
   1222.4000      15.8745       0.0235      87.1870      34.7144       1.4345       0.2682       2.3940     135.9928
   1222.5524      15.8650       0.0250      89.8867      34.1110       1.4340       0.2686       2.3910     136.4080
   1222.7048      15.7773       0.0290      92.5720      33.7278       1.4250       0.2662       2.3770     135.7884
   1222.8572      15.6900       0.0330      90.7007      33.3460       1.4160       0.2639       2.3630     135.1680
   1223.0096      15.7401       0.0370      88.8390      32.9693       1.3820       0.2641       2.3640     135.1735
   1223.1620      15.7900       0.0410      89.0706      32.5940       1.3480       0.2649       2.3650     135.1790
   1223.3145      15.7660       0.0360      89.3010      32.2588       1.3025       0.2680       2.3710     135.2724
   1223.4668      15.7420       0.0310      90.9375      31.9250       1.2570       0.2714       2.3770     135.3660
   1223.6191      15.7580       0.0350      92.5660      31.5060       1.1865       0.2768       2.3945     136.8463
   1223.7716      15.7740       0.0390     100.1668      31.0890       1.1160       0.2824       2.4120     138.3290
   1223.9240      15.8226       0.0370     107.7310      31.1932       1.1190       0.2865       2.4095     138.1247
   1224.0764      15.8710       0.0350     100.0119      31.2970       1.1220       0.2900       2.4070     137.9200
   1224.2288      15.9021       0.0245      92.3290      31.7360       1.1405       0.2889       2.3940     136.7631
   1224.3812      15.9330       0.0140      93.1378      32.1730       1.1590       0.2868       2.3810     135.6040
   1224.5336      15.8648       0.0160      93.9430      32.6591       1.2040       0.2755       2.3835     133.3332
   1224.6860      15.7970       0.0180      98.2360      33.1430       1.2490       0.2644       2.3860     131.0580
   1224.8384      15.8266       0.0280     102.5100      33.6040       1.3250       0.2640       2.4040     132.4820
   1224.9908      15.8560       0.0380      96.7571      34.0630       1.4010       0.2646       2.4220     133.9090
   1225.1432      15.9647       0.0365      91.0290      34.5370       1.3975       0.2678       2.4170     133.6678
   1225.2957      16.0730       0.0350      91.5035      35.0090       1.3940       0.2714       2.4120     133.4260
   1225.4480      16.1331       0.0285      91.9760      34.9389       1.3715       0.2792       2.3929     133.5029
   1225.6003      16.1930       0.0220      94.2174      34.8690       1.3490       0.2875       2.3740     133.5800
   1225.7528      16.3318       0.0115      96.4480      34.4847       1.2880       0.3007       2.3539     134.2272
   1225.9052      16.4700       0.0010     107.6790      34.1020       1.2270       0.3132       2.3340     134.8750
   1226.0576      16.4309       0.0015     118.8480      33.5199       1.1231       0.3125       2.2949     134.4522
   1226.2100      16.3920       0.0020     117.5986      32.9400       1.0190       0.3105       2.2560     134.0290
   1226.3624      16.2457       0.0055     116.3560      32.7076       1.0225       0.3040       2.2625     134.2779
