#------------------------------------------------------------------------------
#
#   Created by  : [OpenWorks] Log Export Utility (LEXP)
#   Created on  : 2016-05-23 11:57:11
#   Project     : CANT971
#   User        : R5K
#   Interpreter : PEP
#
#------------------------------------------------------------------------------
~VERSION INFORMATION
VERS. 2.0 : CWLS Log ASCII Standard - version 2.0
WRAP.  NO : One line per depth step
~WELL INFORMATION
#MNEMONIC   .UNIT                                           VALUE :DESCRIPTION
#------------------------------------------------------------------------------
STRT        .M                                           319.2782 :START DEPTH
STOP        .M                                          2532.8882 :STOP DEPTH
STEP        .M                                             0.1524 :STEP
NULL        .                                           -999.2500 :NULL VALUE
COMP        .                                   PEMEX EXPL & PROD :COMPANY
WELL        .                                                 73A :WELL
FLD         .                                           CANTARELL :FIELD
LOC         .                                             UNKNOWN :LOCATION
CNTY        .                                      CD. DEL CARMEN :COUNTY
STAT        .                                            CAMPECHE :STATE
CTRY        .                                              MEXICO :COUNTRY
SRVC        .                                             UNKNOWN :SERVICE COMPANY
DATE        .                                             UNKNOWN :LOG DATE
UWI         .                                          3060000177 :UNIQUE WELL ID
XCOORD      .                                       599722.890000 :SURFACE X
YCOORD      .                                      2147218.550000 :SURFACE Y
LAT         .                                           19.417934 :LATITUDE
LON         .                                          -92.050165 :LONGITUDE
ELEV        .M                                            27.8000 :SURFACE ELEV
ELEV_TYPE   .                                                  KB :ELEV TYPE
~CURVE INFORMATION
#MNEMONIC.UNIT        API CODE       : CURVE DESCRIPTION
#------------------------------------------------------------------------------
DEPTH    .M                          : Measured Depth
CALI     .inches      UNKNOWN        : CALI:registros:rC:NONE:v0 (auto-composite)
DRHO     .g/cm3       UNKNOWN        : DRHO:registros:rC:NONE:v0 (auto-composite)
DT       .UNKNOWN     UNKNOWN        : DT:registros:rC:NONE:v0 (auto-composite)
GR       .API         UNKNOWN        : GR:registros:rC:NONE:v0 (auto-composite)
ILD      .ohm.m       UNKNOWN        : ILD:registros:rC:NONE:v0 (auto-composite)
LLD      .ohm.m       UNKNOWN        : LLD:registros:rC:NONE:v0 (auto-composite)
LLS      .ohm.m       UNKNOWN        : LLS:registros:rC:NONE:v0 (auto-composite)
MSFL     .ohm.m       UNKNOWN        : MSFL:registros:rC:NONE:v0 (auto-composite)
RHOB     .g/cm3       UNKNOWN        : RHOB:registros:rC:NONE:v0 (auto-composite)
~A     DEPTH         CALI         DRHO           DT           GR          ILD          LLD          LLS         MSFL         RHOB
# ...
   1339.7487      17.1000       0.0225     116.5877      38.7615       0.7607    -999.2500    -999.2500    -999.2500       2.3125
   1339.9010      16.9000       0.0270     117.9360      37.2000       0.7100    -999.2500    -999.2500    -999.2500       2.3170
   1340.0533      16.9095       0.0350     120.5623      37.2749       0.7155    -999.2500    -999.2500    -999.2500       2.3245
   1340.2058      16.9190       0.0430     123.1900      37.3500       0.7210    -999.2500    -999.2500    -999.2500       2.3320
   1340.3582      16.9635       0.0465     118.5265      37.4829       0.7310    -999.2500    -999.2500    -999.2500       2.3410
   1340.5106      17.0080       0.0500     113.8600      37.6160       0.7410    -999.2500    -999.2500    -999.2500       2.3500
   1340.6630      17.1539       0.0450     113.9975      38.2323       0.7525    -999.2500    -999.2500    -999.2500       2.3700
   1340.8154      17.3000       0.0400     114.1350      38.8500       0.7640    -999.2500    -999.2500    -999.2500       2.3900
   1340.9678      17.2250       0.0420     115.0571      37.6265       0.7750    -999.2500    -999.2500    -999.2500       2.3850
   1341.1202      17.1500       0.0440     115.9800      36.4000       0.7860    -999.2500    -999.2500    -999.2500       2.3800
   1341.2726      17.1905       0.0540     114.7691      36.5293       0.7880    -999.2500    -999.2500    -999.2500       2.3835
   1341.4250      17.2310       0.0640     113.5570      36.6590       0.7900    -999.2500    -999.2500    -999.2500       2.3870
   1341.5774      18.0400       0.0585     110.0191      37.7530       0.7900    -999.2500    -999.2500    -999.2500       2.4085
   1341.7299      18.8500       0.0530     106.4800      38.8500       0.7900    -999.2500    -999.2500    -999.2500       2.4300
   1341.8822      18.1504       0.0645     107.3832      38.8225       0.7900    -999.2500    -999.2500    -999.2500       2.4280
   1342.0345      17.4500       0.0760     108.2860      38.7950       0.7900    -999.2500    -999.2500    -999.2500       2.4260
   1342.1870      17.5500       0.0715     114.1337      37.8239       0.7900    -999.2500    -999.2500    -999.2500       2.3830
   1342.3394      17.6500       0.0670     119.9800      36.8500       0.7900    -999.2500    -999.2500    -999.2500       2.3400
   1342.4918      17.6410       0.0495     119.2340      36.9963       0.7900    -999.2500    -999.2500    -999.2500       2.3420
   1342.6442      17.6320       0.0320     118.4880      37.1430       0.7900    -999.2500    -999.2500    -999.2500       2.3440
   1342.7966      17.5495       0.0340     116.8490      39.1940       0.7935    -999.2500    -999.2500    -999.2500       2.3520
   1342.9490      17.4670       0.0360     115.2100      41.2500       0.7970    -999.2500    -999.2500    -999.2500       2.3600
   1343.1014      17.3345       0.0265     115.6050      41.2045       0.8060    -999.2500    -999.2500    -999.2500       2.3550
   1343.2538      17.2020       0.0170     116.0000      41.1590       0.8150    -999.2500    -999.2500    -999.2500       2.3500
   1343.4062      17.0760       0.0175     112.8854      40.8478       0.8474    -999.2500    -999.2500    -999.2500       2.3650
   1343.5586      16.9500       0.0180     109.7700      40.5360       0.8800    -999.2500    -999.2500    -999.2500       2.3800
   1343.7109      16.9950       0.0290     110.0339      39.9406       0.8710    -999.2500    -999.2500    -999.2500       2.3765
   1343.8634      17.0400       0.0400     110.2980      39.3440       0.8620    -999.2500    -999.2500    -999.2500       2.3730
   1344.0157      17.2200       0.0325     114.5579      38.7386       0.8411    -999.2500    -999.2500    -999.2500       2.3415
   1344.1682      17.4000       0.0250     118.8200      38.1320       0.8200    -999.2500    -999.2500    -999.2500       2.3100
   1344.3206      17.2500       0.0275     118.2752      37.5681       0.8031    -999.2500    -999.2500    -999.2500       2.3170
   1344.4730      17.1000       0.0300     117.7300      37.0030       0.7860    -999.2500    -999.2500    -999.2500       2.3240
   1344.6254      17.1000       0.0285     114.9061      34.5794       0.7531    -999.2500    -999.2500    -999.2500       2.3370
   1344.7778      17.1000       0.0270     112.0800      32.1500       0.7200    -999.2500    -999.2500    -999.2500       2.3500
   1344.9302      17.0250       0.0385     112.3589      32.1944       0.7320    -999.2500    -999.2500    -999.2500       2.3600
   1345.0826      16.9500       0.0500     112.6380      32.2390       0.7440    -999.2500    -999.2500    -999.2500       2.3700
   1345.2350      17.0100       0.0380     113.3446      33.1833       0.7634    -999.2500    -999.2500    -999.2500       2.3680
   1345.3875      17.0700       0.0260     114.0520      34.1300       0.7830    -999.2500    -999.2500    -999.2500       2.3660
   1345.5398      17.0600       0.0345     116.0097      36.1123       0.7865    -999.2500    -999.2500    -999.2500       2.3600
   1345.6921      17.0500       0.0430     117.9680      38.1000       0.7900    -999.2500    -999.2500    -999.2500       2.3540
   1345.8446      17.0535       0.0380     121.9446      37.8713       0.7900    -999.2500    -999.2500    -999.2500       2.3220
   1345.9969      17.0570       0.0330     125.9200      37.6420       0.7900    -999.2500    -999.2500    -999.2500       2.2900
   1346.1494      17.1535       0.0230     124.8569      37.1487       0.7900    -999.2500    -999.2500    -999.2500       2.2900
   1346.3018      17.2500       0.0130     123.7940      36.6540       0.7900    -999.2500    -999.2500    -999.2500       2.2900
   1346.4542      16.9250       0.0135     118.9468      36.0529       0.7900    -999.2500    -999.2500    -999.2500       2.2970
   1346.6066      16.6000       0.0140     114.1000      35.4500       0.7900    -999.2500    -999.2500    -999.2500       2.3040
   1346.7590      16.6825       0.0145     115.2800      36.2126       0.7900    -999.2500    -999.2500    -999.2500       2.3150
   1346.9114      16.7650       0.0150     116.4600      36.9770       0.7900    -999.2500    -999.2500    -999.2500       2.3260
   1347.0638      16.9425       0.0155     116.2300      39.1116       0.7900    -999.2500    -999.2500    -999.2500       2.3280
   1347.2162      17.1200       0.0160     116.0000      41.2500       0.7900    -999.2500    -999.2500    -999.2500       2.3300
   1347.3687      16.9350       0.0190     117.7887      41.0787       0.7900    -999.2500    -999.2500    -999.2500       2.3280
   1347.5210      16.7500       0.0220     119.5780      40.9070       0.7900    -999.2500    -999.2500    -999.2500       2.3260
   1347.6733      16.7590       0.0280     124.4179      40.0039       0.7900    -999.2500    -999.2500    -999.2500       2.3080
   1347.8258      16.7680       0.0340     129.2600      39.0990       0.7900    -999.2500    -999.2500    -999.2500       2.2900
   1347.9781      16.7820       0.0335     126.9766      35.8780       0.7900    -999.2500    -999.2500    -999.2500       2.2900
   1348.1306      16.7960       0.0330     124.6920      32.6500       0.7900    -999.2500    -999.2500    -999.2500       2.2900
   1348.2830      16.9479       0.0375     117.2735      33.2778       0.7900    -999.2500    -999.2500    -999.2500       2.3025
   1348.4354      17.1000       0.0420     109.8500      33.9070       0.7900    -999.2500    -999.2500    -999.2500       2.3150
   1348.5878      17.0500       0.0400     110.8601      35.9261       0.7955    -999.2500    -999.2500    -999.2500       2.3375
   1348.7402      17.0000       0.0380     111.8710      37.9500       0.8010    -999.2500    -999.2500    -999.2500       2.3600
   1348.8926      17.0350       0.0405     114.2144      36.9013       0.8110    -999.2500    -999.2500    -999.2500       2.3550
   1349.0450      17.0700       0.0430     116.5600      35.8500       0.8210    -999.2500    -999.2500    -999.2500       2.3500
