#------------------------------------------------------------------------------
#
#   Created by  : [OpenWorks] Log Export Utility (LEXP)
#   Created on  : 2016-05-23 11:56:43
#   Project     : CANT971
#   User        : R5K
#   Interpreter : PEP
#
#------------------------------------------------------------------------------
~VERSION INFORMATION
VERS. 2.0 : CWLS Log ASCII Standard - version 2.0
WRAP.  NO : One line per depth step
~WELL INFORMATION
#MNEMONIC   .UNIT                                           VALUE :DESCRIPTION
#------------------------------------------------------------------------------
STRT        .M                                           650.2150 :START DEPTH
STOP        .M                                          2618.6135 :STOP DEPTH
STEP        .M                                             0.1524 :STEP
NULL        .                                           -999.2500 :NULL VALUE
COMP        .                                   PEMEX EXPL & PROD :COMPANY
WELL        .                                                  4D :WELL
FLD         .                                           CANTARELL :FIELD
LOC         .                                             UNKNOWN :LOCATION
CNTY        .                                      CD. DEL CARMEN :COUNTY
STAT        .                                            CAMPECHE :STATE
CTRY        .                                              MEXICO :COUNTRY
SRVC        .                                             UNKNOWN :SERVICE COMPANY
DATE        .                                             UNKNOWN :LOG DATE
UWI         .                                          3060000662 :UNIQUE WELL ID
XCOORD      .                                       598468.500000 :SURFACE X
YCOORD      .                                      2145023.700000 :SURFACE Y
LAT         .                                           19.398162 :LATITUDE
LON         .                                          -92.062225 :LONGITUDE
ELEV        .M                                            26.5400 :SURFACE ELEV
ELEV_TYPE   .                                                  KB :ELEV TYPE
~CURVE INFORMATION
#MNEMONIC.UNIT        API CODE       : CURVE DESCRIPTION
#------------------------------------------------------------------------------
DEPTH    .M                          : Measured Depth
CAL      .inches      UNKNOWN        : CAL:UNKNOWN:rC:NONE:v0 (auto-composite)
CGR      .UNKNOWN     UNKNOWN        : CGR:UNKNOWN:rC:NONE:v0 (auto-composite)
DRHO     .UNKNOWN     UNKNOWN        : DRHO:UNKNOWN:rC:NONE:v0 (auto-composite)
DT       .us/ft       UNKNOWN        : DT:DT:rC:NONE:v0 (auto-composite)
GR       .API         UNKNOWN        : GR:UNKNOWN:rC:NONE:v0 (auto-composite)
ILD      .UNKNOWN     UNKNOWN        : ILD:UNKNOWN:rC:NONE:v0 (auto-composite)
ILM      .UNKNOWN     UNKNOWN        : ILM:UNKNOWN:rC:NONE:v0 (auto-composite)
LLD      .UNKNOWN     UNKNOWN        : LLD:UNKNOWN:rC:NONE:v0 (auto-composite)
LLS      .UNKNOWN     UNKNOWN        : LLS:UNKNOWN:rC:NONE:v0 (auto-composite)
MSFL     .UNKNOWN     UNKNOWN        : MSFL:UNKNOWN:rC:NONE:v0 (auto-composite)
NPHI     .v/v_decimal UNKNOWN        : NPHI:PETROWORKS:rC:NONE:v1 
PEF      .UNKNOWN     UNKNOWN        : PEF:UNKNOWN:rC:NONE:v0 (auto-composite)
POTA     .UNKNOWN     UNKNOWN        : POTA:UNKNOWN:rC:NONE:v0 (auto-composite)
RHOB     .UNKNOWN     UNKNOWN        : RHOB:UNKNOWN:rC:NONE:v0 (auto-composite)
THOR     .UNKNOWN     UNKNOWN        : THOR:UNKNOWN:rC:NONE:v0 (auto-composite)
URAN     .UNKNOWN     UNKNOWN        : URAN:UNKNOWN:rC:NONE:v0 (auto-composite)
~A     DEPTH          CAL          CGR         DRHO           DT           GR          ILD          ILM          LLD          LLS         MSFL         NPHI          PEF         POTA         RHOB         THOR         URAN
# ...
   2539.2131       6.8025      10.9020       0.0418      52.1221      23.2186    -999.2500    -999.2500     237.2279     148.0479       8.2226       0.0643       3.3139       0.0030       2.7740       1.3107       1.4704
   2539.3655       6.8635      13.9131       0.0408      53.7479      25.9813    -999.2500    -999.2500     228.9969     154.8779       5.9768       0.0663       3.5395       0.0030       2.7625       2.0590       1.4729
   2539.5178       6.9223      15.4487       0.0418      54.9511      27.2125    -999.2500    -999.2500     231.3606     166.3912       4.4277       0.0669       3.7239       0.0028       2.7537       2.5108       1.4556
   2539.6702       6.9703       9.8531       0.0523      54.1118      21.2860    -999.2500    -999.2500     284.9274     200.5383       6.2459       0.0609       3.7119       0.0018       2.7577       1.5297       1.3427
   2539.8225       6.9965       5.1019       0.0602      53.2116      16.2412    -999.2500    -999.2500     333.9050     232.2163       9.5339       0.0569       3.6833       0.0010       2.7584       0.6986       1.2755
   2539.9751       6.9180       4.4567       0.0557      52.0186      15.3413    -999.2500    -999.2500     360.5673     252.0227      19.9682       0.0566       3.5748       0.0010       2.7434       0.5966       1.4311
   2540.1274       6.8380       4.1343       0.0530      50.8668      15.2608    -999.2500    -999.2500     372.2803     261.9945      35.1254       0.0577       3.5078       0.0011       2.7333       0.5544       1.5881
   2540.2798       6.7510       5.3732       0.0590      49.9145      19.0996    -999.2500    -999.2500     311.6805     224.3941      73.1274       0.0617       3.6398       0.0016       2.7468       0.8018       1.7520
   2540.4321       6.6868       6.1856       0.0629      49.4559      21.9743    -999.2500    -999.2500     259.9294     192.1336      96.2936       0.0667       3.7330       0.0020       2.7551       0.9256       1.8773
   2540.5847       6.7323       4.9222       0.0564      51.3731      20.2090    -999.2500    -999.2500     251.2426     185.5694      47.2570       0.0738       3.6400       0.0020       2.7381       0.4479       1.8142
   2540.7371       6.7892       3.6363       0.0482      52.7544      18.5789    -999.2500    -999.2500     242.9493     178.7794       7.8572       0.0807       3.5428       0.0020       2.7189      -0.0095       1.7722
   2540.8894       6.9001       2.2419       0.0322      51.5704      17.6026    -999.2500    -999.2500     236.5606     170.8954      15.1136       0.0858       3.4258       0.0020       2.6894      -0.3689       1.8317
   2541.0417       6.9976       1.4642       0.0199      50.8917      16.6232    -999.2500    -999.2500     232.7587     165.8147      19.5143       0.0893       3.3388       0.0021       2.6697      -0.5948       1.8176
   2541.1943       7.0301       3.6905       0.0254      52.6463      15.6290    -999.2500    -999.2500     241.5574     174.2354      10.0048       0.0882       3.3958       0.0026       2.6972      -0.1706       1.4455
   2541.3467       7.0435       5.6268       0.0312      54.0368      14.9982    -999.2500    -999.2500     246.3427     179.5833       9.7548       0.0853       3.4550       0.0029       2.7172       0.2150       1.1455
   2541.4990       6.9650       6.1576       0.0382      53.6825      16.0897    -999.2500    -999.2500     231.6795     170.2089      54.3740       0.0793       3.5245       0.0024       2.7012       0.4139       1.1949
   2541.6514       6.8840       6.6069       0.0455      53.1839      16.9462    -999.2500    -999.2500     218.0339     160.7523     253.8815       0.0746       3.5909       0.0020       2.6891       0.5927       1.2378
   2541.8037       6.7910       6.6595       0.0546      51.9899      16.6818    -999.2500    -999.2500     209.3497     150.8997    1208.5344       0.0781       3.6424       0.0020       2.6956       0.6732       1.2483
   2541.9563       6.7116       6.7575       0.0617      51.1377      16.5050    -999.2500    -999.2500     205.8837     144.2414    1831.1156       0.0788       3.6574       0.0021       2.7082       0.7528       1.2411
   2542.1086       6.6976       7.0764       0.0597      51.9244      16.7482    -999.2500    -999.2500     227.7263     152.9027     843.1343       0.0740       3.4975       0.0026       2.7502       0.8278       1.1481
   2542.2610       6.6988       7.4904       0.0556      52.3397      17.1120    -999.2500    -999.2500     254.8833     164.5280      21.5055       0.0676       3.3872       0.0029       2.7884       0.9022       1.0787
   2542.4133       6.7733       8.3687       0.0416      50.9632      18.0646    -999.2500    -999.2500     307.9734     190.4546      11.6364       0.0591       3.5162       0.0024       2.8084       0.9743       1.1237
   2542.5659       6.8453       9.2899       0.0304      49.5413      19.0786    -999.2500    -999.2500     345.0468     208.2496       3.5603       0.0523       3.5965       0.0021       2.8217       1.0725       1.1647
   2542.7183       6.9053      10.4189       0.0329      47.9015      20.3943    -999.2500    -999.2500     304.3699     187.0138       4.1885       0.0491       3.4431       0.0026       2.8027       1.2979       1.1862
   2542.8706       6.9391      11.5577       0.0363      46.7340      22.3521    -999.2500    -999.2500     268.2606     167.5094       5.7391       0.0489       3.3383       0.0031       2.7875       1.4900       1.2861
   2543.0229       6.8466      12.7447       0.0438      47.8474      27.3424    -999.2500    -999.2500     254.4600     156.3663      11.7943       0.0582       3.4684       0.0036       2.7905       1.5195       1.7693
   2543.1755       6.7597      13.2879       0.0497      49.1449      30.9032    -999.2500    -999.2500     243.6803     146.4944      16.3076       0.0664       3.5725       0.0039       2.7892       1.4789       2.1516
   2543.3279       6.6996      10.7034       0.0482      51.3264      27.6727    -999.2500    -999.2500     247.5783     142.7295      13.3290       0.0719       3.5520       0.0034       2.7672       1.0972       2.0441
   2543.4802       6.6601       8.7873       0.0488      53.4064      25.2062    -999.2500    -999.2500     243.0070     135.5156      13.2972       0.0764       3.5387       0.0032       2.7431       0.7765       1.9523
   2543.6326       6.7186      10.1018       0.0593      54.9955      26.4327    -999.2500    -999.2500     197.5001     111.6313      27.5086       0.0795       3.5602       0.0042       2.7091       0.7506       1.9363
   2543.7849       6.7599      11.5147       0.0676      56.2747      27.9606    -999.2500    -999.2500     159.1230      92.1912      36.7326       0.0842       3.5445       0.0051       2.6838       0.7665       1.9461
   2543.9375       6.7183      13.4064       0.0651      56.0636      30.9544    -999.2500    -999.2500     155.4176      94.1209      21.7036       0.0949       3.3499       0.0056       2.7003       0.9860       2.0817
   2544.0898       6.7195      14.2447       0.0595      56.3636      31.8572    -999.2500    -999.2500     153.3838      96.0483      12.1380       0.0996       3.1980       0.0057       2.7188       1.1003       2.0998
   2544.2422       6.9249       9.9870       0.0396      59.1084      22.9776    -999.2500    -999.2500     159.4362      97.9650      29.0032       0.0917       3.2500       0.0042       2.7468       0.7050       1.5501
   2544.3945       7.0849       6.3336       0.0233      61.2291      15.5279    -999.2500    -999.2500     160.2459      97.1334      39.8046       0.0808       3.3110       0.0028       2.7613       0.4120       1.0944
   2544.5471       7.0264       5.6213       0.0248      60.3463      14.8083    -999.2500    -999.2500     135.5383      83.0747      21.0917       0.0683       3.4155       0.0018       2.7108       0.6170       1.0969
   2544.6995       6.9465       5.3019       0.0272      59.5091      14.7943    -999.2500    -999.2500     114.8050      71.1357      18.0256       0.0629       3.4847       0.0011       2.6674       0.8139       1.1347
