#------------------------------------------------------------------------------
#
#   Created by  : [OpenWorks] Log Export Utility (LEXP)
#   Created on  : 2016-05-23 11:57:24
#   Project     : CANT971
#   User        : R5K
#   Interpreter : PEP
#
#------------------------------------------------------------------------------
~VERSION INFORMATION
VERS. 2.0 : CWLS Log ASCII Standard - version 2.0
WRAP.  NO : One line per depth step
~WELL INFORMATION
#MNEMONIC   .UNIT                                           VALUE :DESCRIPTION
#------------------------------------------------------------------------------
STRT        .M                                           648.1292 :START DEPTH
STOP        .M                                          2685.5647 :STOP DEPTH
STEP        .M                                             0.1524 :STEP
NULL        .                                           -999.2500 :NULL VALUE
COMP        .                                   PEMEX EXPL & PROD :COMPANY
WELL        .                                                 81D :WELL
FLD         .                                           CANTARELL :FIELD
LOC         .                                             UNKNOWN :LOCATION
CNTY        .                                      CD. DEL CARMEN :COUNTY
STAT        .                                            CAMPECHE :STATE
CTRY        .                                              MEXICO :COUNTRY
SRVC        .                                             UNKNOWN :SERVICE COMPANY
DATE        .                                             UNKNOWN :LOG DATE
UWI         .                                          3060000666 :UNIQUE WELL ID
XCOORD      .                                       601717.100000 :SURFACE X
YCOORD      .                                      2142375.260000 :SURFACE Y
LAT         .                                           19.374067 :LATITUDE
LON         .                                          -92.031430 :LONGITUDE
ELEV        .M                                            30.0000 :SURFACE ELEV
ELEV_TYPEF  .b/elec                                            KB :ELEV TYPE
~CURVE INFORMATION
#MNEMONIC.UNIT        API CODE       : CURVE DESCRIPTION
#------------------------------------------------------------------------------
DEPTH    .M                          : Measured Depth
CALI     .in          UNKNOWN        : CALI:UNKNOWN:rC:NONE:v0 (auto-composite)
CGR      .API         UNKNOWN        : CGR:UNKNOWN:rC:NONE:v0 (auto-composite)
DRHO     .g/cm3       UNKNOWN        : DRHO:UNKNOWN:rC:NONE:v0 (auto-composite)
DT       .us/ft       UNKNOWN        : DT:DT:rC:NONE:v0 (auto-composite)
GR       .API         UNKNOWN        : GR:UNKNOWN:rC:NONE:v0 (auto-composite)
ILD      .ohmm        UNKNOWN        : ILD:UNKNOWN:rC:NONE:v0 (auto-composite)
ILM      .ohmm        UNKNOWN        : ILM:UNKNOWN:rC:NONE:v0 (auto-composite)
LLD      .ohmm        UNKNOWN        : LLD:UNKNOWN:rC:NONE:v0 (auto-composite)
LLS      .ohmm        UNKNOWN        : LLS:UNKNOWN:rC:NONE:v0 (auto-composite)
NPHI     .v/v_decimal UNKNOWN        : NPHI:NPHI:rC:NONE:v0 (auto-composite)
PEF      .b/elec      UNKNOWN        : PEF:UNKNOWN:rC:NONE:v0 (auto-composite)
POTA     .%           UNKNOWN        : POTA:UNKNOWN:rC:NONE:v0 (auto-composite)
RHOB     .g/cm3       UNKNOWN        : RHOB:UNKNOWN:rC:NONE:v0 (auto-composite)
THOR     .ppm         UNKNOWN        : THOR:UNKNOWN:rC:NONE:v0 (auto-composite)
URAN     .ppm         UNKNOWN        : URAN:UNKNOWN:rC:NONE:v0 (auto-composite)
~A     DEPTH         CALI          CGR         DRHO           DT           GR          ILD          ILM          LLD          LLS         NPHI          PEF         POTA         RHOB         THOR         URAN
# ...
   1599.1052      15.4425    -999.2500       0.0201     109.6352      37.6734       1.2715       1.4489    -999.2500    -999.2500      21.4539       5.9620    -999.2500       2.5217    -999.2500    -999.2500
   1599.2576      15.6831    -999.2500       0.0257     110.1545      36.7423       1.2575       1.4359    -999.2500    -999.2500      21.6751       5.6943    -999.2500       2.5287    -999.2500    -999.2500
   1599.4100      15.8258    -999.2500       0.0270     110.7872      36.4366       1.2478       1.4272    -999.2500    -999.2500      22.0299       5.4126    -999.2500       2.5300    -999.2500    -999.2500
   1599.5624      15.8178    -999.2500       0.0220     111.6176      37.0932       1.2448       1.4252    -999.2500    -999.2500      22.5196       5.1093    -999.2500       2.5225    -999.2500    -999.2500
   1599.7148      15.7570    -999.2500       0.0232     112.7339      37.6289       1.2528       1.4393    -999.2500    -999.2500      22.3360       4.9093    -999.2500       2.5222    -999.2500    -999.2500
   1599.8672      15.6166    -999.2500       0.0337     114.1624      37.9822       1.2773       1.4778    -999.2500    -999.2500      21.4173       4.8648    -999.2500       2.5327    -999.2500    -999.2500
   1600.0197      15.5127    -999.2500       0.0410     115.3086      37.8258       1.3022       1.5142    -999.2500    -999.2500      20.7412       4.9092    -999.2500       2.5376    -999.2500    -999.2500
   1600.1720      15.4640    -999.2500       0.0435     115.9765      36.8977       1.3277       1.5473    -999.2500    -999.2500      20.5532       5.0882    -999.2500       2.5341    -999.2500    -999.2500
   1600.3245      15.5243    -999.2500       0.0456     115.7192      36.0502       1.3305       1.5593    -999.2500    -999.2500      20.4094       5.2059    -999.2500       2.5276    -999.2500    -999.2500
   1600.4768      15.7456    -999.2500       0.0471     114.3460      35.3218       1.2995       1.5404    -999.2500    -999.2500      20.3190       5.2329    -999.2500       2.5166    -999.2500    -999.2500
   1600.6292      15.9141    -999.2500       0.0470     113.0701      34.6520       1.2625       1.5081    -999.2500    -999.2500      20.3913       5.1711    -999.2500       2.5082    -999.2500    -999.2500
   1600.7816      16.0038    -999.2500       0.0445     112.0495      34.0694       1.2163       1.4559    -999.2500    -999.2500      20.7004       4.9770    -999.2500       2.5037    -999.2500    -999.2500
   1600.9340      16.0648    -999.2500       0.0442     111.1979      33.9701       1.1729       1.4021    -999.2500    -999.2500      20.9890       4.8465    -999.2500       2.4986    -999.2500    -999.2500
   1601.0864      16.0838    -999.2500       0.0472     110.6010      34.5746       1.1333       1.3460    -999.2500    -999.2500      21.2465       4.8084    -999.2500       2.4925    -999.2500    -999.2500
   1601.2388      16.1051    -999.2500       0.0511     110.0848      35.1954       1.1003       1.2986    -999.2500    -999.2500      21.2328       5.0582    -999.2500       2.4849    -999.2500    -999.2500
   1601.3912      16.1296    -999.2500       0.0561     109.6546      35.8396       1.0768       1.2636    -999.2500    -999.2500      20.9158       5.7189    -999.2500       2.4749    -999.2500    -999.2500
   1601.5436      16.0535    -999.2500       0.0604     108.9854      36.6004       1.0560       1.2352    -999.2500    -999.2500      21.0699       6.4142    -999.2500       2.4676    -999.2500    -999.2500
   1601.6960      15.8335    -999.2500       0.0640     107.9259      37.5281       1.0390       1.2161    -999.2500    -999.2500      22.0061       7.1590    -999.2500       2.4640    -999.2500    -999.2500
   1601.8484      15.6489    -999.2500       0.0643     107.0032      37.7853       1.0184       1.1921    -999.2500    -999.2500      24.4207       7.7156    -999.2500       2.4738    -999.2500    -999.2500
   1602.0009      15.5139    -999.2500       0.0603     106.2277      37.1006       0.9929       1.1611    -999.2500    -999.2500      28.3605       8.0080    -999.2500       2.5023    -999.2500    -999.2500
   1602.1532      15.4891    -999.2500       0.0613     106.0337      36.6087       0.9678       1.1264    -999.2500    -999.2500      30.3116       8.2574    -999.2500       2.5071    -999.2500    -999.2500
   1602.3057      15.6194    -999.2500       0.0693     106.6547      36.3887       0.9433       1.0863    -999.2500    -999.2500      29.1564       8.4464    -999.2500       2.4786    -999.2500    -999.2500
   1602.4580      15.7232    -999.2500       0.0675     107.9131      36.2610       0.9322       1.0588    -999.2500    -999.2500      29.1176       8.7136    -999.2500       2.4473    -999.2500    -999.2500
   1602.6104      15.7904    -999.2500       0.0519     109.8567      36.2610       0.9397       1.0488    -999.2500    -999.2500      30.2791       9.0892    -999.2500       2.4122    -999.2500    -999.2500
   1602.7628      15.7789    -999.2500       0.0504     110.2462      36.3891       0.9553       1.0581    -999.2500    -999.2500      31.4507       9.1909    -999.2500       2.4060    -999.2500    -999.2500
   1602.9152      15.6610    -999.2500       0.0679     108.4571      36.6904       0.9817       1.0936    -999.2500    -999.2500      32.4989       8.9226    -999.2500       2.4390    -999.2500    -999.2500
   1603.0676      15.5962    -999.2500       0.0738     105.9781      36.8772       1.0087       1.1263    -999.2500    -999.2500      33.2542       8.9290    -999.2500       2.4678    -999.2500    -999.2500
   1603.2200      15.6037    -999.2500       0.0637     102.6094      36.9083       1.0363       1.1554    -999.2500    -999.2500      33.6319       9.3091    -999.2500       2.4908    -999.2500    -999.2500
   1603.3724      15.6232    -999.2500       0.0533     100.5032      36.8106       1.0537       1.1750    -999.2500    -999.2500      33.1688       9.2177    -999.2500       2.4890    -999.2500    -999.2500
   1603.5248      15.6587    -999.2500       0.0423     100.0763      36.5419       1.0577       1.1820    -999.2500    -999.2500      31.7066       8.4993    -999.2500       2.4540    -999.2500    -999.2500
   1603.6772      15.6419    -999.2500       0.0373     100.9796      35.7996       1.0555       1.1826    -999.2500    -999.2500      31.6705       7.8884    -999.2500       2.4447    -999.2500    -999.2500
   1603.8296      15.5552    -999.2500       0.0403     103.8396      34.4233       1.0450       1.1745    -999.2500    -999.2500      33.7908       7.4217    -999.2500       2.4698    -999.2500    -999.2500
   1603.9821      15.5692    -999.2500       0.0424     106.5090      33.4439       1.0661       1.1900    -999.2500    -999.2500      33.9848       6.9438    -999.2500       2.5007    -999.2500    -999.2500
   1604.1344      15.7151    -999.2500       0.0434     108.9105      32.9841       1.1288       1.2361    -999.2500    -999.2500      32.1843       6.4514    -999.2500       2.5393    -999.2500    -999.2500
   1604.2869      15.7324    -999.2500       0.0510     109.3523      32.8434       1.1739       1.2716    -999.2500    -999.2500      30.3457       6.3740    -999.2500       2.5790    -999.2500    -999.2500
   1604.4392      15.5850    -999.2500       0.0670     107.0547      33.1112       1.1963       1.2936    -999.2500    -999.2500      28.6762       6.8276    -999.2500       2.6199    -999.2500    -999.2500
   1604.5916      15.4770    -999.2500       0.0692     106.3094      33.3998       1.1954       1.3141    -999.2500    -999.2500      27.2956       7.3470    -999.2500       2.6272    -999.2500    -999.2500
   1604.7440      15.4199    -999.2500       0.0537     107.0989      33.7152       1.1643       1.3327    -999.2500    -999.2500      26.2007       7.9512    -999.2500       2.5911    -999.2500    -999.2500
   1604.8964      15.4976    -999.2500       0.0412     107.2513      33.5141       1.2113       1.4089    -999.2500    -999.2500      24.5903       8.0106    -999.2500       2.5653    -999.2500    -999.2500
