#------------------------------------------------------------------------------
#
#   Created by  : [OpenWorks] Log Export Utility (LEXP)
#   Created on  : 2016-05-23 11:56:01
#   Project     : CANT971
#   User        : R5K
#   Interpreter : PEP
#
#------------------------------------------------------------------------------
~VERSION INFORMATION
VERS. 2.0 : CWLS Log ASCII Standard - version 2.0
WRAP.  NO : One line per depth step
~WELL INFORMATION
#MNEMONIC   .UNIT                                           VALUE :DESCRIPTION
#------------------------------------------------------------------------------
STRT        .M                                          1572.0055 :START DEPTH
STOP        .M                                          3732.1230 :STOP DEPTH
STEP        .M                                             0.1524 :STEP
NULL        .                                           -999.2500 :NULL VALUE
COMP        .                                             UNKNOWN :COMPANY
WELL        .                                               428-V :WELL
FLD         .                                             UNKNOWN :FIELD
LOC         .                                             UNKNOWN :LOCATION
CNTY        .                                             UNKNOWN :COUNTY
STAT        .                                             UNKNOWN :STATE
CTRY        .                                             UNKNOWN :COUNTRY
SRVC        .                                             UNKNOWN :SERVICE COMPANY
DATE        .                                             UNKNOWN :LOG DATE
UWI         .                                               428-V :UNIQUE WELL ID
XCOORD      .                                            0.000000 :SURFACE X
YCOORD      .                                            0.000000 :SURFACE Y
LAT         .                                            0.000000 :LATITUDE
LON         .                                            0.000000 :LONGITUDE
ELEV        .M                                             0.0000 :SURFACE ELEV
ELEV_TYPE   .                                                  KB :ELEV TYPE
~CURVE INFORMATION
#MNEMONIC .UNIT        API CODE       : CURVE DESCRIPTION
#------------------------------------------------------------------------------
DEPTH     .M                          : Measured Depth
CALIH-LWD .inches      UNKNOWN        : CALIH-LWD:PETROWORKS:rC:NONE:v5 
CALIV-LWD .inches      UNKNOWN        : CALIV-LWD:PETROWORKS:rC:NONE:v5 
CGR       .API         UNKNOWN        : CGR:Espectrometria:rC:NONE:v0 (auto-composite)
DRHO-LWD  .g/cm3       UNKNOWN        : DRHO-LWD:PETROWORKS:rC:NONE:v5 
DT        .us/ft       UNKNOWN        : DT:sonico:rC:NONE:v0 (auto-composite)
GR        .API         UNKNOWN        : GR:Espectrometria:rC:NONE:v0 (auto-composite)
GR-LWD    .API         UNKNOWN        : GR-LWD:PETROWORKS:rC:NONE:v3 
ILD-LWD   .ohm.m       UNKNOWN        : ILD-LWD:PETROWORKS:rC:NONE:v2 
ILM-LWD   .ohm.m       UNKNOWN        : ILM-LWD:PETROWORKS:rC:NONE:v2 
LLD-LWD   .ohm.m       UNKNOWN        : LLD-LWD:registros-LWD:rC:NONE:v0 (auto-composite)
LLS-LWD   .ohm.m       UNKNOWN        : LLS-LWD:registros-LWD:rC:NONE:v0 (auto-composite)
MSFL-LWD  .ohm.m       UNKNOWN        : MSFL-LWD:registros-LWD:rC:NONE:v0 (auto-composite)
NPHI-LWD  .v/v_decimal UNKNOWN        : NPHI-LWD:PETROWORKS:rC:NONE:v5 
PEF-LWD   .b/elec      UNKNOWN        : PEF-LWD:PETROWORKS:rC:NONE:v5 
POTA      .wtpercent   UNKNOWN        : POTA:Espectrometria:rC:NONE:v0 (auto-composite)
RHOB-LWD  .g/cm3       UNKNOWN        : RHOB-LWD:PETROWORKS:rC:NONE:v5 
THOR      .UNKNOWN     UNKNOWN        : THOR:Espectrometria:rC:NONE:v0 (auto-composite)
URAN      .UNKNOWN     UNKNOWN        : URAN:Espectrometria:rC:NONE:v0 (auto-composite)
~A     DEPTH    CALIH-LWD    CALIV-LWD          CGR     DRHO-LWD           DT           GR       GR-LWD      ILD-LWD      ILM-LWD      LLD-LWD      LLS-LWD     MSFL-LWD     NPHI-LWD      PEF-LWD         POTA     RHOB-LWD         THOR         URAN
# ...
   3649.0652       6.4621       6.7541       3.5092       0.2108      61.7796       9.9974      15.5487      80.9570      76.8739    -999.2500    -999.2500    -999.2500       0.0655       2.7923       0.0023       2.6781       0.0982       0.7223
   3649.2175       6.5592       6.6425       4.0501       0.2268      58.5559      10.9717      18.0316      81.0081      81.5793    -999.2500    -999.2500    -999.2500       0.0661       2.7867       0.0025       2.7143       0.1762       0.7706
   3649.3699       6.6112       6.6258       5.9740       0.2361      58.8368      13.1167      18.4256      91.5708      95.0617    -999.2500    -999.2500    -999.2500       0.0665       2.7189       0.0031       2.7583       0.4728       0.7952
   3649.5222       6.4073       6.5990       8.3589       0.2254      62.0945      14.8101      18.0963      93.4631      91.3605    -999.2500    -999.2500    -999.2500       0.0655       2.7400       0.0042       2.7688       0.6854       0.7182
   3649.6748       6.2720       6.5940      10.4798       0.2120      65.7397      16.7426      15.9591      95.1213      96.8068    -999.2500    -999.2500    -999.2500       0.0642       2.7594       0.0055       2.7746       0.8085       0.6972
   3649.8271       6.4496       6.7203       9.7797       0.1868      66.4667      17.0438      14.5891     106.4282     117.7629    -999.2500    -999.2500    -999.2500       0.0608       2.7775       0.0051       2.7563       0.7332       0.8087
   3649.9795       6.2050       6.8566       7.4593       0.1866      63.5073      15.9470      13.3133     131.8063     144.4868    -999.2500    -999.2500    -999.2500       0.0572       2.8350       0.0038       2.7507       0.6032       0.9449
   3650.1318       6.2474       6.9490       5.6752       0.1835      58.9293      14.7911      12.4004     132.4939     139.9032    -999.2500    -999.2500    -999.2500       0.0552       2.8632       0.0027       2.7358       0.5358       1.0149
   3650.2842       6.3413       6.8695       4.3437       0.1804      55.6496      13.6727      11.5885     129.2864     138.7062    -999.2500    -999.2500    -999.2500       0.0544       2.8269       0.0019       2.7387       0.4795       1.0386
   3650.4368       6.4609       6.8088       3.4282       0.1631      54.7648      12.9158      11.2417     131.5859     140.1135    -999.2500    -999.2500    -999.2500       0.0540       2.7870       0.0015       2.7221       0.3808       1.0563
   3650.5891       6.4768       6.7568       2.3807       0.1600      54.8091      11.8342      11.3592     138.8559     141.3776    -999.2500    -999.2500    -999.2500       0.0536       2.7637       0.0014       2.7231       0.0999       1.0525
   3650.7415       6.4059       6.7043       1.9018       0.1483      54.5179      11.3207      11.9349     145.0193     139.7272    -999.2500    -999.2500    -999.2500       0.0534       2.7993       0.0013       2.7127       0.0395       1.0487
   3650.8938       6.3377       6.6606       2.1625       0.1634      53.8581      10.7745      12.5879     139.7856     135.4003    -999.2500    -999.2500    -999.2500       0.0532       2.8080       0.0015       2.7333       0.0309       0.9588
   3651.0464       6.2837       6.6228       2.4709       0.2040      53.3888      10.7279      12.4510     131.6684     130.9019    -999.2500    -999.2500    -999.2500       0.0531       2.7869       0.0017       2.7620       0.0384       0.9193
   3651.1987       6.2453       6.6325       3.0315       0.2442      53.5334      10.9950      11.9966     133.8646     129.4964    -999.2500    -999.2500    -999.2500       0.0533       2.7341       0.0019       2.7701       0.1181       0.8866
   3651.3511       6.2214       6.6501       3.3501       0.2670      55.1033      11.1178      11.6951     138.3841     131.5119    -999.2500    -999.2500    -999.2500       0.0544       2.6694       0.0020       2.7570       0.1689       0.8648
   3651.5034       6.2332       6.6720       3.6325       0.2491      57.9498      11.2153      12.0107     133.0669     123.5152    -999.2500    -999.2500    -999.2500       0.0553       2.6925       0.0020       2.7164       0.2376       0.8443
   3651.6560       6.2242       6.5965       3.5421       0.2029      59.9210      11.1459      12.9226     132.6936     123.3963    -999.2500    -999.2500    -999.2500       0.0560       2.7633       0.0019       2.6758       0.2701       0.8466
   3651.8083       6.2064       6.5410       3.7199       0.1624      58.6899      11.0627      13.6622     141.4267     129.8230    -999.2500    -999.2500    -999.2500       0.0565       2.7719       0.0018       2.6584       0.3263       0.8175
   3651.9607       6.2537       6.5664       4.1649       0.1546      55.3205      11.0635      13.9458     143.8181     132.9073    -999.2500    -999.2500    -999.2500       0.0575       2.6969       0.0021       2.6753       0.3526       0.7681
   3652.1130       6.3723       6.6159       4.6477       0.1825      53.3774      11.3402      14.3207     135.4252     129.4292    -999.2500    -999.2500    -999.2500       0.0589       2.6515       0.0024       2.7122       0.3790       0.7451
   3652.2654       6.4849       6.6437       5.1574       0.2230      53.4735      12.2310      15.6153     124.4583     121.3094    -999.2500    -999.2500    -999.2500       0.0606       2.6973       0.0028       2.7440       0.3486       0.7875
   3652.4180       6.4869       6.6216       5.9188       0.2536      53.9302      13.4067      17.4281     121.6372     120.9203    -999.2500    -999.2500    -999.2500       0.0625       2.7632       0.0031       2.7570       0.4327       0.8337
   3652.5703       6.4452       6.6057       6.9411       0.2594      54.0446      15.5081      18.2257     133.4141     129.2955    -999.2500    -999.2500    -999.2500       0.0643       2.7930       0.0035       2.7481       0.5892       0.9538
   3652.7227       6.4310       6.6261       7.6664       0.2446      53.8818      17.2933      18.2084     138.5155     136.9481    -999.2500    -999.2500    -999.2500       0.0652       2.8015       0.0037       2.7332       0.6950       1.0718
   3652.8750       6.4341       6.6709       8.8433       0.2228      53.6068      19.0000      19.3311     146.1503     144.9957    -999.2500    -999.2500    -999.2500       0.0652       2.8237       0.0041       2.7275       0.8794       1.1308
   3653.0276       6.4460       6.7653       9.9387       0.2139      53.2908      19.4310      21.1482     151.8955     151.6857    -999.2500    -999.2500    -999.2500       0.0642       2.8820       0.0045       2.7412       1.0532       1.0568
   3653.1799       6.3940       6.8394      11.2125       0.2074      52.8823      19.3866      22.2539     146.1238     145.8812    -999.2500    -999.2500    -999.2500       0.0625       2.9623       0.0046       2.7545       1.3580       0.9101
   3653.3323       6.2827       6.8354      11.7425       0.1950      52.3253      19.4360      21.7397     147.6467     148.0261    -999.2500    -999.2500    -999.2500       0.0610       2.9923       0.0045       2.7617       1.5325       0.8565
   3653.4846       6.2258       6.7875      10.8888       0.1817      51.7232      19.4150      20.3684     150.3302     151.9413    -999.2500    -999.2500    -999.2500       0.0602       2.9475       0.0045       2.7672       1.3107       0.9492
   3653.6372       6.2058       6.7174       9.4091       0.1705      51.3596      19.6088      18.9962     149.3104     152.0198    -999.2500    -999.2500    -999.2500       0.0595       2.8803       0.0042       2.7685       1.0175       1.1356
   3653.7896       6.1840       6.6876       7.0713       0.1663      51.3673      19.4735      17.6251     145.3848     148.2205    -999.2500    -999.2500    -999.2500       0.0585       2.8183       0.0037       2.7679       0.5392       1.3808
   3653.9419       6.1810       6.6922       6.1209       0.1682      51.6365      18.8591      16.2572     142.4681     144.4215    -999.2500    -999.2500    -999.2500       0.0569       2.7778       0.0034       2.7681       0.3715       1.4182
