#------------------------------------------------------------------------------
#
#   Created by  : [OpenWorks] Log Export Utility (LEXP)
#   Created on  : 2016-05-23 11:51:58
#   Project     : CANT971
#   User        : R5K
#   Interpreter : PEP
#
#------------------------------------------------------------------------------
~VERSION INFORMATION
VERS. 2.0 : CWLS Log ASCII Standard - version 2.0
WRAP.  NO : One line per depth step
~WELL INFORMATION
#MNEMONIC   .UNIT                                           VALUE :DESCRIPTION
#------------------------------------------------------------------------------
STRT        .M                                           695.7060 :START DEPTH
STOP        .M                                          3054.7056 :STOP DEPTH
STEP        .M                                             0.1524 :STEP
NULL        .                                           -999.2500 :NULL VALUE
COMP        .                                   PEMEX EXPL & PROD :COMPANY
WELL        .                                                 17D :WELL
FLD         .                                           CANTARELL :FIELD
LOC         .                                             UNKNOWN :LOCATION
CNTY        .                                      CD. DEL CARMEN :COUNTY
STAT        .                                            CAMPECHE :STATE
CTRY        .                                              MEXICO :COUNTRY
SRVC        .                                             UNKNOWN :SERVICE COMPANY
DATE        .                                             UNKNOWN :LOG DATE
UWI         .                                          3060000460 :UNIQUE WELL ID
XCOORD      .                                       603362.626000 :SURFACE X
YCOORD      .                                      2145093.910000 :SURFACE Y
LAT         .                                           19.398550 :LATITUDE
LON         .                                          -92.015617 :LONGITUDE
ELEV        .M                                            27.1400 :SURFACE ELEV
ELEV_TYPE   .                                                  KB :ELEV TYPE
~CURVE INFORMATION
#MNEMONIC.UNIT        API CODE       : CURVE DESCRIPTION
#------------------------------------------------------------------------------
DEPTH    .M                          : Measured Depth
CALI     .in          UNKNOWN        : CALI:UNKNOWN:rC:NONE:v0 (auto-composite)
DT       .us/ft       UNKNOWN        : DT:DT:rC:NONE:v0 (auto-composite)
GR       .API         UNKNOWN        : GR:UNKNOWN:rC:NONE:v0 (auto-composite)
ILD      .ohmm        UNKNOWN        : ILD:UNKNOWN:rC:NONE:v0 (auto-composite)
LLD      .ohmm        UNKNOWN        : LLD:UNKNOWN:rC:NONE:v0 (auto-composite)
LLS      .ohmm        UNKNOWN        : LLS:UNKNOWN:rC:NONE:v0 (auto-composite)
MSFL     .ohmm        UNKNOWN        : MSFL:UNKNOWN:rC:NONE:v0 (auto-composite)
NPHI     .v/v_decimal UNKNOWN        : NPHI:UNKNOWN:rC:NONE:v0 (auto-composite)
PEF      .b/elec      UNKNOWN        : PEF:UNKNOWN:rC:NONE:v0 (auto-composite)
RHOB     .g/cm3       UNKNOWN        : RHOB:UNKNOWN:rC:NONE:v0 (auto-composite)
~A     DEPTH         CALI           DT           GR          ILD          LLD          LLS         MSFL         NPHI          PEF         RHOB
# ...
   2837.8403       6.3653      84.4490     121.9397    -999.2500       9.0553       9.3753      20.6133       0.2102       3.5335       2.4745
   2837.9927       6.4740      83.1223     125.2940    -999.2500       7.1040       7.4480      14.0580       0.2524       3.5220       2.4060
   2838.1453       6.4575      78.9269     124.6404    -999.2500       6.3526       6.6775       8.3073       0.2522       3.4112       2.4175
   2838.2976       6.4410      74.0771     123.9840    -999.2500       5.5980       5.9050       2.5420       0.2520       3.3000       2.4290
   2838.4500       6.3687      67.5881     124.1364    -999.2500       5.6588       5.9569       2.5790       0.2441       3.3065       2.4858
   2838.6023       6.2960      61.2010     124.2900    -999.2500       5.7200       6.0090       2.6160       0.2361       3.3130       2.5430
   2838.7549       6.2306      58.8329     126.5889    -999.2500       6.0619       6.3051       2.8632       0.2059       3.3355       2.6580
   2838.9072       6.1650      57.0634     128.9090    -999.2500       6.4070       6.6020       3.1110       0.1754       3.3580       2.7740
   2839.0596       6.1735      55.0815     127.2428    -999.2500       7.1249       7.2411       3.5778       0.1475       3.3715       2.7720
   2839.2119       6.1820      53.1789     125.5690    -999.2500       7.8460       7.8820       4.0460       0.1194       3.3850       2.7700
   2839.3645       6.2219      51.7604     117.7715    -999.2500       8.9172       8.8795       4.4499       0.0978       3.3735       2.7610
   2839.5168       6.2620      50.6072     109.9630    -999.2500       9.9900       9.8800       4.8550       0.0760       3.3620       2.7520
   2839.6692       6.3119      50.6151      99.8406    -999.2500      11.5119      11.2798       7.1594       0.0784       3.3805       2.7375
   2839.8215       6.3620      50.9042      89.6700    -999.2500      13.0410      12.6840       9.4710       0.0808       3.3990       2.7230
   2839.9739       6.3849      51.6192      77.3979    -999.2500      17.2573      16.0921      12.2577       0.0943       3.3955       2.7105
   2840.1265       6.4080      52.4700      65.0460    -999.2500      21.5010      19.5060      15.0490       0.1079       3.3920       2.6980
   2840.2788       6.4594      55.5051      65.0978    -999.2500      20.9174      18.9570      18.0173       0.1312       3.3436       2.6467
   2840.4312       6.5110      59.5546      65.1500    -999.2500      20.3290      18.4070      20.9910       0.1547       3.2950       2.5950
   2840.5835       6.7918      66.6008      68.2166    -999.2500      17.5337      15.8625      20.6878       0.1764       3.1439       2.4045
   2840.7361       7.0740      74.8965      71.2990    -999.2500      14.7240      13.3130      20.3840       0.1983       2.9920       2.2130
   2840.8884       7.8416      85.3845      89.2611    -999.2500      11.3490      10.3440      18.1823       0.2587       2.8318       1.9058
   2841.0408       8.6120      94.0231     107.2600    -999.2500       7.9670       7.3690      15.9760       0.3196       2.6710       1.5980
   2841.1931       8.5816      95.3319     106.3582    -999.2500       6.3031       5.8926      11.4974       0.3148       2.6825       1.6070
   2841.3457       8.5510      94.0559     105.4530    -999.2500       4.6330       4.4130       7.0090       0.3100       2.6940       1.6160
   2841.4980       8.2815      90.2789      98.6538    -999.2500       4.0072       3.8147       4.3331       0.2833       2.7594       1.6574
   2841.6504       8.0110      85.8569      91.8170    -999.2500       3.3780       3.2150       1.6510       0.2563       2.8250       1.6990
   2841.8027       8.0474      80.0289      92.6697    -999.2500       2.8250       2.6792       1.0857       0.2168       2.9782       1.6880
   2841.9551       8.0840      72.9979      93.5300    -999.2500       2.2670       2.1420       0.5190       0.1770       3.1320       1.6770
   2842.1077       8.0620      62.7488      96.7926    -999.2500       2.2914       2.1595       0.4656       0.1666       3.1265       1.5972
   2842.2600       8.0400      52.3810     100.0740    -999.2500       2.3160       2.1770       0.4120       0.1562       3.1210       1.5170
   2842.4124       8.0535      54.6029     102.5667    -999.2500       2.4789       2.3038       0.4175       0.1488       3.0906       1.5290
   2842.5647       8.0670      58.8986     105.0620    -999.2500       2.6420       2.4310       0.4230       0.1413       3.0600       1.5410
   2842.7173       8.2107      66.6882     106.0713    -999.2500       2.6305       2.4255       0.4475       0.1384       2.9802       1.6453
   2842.8696       8.3550      75.5240     107.0850    -999.2500       2.6190       2.4200       0.4720       0.1354       2.9000       1.7500
   2843.0220       9.0290      79.2304     109.1291    -999.2500       2.6419       2.4415       0.5179       0.1184       2.9100       1.7445
   2843.1743       9.7060      81.9781     111.1890    -999.2500       2.6650       2.4630       0.5640       0.1012       2.9200       1.7390
   2843.3269       9.5249      82.3151     119.7050    -999.2500       2.9064       2.6777       0.6708       0.1033       2.9679       1.7121
   2843.4792       9.3430      81.6207     128.3020    -999.2500       3.1500       2.8930       0.7780       0.1055       3.0160       1.6850
   2843.6316       8.1873      79.2074     127.9937    -999.2500       4.5018       4.0272       1.0815       0.1139       3.0938       1.7154
   2843.7839       7.0260      77.0915     127.6840    -999.2500       5.8600       5.1650       1.3860       0.1223       3.1720       1.7460
   2843.9363       7.0689      77.2674     126.2982    -999.2500       5.8040       5.1080       1.3490       0.1294       3.2713       1.8659
   2844.0889       7.1120      78.2489     124.9100    -999.2500       5.7480       5.0510       1.3120       0.1366       3.3710       1.9860
   2844.2412       7.4925      80.2433     122.7475    -999.2500       5.2248       4.5395       0.9908       0.1380       3.3570       2.0828
   2844.3936       7.8750      82.1111     120.5740    -999.2500       4.6990       4.0270       0.6690       0.1394       3.3430       2.1800
   2844.5459       7.8675      81.0350     115.0482    -999.2500       4.8121       4.1154       0.7120       0.1418       3.2886       2.1855
   2844.6985       7.8600      78.9213     109.4850    -999.2500       4.9260       4.2040       0.7550       0.1442       3.2340       2.1910
   2844.8508       7.7707      74.8406     109.8385    -999.2500       5.8605       5.0521       1.0852       0.1483       3.1731       2.2712
   2845.0032       7.6810      70.2659     110.1950    -999.2500       6.8030       5.9020       1.4160       0.1523       3.1120       2.3520
   2845.1555       7.3940      73.2045     111.7513    -999.2500       6.7377       5.8615       1.2432       0.1548       3.0536       2.3450
   2845.3081       7.1060      75.5794     113.3160    -999.2500       6.6720       5.8210       1.0700       0.1572       2.9950       2.3380
   2845.4604       7.1614      75.7442     115.0924    -999.2500       6.3009       5.5438       1.0915       0.1571       3.0080       2.2551
   2845.6128       7.2170      75.1997     116.8730    -999.2500       5.9290       5.2660       1.1130       0.1569       3.0210       2.1720
   2845.7651       7.4086      75.3052     117.3076    -999.2500       5.3746       4.7886       1.9510       0.1548       3.0884       1.8522
   2845.9175       7.6010      75.6179     117.7440    -999.2500       4.8180       4.3100       2.7910       0.1526       3.1560       1.5310
   2846.0701       7.7198      76.4542     117.9534    -999.2500       4.5558       4.0818       2.7875       0.1531       3.3506       1.5714
   2846.2224       7.8390      77.6049     118.1640    -999.2500       4.2920       3.8530       2.7840       0.1536       3.5460       1.6120
