#------------------------------------------------------------------------------
#
#   Created by  : [OpenWorks] Log Export Utility (LEXP)
#   Created on  : 2016-05-23 11:51:57
#   Project     : CANT971
#   User        : R5K
#   Interpreter : PEP
#
#------------------------------------------------------------------------------
~VERSION INFORMATION
VERS. 2.0 : CWLS Log ASCII Standard - version 2.0
WRAP. YES : Mulitple lines per depth step
~WELL INFORMATION
#MNEMONIC   .UNIT                                           VALUE :DESCRIPTION
#------------------------------------------------------------------------------
STRT        .M                                           782.8787 :START DEPTH
STOP        .M                                          2966.0088 :STOP DEPTH
STEP        .M                                             0.1524 :STEP
NULL        .                                           -999.2500 :NULL VALUE
COMP        .                                   PEMEX EXPL & PROD :COMPANY
WELL        .                                                 178 :WELL
FLD         .                                           CANTARELL :FIELD
LOC         .                                             UNKNOWN :LOCATION
CNTY        .                                      CD. DEL CARMEN :COUNTY
STAT        .                                            CAMPECHE :STATE
CTRY        .                                              MEXICO :COUNTRY
SRVC        .                                             UNKNOWN :SERVICE COMPANY
DATE        .                                             UNKNOWN :LOG DATE
UWI         .                                          3060000702 :UNIQUE WELL ID
XCOORD      .                                       602144.590000 :SURFACE X
YCOORD      .                                      2147185.340000 :SURFACE Y
LAT         .                                           19.417512 :LATITUDE
LON         .                                          -92.027103 :LONGITUDE
ELEV        .M                                            28.1700 :SURFACE ELEV
ELEV_TYPE   .                                                  KB :ELEV TYPE
~CURVE INFORMATION
#MNEMONIC.UNIT        API CODE       : CURVE DESCRIPTION
#------------------------------------------------------------------------------
DEPTH    .M                          : Measured Depth
CALI     .inches      UNKNOWN        : CALI:registros:rC:NONE:v0 (auto-composite)
CGR      .API         UNKNOWN        : CGR:registros:rC:NONE:v0 (auto-composite)
DRHO     .g/cm3       UNKNOWN        : DRHO:registros:rC:NONE:v0 (auto-composite)
DT       .UNKNOWN     UNKNOWN        : DT:registros:rC:NONE:v0 (auto-composite)
GR       .API         UNKNOWN        : GR:registros:rC:NONE:v0 (auto-composite)
GR-LWD   .UNKNOWN     UNKNOWN        : GR-LWD:registros:rC:NONE:v0 (auto-composite)
ILD      .ohm.m       UNKNOWN        : ILD:registros:rC:NONE:v0 (auto-composite)
ILM      .ohm.m       UNKNOWN        : ILM:registros:rC:NONE:v0 (auto-composite)
LLD      .ohm.m       UNKNOWN        : LLD:registros:rC:NONE:v0 (auto-composite)
LLD-LWD  .UNKNOWN     UNKNOWN        : LLD-LWD:registros:rC:NONE:v0 (auto-composite)
LLS      .ohm.m       UNKNOWN        : LLS:registros:rC:NONE:v0 (auto-composite)
LLS-LWD  .UNKNOWN     UNKNOWN        : LLS-LWD:registros:rC:NONE:v0 (auto-composite)
MSFL     .ohm.m       UNKNOWN        : MSFL:registros:rC:NONE:v0 (auto-composite)
MSFL-LWD .UNKNOWN     UNKNOWN        : MSFL-LWD:registros:rC:NONE:v0 (auto-composite)
NPHI     .v/v_decimal UNKNOWN        : NPHI:registros:rC:NONE:v0 (auto-composite)
PEF      .b/elec      UNKNOWN        : PEF:registros:rC:NONE:v0 (auto-composite)
POTA     .wtpercent   UNKNOWN        : POTA:registros:rC:NONE:v0 (auto-composite)
RHOB     .g/cm3       UNKNOWN        : RHOB:registros:rC:NONE:v0 (auto-composite)
THOR     .ppm         UNKNOWN        : THOR:registros:rC:NONE:v0 (auto-composite)
URAN     .ppm         UNKNOWN        : URAN:registros:rC:NONE:v0 (auto-composite)
~A
# ...
   2599.3342
    -999.2500      17.9810    -999.2500    -999.2500      23.7711      29.8319
    -999.2500    -999.2500    -999.2500      56.1103    -999.2500      63.4510
    -999.2500      40.4179       0.0631    -999.2500       0.0048    -999.2500
       2.9515       0.6753
   2599.4868
    -999.2500      20.5881    -999.2500    -999.2500      26.6102      31.2118
    -999.2500    -999.2500    -999.2500      58.7510    -999.2500      72.9099
    -999.2500      42.8767       0.0633    -999.2500       0.0055    -999.2500
       3.3910       0.7264
   2599.6392
    -999.2500      23.1716    -999.2500    -999.2500      29.0640      35.8082
    -999.2500    -999.2500    -999.2500      68.8673    -999.2500     318.8056
    -999.2500      58.6261       0.0650    -999.2500       0.0060    -999.2500
       3.9252       0.7359
   2599.7915
    -999.2500      21.8080    -999.2500    -999.2500      28.1990      39.6519
    -999.2500    -999.2500    -999.2500      65.3379    -999.2500     732.9033
    -999.2500      60.4793       0.0691    -999.2500       0.0056    -999.2500
       3.7267       0.8076
   2599.9438
    -999.2500      19.8470    -999.2500    -999.2500      26.3205      38.4386
    -999.2500    -999.2500    -999.2500      47.2393    -999.2500     150.4664
    -999.2500      28.4603       0.0726    -999.2500       0.0053    -999.2500
       3.2999       0.8563
   2600.0964
    -999.2500      18.6622    -999.2500    -999.2500      25.1238      34.5342
    -999.2500    -999.2500    -999.2500      39.2694    -999.2500      43.1422
    -999.2500      26.1299       0.0650    -999.2500       0.0049    -999.2500
       3.1259       0.8502
   2600.2488
    -999.2500      19.4824    -999.2500    -999.2500      26.9856      32.0950
    -999.2500    -999.2500    -999.2500      45.6741    -999.2500      64.9424
    -999.2500      39.0708       0.0593    -999.2500       0.0050    -999.2500
       3.3207       0.9645
   2600.4011
    -999.2500      19.9583    -999.2500    -999.2500      29.2221      32.6937
    -999.2500    -999.2500    -999.2500      44.0388    -999.2500      57.4949
    -999.2500      55.1993       0.0511    -999.2500       0.0057    -999.2500
       3.0989       1.2184
   2600.5535
    -999.2500      23.6700    -999.2500    -999.2500      32.5196      37.8797
    -999.2500    -999.2500    -999.2500      39.3177    -999.2500      46.2062
    -999.2500      44.1311       0.0513    -999.2500       0.0063    -999.2500
       3.9573       1.1690
   2600.7058
    -999.2500      25.1225    -999.2500    -999.2500      34.4925      43.3975
    -999.2500    -999.2500    -999.2500      31.1928    -999.2500      28.1304
    -999.2500      23.4398       0.0557    -999.2500       0.0070    -999.2500
       3.9855       1.2576
   2600.8584
    -999.2500      28.0020    -999.2500    -999.2500      37.3952      46.2294
    -999.2500    -999.2500    -999.2500      33.8154    -999.2500      32.9071
    -999.2500      29.6832       0.0598    -999.2500       0.0078    -999.2500
       4.4476       1.2348
   2601.0107
    -999.2500      31.3053    -999.2500    -999.2500      41.0461      49.8377
    -999.2500    -999.2500    -999.2500      31.9203    -999.2500      33.0888
    -999.2500      26.9767       0.0640    -999.2500       0.0082    -999.2500
       5.2967       1.3201
   2601.1631
    -999.2500      34.1042    -999.2500    -999.2500      43.8613      53.8299
    -999.2500    -999.2500    -999.2500      30.7710    -999.2500      31.3977
    -999.2500      26.3837       0.0663    -999.2500       0.0089    -999.2500
       5.7599       1.3353
   2601.3154
    -999.2500      34.3478    -999.2500    -999.2500      45.7570      55.8665
    -999.2500    -999.2500    -999.2500      31.3892    -999.2500      31.2314
    -999.2500      28.2720       0.0684    -999.2500       0.0093    -999.2500
       5.6073       1.5703
   2601.4680
    -999.2500      35.2294    -999.2500    -999.2500      45.5700      57.8814
    -999.2500    -999.2500    -999.2500      28.9441    -999.2500      27.7093
    -999.2500      22.9877       0.0680    -999.2500       0.0091    -999.2500
       6.0188       1.4492
   2601.6204
    -999.2500      35.0606    -999.2500    -999.2500      44.1168      59.7819
    -999.2500    -999.2500    -999.2500      29.8069    -999.2500      30.6295
    -999.2500      24.1115       0.0680    -999.2500       0.0088    -999.2500
       6.1051       1.2363
   2601.7727
    -999.2500      36.4100    -999.2500    -999.2500      44.1028      60.6850
    -999.2500    -999.2500    -999.2500      30.5523    -999.2500      32.3945
    -999.2500      23.3772       0.0690    -999.2500       0.0092    -999.2500
       6.3405       1.0036
   2601.9250
    -999.2500      39.1861    -999.2500    -999.2500      46.8945      62.5950
    -999.2500    -999.2500    -999.2500      35.3829    -999.2500      39.3565
    -999.2500      35.8580       0.0713    -999.2500       0.0102    -999.2500
       6.6221       1.0638
   2602.0776
    -999.2500      42.8071    -999.2500    -999.2500      49.5177      65.1833
    -999.2500    -999.2500    -999.2500      27.4197    -999.2500      25.8643
    -999.2500      20.9857       0.0781    -999.2500       0.0109    -999.2500
       7.4092       0.8701
   2602.2300
    -999.2500      44.4101    -999.2500    -999.2500      51.1794      67.5860
    -999.2500    -999.2500    -999.2500      25.5645    -999.2500      21.1465
    -999.2500      17.5304       0.0782    -999.2500       0.0115    -999.2500
       7.5758       0.8585
   2602.3823
    -999.2500      42.6410    -999.2500    -999.2500      50.6748      70.6400
    -999.2500    -999.2500    -999.2500      29.7593    -999.2500      27.1854
    -999.2500      23.3923       0.0808    -999.2500       0.0107    -999.2500
       7.4454       1.0535
   2602.5347
    -999.2500      43.2464    -999.2500    -999.2500      52.8100      73.2768
    -999.2500    -999.2500    -999.2500      29.5145    -999.2500      26.9814
    -999.2500      23.1803       0.0785    -999.2500       0.0112    -999.2500
       7.3775       1.2490
   2602.6870
    -999.2500      44.5087    -999.2500    -999.2500      55.3239      74.1433
    -999.2500    -999.2500    -999.2500      29.6172    -999.2500      26.8974
    -999.2500      23.3017       0.0715    -999.2500       0.0120    -999.2500
       7.3273       1.3903
   2602.8396
    -999.2500      45.1903    -999.2500    -999.2500      56.8138      75.9534
    -999.2500    -999.2500    -999.2500      30.8432    -999.2500      29.6784
    -999.2500      26.1534       0.0563    -999.2500       0.0124    -999.2500
       7.2618       1.4942
   2602.9919
    -999.2500      45.4935    -999.2500    -999.2500      56.7001      80.3206
    -999.2500    -999.2500    -999.2500      32.6893    -999.2500      30.9780
    -999.2500      28.5681       0.0453    -999.2500       0.0126    -999.2500
       7.2686       1.3797
   2603.1443
    -999.2500      40.3428    -999.2500    -999.2500      50.6310      80.1858
    -999.2500    -999.2500    -999.2500      32.9075    -999.2500      28.2425
    -999.2500      26.0243       0.0433    -999.2500       0.0116    -999.2500
       6.1819       1.2794
   2603.2966
    -999.2500      34.4724    -999.2500    -999.2500      42.9713      70.9030
    -999.2500    -999.2500    -999.2500      30.9668    -999.2500      24.4335
    -999.2500      20.8907       0.0505    -999.2500       0.0100    -999.2500
       5.2265       1.0288
   2603.4492
    -999.2500      27.3912    -999.2500    -999.2500      36.0738      57.8763
    -999.2500    -999.2500    -999.2500      30.4266    -999.2500      24.8898
    -999.2500      20.8285       0.0597    -999.2500       0.0082    -999.2500
       3.9995       1.1027
   2603.6016
    -999.2500      23.8640    -999.2500    -999.2500      31.0835      47.9773
    -999.2500    -999.2500    -999.2500      30.9000    -999.2500      26.2406
    -999.2500      21.8313       0.0671    -999.2500       0.0071    -999.2500
       3.5414       0.8852
