#------------------------------------------------------------------------------
#
#   Created by  : [OpenWorks] Log Export Utility (LEXP)
#   Created on  : 2016-05-23 11:51:27
#   Project     : CANT971
#   User        : R5K
#   Interpreter : PEP
#
#------------------------------------------------------------------------------
~VERSION INFORMATION
VERS. 2.0 : CWLS Log ASCII Standard - version 2.0
WRAP.  NO : One line per depth step
~WELL INFORMATION
#MNEMONIC   .UNIT                                           VALUE :DESCRIPTION
#------------------------------------------------------------------------------
STRT        .M                                           294.1315 :START DEPTH
STOP        .M                                          1758.8479 :STOP DEPTH
STEP        .M                                             0.1524 :STEP
NULL        .                                           -999.2500 :NULL VALUE
COMP        .                                   PEMEX EXPL & PROD :COMPANY
WELL        .                                                1084 :WELL
FLD         .                                           CANTARELL :FIELD
LOC         .                                             UNKNOWN :LOCATION
CNTY        .                                      CD. DEL CARMEN :COUNTY
STAT        .                                            CAMPECHE :STATE
CTRY        .                                              MEXICO :COUNTRY
SRVC        .                                             UNKNOWN :SERVICE COMPANY
DATE        .                                             UNKNOWN :LOG DATE
UWI         .                                          3060000213 :UNIQUE WELL ID
XCOORD      .                                       596992.320000 :SURFACE X
YCOORD      .                                      2148289.820000 :SURFACE Y
LAT         .                                           19.427749 :LATITUDE
LON         .                                          -92.076116 :LONGITUDE
ELEV        .M                                            27.5000 :SURFACE ELEV
ELEV_TYPE   .                                                  KB :ELEV TYPE
~CURVE INFORMATION
#MNEMONIC.UNIT        API CODE       : CURVE DESCRIPTION
#------------------------------------------------------------------------------
DEPTH    .M                          : Measured Depth
CALI     .in          UNKNOWN        : CALI:registros:rC:NONE:v0 (auto-composite)
DRHO     .g/cm3       UNKNOWN        : DRHO:registros:rC:NONE:v0 (auto-composite)
DT       .us/ft       UNKNOWN        : DT:registros:rC:NONE:v0 (auto-composite)
GR       .api         UNKNOWN        : GR:registros:rC:NONE:v0 (auto-composite)
ILD      .ohmm        UNKNOWN        : ILD:registros:rC:NONE:v0 (auto-composite)
NPHI     .v/v_decimal UNKNOWN        : NPHI:registros:rC:NONE:v0 (auto-composite)
RHOB     .g/cm3       UNKNOWN        : RHOB:registros:rC:NONE:v0 (auto-composite)
~A     DEPTH         CALI         DRHO           DT           GR          ILD         NPHI         RHOB
# ...
   1162.5067      17.6700       0.2730     125.9050      74.9600       1.4470    -999.2500       2.2500
   1162.6591      17.7035       0.2780     123.9246      74.9205       1.4385    -999.2500       2.2540
   1162.8115      17.7370       0.2830     121.9500      74.8810       1.4300    -999.2500       2.2580
   1162.9639      17.8164       0.2915     122.5468      74.7319       1.4315    -999.2500       2.2705
   1163.1163      17.8960       0.3000     123.1420      74.5830       1.4330    -999.2500       2.2830
   1163.2687      17.9834       0.2985     125.1294      74.3924       1.4430    -999.2500       2.2915
   1163.4211      18.0710       0.2970     127.1100      74.2020       1.4530    -999.2500       2.3000
   1163.5735      18.1035       0.2835     126.5974      73.8308       1.4755    -999.2500       2.2975
   1163.7260      18.1360       0.2700     126.0870      73.4600       1.4980    -999.2500       2.2950
   1163.8783      18.2879       0.2700     124.3751      73.6131       1.5115    -999.2500       2.2825
   1164.0306      18.4400       0.2700     122.6700      73.7660       1.5250    -999.2500       2.2700
   1164.1831      18.4235       0.2700     121.8885      74.4832       1.5375    -999.2500       2.2700
   1164.3354      18.4070       0.2700     121.1100      75.2000       1.5500    -999.2500       2.2700
   1164.4879      18.3395       0.2650     121.5308      75.1210       1.5475    -999.2500       2.2675
   1164.6403      18.2720       0.2600     121.9500      75.0420       1.5450    -999.2500       2.2650
   1164.7927      18.2060       0.2600     121.6294      74.0858       1.5335    -999.2500       2.2525
   1164.9451      18.1400       0.2600     121.3100      73.1300       1.5220    -999.2500       2.2400
   1165.0975      18.1625       0.2750     122.8903      73.2075       1.5055    -999.2500       2.2425
   1165.2499      18.1850       0.2900     124.4650      73.2850       1.4890    -999.2500       2.2450
   1165.4023      18.2624       0.2885     130.1771      73.8598       1.4495    -999.2500       2.2625
   1165.5547      18.3400       0.2870     135.8700      74.4340       1.4100    -999.2500       2.2800
   1165.7072      18.2501       0.2795     134.3245      75.8281       1.4100    -999.2500       2.2775
   1165.8595      18.1600       0.2720     132.7840      77.2200       1.4100    -999.2500       2.2750
   1166.0118      18.1625       0.2560     127.2384      77.0178       1.4085    -999.2500       2.2650
   1166.1643      18.1650       0.2400     121.7100      76.8160       1.4070    -999.2500       2.2550
   1166.3167      18.2199       0.2400     121.7100      76.0034       1.4010    -999.2500       2.2450
   1166.4691      18.2750       0.2400     121.7100      75.1920       1.3950    -999.2500       2.2350
   1166.6215      18.4074       0.2415     122.2978      74.3505       1.3850    -999.2500       2.2175
   1166.7739      18.5400       0.2430     122.8840      73.5100       1.3750    -999.2500       2.2000
   1166.9263      18.4916       0.2480     125.3158      72.9947       1.3620    -999.2500       2.2015
   1167.0787      18.4430       0.2530     127.7410      72.4800       1.3490    -999.2500       2.2030
   1167.2311      18.2836       0.2565     130.5643      72.6771       1.3245    -999.2500       2.2090
   1167.3835      18.1240       0.2600     133.3780      72.8740       1.3000    -999.2500       2.2150
   1167.5359      18.0595       0.2600     135.1211      73.9925       1.3015    -999.2500       2.2225
   1167.6884      17.9950       0.2600     136.8570      75.1100       1.3030    -999.2500       2.2300
   1167.8407      17.9675       0.2600     140.7462      74.8149       1.3080    -999.2500       2.2300
   1167.9930      17.9400       0.2600     144.6200      74.5200       1.3130    -999.2500       2.2300
   1168.1455      17.9660       0.2600     144.4657      74.5945       1.3165    -999.2500       2.2300
   1168.2979      17.9920       0.2600     144.3120      74.6690       1.3200    -999.2500       2.2300
   1168.4503      18.1859       0.2615     139.9830      74.9186       1.3200    -999.2500       2.2250
   1168.6027      18.3800       0.2630     135.6700      75.1680       1.3200    -999.2500       2.2200
   1168.7551      18.3500       0.2690     135.7727      75.3105       1.3150    -999.2500       2.2225
   1168.9075      18.3200       0.2750     135.8750      75.4530       1.3100    -999.2500       2.2250
   1169.0599      18.3305       0.2825     136.2181      76.4366       1.3115    -999.2500       2.2425
   1169.2123      18.3410       0.2900     136.5600      77.4200       1.3130    -999.2500       2.2600
   1169.3647      18.4304       0.2860     136.5094      77.2674       1.3205    -999.2500       2.2585
   1169.5171      18.5200       0.2820     136.4590      77.1150       1.3280    -999.2500       2.2570
   1169.6696      18.5055       0.2660     136.0929      76.6361       1.3440    -999.2500       2.2435
   1169.8219      18.4910       0.2500     135.7280      76.1580       1.3600    -999.2500       2.2300
   1169.9742      18.4006       0.2515     134.6583      75.8923       1.3790    -999.2500       2.2300
   1170.1267      18.3100       0.2530     133.5920      75.6270       1.3980    -999.2500       2.2300
   1170.2791      18.3100       0.2565     132.2475      75.1487       1.4190    -999.2500       2.2300
   1170.4315      18.3100       0.2600     130.9070      74.6710       1.4400    -999.2500       2.2300
   1170.5839      18.2650       0.2650     130.6381      74.4839       1.4375    -999.2500       2.2300
   1170.7363      18.2200       0.2700     130.3700      74.2970       1.4350    -999.2500       2.2300
   1170.8887      18.2410       0.2685     130.4857      73.9173       1.4225    -999.2500       2.2300
   1171.0411      18.2620       0.2670     130.6010      73.5380       1.4100    -999.2500       2.2300
   1171.1935      18.3210       0.2620     134.7675      73.0608       1.4140    -999.2500       2.2285
   1171.3459      18.3800       0.2570     138.9200      72.5840       1.4180    -999.2500       2.2270
   1171.4983      18.2925       0.2485     138.5993      72.4669       1.4380    -999.2500       2.2185
   1171.6508      18.2050       0.2400     138.2800      72.3500       1.4580    -999.2500       2.2100
   1171.8031      17.9226       0.2500     134.5627      72.3865       1.4915    -999.2500       2.2100
   1171.9554      17.6400       0.2600     130.8600      72.4230       1.5250    -999.2500       2.2100
   1172.1079      17.6480       0.2550     131.2437      73.5568       1.5540    -999.2500       2.2200
   1172.2603      17.6560       0.2500     131.6260      74.6900       1.5830    -999.2500       2.2300
   1172.4127      17.6865       0.2550     133.6567      74.6075       1.6015    -999.2500       2.2285
   1172.5651      17.7170       0.2600     135.6800      74.5250       1.6200    -999.2500       2.2270
   1172.7175      17.7385       0.2500     134.9552      74.0709       1.6130    -999.2500       2.2185
   1172.8699      17.7600       0.2400     134.2330      73.6170       1.6060    -999.2500       2.2100
   1173.0223      17.7520       0.2425     131.5619      72.9634       1.5825    -999.2500       2.2100
   1173.1747      17.7440       0.2450     128.9000      72.3100       1.5590    -999.2500       2.2100
   1173.3271      17.7100       0.2525     129.5150      72.4656       1.5405    -999.2500       2.2250
   1173.4795      17.6760       0.2600     130.1280      72.6210       1.5220    -999.2500       2.2400
   1173.6320      17.6330       0.2600     132.3175      73.3701       1.5060    -999.2500       2.2350
   1173.7843      17.5900       0.2600     134.5000      74.1180       1.4900    -999.2500       2.2300
   1173.9366      17.5925       0.2600     133.7719      75.4099       1.4900    -999.2500       2.2315
   1174.0891      17.5950       0.2600     133.0460      76.7000       1.4900    -999.2500       2.2330
