#------------------------------------------------------------------------------
#
#   Created by  : [OpenWorks] Log Export Utility (LEXP)
#   Created on  : 2016-05-11 12:45:47
#   Project     : CANT971
#   User        : R5K
#   Interpreter : PEP
#
#------------------------------------------------------------------------------
~VERSION INFORMATION
VERS. 2.0 : CWLS Log ASCII Standard - version 2.0
WRAP.  NO : One line per depth step
~WELL INFORMATION
#MNEMONIC   .UNIT                                           VALUE :DESCRIPTION
#------------------------------------------------------------------------------
STRT        .M                                           801.4664 :START DEPTH
STOP        .M                                          3402.1724 :STOP DEPTH
STEP        .M                                             0.1524 :STEP
NULL        .                                           -999.2500 :NULL VALUE
COMP        .                                   PEMEX EXPL & PROD :COMPANY
WELL        .                                        CANTARELL-85 :WELL
FLD         .                                           CANTARELL :FIELD
LOC         .                                             UNKNOWN :LOCATION
CNTY        .                                      CD. DEL CARMEN :COUNTY
STAT        .                                            CAMPECHE :STATE
CTRY        .                                              MEXICO :COUNTRY
SRVC        .                                             UNKNOWN :SERVICE COMPANY
DATE        .                                             UNKNOWN :LOG DATE
UWI         .                                          3060000185 :UNIQUE WELL ID
XCOORD      .                                       604541.690000 :SURFACE X
YCOORD      .                                      2141649.620000 :SURFACE Y
LAT         .                                           19.367365 :LATITUDE
LON         .                                          -92.004578 :LONGITUDE
ELEV        .M                                            30.0000 :SURFACE ELEV
ELEV_TYPE   .                                                  KB :ELEV TYPE
~CURVE INFORMATION
#MNEMONIC.UNIT        API CODE       : CURVE DESCRIPTION
#------------------------------------------------------------------------------
DEPTH    .M                          : Measured Depth
CALI     .inches      UNKNOWN        : CALI:Import:rC:NONE:v0 (auto-composite)
DRHO     .g/cm3       UNKNOWN        : DRHO:Import:rC:NONE:v0 (auto-composite)
DT       .us/ft       UNKNOWN        : DT:Import:rC:NONE:v0 (auto-composite)
GR       .API         UNKNOWN        : GR:Import:rC:NONE:v0 (auto-composite)
ILD      .ohm.m       UNKNOWN        : ILD:Import:rC:NONE:v0 (auto-composite)
ILM      .ohm.m       UNKNOWN        : ILM:Import:rC:NONE:v0 (auto-composite)
NPHI     .v/v_decimal UNKNOWN        : NPHI:Import:rC:NONE:v0 (auto-composite)
RHOB     .g/cm3       UNKNOWN        : RHOB:Import:rC:NONE:v0 (auto-composite)
SN       .ohm.m       UNKNOWN        : SN:Import:rC:NONE:v0 (auto-composite)
SP       .mV          UNKNOWN        : SP:Import:rC:NONE:v0 (auto-composite)
~A     DEPTH         CALI         DRHO           DT           GR          ILD          ILM         NPHI         RHOB           SN           SP
# ...
   1296.4615    -999.2500    -999.2500    -999.2500      34.8607       0.9742       1.0166    -999.2500       2.3197       0.8800     -14.7691
   1296.6140    -999.2500    -999.2500    -999.2500      32.4537       0.9982       1.0770    -999.2500       2.3297       0.8800      -8.6607
   1296.7664    -999.2500    -999.2500    -999.2500      33.5986       0.9908       1.0964    -999.2500       2.3252       0.8800     -20.3518
   1296.9188    -999.2500    -999.2500    -999.2500      34.8636       0.9823       1.1144    -999.2500       2.3202       0.8800     -32.6445
   1297.0712    -999.2500    -999.2500    -999.2500      36.9534       0.9776       1.0670    -999.2500       2.3263       0.8800     -60.0631
   1297.2235    -999.2500    -999.2500    -999.2500      39.0720       0.9731       1.0174    -999.2500       2.3328       0.8800     -88.0068
   1297.3760    -999.2500    -999.2500    -999.2500      40.9037       0.9803       1.0082    -999.2500       2.3364       0.8800     -78.6102
   1297.5283    -999.2500    -999.2500    -999.2500      42.7269       0.9878       1.0002    -999.2500       2.3399       0.8800     -68.1057
   1297.6808    -999.2500    -999.2500    -999.2500      36.0249       0.9953       1.0354    -999.2500       2.3463       0.8800     -36.6149
   1297.8331    -999.2500    -999.2500    -999.2500      29.0622       1.0028       1.0719    -999.2500       2.3528       0.8800      -4.4821
   1297.9856    -999.2500    -999.2500    -999.2500      32.3539       1.0277       1.1069    -999.2500       2.3661       0.8829       2.1902
   1298.1379    -999.2500    -999.2500    -999.2500      35.9773       1.0532       1.1419    -999.2500       2.3796       0.8859       8.0386
   1298.2904    -999.2500    -999.2500    -999.2500      34.9607       1.0588       1.1396    -999.2500       2.3737       0.9557     -21.8241
   1298.4427    -999.2500    -999.2500    -999.2500      33.7897       1.0638       1.1361    -999.2500       2.3672       1.0277     -52.8753
   1298.5952    -999.2500    -999.2500    -999.2500      35.4154       1.0543       1.1249    -999.2500       2.3607       1.0687     -58.9576
   1298.7476    -999.2500    -999.2500    -999.2500      37.1392       1.0443       1.1133    -999.2500       2.3542       1.1087     -64.1645
   1298.9000    -999.2500    -999.2500    -999.2500      36.4599       1.0459       1.1295    -999.2500       2.3424       1.1100     -30.6730
   1299.0524    -999.2500    -999.2500    -999.2500      35.7105       1.0479       1.1465    -999.2500       2.3304       1.1100       3.9467
   1299.2047    -999.2500    -999.2500    -999.2500      33.8877       1.0587       1.1567    -999.2500       2.3348       1.1100      18.8489
   1299.3572    -999.2500    -999.2500    -999.2500      32.0318       1.0697       1.1667    -999.2500       2.3398       1.1100      33.1416
   1299.5095    -999.2500    -999.2500    -999.2500      31.4111       1.0894       1.1743    -999.2500       2.3303       1.1100      27.6655
   1299.6620    -999.2500    -999.2500    -999.2500      30.8309       1.1093       1.1818    -999.2500       2.3203       1.1100      21.5431
   1299.8143    -999.2500    -999.2500    -999.2500      33.4554       1.1347       1.1786    -999.2500       2.3297       1.1100      17.3903
   1299.9668    -999.2500    -999.2500    -999.2500      36.1876       1.1601       1.1751    -999.2500       2.3397       1.1100      13.3037
   1300.1191    -999.2500    -999.2500    -999.2500      34.2229       1.1537       1.1982    -999.2500       2.3448       1.0718      18.7237
   1300.2716    -999.2500    -999.2500    -999.2500      32.0920       1.1462       1.2223    -999.2500       2.3498       1.0323      24.4801
   1300.4240    -999.2500    -999.2500    -999.2500      35.4726       1.1081       1.1983    -999.2500       2.3529       0.9579      30.6653
   1300.5764    -999.2500    -999.2500    -999.2500      39.0156       1.0692       1.1728    -999.2500       2.3559       0.8824      36.8632
   1300.7288    -999.2500    -999.2500    -999.2500      42.1530       1.0384       1.1235    -999.2500       2.3613       0.8800      39.3739
   1300.8812    -999.2500    -999.2500    -999.2500      45.2776       1.0080       1.0736    -999.2500       2.3668       0.8800      41.7693
   1301.0336    -999.2500    -999.2500    -999.2500      41.7299       0.9847       1.0584    -999.2500       2.3748       0.8800      37.6239
   1301.1859    -999.2500    -999.2500    -999.2500      37.9675       0.9618       1.0445    -999.2500       2.3828       0.8800      33.2680
   1301.3384    -999.2500    -999.2500    -999.2500      40.1096       0.9523       1.0416    -999.2500       2.3912       0.8800      42.8229
   1301.4907    -999.2500    -999.2500    -999.2500      42.4521       0.9433       1.0391    -999.2500       2.3997       0.8800      52.8501
   1301.6432    -999.2500    -999.2500    -999.2500      41.8147       0.9638       1.0472    -999.2500       2.3952       0.8800      26.9239
   1301.7955    -999.2500    -999.2500    -999.2500      41.0735       0.9854       1.0558    -999.2500       2.3902       0.8800      -0.2560
   1301.9480    -999.2500    -999.2500    -999.2500      36.9016       0.9952       1.0633    -999.2500       2.3997       0.8800     -18.4386
   1302.1003    -999.2500    -999.2500    -999.2500      32.6274       1.0047       1.0708    -999.2500       2.4097       0.8800     -36.3528
   1302.2528    -999.2500    -999.2500    -999.2500      33.6191       0.9977       1.0773    -999.2500       2.4245       0.8800     -47.2113
   1302.4052    -999.2500    -999.2500    -999.2500      34.7727       0.9902       1.0838    -999.2500       2.4395       0.8800     -57.8530
   1302.5576    -999.2500    -999.2500    -999.2500      35.7485       0.9881       1.0704    -999.2500       2.4497       0.8800     -49.7394
   1302.7100    -999.2500    -999.2500    -999.2500      36.7186       0.9861       1.0565    -999.2500       2.4597       0.8800     -41.0162
   1302.8624    -999.2500    -999.2500    -999.2500      35.7682       1.0024       1.0516    -999.2500       2.4372       0.8800     -31.8646
   1303.0148    -999.2500    -999.2500    -999.2500      34.7535       1.0194       1.0472    -999.2500       2.4137       0.8800     -22.6987
   1303.1671    -999.2500    -999.2500    -999.2500      38.3065       1.0224       1.0577    -999.2500       2.3873       0.8800     -15.1466
   1303.3196    -999.2500    -999.2500    -999.2500      42.0203       1.0249       1.0687    -999.2500       2.3608       0.8800      -7.6514
   1303.4719    -999.2500    -999.2500    -999.2500      44.1577       1.0066       1.0569    -999.2500       2.3697       0.8800     -13.1493
   1303.6244    -999.2500    -999.2500    -999.2500      46.2490       0.9876       1.0444    -999.2500       2.3797       0.8800     -19.0279
   1303.7767    -999.2500    -999.2500    -999.2500      43.3164       0.9400       1.0198    -999.2500       2.3703       0.8800     -25.6896
   1303.9292    -999.2500    -999.2500    -999.2500      40.2277       0.8915       0.9948    -999.2500       2.3603       0.8800     -32.3758
   1304.0815    -999.2500    -999.2500    -999.2500      37.2569       0.8672       0.9582    -999.2500       2.3600       0.8800     -35.7650
   1304.2340    -999.2500    -999.2500    -999.2500      34.2899       0.8438       0.9212    -999.2500       2.3600       0.8800     -39.0487
   1304.3864    -999.2500    -999.2500    -999.2500      32.6570       0.8614       0.9152    -999.2500       2.3552       0.8800     -33.6339
   1304.5388    -999.2500    -999.2500    -999.2500      31.0692       0.8804       0.9102    -999.2500       2.3502       0.8800     -27.9254
   1304.6912    -999.2500    -999.2500    -999.2500      31.9470       0.9067       0.9565    -999.2500       2.3548       0.8800     -33.4173
   1304.8436    -999.2500    -999.2500    -999.2500      32.9103       0.9332       1.0046    -999.2500       2.3598       0.8800     -39.2978
