#------------------------------------------------------------------------------
#
#   Created by  : [OpenWorks] Log Export Utility (LEXP)
#   Created on  : 2016-05-23 11:53:49
#   Project     : CANT971
#   User        : R5K
#   Interpreter : PEP
#
#------------------------------------------------------------------------------
~VERSION INFORMATION
VERS. 2.0 : CWLS Log ASCII Standard - version 2.0
WRAP.  NO : One line per depth step
~WELL INFORMATION
#MNEMONIC   .UNIT                                           VALUE :DESCRIPTION
#------------------------------------------------------------------------------
STRT        .M                                           293.9797 :START DEPTH
STOP        .M                                          2713.7869 :STOP DEPTH
STEP        .M                                             0.1524 :STEP
NULL        .                                           -999.2500 :NULL VALUE
COMP        .                                   PEMEX EXPL & PROD :COMPANY
WELL        .                                                  28 :WELL
FLD         .                                           CANTARELL :FIELD
LOC         .                                             UNKNOWN :LOCATION
CNTY        .                                      CD. DEL CARMEN :COUNTY
STAT        .                                            CAMPECHE :STATE
CTRY        .                                              MEXICO :COUNTRY
SRVC        .                                             UNKNOWN :SERVICE COMPANY
DATE        .                                             UNKNOWN :LOG DATE
UWI         .                                          3060000156 :UNIQUE WELL ID
XCOORD      .                                       598450.720000 :SURFACE X
YCOORD      .                                      2145024.710000 :SURFACE Y
LAT         .                                           19.398172 :LATITUDE
LON         .                                          -92.062394 :LONGITUDE
ELEV        .M                                            26.5400 :SURFACE ELEV
ELEV_TYPE   .                                                  KB :ELEV TYPE
~CURVE INFORMATION
#MNEMONIC.UNIT        API CODE       : CURVE DESCRIPTION
#------------------------------------------------------------------------------
DEPTH    .M                          : Measured Depth
CALI     .inches      UNKNOWN        : CALI:Import:rC:NONE:v0 (auto-composite)
DRHO     .g/cm3       UNKNOWN        : DRHO:Import:rC:NONE:v0 (auto-composite)
DT       .us/ft       UNKNOWN        : DT:Import:rC:NONE:v0 (auto-composite)
GR       .API         UNKNOWN        : GR:Import:rC:NONE:v0 (auto-composite)
ILD      .ohm.m       UNKNOWN        : ILD:Import:rC:NONE:v0 (auto-composite)
LLD      .ohm.m       UNKNOWN        : LLD:Import:rC:NONE:v0 (auto-composite)
LLS      .ohm.m       UNKNOWN        : LLS:Import:rC:NONE:v0 (auto-composite)
MSFL     .ohm.m       UNKNOWN        : MSFL:Import:rC:NONE:v0 (auto-composite)
NPHI     .v/v_decimal UNKNOWN        : NPHI:Import:rC:NONE:v0 (auto-composite)
PEF      .b/elec      UNKNOWN        : PEF:Import:rC:NONE:v0 (auto-composite)
RHOB     .g/cm3       UNKNOWN        : RHOB:Import:rC:NONE:v0 (auto-composite)
~A     DEPTH         CALI         DRHO           DT           GR          ILD          LLD          LLS         MSFL         NPHI          PEF         RHOB
# ...
   1054.7605       8.6220    -999.2500    -999.2500      38.4320    -999.2500       0.8370       0.8010       1.0214       0.4106    -999.2500    -999.2500
   1054.9128       8.6230    -999.2500    -999.2500      38.6265    -999.2500       0.8420       0.8030       0.9970       0.4079    -999.2500    -999.2500
   1055.0653       8.6195    -999.2500    -999.2500      38.8200    -999.2500       0.8812       0.8130       1.0201       0.4079    -999.2500    -999.2500
   1055.2177       8.6160    -999.2500    -999.2500      39.2863    -999.2500       0.9200       0.8230       1.0430       0.4097    -999.2500    -999.2500
   1055.3701       8.6010    -999.2500    -999.2500      39.7500    -999.2500       0.9170       0.8441       1.0420       0.4139    -999.2500    -999.2500
   1055.5225       8.5860    -999.2500    -999.2500      39.4517    -999.2500       0.9140       0.8650       1.0410       0.4202    -999.2500    -999.2500
   1055.6749       8.5860    -999.2500    -999.2500      39.1550    -999.2500       0.8894       0.8329       1.0018       0.4304    -999.2500    -999.2500
   1055.8273       8.5860    -999.2500    -999.2500      39.4498    -999.2500       0.8650       0.8010       0.9630       0.4393    -999.2500    -999.2500
   1055.9797       8.5865    -999.2500    -999.2500      39.7430    -999.2500       0.8725       0.8065       0.9630       0.4406    -999.2500    -999.2500
   1056.1321       8.5870    -999.2500    -999.2500      39.7405    -999.2500       0.8800       0.8120       0.9630       0.4387    -999.2500    -999.2500
   1056.2844       8.5875    -999.2500    -999.2500      39.7380    -999.2500       0.9056       0.8371       0.9816       0.4346    -999.2500    -999.2500
   1056.4369       8.5880    -999.2500    -999.2500      40.3285    -999.2500       0.9310       0.8620       1.0000       0.4296    -999.2500    -999.2500
   1056.5892       8.5890    -999.2500    -999.2500      40.9160    -999.2500       0.9230       0.8866       1.0582       0.4241    -999.2500    -999.2500
   1056.7417       8.5900    -999.2500    -999.2500      40.9155    -999.2500       0.9150       0.9110       1.1160       0.4183    -999.2500    -999.2500
   1056.8940       8.5875    -999.2500    -999.2500      40.9150    -999.2500       0.9150       0.9060       1.1145       0.4116    -999.2500    -999.2500
   1057.0465       8.5850    -999.2500    -999.2500      40.7635    -999.2500       0.9150       0.9010       1.1130       0.4045    -999.2500    -999.2500
   1057.1989       8.5690    -999.2500    -999.2500      40.6130    -999.2500       0.9090       0.8789       1.1035       0.3973    -999.2500    -999.2500
   1057.3513       8.5530    -999.2500    -999.2500      40.7590    -999.2500       0.9030       0.8570       1.0940       0.3905    -999.2500    -999.2500
   1057.5037       8.5530    -999.2500    -999.2500      40.9040    -999.2500       0.8814       0.8324       1.0714       0.3850    -999.2500    -999.2500
   1057.6561       8.5530    -999.2500    -999.2500      40.8789    -999.2500       0.8600       0.8080       1.0490       0.3814    -999.2500    -999.2500
   1057.8085       8.5535    -999.2500    -999.2500      40.8540    -999.2500       0.8339       0.7884       1.0214       0.3822    -999.2500    -999.2500
   1057.9608       8.5540    -999.2500    -999.2500      40.7286    -999.2500       0.8080       0.7690       0.9940       0.3861    -999.2500    -999.2500
   1058.1133       8.5745    -999.2500    -999.2500      40.6040    -999.2500       0.8120       0.7710       0.9940       0.3945    -999.2500    -999.2500
   1058.2656       8.5950    -999.2500    -999.2500      40.1562    -999.2500       0.8160       0.7730       0.9940       0.4047    -999.2500    -999.2500
   1058.4181       8.5940    -999.2500    -999.2500      39.7110    -999.2500       0.8326       0.7861       1.0086       0.4157    -999.2500    -999.2500
   1058.5704       8.5930    -999.2500    -999.2500      39.8093    -999.2500       0.8490       0.7990       1.0230       0.4269    -999.2500    -999.2500
   1058.7229       8.5755    -999.2500    -999.2500      39.9070    -999.2500       0.8641       0.7975       1.0195       0.4380    -999.2500    -999.2500
   1058.8752       8.5580    -999.2500    -999.2500      40.5458    -999.2500       0.8790       0.7960       1.0160       0.4467    -999.2500    -999.2500
   1059.0277       8.5580    -999.2500    -999.2500      41.1810    -999.2500       0.8740       0.7905       0.9929       0.4487    -999.2500    -999.2500
   1059.1801       8.5580    -999.2500    -999.2500      42.3632    -999.2500       0.8690       0.7850       0.9700       0.4473    -999.2500    -999.2500
   1059.3325       8.5585    -999.2500    -999.2500      43.5390    -999.2500       0.8328       0.7649       0.9700       0.4434    -999.2500    -999.2500
   1059.4849       8.5590    -999.2500    -999.2500      44.1787    -999.2500       0.7970       0.7450       0.9700       0.4350    -999.2500    -999.2500
   1059.6373       8.5605    -999.2500    -999.2500      44.8150    -999.2500       0.8045       0.7485       0.9750       0.4169    -999.2500    -999.2500
   1059.7897       8.5620    -999.2500    -999.2500      45.5173    -999.2500       0.8120       0.7520       0.9800       0.4001    -999.2500    -999.2500
   1059.9420       8.5680    -999.2500    -999.2500      46.2160    -999.2500       0.8738       0.7696       1.0322       0.3965    -999.2500    -999.2500
   1060.0945       8.5740    -999.2500    -999.2500      46.6080    -999.2500       0.9350       0.7870       1.0840       0.3988    -999.2500    -999.2500
   1060.2468       8.5850    -999.2500    -999.2500      46.9980    -999.2500       0.9285       0.8131       1.0599       0.4038    -999.2500    -999.2500
   1060.3993       8.5960    -999.2500    -999.2500      47.2783    -999.2500       0.9220       0.8390       1.0360       0.4106    -999.2500    -999.2500
   1060.5516       8.5990    -999.2500    -999.2500      47.5570    -999.2500       0.9220       0.8591       1.0365       0.4196    -999.2500    -999.2500
   1060.7041       8.6020    -999.2500    -999.2500      47.5319    -999.2500       0.9220       0.8790       1.0370       0.4302    -999.2500    -999.2500
   1060.8564       8.6025    -999.2500    -999.2500      47.5070    -999.2500       0.9230       0.8775       1.0335       0.4434    -999.2500    -999.2500
   1061.0089       8.6030    -999.2500    -999.2500      47.4313    -999.2500       0.9240       0.8760       1.0300       0.4543    -999.2500    -999.2500
   1061.1613       8.6035    -999.2500    -999.2500      47.3560    -999.2500       0.9210       0.8399       0.9954       0.4571    -999.2500    -999.2500
   1061.3137       8.6040    -999.2500    -999.2500      47.3289    -999.2500       0.9180       0.8040       0.9610       0.4565    -999.2500    -999.2500
   1061.4661       8.6045    -999.2500    -999.2500      47.3020    -999.2500       0.9050       0.8040       0.9645       0.4552    -999.2500    -999.2500
   1061.6185       8.6050    -999.2500    -999.2500      47.2017    -999.2500       0.8920       0.8040       0.9680       0.4532    -999.2500    -999.2500
   1061.7709       8.6055    -999.2500    -999.2500      47.1020    -999.2500       0.8940       0.8095       0.9805       0.4499    -999.2500    -999.2500
   1061.9232       8.6060    -999.2500    -999.2500      46.9275    -999.2500       0.8960       0.8150       0.9930       0.4449    -999.2500    -999.2500
   1062.0757       8.6065    -999.2500    -999.2500      46.7540    -999.2500       0.9060       0.8366       1.0106       0.4370    -999.2500    -999.2500
   1062.2280       8.6070    -999.2500    -999.2500      46.3573    -999.2500       0.9160       0.8580       1.0280       0.4300    -999.2500    -999.2500
   1062.3805       8.6075    -999.2500    -999.2500      45.9630    -999.2500       0.9281       0.8781       1.0641       0.4286    -999.2500    -999.2500
   1062.5328       8.6080    -999.2500    -999.2500      45.4681    -999.2500       0.9400       0.8980       1.1000       0.4296    -999.2500    -999.2500
