#------------------------------------------------------------------------------
#
#   Created by  : [OpenWorks] Log Export Utility (LEXP)
#   Created on  : 2016-05-23 11:55:46
#   Project     : CANT971
#   User        : R5K
#   Interpreter : PEP
#
#------------------------------------------------------------------------------
~VERSION INFORMATION
VERS. 2.0 : CWLS Log ASCII Standard - version 2.0
WRAP.  NO : One line per depth step
~WELL INFORMATION
#MNEMONIC   .UNIT                                           VALUE :DESCRIPTION
#------------------------------------------------------------------------------
STRT        .M                                           292.5192 :START DEPTH
STOP        .M                                          2727.7188 :STOP DEPTH
STEP        .M                                             0.1524 :STEP
NULL        .                                           -999.2500 :NULL VALUE
COMP        .                                   PEMEX EXPL & PROD :COMPANY
WELL        .                                                  39 :WELL
FLD         .                                           CANTARELL :FIELD
LOC         .                                             UNKNOWN :LOCATION
CNTY        .                                      CD. DEL CARMEN :COUNTY
STAT        .                                            CAMPECHE :STATE
CTRY        .                                              MEXICO :COUNTRY
SRVC        .                                             UNKNOWN :SERVICE COMPANY
DATE        .                                             UNKNOWN :LOG DATE
UWI         .                                          3060000161 :UNIQUE WELL ID
XCOORD      .                                       603360.280000 :SURFACE X
YCOORD      .                                      2145098.760000 :SURFACE Y
LAT         .                                           19.398594 :LATITUDE
LON         .                                          -92.015639 :LONGITUDE
ELEV        .M                                            27.1400 :SURFACE ELEV
ELEV_TYPE   .                                                  KB :ELEV TYPE
~CURVE INFORMATION
#MNEMONIC.UNIT        API CODE       : CURVE DESCRIPTION
#------------------------------------------------------------------------------
DEPTH    .M                          : Measured Depth
CALI     .inches      UNKNOWN        : CALI:Import:rC:NONE:v0 (auto-composite)
DRHO     .g/cm3       UNKNOWN        : DRHO:Import:rC:NONE:v0 (auto-composite)
DT       .us/ft       UNKNOWN        : DT:Import:rC:NONE:v0 (auto-composite)
GR       .API         UNKNOWN        : GR:Import:rC:NONE:v0 (auto-composite)
ILD      .ohm.m       UNKNOWN        : ILD:Import:rC:NONE:v0 (auto-composite)
LLD      .ohm.m       UNKNOWN        : LLD:Import:rC:NONE:v0 (auto-composite)
LLS      .ohm.m       UNKNOWN        : LLS:Import:rC:NONE:v0 (auto-composite)
MSFL     .ohm.m       UNKNOWN        : MSFL:Import:rC:NONE:v0 (auto-composite)
NPHI     .v/v_decimal UNKNOWN        : NPHI:Import:rC:NONE:v0 (auto-composite)
RHOB     .g/cm3       UNKNOWN        : RHOB:Import:rC:NONE:v0 (auto-composite)
~A     DEPTH         CALI         DRHO           DT           GR          ILD          LLD          LLS         MSFL         NPHI         RHOB
# ...
   1743.3672       0.0000       0.0000      40.0000      61.7689       0.2000       0.2000       0.2000       0.2000      -0.1500       2.0000
   1743.5197       0.0000       0.0000      40.0000      63.5909       0.2000       0.2000       0.2000       0.2000      -0.1500       2.0000
   1743.6720       0.0000       0.0000      40.0000      63.6593       0.2000       0.2000       0.2000       0.2000      -0.1500       2.0000
   1743.8243       0.0000       0.0000      40.0000      62.5578       0.2000       0.2000       0.2000       0.2000      -0.1500       2.0000
   1743.9768       0.0000       0.0000      40.0000      60.3240       0.2000       0.2000       0.2000       0.2000      -0.1500       2.0000
   1744.1292       0.0000       0.0000      40.0000      58.8536       0.2000       0.2000       0.2000       0.2000      -0.1500       2.0000
   1744.2816       0.0000       0.0000      40.0000      58.1080       0.2000       0.2000       0.2000       0.2000      -0.1500       2.0000
   1744.4340       0.0000       0.0000      40.0000      57.3333       0.2000       0.2000       0.2000       0.2000      -0.1500       2.0000
   1744.5864       0.0000       0.0000      40.0000      56.5314       0.2000       0.2000       0.2000       0.2000      -0.1500       2.0000
   1744.7388       0.0000       0.0000      40.0000      55.9701       0.2000       0.2000       0.2000       0.2000      -0.1500       2.0000
   1744.8912       0.0000       0.0000      40.0000      55.6337       0.2000       0.2000       0.2000       0.2000      -0.1500       2.0000
   1745.0436       0.0000       0.0000      40.0000      55.2692       0.2000       0.2000       0.2000       0.2000      -0.1500       2.0000
   1745.1960       0.0000       0.0000      40.0000      54.8790       0.2000       0.2000       0.2000       0.2000      -0.1500       2.0000
   1745.3484       0.0000       0.0000      40.0000      55.3165       0.2000       0.2000       0.2000       0.2000      -0.1500       2.0000
   1745.5009       0.0000       0.0000      40.0000      56.5158       0.2000       0.2000       0.2000       0.2000      -0.1500       2.0000
   1745.6532       0.0000       0.0000      40.0000      58.4077       0.2000       0.2000       0.2000       0.2000      -0.1500       2.0000
   1745.8055       0.0000       0.0000      40.0000      60.9232       0.2000       0.2000       0.2000       0.2000      -0.1500       2.0000
   1745.9580       0.0000       0.0000      40.0000      61.8348       0.2000       0.2000       0.2000       0.2000      -0.1500       2.0000
   1746.1104       0.0000       0.0000      40.0000      61.3342       0.2000       0.2000       0.2000       0.2000      -0.1500       2.0000
   1746.2628       0.0000       0.0000      40.0000      59.7831       0.2000       0.2000       0.2000       0.2000      -0.1500       2.0000
   1746.4152       0.0000       0.0000      40.0000      57.3007       0.2000       0.2000       0.2000       0.2000      -0.1500       2.0000
   1746.5676       0.0000       0.0000      40.0000      57.1510       0.2000       0.2000       0.2000       0.2000      -0.1500       2.0000
   1746.7200       0.0000       0.0000      40.0000      59.0234       0.2000       0.2000       0.2000       0.2000      -0.1500       2.0000
   1746.8724       0.0000       0.0000      40.0000      61.9929       0.2000       0.2000       0.2000       0.2000      -0.1500       2.0000
   1747.0248       0.0000       0.0000      40.0000      65.9198       0.2000       0.2000       0.2000       0.2000      -0.1500       2.0000
   1747.1772       0.0000       0.0000      40.0000      66.9435       0.2000       0.2000       0.2000       0.2000      -0.1500       2.0000
   1747.3296       0.0000       0.0000      40.0000      65.4896       0.2000       0.2000       0.2000       0.2000      -0.1500       2.0000
   1747.4821       0.0000       0.0000      40.0000      64.3890       0.2000       0.2000       0.2000       0.2000      -0.1500       2.0000
   1747.6344       0.0000       0.0000      40.0000      63.5844       0.2000       0.2000       0.2000       0.2000      -0.1500       2.0000
   1747.7867       0.0000       0.0000      40.0000      62.5963       0.2000       0.2000       0.2000       0.2000      -0.1500       2.0000
   1747.9392       0.0000       0.0000      40.0000      61.4541       0.2000       0.2000       0.2000       0.2000      -0.1500       2.0000
   1748.0916       0.0000       0.0000      40.0000      59.9515       0.2000       0.2000       0.2000       0.2000      -0.1500       2.0000
   1748.2440       0.0000       0.0000      40.0000      58.1517       0.2000       0.2000       0.2000       0.2000      -0.1500       2.0000
   1748.3964       0.0000       0.0000      40.0000      56.4562       0.2000       0.2000       0.2000       0.2000      -0.1500       2.0000
   1748.5488       0.0000       0.0000      40.0000      54.8467       0.2000       0.2000       0.2000       0.2000      -0.1500       2.0000
   1748.7012       0.0000       0.0000      40.0000      56.4381       0.2000       0.2000       0.2000       0.2000      -0.1500       2.0000
   1748.8536       0.0000       0.0000      40.0000      60.6185       0.2000       0.2000       0.2000       0.2000      -0.1500       2.0000
   1749.0060       0.0000       0.0000      40.0000      60.8085       0.2000       0.2000       0.2000       0.2000      -0.1500       2.0000
   1749.1584       0.0000       0.0000      40.0000      57.8323       0.2000       0.2000       0.2000       0.2000      -0.1500       2.0000
   1749.3108       0.0000       0.0000      40.0000      53.2382       0.2000       0.2000       0.2000       0.2000      -0.1500       2.0000
   1749.4631       0.0000       0.0000      40.0000      47.3557       0.2000       0.2000       0.2000       0.2000      -0.1500       2.0000
   1749.6156       0.0000       0.0000      40.0000      44.0186       0.2000       0.2000       0.2000       0.2000      -0.1500       2.0000
   1749.7679       0.0000       0.0000      40.0000      42.6697       0.2000       0.2000       0.2000       0.2000      -0.1500       2.0000
   1749.9204       0.0000       0.0000      40.0000      43.5661       0.2000       0.2000       0.2000       0.2000      -0.1500       2.0000
   1750.0728       0.0000       0.0000      40.0000      46.2224       0.2000       0.2000       0.2000       0.2000      -0.1500       2.0000
   1750.2252       0.0000       0.0000      40.0000      50.8371       0.2000       0.2000       0.2000       0.2000      -0.1500       2.0000
   1750.3776       0.0000       0.0000      40.0000      56.9576       0.2000       0.2000       0.2000       0.2000      -0.1500       2.0000
   1750.5300       0.0000       0.0000      40.0000      63.4100       0.2000       0.2000       0.2000       0.2000      -0.1500       2.0000
   1750.6824       0.0000       0.0000      40.0000      70.1119       0.2000       0.2000       0.2000       0.2000      -0.1500       2.0000
   1750.8348       0.0000       0.0000      40.0000      72.2550       0.2000       0.2000       0.2000       0.2000      -0.1500       2.0000
   1750.9872       0.0000       0.0000      40.0000      70.9478       0.2000       0.2000       0.2000       0.2000      -0.1500       2.0000
   1751.1396       0.0000       0.0000      40.0000      68.9213       0.2000       0.2000       0.2000       0.2000      -0.1500       2.0000
   1751.2920       0.0000       0.0000      40.0000      66.3624       0.2000       0.2000       0.2000       0.2000      -0.1500       2.0000
   1751.4443       0.0000       0.0000      40.0000      64.4192       0.2000       0.2000       0.2000       0.2000      -0.1500       2.0000
   1751.5968       0.0000       0.0000      40.0000      62.9346       0.2000       0.2000       0.2000       0.2000      -0.1500       2.0000
   1751.7491       0.0000       0.0000      40.0000      62.5484       0.2000       0.2000       0.2000       0.2000      -0.1500       2.0000
