#------------------------------------------------------------------------------
#
#   Created by  : [OpenWorks] Log Export Utility (LEXP)
#   Created on  : 2015-10-01 09:49:56
#   Project     : CANT971
#   User        : R5K
#   Interpreter : PEP
#
#------------------------------------------------------------------------------
~VERSION INFORMATION
VERS. 2.0 : CWLS Log ASCII Standard - version 2.0
WRAP.  NO : One line per depth step
~WELL INFORMATION
#MNEMONIC   .UNIT                                           VALUE :DESCRIPTION
#------------------------------------------------------------------------------
STRT        .M                                           799.8710 :START DEPTH
STOP        .M                                          1367.5610 :STOP DEPTH
STEP        .M                                             0.1524 :STEP
NULL        .                                           -999.2500 :NULL VALUE
COMP        .                                   PEMEX EXPL & PROD :COMPANY
WELL        .                                        CANTARELL-1A :WELL
FLD         .                                           CANTARELL :FIELD
LOC         .                                             UNKNOWN :LOCATION
CNTY        .                                      CD. DEL CARMEN :COUNTY
STAT        .                                            CAMPECHE :STATE
CTRY        .                                              MEXICO :COUNTRY
SRVC        .                                             UNKNOWN :SERVICE COMPANY
DATE        .                                             UNKNOWN :LOG DATE
UWI         .                                          3060000138 :UNIQUE WELL ID
XCOORD      .                                       600823.080000 :SURFACE X
YCOORD      .                                      2145118.550000 :SURFACE Y
LAT         .                                           19.398902 :LATITUDE
LON         .                                          -92.039798 :LONGITUDE
ELEV        .M                                            27.7000 :SURFACE ELEV
ELEV_TYPE   .                                                  KB :ELEV TYPE
~CURVE INFORMATION
#MNEMONIC.UNIT        API CODE       : CURVE DESCRIPTION
#------------------------------------------------------------------------------
DEPTH    .M                          : Measured Depth
CALI     .inches      UNKNOWN        : CALI:UNKNOWN:rC:NONE:v0 (auto-composite)
DRHO     .g/cm3       UNKNOWN        : DRHO:UNKNOWN:rC:NONE:v0 (auto-composite)
DT       .us/ft       UNKNOWN        : DT:DT:rC:NONE:v0 (auto-composite)
ILD      .ohm.m       UNKNOWN        : ILD:UNKNOWN:rC:NONE:v0 (auto-composite)
LLD      .ohm.m       UNKNOWN        : LLD:UNKNOWN:rC:NONE:v0 (auto-composite)
LLS      .ohm.m       UNKNOWN        : LLS:UNKNOWN:rC:NONE:v0 (auto-composite)
MSFL     .ohm.m       UNKNOWN        : MSFL:UNKNOWN:rC:NONE:v0 (auto-composite)
NPHI     .v/v_decimal UNKNOWN        : NPHI:NPHI:rC:NONE:v0 (auto-composite)
GR       .API         UNKNOWN        : RG:UNKNOWN:rC:NONE:v0 (auto-composite)
RHOB     .g/cm3       UNKNOWN        : RHOB:UNKNOWN:rC:NONE:v0 (auto-composite)
~A     DEPTH         CALI         DRHO           DT          ILD          LLD          LLS         MSFL         NPHI           GR         RHOB
# ...
   1337.5382      12.7715       0.0047      48.4137       8.3585       0.2000       0.2000       0.2000       7.2415       5.0721       2.5914
   1337.6907      12.7430       0.0022      49.0612       8.1128       0.2000       0.2000       0.2000       6.9375       2.7011       2.5789
   1337.8430      12.7508       0.0015      49.3857       8.7289       0.2000       0.2000       0.2000       6.5159       2.2751       2.5738
   1337.9955      12.7613       0.0010      49.3853       9.4083       0.2000       0.2000       0.2000       5.9759       1.9918       2.5693
   1338.1478      12.7719       0.0019      49.1254      10.5487       0.2000       0.2000       0.2000       5.7052       1.6123       2.5728
   1338.3003      12.7824       0.0029      48.6044      11.7200       0.2000       0.2000       0.2000       5.7057       1.2264       2.5768
   1338.4526      12.6909       0.0129      48.3592      14.2051       0.2000       0.2000       0.2000       5.7212       1.1242       2.5888
   1338.6050      12.5931       0.0234      48.3917      16.7712       0.2000       0.2000       0.2000       5.7517       1.0395       2.6013
   1338.7574      12.4393       0.0416      49.1955      20.1620       0.2000       0.2000       0.2000       5.8618       1.0488       2.6091
   1338.9098      12.2824       0.0601      50.7765      23.5986       0.2000       0.2000       0.2000       6.0518       1.0633       2.6166
   1339.0623      12.1537       0.0481      50.9280      25.0998       0.2000       0.2000       0.2000       6.1081       1.6462       2.5917
   1339.2146      12.0264       0.0346      49.6391      26.5056       0.2000       0.2000       0.2000       6.0301       2.2572       2.5651
   1339.3671      12.0316       0.0258      50.1662      26.2793       0.2000       0.2000       0.2000       5.8464       5.2512       2.5539
   1339.5194      12.0426       0.0173      52.5242      25.9809       0.2000       0.2000       0.2000       5.5564       8.3503       2.5434
   1339.6719      12.0435       0.0184      53.6062      25.8488       0.2000       0.2000       0.2000       5.4252      16.8121       2.5454
   1339.8242      12.0440       0.0200      53.4017      25.7230       0.2000       0.2000       0.2000       5.4537      25.4781       2.5479
   1339.9767      12.0450       0.0312      52.9001      25.7573       0.2000       0.2000       0.2000       5.5388      45.9503       2.5626
   1340.1290      12.0460       0.0427      52.0988      25.7970       0.2000       0.2000       0.2000       5.6808      66.8122       2.5776
   1340.2814      12.0465       0.0533      51.0523      25.8307       0.2000       0.2000       0.2000       5.7503      69.1194       2.5902
   1340.4338      12.0470       0.0638      49.7594      25.8643       0.2000       0.2000       0.2000       5.7468      70.9234       2.6027
   1340.5862      12.0382       0.0660      49.9418      25.9082       0.2000       0.2000       0.2000       5.7310      81.0544       2.6010
   1340.7386      12.0291       0.0680      51.6083      25.9523       0.2000       0.2000       0.2000       5.7030      91.3629       2.5990
   1340.8910      12.0201       0.0636      52.4288      25.9851       0.2000       0.2000       0.2000       5.5721      95.6541       2.5955
   1341.0435      12.0110       0.0590      52.3983      26.0180       0.2000       0.2000       0.2000       5.3376      99.8910       2.5920
   1341.1958    -999.2500    -999.2500      52.2504    -999.2500    -999.2500    -999.2500    -999.2500       5.2317    -999.2500       2.8853
   1341.3483    -999.2500    -999.2500      51.9844    -999.2500    -999.2500    -999.2500    -999.2500       5.2552    -999.2500       2.8658
   1341.5006    -999.2500    -999.2500      51.3870    -999.2500    -999.2500    -999.2500    -999.2500       5.3161    -999.2500       2.8503
   1341.6531    -999.2500    -999.2500      50.4561    -999.2500    -999.2500    -999.2500    -999.2500       5.4146    -999.2500       2.8388
   1341.8054    -999.2500    -999.2500      50.2518    -999.2500    -999.2500    -999.2500    -999.2500       5.5405    -999.2500       2.8400
   1341.9579    -999.2500    -999.2500      50.7793    -999.2500    -999.2500    -999.2500    -999.2500       5.6940    -999.2500       2.8540
   1342.1102    -999.2500    -999.2500      51.0236    -999.2500    -999.2500    -999.2500    -999.2500       5.8831    -999.2500       2.8595
   1342.2626    -999.2500    -999.2500      50.9826    -999.2500    -999.2500    -999.2500    -999.2500       6.1082    -999.2500       2.8565
   1342.4150    -999.2500    -999.2500      50.6840    -999.2500    -999.2500    -999.2500    -999.2500       6.1933    -999.2500       2.8505
   1342.5674    -999.2500    -999.2500      50.1260    -999.2500    -999.2500    -999.2500    -999.2500       6.1378    -999.2500       2.8415
   1342.7198    -999.2500    -999.2500      49.8844    -999.2500    -999.2500    -999.2500    -999.2500       6.1180    -999.2500       2.8353
   1342.8722    -999.2500    -999.2500      49.9613    -999.2500    -999.2500    -999.2500    -999.2500       6.1340    -999.2500       2.8318
   1343.0247    -999.2500    -999.2500      50.2174    -999.2500    -999.2500    -999.2500    -999.2500       6.2540    -999.2500       2.8278
   1343.1770    -999.2500    -999.2500      50.6539    -999.2500    -999.2500    -999.2500    -999.2500       6.4785    -999.2500       2.8233
   1343.3295    -999.2500    -999.2500      50.7639    -999.2500    -999.2500    -999.2500    -999.2500       6.5740    -999.2500       2.8168
   1343.4818    -999.2500    -999.2500      50.5448    -999.2500    -999.2500    -999.2500    -999.2500       6.5400    -999.2500       2.8083
   1343.6343    -999.2500    -999.2500      49.7588    -999.2500    -999.2500    -999.2500    -999.2500       6.4263    -999.2500       2.8005
   1343.7866    -999.2500    -999.2500      48.4028    -999.2500    -999.2500    -999.2500    -999.2500       6.2323    -999.2500       2.7935
   1343.9391    -999.2500    -999.2500      47.7841    -999.2500    -999.2500    -999.2500    -999.2500       6.1367    -999.2500       2.7888
   1344.0914    -999.2500    -999.2500      47.9066    -999.2500    -999.2500    -999.2500    -999.2500       6.1402    -999.2500       2.7863
   1344.2438    -999.2500    -999.2500      48.3352    -999.2500    -999.2500    -999.2500    -999.2500       6.1609    -999.2500       2.7823
   1344.3962    -999.2500    -999.2500      49.0717    -999.2500    -999.2500    -999.2500    -999.2500       6.1989    -999.2500       2.7768
   1344.5486    -999.2500    -999.2500      49.2384    -999.2500    -999.2500    -999.2500    -999.2500       6.2746    -999.2500       2.7740
   1344.7010    -999.2500    -999.2500      48.8319    -999.2500    -999.2500    -999.2500    -999.2500       6.3881    -999.2500       2.7740
   1344.8534    -999.2500    -999.2500      48.6307    -999.2500    -999.2500    -999.2500    -999.2500       6.9846    -999.2500       2.7683
   1345.0059    -999.2500    -999.2500      48.6362    -999.2500    -999.2500    -999.2500    -999.2500       8.0670    -999.2500       2.7568
   1345.1582    -999.2500    -999.2500      48.8556    -999.2500    -999.2500    -999.2500    -999.2500       8.5811    -999.2500       2.7525
   1345.3107    -999.2500    -999.2500      49.2900    -999.2500    -999.2500    -999.2500    -999.2500       8.5231    -999.2500       2.7555
   1345.4630    -999.2500    -999.2500      49.4338    -999.2500    -999.2500    -999.2500    -999.2500       8.3049    -999.2500       2.7625
   1345.6155    -999.2500    -999.2500      49.2848    -999.2500    -999.2500    -999.2500    -999.2500       7.9254    -999.2500       2.7735
   1345.7678    -999.2500    -999.2500      48.8739    -999.2500    -999.2500    -999.2500    -999.2500       7.7906    -999.2500       2.7939
   1345.9203    -999.2500    -999.2500      48.1994    -999.2500    -999.2500    -999.2500    -999.2500       7.9021    -999.2500       2.8239
