#------------------------------------------------------------------------------
#
#   Created by  : [OpenWorks] Log Export Utility (LEXP)
#   Created on  : 2016-05-23 11:57:25
#   Project     : CANT971
#   User        : R5K
#   Interpreter : PEP
#
#------------------------------------------------------------------------------
~VERSION INFORMATION
VERS. 2.0 : CWLS Log ASCII Standard - version 2.0
WRAP.  NO : One line per depth step
~WELL INFORMATION
#MNEMONIC   .UNIT                                           VALUE :DESCRIPTION
#------------------------------------------------------------------------------
STRT        .M                                           497.5860 :START DEPTH
STOP        .M                                          2904.1343 :STOP DEPTH
STEP        .M                                             0.1524 :STEP
NULL        .                                           -999.2500 :NULL VALUE
COMP        .                                   PEMEX EXPL & PROD :COMPANY
WELL        .                                                 82A :WELL
FLD         .                                           CANTARELL :FIELD
LOC         .                                             UNKNOWN :LOCATION
CNTY        .                                      CD. DEL CARMEN :COUNTY
STAT        .                                            CAMPECHE :STATE
CTRY        .                                              MEXICO :COUNTRY
SRVC        .                                             UNKNOWN :SERVICE COMPANY
DATE        .                                             UNKNOWN :LOG DATE
UWI         .                                          3060000184 :UNIQUE WELL ID
XCOORD      .                                       601716.340000 :SURFACE X
YCOORD      .                                      2142348.150000 :SURFACE Y
LAT         .                                           19.373822 :LATITUDE
LON         .                                          -92.031440 :LONGITUDE
ELEV        .M                                            24.0000 :SURFACE ELEV
ELEV_TYPE   .                                                  KB :ELEV TYPE
~CURVE INFORMATION
#MNEMONIC.UNIT        API CODE       : CURVE DESCRIPTION
#------------------------------------------------------------------------------
DEPTH    .M                          : Measured Depth
CAL      .inches      UNKNOWN        : CAL:UNKNOWN:rC:NONE:v0 (auto-composite)
DRHO     .g/cm3       UNKNOWN        : DRHO:UNKNOWN:rC:NONE:v0 (auto-composite)
DT       .us/ft       UNKNOWN        : DT:DT:rC:NONE:v0 (auto-composite)
GR       .api         UNKNOWN        : GR:GR-Load:rC:NONE:v0 (auto-composite)
ILD      .ohm.m       UNKNOWN        : ILD:PETROWORKS:rC:NONE:v1 
LLD      .ohmm        UNKNOWN        : LLD:UNKNOWN:rC:NONE:v0 (auto-composite)
LLS      .ohmm        UNKNOWN        : LLS:UNKNOWN:rC:NONE:v0 (auto-composite)
MSFL     .ohmm        UNKNOWN        : MSFL:PETROWORKS:rC:NONE:v1 
NPHI     .v/v_decimal UNKNOWN        : NPHI:NPHI:rC:NONE:v0 (auto-composite)
PEF      .b/elec      UNKNOWN        : PEF:UNKNOWN:rC:NONE:v0 (auto-composite)
RG       .API         UNKNOWN        : RG:UNKNOWN:rC:NONE:v0 (auto-composite)
RHOB     .g/cm3       UNKNOWN        : RHOB:UNKNOWN:rC:NONE:v0 (auto-composite)
~A     DEPTH          CAL         DRHO           DT           GR          ILD          LLD          LLS         MSFL         NPHI          PEF           RG         RHOB
# ...
   2180.0820       8.8817       0.0905    -999.2500      32.5733    -999.2500     144.7456   65030.1484    1245.0443       5.1281       2.8132      41.5174       2.3425
   2180.2344       8.8923       0.0919    -999.2500      29.3633    -999.2500     139.5417   64329.9180    1412.0892       5.5525       3.0020      39.9366       2.4519
   2180.3867       8.9062       0.0929    -999.2500      26.2011    -999.2500     133.7267   63588.2266    1538.4427       5.1493       3.1984      38.4217       2.5659
   2180.5393       8.9330       0.1138    -999.2500      28.1021    -999.2500     137.8259   62505.0117    1657.5327       4.7384       3.0676      36.5693       2.6618
   2180.6917       8.9605       0.1358    -999.2500      31.3827    -999.2500     142.4904   61402.3203    1820.2179       4.2192       2.9182      34.6976       2.7568
   2180.8440       8.9894       0.0954    -999.2500      33.5337    -999.2500     112.7685   53031.6367    1984.1674       3.7556       2.9445      32.7286       2.7601
   2180.9963       9.0184       0.0514    -999.2500      35.3754    -999.2500      81.0527   44239.5195    2000.6870       4.0612       2.9810      30.7539       2.7581
   2181.1487       9.0766       0.0278    -999.2500      36.9703    -999.2500      59.3367   41359.2461    2000.6870       4.3489       3.0382      31.3297       2.7627
   2181.3013       9.1365       0.0053    -999.2500      38.4978    -999.2500      38.2102   38827.4961    2000.6870       4.3914       3.0966      32.0558       2.7677
   2181.4536       9.1838       0.0059    -999.2500      52.0609    -999.2500     405.7966   51968.9414    2000.6870       4.5037       3.0976      33.1458       2.7595
   2181.6060       9.2303       0.0079    -999.2500      68.8916    -999.2500     797.3765   66077.8203    2000.6870       5.5601       3.0951      34.2584       2.7505
   2181.7583       9.2438       0.0066    -999.2500      77.1093    -999.2500    3704.1392   67595.8359    2000.6870       6.5005       3.1740      36.1647       2.7401
   2181.9109       9.2553       0.0051    -999.2500      82.9765    -999.2500    6768.6035   68324.3984    2000.6870       5.8898       3.2580      38.1209       2.7296
   2182.0632       9.1386       0.0059    -999.2500      70.8713    -999.2500    4622.2183   68022.7266    2000.6870       5.2388       3.3001      53.4307       2.7276
   2182.2156       9.0138       0.0069    -999.2500      53.8831    -999.2500    2144.0242   67655.4531    1987.3428       4.0543       3.3395      69.5907       2.7261
   2182.3679       8.9460       0.0070    -999.2500      47.8519    -999.2500    1168.3002   65970.8359    1972.8589       2.9687       3.3190      76.3045       2.7213
   2182.5205       8.8820       0.0070    -999.2500      44.7847    -999.2500     292.4504   64198.6562    1971.4370       3.1763       3.2945      82.3904       2.7163
   2182.6729       8.7998       0.0093    -999.2500      44.0032    -999.2500     199.7283   64953.6562    1971.4370       3.3567       3.2719      67.9335       2.7357
   2182.8252       8.7163       0.0118    -999.2500      43.8431    -999.2500     159.8336   65879.1328    1984.7963       3.1857       3.2494      52.0908       2.7567
   2182.9775       8.6670       0.0097    -999.2500      42.8615    -999.2500     207.6773   64550.0508    1999.2802       2.9925       3.3280      47.0682       2.7617
   2183.1299       8.6200       0.0072    -999.2500      41.6576    -999.2500     261.5261   63066.6680    2000.6870       2.5163       3.4135      42.7860       2.7657
   2183.2825       8.6105       0.0056    -999.2500      38.8997    -999.2500     206.1865   63040.8906    2000.6870       2.0513       3.3835      41.9715       2.7669
   2183.4348       8.6035       0.0041    -999.2500      35.7231    -999.2500     143.2660   63116.3125    2000.6870       1.7277       3.3456      41.3977       2.7679
   2183.5872       8.5615       0.0049    -999.2500      35.0541    -999.2500     130.0870   63574.3750    2000.6870       1.4353       3.3122      40.0973       2.7741
   2183.7395       8.5170       0.0059    -999.2500      35.0581    -999.2500     120.5022   64060.0859    1995.9977       1.5333       3.2793      38.7443       2.7806
   2183.8921       8.5065       0.0060    -999.2500      35.0373    -999.2500     113.1651   64340.9180    1990.9221       1.7247       3.3906      37.3244       2.7805
   2184.0444       8.4986       0.0060    -999.2500      35.0098    -999.2500     105.9927   64606.7500    1990.4370       3.0726       3.5126      35.8995       2.7800
   2184.1968       8.4989       0.0134    -999.2500      33.5001    -999.2500     112.2960   65156.6875    1990.4370       4.4905       3.3521      36.3114       2.7628
   2184.3491       8.4999       0.0214    -999.2500      31.5924    -999.2500     119.5999   65727.7188    1995.1316       6.7863       3.1707      36.8596       2.7443
   2184.5017       8.5144       0.0336    -999.2500      30.0062    -999.2500     118.1729   66097.0547    2000.2072       8.9524       3.1394      35.5915       2.7467
   2184.6541       8.5299       0.0461    -999.2500      28.5058    -999.2500     116.0890   66451.2109    2000.4579       9.5081       3.1194      34.1868       2.7507
   2184.8064       8.5523       0.0336    -999.2500      27.8880    -999.2500     131.3010   66236.3828    2000.2103       9.8969       3.0939      31.2994       2.7301
   2184.9587       8.5753       0.0191    -999.2500      27.5073    -999.2500     147.8638   65977.1172    1998.8114       8.2363       3.0679      28.2962       2.7076
   2185.1111       8.5399       0.0097    -999.2500      25.7330    -999.2500     535.4686   64765.9453    1997.3259       6.6166       3.0692      26.6236       2.7028
   2185.2637       8.5000       0.0007    -999.2500      23.5857    -999.2500     952.4255   63479.4766    1998.7927       5.4932       3.0727      25.0563       2.6993
   2185.4160       8.5095      -0.0009    -999.2500      23.7228    -999.2500     840.1747   63526.7461    2000.5259       4.4649       3.0120      23.4818       2.7291
   2185.5684       8.5230      -0.0019    -999.2500      24.4685    -999.2500     685.5269   63680.8672    1695.9437       4.5804       2.9461      21.9067       2.7615
   2185.7207       8.5226      -0.0015    -999.2500      27.6920    -999.2500     448.8720   64795.7109    1367.2089       4.6894       3.1094      23.4953       2.7834
   2185.8733       8.5211      -0.0010    -999.2500      31.5789    -999.2500     205.4106   65990.2969    1003.7381       4.7204       3.2919      25.3465       2.8044
   2186.0256       8.4998      -0.0010    -999.2500      34.9876    -999.2500     138.7477   66249.3906     644.6420       4.6778       3.3954      28.7745       2.7903
   2186.1780       8.4768      -0.0010    -999.2500      38.2688    -999.2500      86.9381   66429.8906    1249.9703       3.7680       3.4924      32.3350       2.7733
   2186.3303       8.4718       0.0031    -999.2500      38.2350    -999.2500      68.7716   66084.1016    1937.8014       2.8760       3.5405      33.3514       2.7563
   2186.4829       8.4683       0.0076    -999.2500      37.3214    -999.2500      53.4657   65693.5703    2000.6870       2.1922       3.5845      34.1516       2.7393
   2186.6353       8.4754       0.0112    -999.2500      36.2497    -999.2500      53.1667   65566.0000    2000.6870       1.5508       3.7788      33.4016       2.7394
   2186.7876       8.4833       0.0147    -999.2500      35.1358    -999.2500      54.1589   65461.0664    1991.1406       1.3977       3.9861      32.5182       2.7409
   2186.9399       8.5042       0.0122    -999.2500      34.0361    -999.2500      66.0801   65157.1445    1980.8657       1.2978       4.2233      31.3193       2.7341
   2187.0923       8.5262       0.0092    -999.2500      32.9402    -999.2500      78.9735   64835.5234    1979.9370       1.8050       4.4632      30.0923       2.7266
   2187.2449       8.5518       0.0072    -999.2500      36.0135    -999.2500      98.3670   65091.9961    1979.9370       2.3791       4.7205      30.7627       2.7109
