#------------------------------------------------------------------------------
#
#   Created by  : [OpenWorks] Log Export Utility (LEXP)
#   Created on  : 2016-05-23 11:55:37
#   Project     : CANT971
#   User        : R5K
#   Interpreter : PEP
#
#------------------------------------------------------------------------------
~VERSION INFORMATION
VERS. 2.0 : CWLS Log ASCII Standard - version 2.0
WRAP.  NO : One line per depth step
~WELL INFORMATION
#MNEMONIC   .UNIT                                           VALUE :DESCRIPTION
#------------------------------------------------------------------------------
STRT        .M                                           299.0628 :START DEPTH
STOP        .M                                          2570.8896 :STOP DEPTH
STEP        .M                                             0.1524 :STEP
NULL        .                                           -999.2500 :NULL VALUE
COMP        .                                   PEMEX EXPL & PROD :COMPANY
WELL        .                                                  31 :WELL
FLD         .                                           CANTARELL :FIELD
LOC         .                                             UNKNOWN :LOCATION
CNTY        .                                      CD. DEL CARMEN :COUNTY
STAT        .                                            CAMPECHE :STATE
CTRY        .                                              MEXICO :COUNTRY
SRVC        .                                             UNKNOWN :SERVICE COMPANY
DATE        .                                             UNKNOWN :LOG DATE
UWI         .                                          3060000157 :UNIQUE WELL ID
XCOORD      .                                       599727.810000 :SURFACE X
YCOORD      .                                      2147216.930000 :SURFACE Y
LAT         .                                           19.417919 :LATITUDE
LON         .                                          -92.050118 :LONGITUDE
ELEV        .M                                            27.8000 :SURFACE ELEV
ELEV_TYPE   .                                                  KB :ELEV TYPE
~CURVE INFORMATION
#MNEMONIC.UNIT        API CODE       : CURVE DESCRIPTION
#------------------------------------------------------------------------------
DEPTH    .M                          : Measured Depth
CALI     .inches      UNKNOWN        : CALI:Import:rC:NONE:v0 (auto-composite)
DRHO     .g/cm3       UNKNOWN        : DRHO:Import:rC:NONE:v0 (auto-composite)
DT       .us/ft       UNKNOWN        : DT:Import:rC:NONE:v0 (auto-composite)
GR       .API         UNKNOWN        : GR:Import:rC:NONE:v0 (auto-composite)
ILD      .ohm.m       UNKNOWN        : ILD:Import:rC:NONE:v0 (auto-composite)
LLD      .ohm.m       UNKNOWN        : LLD:Import:rC:NONE:v0 (auto-composite)
LLS      .ohm.m       UNKNOWN        : LLS:Import:rC:NONE:v0 (auto-composite)
MSFL     .ohm.m       UNKNOWN        : MSFL:Import:rC:NONE:v0 (auto-composite)
NPHI     .v/v_decimal UNKNOWN        : NPHI:Import:rC:NONE:v0 (auto-composite)
RHOB     .g/cm3       UNKNOWN        : RHOB:Import:rC:NONE:v0 (auto-composite)
~A     DEPTH         CALI         DRHO           DT           GR          ILD          LLD          LLS         MSFL         NPHI         RHOB
# ...
   2168.0964       7.2220       0.0767    -999.2500      35.7471    -999.2500      56.2921      52.3388      20.1410       0.1335       2.7449
   2168.2488       7.2220       0.0782    -999.2500      39.6626    -999.2500      63.6317      65.7250      22.0988       0.1087       2.6999
   2168.4011       7.2220       0.0999    -999.2500      48.2527    -999.2500      75.2865     141.7808      26.6249       0.0981       2.6762
   2168.5537       7.2220       0.1445    -999.2500      62.1200    -999.2500      91.7818     288.1335      34.0506       0.1041       2.6767
   2168.7061       7.2220       0.1678    -999.2500      69.2113    -999.2500     107.3351     363.1161      47.2742       0.1075       2.6808
   2168.8584       7.2220       0.1673    -999.2500      68.7728    -999.2500     121.8416     358.7906      66.9407       0.1065       2.6888
   2169.0107       7.2220       0.1604    -999.2500      66.1014    -999.2500     133.2247     311.8754      77.1502       0.0938       2.7215
   2169.1631       7.2220       0.1463    -999.2500      60.9719    -999.2500     141.1695     218.0757      76.9490       0.0692       2.7816
   2169.3157       7.2220       0.1392    -999.2500      54.4459    -999.2500     151.6525     169.5985      75.6374       0.0563       2.8075
   2169.4680       7.2220       0.1397    -999.2500      46.3970    -999.2500     164.9035     170.5486      73.1150       0.0564       2.7960
   2169.6204       7.2220       0.1482    -999.2500      40.3353    -999.2500     186.1862     204.5569      64.0094       0.0567       2.7900
   2169.7727       7.2220       0.1652    -999.2500      36.4208    -999.2500     216.1462     274.2808      47.7914       0.0567       2.7900
   2169.9253       7.2220       0.1738    -999.2500      33.0378    -999.2500     301.0440     300.2778      39.6575       0.0565       2.7948
   2170.0776       7.2220       0.1733    -999.2500      30.2237    -999.2500     444.3662     279.7728      40.1761       0.0562       2.8048
   2170.2300       7.2220       0.1708    -999.2500      28.7876    -999.2500     517.2178     269.2732      46.2214       0.0562       2.8098
   2170.3823       7.2220       0.1663    -999.2500      28.8031    -999.2500     515.8252     269.3148      58.1269       0.0565       2.8093
   2170.5349       7.2220       0.1581    -999.2500      29.0444    -999.2500     502.9996     277.5725      59.8091       0.0580       2.8061
   2170.6873       7.2220       0.1461    -999.2500      29.5215    -999.2500     478.2412     294.4057      50.8211       0.0609       2.8001
   2170.8396       7.2220       0.1329    -999.2500      31.5857    -999.2500     466.7177     302.3947      55.8960       0.0643       2.7774
   2170.9919       7.2220       0.1184    -999.2500      35.2910    -999.2500     468.8792     301.2389      75.5120       0.0684       2.7373
   2171.1443       7.2220       0.1125    -999.2500      43.8235    -999.2500     481.6681     281.8073      81.9244       0.0743       2.7172
   2171.2969       7.2220       0.1155    -999.2500      57.3008    -999.2500     505.3433     243.6545      74.8116       0.0815       2.7177
   2171.4492       7.2220       0.1153    -999.2500      61.8132    -999.2500     548.6357     229.1266      71.5602       0.0826       2.7210
   2171.6016       7.2220       0.1118    -999.2500      57.2278    -999.2500     611.7090     238.4205      72.2275       0.0774       2.7270
   2171.7539       7.2220       0.1102    -999.2500      54.9715    -999.2500     642.9044     242.8093      85.5182       0.0747       2.7278
   2171.9065       7.2220       0.1108    -999.2500      55.0566    -999.2500     642.2557     242.2982     111.5001       0.0749       2.7232
   2172.0588       7.2220       0.1110    -999.2500      55.6530    -999.2500     637.6013     239.1693     122.9884       0.0766       2.7238
   2172.2112       7.2220       0.1110    -999.2500      56.7553    -999.2500     628.9827     233.4496     120.0411       0.0798       2.7293
   2172.3635       7.2220       0.1052    -999.2500      63.5418    -999.2500     593.9602     218.1515     100.2267       0.0873       2.7317
   2172.5161       7.2220       0.0937    -999.2500      75.9013    -999.2500     533.0509     193.4626      63.8757       0.0986       2.7312
   2172.6685       7.2220       0.0923    -999.2500      81.7124    -999.2500     503.4273     181.7576      46.0518       0.1044       2.7285
   2172.8208       7.2220       0.1008    -999.2500      81.1633    -999.2500     504.1906     182.6637      46.2230       0.1041       2.7235
   2172.9731       7.2220       0.1050    -999.2500      78.0592    -999.2500     508.9294     188.1597      52.1274       0.0973       2.7179
   2173.1255       7.2220       0.1050    -999.2500      72.4967    -999.2500     517.4932     198.0722      63.5482       0.0847       2.7119
   2173.2781       7.2220       0.1004    -999.2500      62.4006    -999.2500     533.2239     229.4958      68.8411       0.0784       2.7062
   2173.4304       7.2220       0.0914    -999.2500      47.9827    -999.2500     555.7428     281.2939      68.2925       0.0788       2.7007
   2173.5828       7.2220       0.0870    -999.2500      41.1980    -999.2500     605.5314     305.6875      62.7411       0.0869       2.6895
   2173.7351       7.2220       0.0870    -999.2500      41.6218    -999.2500     680.9081     304.3664      52.4654       0.1011       2.6730
   2173.8877       7.2220       0.0880    -999.2500      47.1868    -999.2500     710.9748     284.8354      59.9154       0.1081       2.6686
   2174.0400       7.2220       0.0900    -999.2500      57.5309    -999.2500     698.9222     248.3767      83.8429       0.1078       2.6756
   2174.1924       7.2220       0.0959    -999.2500      62.4840    -999.2500     694.1616     238.8059      95.0555       0.1073       2.6769
   2174.3447       7.2220       0.1054    -999.2500      62.4725    -999.2500     696.1165     253.9962      94.5589       0.1074       2.6729
   2174.4973       7.2220       0.1142    -999.2500      62.3120    -999.2500     722.5428     260.9302      81.9083       0.1088       2.6710
   2174.6497       7.2220       0.1222    -999.2500      62.0157    -999.2500     771.2949     260.3320      58.1696       0.1113       2.6710
   2174.8020       7.2220       0.1326    -999.2500      60.9055    -999.2500     791.9119     256.9823      50.6569       0.1124       2.6726
   2174.9543       7.2220       0.1451    -999.2500      59.0599    -999.2500     787.2634     251.1458      57.8093       0.1121       2.6756
   2175.1067       7.2220       0.1507    -999.2500      57.1082    -999.2500     764.9929     242.2122      61.0763       0.1103       2.6868
   2175.2593       7.2220       0.1502    -999.2500      55.0617    -999.2500     727.0455     230.5236      60.8645       0.1067       2.7053
   2175.4116       7.2220       0.1381    -999.2500      53.3651    -999.2500     688.4964     211.9973      59.1648       0.0945       2.7347
   2175.5640       7.2220       0.1155    -999.2500      51.9770    -999.2500     649.4172     187.4450      56.1454       0.0755       2.7737
   2175.7163       7.2220       0.1053    -999.2500      48.3212    -999.2500     609.0915     181.2141      43.7815       0.0662       2.7912
   2175.8689       7.2220       0.1058    -999.2500      42.6856    -999.2500     567.6776     190.9786      23.2595       0.0662       2.7897
   2176.0212       7.2220       0.1084    -999.2500      40.4585    -999.2500     518.0598     195.2861      13.7793       0.0688       2.7823
   2176.1736       7.2220       0.1129    -999.2500      41.1794    -999.2500     461.3470     194.8741      13.8489       0.0735       2.7698
   2176.3259       7.2220       0.1150    -999.2500      45.1578    -999.2500     376.4021     176.7352      14.3528       0.0827       2.7484
   2176.4785       7.2220       0.1150    -999.2500      51.9272    -999.2500     267.2690     143.4085      15.2288       0.0956       2.7193
