#------------------------------------------------------------------------------
#
#   Created by  : [OpenWorks] Log Export Utility (LEXP)
#   Created on  : 2016-05-23 11:56:14
#   Project     : CANT971
#   User        : R5K
#   Interpreter : PEP
#
#------------------------------------------------------------------------------
~VERSION INFORMATION
VERS. 2.0 : CWLS Log ASCII Standard - version 2.0
WRAP.  NO : One line per depth step
~WELL INFORMATION
#MNEMONIC   .UNIT                                           VALUE :DESCRIPTION
#------------------------------------------------------------------------------
STRT        .M                                          1862.0000 :START DEPTH
STOP        .M                                          3052.8535 :STOP DEPTH
STEP        .M                                             0.1524 :STEP
NULL        .                                           -999.2500 :NULL VALUE
COMP        .                                   PEMEX EXPL & PROD :COMPANY
WELL        .                                                446D :WELL
FLD         .                                           CANTARELL :FIELD
LOC         .                                             UNKNOWN :LOCATION
CNTY        .                                      CD. DEL CARMEN :COUNTY
STAT        .                                            CAMPECHE :STATE
CTRY        .                                              MEXICO :COUNTRY
SRVC        .                                             UNKNOWN :SERVICE COMPANY
DATE        .                                             UNKNOWN :LOG DATE
UWI         .                                            W-C-446D :UNIQUE WELL ID
XCOORD      .                                       598705.170000 :SURFACE X
YCOORD      .                                      2143305.170000 :SURFACE Y
LAT         .                                           19.382621 :LATITUDE
LON         .                                          -92.060061 :LONGITUDE
ELEV        .M                                            28.0000 :SURFACE ELEV
ELEV_TYPE   .                                                  KB :ELEV TYPE
~CURVE INFORMATION
#MNEMONIC.UNIT        API CODE       : CURVE DESCRIPTION
#------------------------------------------------------------------------------
DEPTH    .M                          : Measured Depth
CALI     .inches      UNKNOWN        : CALI:litodensidad:rC:NONE:v0 (auto-composite)
CGR      .API         UNKNOWN        : CGR:CGR-Load:rC:NONE:v0 (auto-composite)
DRHO     .g/cm3       UNKNOWN        : DRHO:litodensidad:rC:NONE:v0 (auto-composite)
DT       .us/ft       UNKNOWN        : DT:DT-Load:rC:NONE:v0 (auto-composite)
GR       .UNKNOWN     UNKNOWN        : GR:PETROWORKS:rC:NONE:v1 
LLD      .ohm.m       UNKNOWN        : LLD:PETROWORKS:rC:NONE:v1 
LLS      .UNKNOWN     UNKNOWN        : LLS:PETROWORKS:rC:NONE:v1 
MSFL     .UNKNOWN     UNKNOWN        : MSFL:PETROWORKS:rC:NONE:v1 
NPHI     .v/v_decimal UNKNOWN        : NPHI:PETROWORKS:rC:NONE:v2 
PEF      .UNKNOWN     UNKNOWN        : PEF:litodensidad:rC:NONE:v0 (auto-composite)
POTA     .UNKNOWN     UNKNOWN        : POTA:radioactividad:rC:NONE:v0 (auto-composite)
RHOB     .g/cm3       UNKNOWN        : RHOB:litodensidad:rC:NONE:v0 (auto-composite)
THOR     .ppm         UNKNOWN        : THOR:radioactividad:rC:NONE:v0 (auto-composite)
URAN     .ppm         UNKNOWN        : URAN:radioactividad:rC:NONE:v0 (auto-composite)
~A     DEPTH         CALI          CGR         DRHO           DT           GR          LLD          LLS         MSFL         NPHI          PEF         POTA         RHOB         THOR         URAN
# ...
   2591.6912       6.6713      13.9401      -0.8116      53.7500      38.3167    2000.0000    1225.5356    1960.4441       0.1397     127.2107       0.0046       2.2132       0.9762       1.0682
   2591.8435       6.6652      14.3079      -0.8261      53.7500      38.8823    1993.8666    1243.3325    1863.2603       0.1472     152.6661       0.0049       2.1507       0.9627       1.0841
   2591.9961       6.6641      17.5825      -0.8320      53.7500      38.0833    1925.9393     952.2331    1539.7776       0.1472     168.5089       0.0059       2.1290       1.1967       1.4380
   2592.1484       6.6560      11.9135      -0.8123      53.7500      36.4217    1824.9719     967.8286    1278.6240       0.1445     134.0818       0.0033       2.1548       1.1053       1.5046
   2592.3008       6.6599      10.2457      -0.8107      53.5380      35.0167    1918.4624    1404.9675    1775.5325       0.1389      70.0418       0.0024       2.2047       1.1231       1.5256
   2592.4531       6.6636      15.3337      -0.8120      53.5424      34.2150    1994.1580    1420.4857    1986.4680       0.1401      67.1542       0.0037       2.2705       1.6721       1.6768
   2592.6057       6.6641      12.9298      -0.8200      53.4227      33.6704    1996.6902    1247.5942    1986.2643       0.1389      80.0254       0.0026       2.3287       1.6020       1.4541
   2592.7581       6.6641      11.9133      -0.8340      52.8906      33.5008    1974.6465    1136.7908    1764.9459       0.1377     128.2976       0.0026       2.3269       1.4000       1.3160
   2592.9104       6.6641      11.7728      -0.8473      53.1392      33.4215    1979.8683     907.9825    1367.7791       0.1402     104.5404       0.0031       2.2748       1.1622       1.1458
   2593.0627       6.6641      12.8304      -0.8435      53.0728      33.7689    1992.6161    1350.0753    1671.9059       0.1473      80.7212       0.0034       2.2265       1.2626       1.1127
   2593.2151       6.6611      13.0418      -0.8303      53.5167      35.5311    1943.2444    1394.1846    1750.7188       0.1546     101.0514       0.0034       2.2076       1.3099       0.7867
   2593.3677       6.6608      14.2604      -0.8189      53.4302      26.1605    1871.7068     914.2581    1254.1517       0.1567      70.8515       0.0037       2.2124       1.4439       0.6533
   2593.5200       6.6663      16.4866      -0.8064      53.7391      22.8459    1901.2094    1033.6753    1286.5367       0.1588     624.4446       0.0040       2.2716       1.7735       0.6362
   2593.6724       6.6727      17.8477      -0.7996      53.4608      24.6392    1715.3462     874.5667    1004.7067       0.1594     359.5206       0.0043       2.3464       1.8968       0.6740
   2593.8247       6.6656      19.0098      -0.8077      53.4000      26.1296    1293.1720     398.0206     422.0730       0.1545    -999.2500       0.0044       2.3897       2.0982       0.7177
   2593.9773       6.6614      19.6701      -0.8240      53.5273      26.7057     874.1132     219.5997     172.3696       0.1472    -999.2500       0.0046       2.3897       2.1727       0.6981
   2594.1296       6.6574      19.9523      -0.8172      53.0414      26.1275    1138.1041     562.0642     439.0776       0.1363      83.5945       0.0047       2.4240       2.1745       0.6293
   2594.2820       6.6549      19.1423      -0.8130      53.1196      24.2140    1793.2437    1510.4161    1391.9540       0.1264      52.1346       0.0047       2.4500       2.0079       0.5033
   2594.4343       6.6654      19.2725      -0.8283      53.3196      23.8523    1991.3969    1862.3339    1777.4093       0.1292     179.1021       0.0053       2.4098       1.8092       0.4114
   2594.5869       6.6676      22.3591      -0.8720      53.3924      26.7531    2000.0000    1695.1261    1738.8351       0.1614      89.9248       0.0063       2.2878       2.0042       0.4363
   2594.7393       6.6619      23.1092      -0.8969      53.5698      26.7397    2000.0000    1793.8425    1910.7585       0.2067    -999.2500       0.0068       2.2138       2.0091       0.3480
   2594.8916       6.6698      23.5162      -0.9082      53.5152      26.8056    2000.0000    1838.1448    1997.8484       0.2187    -999.2500       0.0068       2.2121       2.0517       0.3264
   2595.0439       6.6625      21.7043      -0.8828      53.5000      24.8806    1993.6174    1464.6913    1992.8998       0.1923    -999.2500       0.0063       2.2999       1.8844       0.3233
   2595.1963       6.6606      18.8750      -0.8534      53.2455      21.9777    1884.2285     845.1565    1865.1954       0.1479    -999.2500       0.0054       2.3750       1.6895       0.3080
   2595.3489       6.6555      19.2224      -0.8307      53.7518      23.4877    1394.4297     518.7111    1236.2347       0.1271    -999.2500       0.0055       2.4080       1.7312       0.5058
   2595.5012       6.6565      11.6551      -0.8252      53.7228      19.8148    1242.2100     430.3275     914.6775       0.1242    -999.2500       0.0037       2.4051       0.8747       0.8050
   2595.6536       6.6630      10.6443      -0.8082      53.7848      20.6180    1581.7064     460.4252     844.4339       0.1325    -999.2500       0.0031       2.4217       0.9274       1.0121
   2595.8059       6.6641       9.9985      -0.8022      53.6303      20.9721    1827.1709     412.9390     705.4714       0.1394      70.4434       0.0028       2.4275       0.8865       1.0771
   2595.9585       6.6668      11.7804      -0.8048      53.8546      24.1702    1987.6891     494.7633     998.5803       0.1458      83.5982       0.0034       2.4226       1.0502       1.2221
   2596.1108       6.6646      13.1018      -0.7987      53.9000      28.6018    1965.3867     418.0967     627.6702       0.1532      52.6255       0.0046       2.3891       0.8080       1.5660
   2596.2632       6.6587      12.5004      -0.7953      53.7304      28.8487    1724.4943     422.0695     578.3224       0.1613      64.5063       0.0045       2.3340       0.7260       1.6112
   2596.4155       6.6604      12.7518      -0.8006      53.9545      29.5511    1711.2903     845.9531    1071.2798       0.1640      58.4174       0.0048       2.2435       0.6933       1.6464
   2596.5681       6.6574      14.3075      -0.7892      53.8303      32.6462    1948.0112     975.8889    1320.2524       0.1579      64.9370       0.0047       2.2040       1.0288       1.8583
   2596.7205       6.6576      12.0250      -0.7858      53.8849      29.3166    2000.0000     721.5692    1573.9290       0.1497      64.1140       0.0039       2.1557       0.9177       1.6618
   2596.8728       6.6686      12.7602      -0.8027      53.9000      29.0942    -999.2500    -999.2500    -999.2500       0.1691      58.0078       0.0040       2.0829       0.9926       1.6222
   2597.0251       6.6620      13.3415      -0.8135      53.4335      29.9423    -999.2500    -999.2500    -999.2500       0.1913      63.9378       0.0039       2.0242       1.1311       1.6436
   2597.1775       6.6690      14.3298      -0.8047      53.5197      30.9659    -999.2500    -999.2500    -999.2500       0.2008      67.6406       0.0042       2.0474       1.2309       1.6503
   2597.3301       6.6651      14.5230      -0.7869      53.5500      30.0848    -999.2500    -999.2500    -999.2500       0.1758      90.8788       0.0043       2.1235       1.2199       1.5466
   2597.4824       6.6579      14.2728      -0.7687      53.2533      28.6791    -999.2500    -999.2500    -999.2500       0.1532     128.4091       0.0044       2.1942       1.1356       1.4296
   2597.6348       6.6549      13.6242      -0.7637      53.2848      27.4741    -999.2500    -999.2500    -999.2500       0.1486      75.7895       0.0042       2.2188       1.0677       1.3540
   2597.7871       6.6599      13.5934      -0.7685      53.1303      27.6828    -999.2500    -999.2500    -999.2500       0.1563      57.4772       0.0040       2.2457       1.1411       1.3981
   2597.9397       6.6544      12.9694      -0.7686      53.1849      27.0960    -999.2500    -999.2500    -999.2500       0.1629      59.9129       0.0039       2.2994       1.0738       1.4193
