#------------------------------------------------------------------------------
#
#   Created by  : [OpenWorks] Log Export Utility (LEXP)
#   Created on  : 2016-05-23 11:56:05
#   Project     : CANT971
#   User        : R5K
#   Interpreter : PEP
#
#------------------------------------------------------------------------------
~VERSION INFORMATION
VERS. 2.0 : CWLS Log ASCII Standard - version 2.0
WRAP.  NO : One line per depth step
~WELL INFORMATION
#MNEMONIC   .UNIT                                           VALUE :DESCRIPTION
#------------------------------------------------------------------------------
STRT        .M                                          1100.3549 :START DEPTH
STOP        .M                                          2766.5439 :STOP DEPTH
STEP        .M                                             0.1524 :STEP
NULL        .                                           -999.2500 :NULL VALUE
COMP        .                                   PEMEX EXPL & PROD :COMPANY
WELL        .                                                  43 :WELL
FLD         .                                           CANTARELL :FIELD
LOC         .                                             UNKNOWN :LOCATION
CNTY        .                                      CD. DEL CARMEN :COUNTY
STAT        .                                            CAMPECHE :STATE
CTRY        .                                              MEXICO :COUNTRY
SRVC        .                                             UNKNOWN :SERVICE COMPANY
DATE        .                                             UNKNOWN :LOG DATE
UWI         .                                          3060000465 :UNIQUE WELL ID
XCOORD      .                                       601717.960000 :SURFACE X
YCOORD      .                                      2142346.560000 :SURFACE Y
LAT         .                                           19.373808 :LATITUDE
LON         .                                          -92.031425 :LONGITUDE
ELEV        .M                                            24.0000 :SURFACE ELEV
ELEV_TYPE   .                                                  KB :ELEV TYPE
~CURVE INFORMATION
#MNEMONIC.UNIT        API CODE       : CURVE DESCRIPTION
#------------------------------------------------------------------------------
DEPTH    .M                          : Measured Depth
CAL      .inches      UNKNOWN        : CAL:UNKNOWN:rC:NONE:v0 (auto-composite)
CALI     .in          UNKNOWN        : CALI:UNKNOWN:rC:NONE:v0 (auto-composite)
CNL      .v/v_decimal UNKNOWN        : CNL:UNKNOWN:rC:NONE:v0 (auto-composite)
DT       .us/ft       UNKNOWN        : DT:DT:rC:NONE:v0 (auto-composite)
GR       .API         UNKNOWN        : GR:UNKNOWN:rC:NONE:v0 (auto-composite)
ILD      .ohmm        UNKNOWN        : ILD:UNKNOWN:rC:NONE:v0 (auto-composite)
ILM      .ohmm        UNKNOWN        : ILM:UNKNOWN:rC:NONE:v0 (auto-composite)
LLD      .ohmm        UNKNOWN        : LLD:UNKNOWN:rC:NONE:v0 (auto-composite)
LLS      .ohmm        UNKNOWN        : LLS:UNKNOWN:rC:NONE:v0 (auto-composite)
NPHI     .v/v_decimal UNKNOWN        : NPHI:UNKNOWN:rC:NONE:v0 (auto-composite)
PEF      .b/elec      UNKNOWN        : PEF:UNKNOWN:rC:NONE:v0 (auto-composite)
RHOB     .g/cm3       UNKNOWN        : RHOB:UNKNOWN:rC:NONE:v0 (auto-composite)
~A     DEPTH          CAL         CALI          CNL           DT           GR          ILD          ILM          LLD          LLS         NPHI          PEF         RHOB
# ...
   2058.6460       9.9106       9.9907       5.7025      58.9159      36.0095    -999.2500    -999.2500    1077.4371     293.9785       2.8182       3.4788       2.7601
   2058.7983       9.9992       9.9613       5.5105      54.3363      40.9050    -999.2500    -999.2500     875.8076     254.1841       3.1952       3.3989       2.7776
   2058.9509       9.9968       9.9239       3.4238      50.4206      48.6301    -999.2500    -999.2500     683.6627     215.2643       3.7637       3.3330       2.7896
   2059.1033       9.9497       9.8494       3.3429      50.4596      69.6250    -999.2500    -999.2500     535.9955     180.4464       5.2301       3.3330       2.7761
   2059.2556       9.8818       9.7981       4.2808      51.4967      86.1092    -999.2500    -999.2500     435.3734     155.9608       6.9026       3.3333       2.7579
   2059.4080       9.8233       9.8557       6.8868      58.4442      81.3134    -999.2500    -999.2500     556.6917     180.2196       9.5474       3.3348       2.7173
   2059.5605       9.8407       9.9212       9.2464      64.3742      75.5667    -999.2500    -999.2500     732.8660     213.3613      11.7070       3.3419       2.6855
   2059.7129       9.9736      10.0222      11.2313      64.3137      65.5011    -999.2500    -999.2500    1158.1927     286.8491      11.6625       3.3743       2.6940
   2059.8652      10.0516      10.0757      11.6375      63.7408      55.1897    -999.2500    -999.2500    1688.2632     368.5364      11.1607       3.4060       2.7072
   2060.0176      10.0967       9.9124      10.9857      60.1294      43.7558    -999.2500    -999.2500    2696.8647     487.6840       8.5699       3.4340       2.7416
   2060.1702      10.0247       9.7787       6.1419      56.2092      33.2803    -999.2500    -999.2500    3780.4075     585.3152       5.9566       3.4736       2.7745
   2060.3225       9.9264       9.7827       3.1190      50.4687      27.2574    -999.2500    -999.2500    5212.1348     582.9787       3.2388       3.5676       2.8000
   2060.4749       9.7990       9.7967       2.1052      45.5560      22.3521    -999.2500    -999.2500    6318.6597     574.2512       1.0000       3.6299       2.8202
   2060.6272       9.7856       9.8577       1.4605      45.5560      22.6705    -999.2500    -999.2500    5905.2534     535.6534       1.0000       3.5445       2.8157
   2060.7795       9.8185       9.9251       1.0000      45.5567      23.1564    -999.2500    -999.2500    5401.2930     494.8478       1.0000       3.4549       2.8125
   2060.9321       9.9496      10.0229       1.0000      45.5617      24.4305    -999.2500    -999.2500    4471.5693     443.6624       1.0000       3.3461       2.8155
   2061.0845      10.0401      10.0853       1.0000      45.6088      25.3704    -999.2500    -999.2500    3816.2776     396.6461       1.0000       3.2262       2.8222
   2061.2368      10.0980       9.9874       1.0000      45.9059      24.7976    -999.2500    -999.2500    4403.3442     368.5027       1.0000       3.0559       2.8451
   2061.3892      10.0406       9.9173       1.0000      46.1968      24.2338    -999.2500    -999.2500    4750.1885     356.9678       1.0012       2.9316       2.8624
   2061.5417       9.9770       9.9747       1.0000      46.4512      23.7115    -999.2500    -999.2500    3991.1941     421.8878       1.0082       3.0191       2.8534
   2061.6941       9.9258      10.0389       1.0000      46.6781      23.2248    -999.2500    -999.2500    3391.9915     473.8586       1.0311       3.1145       2.8431
   2061.8464       9.9896      10.1338       1.0100      46.7411      22.9030    -999.2500    -999.2500    3532.7251     465.8666       1.1276       3.2470       2.8266
   2061.9988      10.1210      10.2067       1.0260      46.8850      22.5444    -999.2500    -999.2500    3621.0378     454.1414       1.2525       3.3728       2.8104
   2062.1514      10.1761      10.1767       1.2299      47.5067      22.0145    -999.2500    -999.2500    3465.1660     425.0268       1.5096       3.4677       2.7954
   2062.3037      10.1882      10.1387       1.5057      48.1525      21.5311    -999.2500    -999.2500    3246.7451     396.1203       1.7725       3.5361       2.7800
   2062.4561      10.1205      10.0625       1.9111      48.9412      21.2679    -999.2500    -999.2500    2731.9536     368.1999       2.0623       3.4795       2.7630
   2062.6084      10.0572      10.0005       2.1460      49.8758      20.9389    -999.2500    -999.2500    2384.1936     353.6031       2.2985       3.4347       2.7500
   2062.7607      10.0000      10.0035       2.3000      51.6730      20.3102    -999.2500    -999.2500    2798.3120     399.7792       2.2900       3.4442       2.7555
   2062.9133      10.0000      10.0143       2.3000      53.2111      19.6679    -999.2500    -999.2500    3352.6606     449.2876       2.2649       3.4631       2.7618
   2063.0657      10.0032      10.0608       2.2916      53.2051      18.9632    -999.2500    -999.2500    4550.4023     514.0856       2.1640       3.5251       2.7718
   2063.2180      10.0105      10.0902       2.2721      52.9782      18.6480    -999.2500    -999.2500    5513.7778     576.3516       2.0368       3.5841       2.7811
   2063.3704      10.0539      10.0408       2.1022      51.4426      20.1301    -999.2500    -999.2500    5395.4976     626.9312       1.7886       3.6295       2.7871
   2063.5229      10.0899      10.0000       1.8669      50.1314      21.8932    -999.2500    -999.2500    5170.9814     662.4089       1.5574       3.6676       2.7907
   2063.6753      10.0296      10.0000       1.4866      50.1409      24.9749    -999.2500    -999.2500    4447.7827     626.9973       1.4060       3.6711       2.7832
   2063.8276      10.0000      10.0013       1.2891      50.2436      27.3461    -999.2500    -999.2500    3951.0779     588.0338       1.2564       3.6786       2.7771
   2063.9800      10.0000      10.0088       1.2678      50.8988      26.3624    -999.2500    -999.2500    4523.9287     532.2983       1.1155       3.7046       2.7776
   2064.1326      10.0143      10.0398       1.1246      53.2603      25.5630    -999.2500    -999.2500    4881.2114     471.3261       1.0000       3.7301       2.7848
   2064.2849      10.0561      10.1772       1.0000      65.6785      25.6020    -999.2500    -999.2500    4258.4609     386.5462       1.0000       3.7531       2.8228
   2064.4373      10.1835      10.2640       1.0000      75.6218      25.6948    -999.2500    -999.2500    3643.1191     317.2010       1.0000       3.7725       2.8535
   2064.5896      10.2554      10.1192       1.0000      70.8765      26.0333    -999.2500    -999.2500    3061.6580     318.4385       1.0000       3.7755       2.8505
   2064.7419      10.2883      10.0000       1.0000      67.0127      26.3881    -999.2500    -999.2500    2586.9661     321.4209       1.0000       3.7787       2.8469
   2064.8945      10.1224      10.0000       1.0000      68.3491      26.8179    -999.2500    -999.2500    2608.8167     332.5181       1.0000       3.7827       2.8409
   2065.0469      10.0000      10.0015       1.0000      69.4911      26.9549    -999.2500    -999.2500    2676.8242     346.9199       1.0000       3.7951       2.8348
   2065.1992      10.0000      10.0100       1.0000      69.4781      25.7220    -999.2500    -999.2500    2960.7698     376.7817       1.0000       3.8467       2.8277
   2065.3516      10.0126      10.0326       1.0000      69.3489      24.1282    -999.2500    -999.2500    3156.2932     399.6023       1.0000       3.8826       2.8187
   2065.5042      10.0341      10.1186       1.0000      68.5332      20.9085    -999.2500    -999.2500    2953.4734     390.7021       1.0000       3.8477       2.8007
   2065.6565      10.1505      10.1719       1.0000      67.2225      18.4297    -999.2500    -999.2500    2733.4133     381.6389       1.0000       3.8091       2.7873
   2065.8088      10.2142      10.0776       1.0000      62.9674      19.3076    -999.2500    -999.2500    2435.2312     371.8364       1.0000       3.7541       2.7943
