#------------------------------------------------------------------------------
#
#   Created by  : [OpenWorks] Log Export Utility (LEXP)
#   Created on  : 2015-10-01 09:49:56
#   Project     : CANT971
#   User        : R5K
#   Interpreter : PEP
#
#------------------------------------------------------------------------------
~VERSION INFORMATION
VERS. 2.0 : CWLS Log ASCII Standard - version 2.0
WRAP.  NO : One line per depth step
~WELL INFORMATION
#MNEMONIC   .UNIT                                           VALUE :DESCRIPTION
#------------------------------------------------------------------------------
STRT        .M                                           799.8710 :START DEPTH
STOP        .M                                          1367.5610 :STOP DEPTH
STEP        .M                                             0.1524 :STEP
NULL        .                                           -999.2500 :NULL VALUE
COMP        .                                   PEMEX EXPL & PROD :COMPANY
WELL        .                                        CANTARELL-1A :WELL
FLD         .                                           CANTARELL :FIELD
LOC         .                                             UNKNOWN :LOCATION
CNTY        .                                      CD. DEL CARMEN :COUNTY
STAT        .                                            CAMPECHE :STATE
CTRY        .                                              MEXICO :COUNTRY
SRVC        .                                             UNKNOWN :SERVICE COMPANY
DATE        .                                             UNKNOWN :LOG DATE
UWI         .                                          3060000138 :UNIQUE WELL ID
XCOORD      .                                       600823.080000 :SURFACE X
YCOORD      .                                      2145118.550000 :SURFACE Y
LAT         .                                           19.398902 :LATITUDE
LON         .                                          -92.039798 :LONGITUDE
ELEV        .M                                            27.7000 :SURFACE ELEV
ELEV_TYPE   .                                                  KB :ELEV TYPE
~CURVE INFORMATION
#MNEMONIC.UNIT        API CODE       : CURVE DESCRIPTION
#------------------------------------------------------------------------------
DEPTH    .M                          : Measured Depth
CALI     .inches      UNKNOWN        : CALI:UNKNOWN:rC:NONE:v0 (auto-composite)
DRHO     .g/cm3       UNKNOWN        : DRHO:UNKNOWN:rC:NONE:v0 (auto-composite)
DT       .us/ft       UNKNOWN        : DT:DT:rC:NONE:v0 (auto-composite)
ILD      .ohm.m       UNKNOWN        : ILD:UNKNOWN:rC:NONE:v0 (auto-composite)
LLD      .ohm.m       UNKNOWN        : LLD:UNKNOWN:rC:NONE:v0 (auto-composite)
LLS      .ohm.m       UNKNOWN        : LLS:UNKNOWN:rC:NONE:v0 (auto-composite)
MSFL     .ohm.m       UNKNOWN        : MSFL:UNKNOWN:rC:NONE:v0 (auto-composite)
NPHI     .v/v_decimal UNKNOWN        : NPHI:NPHI:rC:NONE:v0 (auto-composite)
GR       .API         UNKNOWN        : RG:UNKNOWN:rC:NONE:v0 (auto-composite)
RHOB     .g/cm3       UNKNOWN        : RHOB:UNKNOWN:rC:NONE:v0 (auto-composite)
~A     DEPTH         CALI         DRHO           DT          ILD          LLD          LLS         MSFL         NPHI           GR         RHOB
# ...
   1107.1094      16.2811       0.0137    -999.2500       0.8383       0.2000       0.2000       0.2000      38.1196      27.3550       2.3033
   1107.2618      16.3994       0.0197    -999.2500       0.8227       0.2000       0.2000       0.2000      38.2211      26.3668       2.3173
   1107.4142      16.3768       0.0210    -999.2500       0.8196       0.2000       0.2000       0.2000      38.2578      26.6013       2.3194
   1107.5667      16.3472       0.0220    -999.2500       0.8171       0.2000       0.2000       0.2000      38.2293      26.8967       2.3209
   1107.7190      16.3273       0.0292    -999.2500       0.8218       0.2000       0.2000       0.2000      38.3693      27.5694       2.3181
   1107.8715      16.3077       0.0367    -999.2500       0.8268       0.2000       0.2000       0.2000      38.6788      28.2585       2.3151
   1108.0238      16.2027       0.0240    -999.2500       0.8400       0.2000       0.2000       0.2000      38.6961      27.6177       2.3169
   1108.1763      16.0944       0.0104    -999.2500       0.8536       0.2000       0.2000       0.2000      38.4195      26.9258       2.3189
   1108.3286      16.1740       0.0095    -999.2500       0.8749       0.2000       0.2000       0.2000      38.5745      26.2334       2.3345
   1108.4811      16.2598       0.0090    -999.2500       0.8964       0.2000       0.2000       0.2000      39.1625      25.5410       2.3506
   1108.6334      16.1917       0.0207    -999.2500       0.9243       0.2000       0.2000       0.2000      39.3627      25.6182       2.3735
   1108.7859      16.1195       0.0327    -999.2500       0.9524       0.2000       0.2000       0.2000      39.1737      25.7159       2.3965
   1108.9382      16.0856       0.0320    -999.2500       0.9770       0.2000       0.2000       0.2000      38.3657      26.4895       2.3906
   1109.0906      16.0525       0.0310    -999.2500       1.0016       0.2000       0.2000       0.2000      36.9362      27.2777       2.3841
   1109.2430      16.0525       0.0364    -999.2500       1.0203       0.2000       0.2000       0.2000      36.2210      26.6092       2.3855
   1109.3954      16.0530       0.0420    -999.2500       1.0390       0.2000       0.2000       0.2000      36.2230      25.9100       2.3870
   1109.5479      16.0138       0.0405    -999.2500       1.0301       0.2000       0.2000       0.2000      36.2941      25.4205       2.3865
   1109.7002      15.9740       0.0390    -999.2500       1.0210       0.2000       0.2000       0.2000      36.4346      24.9230       2.3860
   1109.8527      15.9052       0.0465    -999.2500       1.0110       0.2000       0.2000       0.2000      36.6990      24.9220       2.3885
   1110.0050      15.8360       0.0540    -999.2500       1.0010       0.2000       0.2000       0.2000      37.0880      24.9210       2.3910
   1110.1575      15.7768       0.0510    -999.2500       1.0010       0.2000       0.2000       0.2000      37.6234      25.3145       2.3895
   1110.3098      15.7180       0.0480    -999.2500       1.0010       0.2000       0.2000       0.2000      38.3059      25.7060       2.3880
   1110.4623      15.6686       0.0425    -999.2500       1.0196       0.2000       0.2000       0.2000      39.1639      26.8946       2.3789
   1110.6146      15.6200       0.0370    -999.2500       1.0380       0.2000       0.2000       0.2000      40.1984      28.0650       2.3700
   1110.7671      15.6702       0.0304    -999.2500       1.0481       0.2000       0.2000       0.2000      41.4575      27.5655       2.3751
   1110.9194      15.7193       0.0239    -999.2500       1.0581       0.2000       0.2000       0.2000      42.9424      27.0837       2.3800
   1111.0718      15.7389       0.0169    -999.2500       1.0636       0.2000       0.2000       0.2000      43.6364      27.3784       2.3790
   1111.2242      15.7566       0.0101    -999.2500       1.0690       0.2000       0.2000       0.2000      43.5349      27.6690       2.3780
   1111.3766      15.6879       0.0151    -999.2500       1.0690       0.2000       0.2000       0.2000      42.5939      27.7663       2.3785
   1111.5291      15.6207       0.0203    -999.2500       1.0689       0.2000       0.2000       0.2000      40.8085      27.8688       2.3791
   1111.6814      15.6107       0.0329    -999.2500       1.0659       0.2000       0.2000       0.2000      40.0979      28.1636       2.3811
   1111.8339      15.6010       0.0449    -999.2500       1.0628       0.2000       0.2000       0.2000      40.4689      28.4238       2.3826
   1111.9862      15.6015       0.0403    -999.2500       1.0573       0.2000       0.2000       0.2000      40.6256      27.6335       2.3711
   1112.1387      15.6038       0.0357    -999.2500       1.0517       0.2000       0.2000       0.2000      40.5666      26.8322       2.3595
   1112.2910      15.6529       0.0261    -999.2500       1.0432       0.2000       0.2000       0.2000      40.2687      25.7447       2.3454
   1112.4435      15.6988       0.0167    -999.2500       1.0358       0.2000       0.2000       0.2000      39.7312      24.7196       2.3322
   1112.5958      15.6692       0.0102    -999.2500       1.0548       0.2000       0.2000       0.2000      40.2792      25.1130       2.3367
   1112.7483      15.6410       0.0042    -999.2500       1.0730       0.2000       0.2000       0.2000      41.9166      25.4880       2.3403
   1112.9006      15.6415       0.0087    -999.2500       1.0730       0.2000       0.2000       0.2000      42.5768      25.4869       2.3263
   1113.0530      15.6425       0.0129    -999.2500       1.0719       0.2000       0.2000       0.2000      42.2558      25.4394       2.3138
   1113.2054      15.6526       0.0109    -999.2500       1.0508       0.2000       0.2000       0.2000      41.5756      24.5499       2.3288
   1113.3578      15.6631       0.0091    -999.2500       1.0305       0.2000       0.2000       0.2000      40.5347      23.7576       2.3432
   1113.5103      15.6827       0.0111    -999.2500       1.0225       0.2000       0.2000       0.2000      40.0469      24.5450       2.3467
   1113.6626      15.7041       0.0132    -999.2500       1.0138       0.2000       0.2000       0.2000      40.1149      25.3263       2.3499
   1113.8151      15.7538       0.0167    -999.2500       0.9953       0.2000       0.2000       0.2000      40.5770      26.0162       2.3484
   1113.9674      15.7946       0.0202    -999.2500       0.9772       0.2000       0.2000       0.2000      41.4349      26.6656       2.3469
   1114.1199      15.7159       0.0237    -999.2500       0.9662       0.2000       0.2000       0.2000      41.4029      26.7629       2.3449
   1114.2722      15.6517       0.0273    -999.2500       0.9567       0.2000       0.2000       0.2000      40.4765      26.8165       2.3431
   1114.4247      15.7700       0.0313    -999.2500       0.9657       0.2000       0.2000       0.2000      40.0676      26.3218       2.3452
   1114.5770      15.8798       0.0350    -999.2500       0.9761       0.2000       0.2000       0.2000      40.1791      25.8582       2.3476
   1114.7295      15.8898       0.0350    -999.2500       1.0032       0.2000       0.2000       0.2000      40.4873      25.7584       2.3551
   1114.8818      15.8974       0.0349    -999.2500       1.0305       0.2000       0.2000       0.2000      40.9933      25.7332       2.3628
   1115.0342      15.8778       0.0339    -999.2500       1.0601       0.2000       0.2000       0.2000      41.9380      26.5211       2.3729
   1115.1866      15.8618       0.0328    -999.2500       1.0866       0.2000       0.2000       0.2000      43.3239      27.3792       2.3818
   1115.3390      15.8818       0.0308    -999.2500       1.0815       0.2000       0.2000       0.2000      43.3767      28.9576       2.3798
   1115.4915      15.9037       0.0286    -999.2500       1.0736       0.2000       0.2000       0.2000      42.0882      30.4707       2.3766
