#------------------------------------------------------------------------------
#
#   Created by  : [OpenWorks] Log Export Utility (LEXP)
#   Created on  : 2016-05-23 11:50:23
#   Project     : CANT971
#   User        : R5K
#   Interpreter : PEP
#
#------------------------------------------------------------------------------
~VERSION INFORMATION
VERS. 2.0 : CWLS Log ASCII Standard - version 2.0
WRAP.  NO : One line per depth step
~WELL INFORMATION
#MNEMONIC   .UNIT                                           VALUE :DESCRIPTION
#------------------------------------------------------------------------------
STRT        .M                                           790.6004 :START DEPTH
STOP        .M                                          2649.8804 :STOP DEPTH
STEP        .M                                             0.1524 :STEP
NULL        .                                           -999.2500 :NULL VALUE
COMP        .                                             UNKNOWN :COMPANY
WELL        .                                               1012D :WELL
FLD         .                                             UNKNOWN :FIELD
LOC         .                                             UNKNOWN :LOCATION
CNTY        .                                             UNKNOWN :COUNTY
STAT        .                                             UNKNOWN :STATE
CTRY        .                                             UNKNOWN :COUNTRY
SRVC        .                                             UNKNOWN :SERVICE COMPANY
DATE        .                                             UNKNOWN :LOG DATE
UWI         .                                               1012D :UNIQUE WELL ID
XCOORD      .                                       594334.990000 :SURFACE X
YCOORD      .                                      2152041.060000 :SURFACE Y
LAT         .                                           19.461774 :LATITUDE
LON         .                                          -92.101239 :LONGITUDE
ELEV        .M                                             0.0000 :SURFACE ELEV
ELEV_TYPE   .                                                  KB :ELEV TYPE
~CURVE INFORMATION
#MNEMONIC.UNIT        API CODE       : CURVE DESCRIPTION
#------------------------------------------------------------------------------
DEPTH    .M                          : Measured Depth
DT       .us/ft       UNKNOWN        : DT:UNKNOWN:rC:NONE:v0 (auto-composite)
GR       .API         UNKNOWN        : GR:PETROWORKS:rC:NONE:v1 
GR-LWD   .API         UNKNOWN        : GR-LWD:PETROWORKS:rC:NONE:v1 
ILD      .ohm.m       UNKNOWN        : ILD:resistivos:rC:NONE:v0 (auto-composite)
ILD-LWD  .ohm.m       UNKNOWN        : ILD-LWD:PETROWORKS:rC:NONE:v1 
ILM      .ohm.m       UNKNOWN        : ILM:resistivos:rC:NONE:v0 (auto-composite)
ILM-LWD  .ohm.m       UNKNOWN        : ILM-LWD:PETROWORKS:rC:NONE:v1 
~A     DEPTH           DT           GR       GR-LWD          ILD      ILD-LWD          ILM      ILM-LWD
# ...
   2128.3677     115.3560      34.0570      76.5493    -999.2500       0.9445    -999.2500       0.9434
   2128.5200     114.1507      33.9278      76.8072    -999.2500       0.9160    -999.2500       0.9108
   2128.6724     114.2520      31.5833      76.7351    -999.2500       0.9103    -999.2500       0.9031
   2128.8247     115.0011      31.1598      79.2184    -999.2500       0.9096    -999.2500       0.9024
   2128.9773     116.0328      30.9721      82.1171    -999.2500       0.9085    -999.2500       0.9021
   2129.1296     116.9474      32.8078      84.4966    -999.2500       0.9085    -999.2500       0.9044
   2129.2820     118.2430      34.4360      86.1781    -999.2500       0.9204    -999.2500       0.9131
   2129.4343     119.4164      33.9674      87.6604    -999.2500       0.9304    -999.2500       0.9214
   2129.5869     119.8795      37.6063      88.8423    -999.2500       0.9224    -999.2500       0.9136
   2129.7393     120.1780      37.9648      84.0200    -999.2500       0.8798    -999.2500       0.8820
   2129.8916     120.3821      36.9389      80.9637    -999.2500       0.8903    -999.2500       0.8948
   2130.0439     121.2744      32.5612      77.6702    -999.2500       1.0107    -999.2500       1.0128
   2130.1963     122.9442      31.8081      77.7792    -999.2500       1.0366    -999.2500       1.0304
   2130.3489     123.9800      34.6194      77.4640    -999.2500       1.0269    -999.2500       1.0128
   2130.5012     124.4072      35.0545      77.6909    -999.2500       0.9883    -999.2500       0.9748
   2130.6536     122.7800      36.1940      78.0049    -999.2500       0.8416    -999.2500       0.8439
   2130.8059     123.1325      36.8354      78.2163    -999.2500       0.7566    -999.2500       0.7643
   2130.9585     120.3439      38.6143      79.0117    -999.2500       0.7443    -999.2500       0.7481
   2131.1108     119.1330      40.7652      82.5397    -999.2500       0.8011    -999.2500       0.7998
   2131.2632     116.4610      38.4850      85.7124    -999.2500       0.8376    -999.2500       0.8319
   2131.4155     114.9814      39.5966      86.6382    -999.2500       0.8467    -999.2500       0.8410
   2131.5681     113.6419      36.6997      85.9157    -999.2500       0.8814    -999.2500       0.8757
   2131.7205     112.9700      38.6836      83.6236    -999.2500       0.8910    -999.2500       0.8873
   2131.8728     113.6300      39.6244      81.0517    -999.2500       0.8395    -999.2500       0.8429
   2132.0251     114.8868      40.3452      81.0981    -999.2500       0.8191    -999.2500       0.8223
   2132.1775     117.0227      40.4011      83.1662    -999.2500       0.8239    -999.2500       0.8269
   2132.3301     118.1425      38.6770      85.7651    -999.2500       0.8149    -999.2500       0.8183
   2132.4824     118.4707      39.7405      85.7044    -999.2500       0.8088    -999.2500       0.8084
   2132.6348     116.1850      39.2670      85.4546    -999.2500       0.8080    -999.2500       0.8058
   2132.7871     120.2201      39.6888      86.1059    -999.2500       0.8012    -999.2500       0.7993
   2132.9397     119.9786      40.4729      87.4031    -999.2500       0.7723    -999.2500       0.7718
   2133.0920     119.3863      38.3887      89.3782    -999.2500       0.7447    -999.2500       0.7441
   2133.2444     119.7240      36.9230      90.7877    -999.2500       0.7493    -999.2500       0.7470
   2133.3967     120.1577      39.8989      91.8715    -999.2500       0.7479    -999.2500       0.7457
   2133.5493     120.4581      41.6457      91.5757    -999.2500       0.7492    -999.2500       0.7470
   2133.7017     120.8026      43.6109      90.8738    -999.2500       0.7787    -999.2500       0.7746
   2133.8540     121.3352      40.3397      91.6479    -999.2500       0.8082    -999.2500       0.8020
   2134.0063     122.2688      42.3008      93.2357    -999.2500       0.8107    -999.2500       0.8053
   2134.1587     122.0596      44.5730      92.5866    -999.2500       0.8107    -999.2500       0.8058
   2134.3113     121.8456      45.6166      90.5357    -999.2500       0.7743    -999.2500       0.7712
   2134.4636     121.1206      44.5103      89.9656    -999.2500       0.7349    -999.2500       0.7324
   2134.6160     120.7880      41.4160      91.0109    -999.2500       0.7481    -999.2500       0.7430
   2134.7683     120.4860      39.9855      91.1213    -999.2500       0.7350    -999.2500       0.7315
   2134.9209     119.9555      37.7040      88.4331    -999.2500       0.7110    -999.2500       0.7090
   2135.0732     119.9602      37.7690      84.9352    -999.2500       0.7187    -999.2500       0.7156
   2135.2256     120.1720      38.0950      84.1424    -999.2500       0.7353    -999.2500       0.7318
   2135.3779     120.2960      39.6886      84.8172    -999.2500       0.7467    -999.2500       0.7435
   2135.5305     120.4192      40.7327      85.6233    -999.2500       0.7497    -999.2500       0.7471
   2135.6829     121.1226      41.0568      85.7699    -999.2500       0.7384    -999.2500       0.7367
   2135.8352     122.6998      44.9978      88.4580    -999.2500       0.7173    -999.2500       0.7163
   2135.9875     124.0671      44.1197      91.7057    -999.2500       0.6998    -999.2500       0.6999
   2136.1399     124.1446      42.3955      93.1556    -999.2500       0.6997    -999.2500       0.7021
   2136.2925     124.4280      39.9818      92.8453    -999.2500       0.7097    -999.2500       0.7116
   2136.4448     124.7476      43.3031      89.6035    -999.2500       0.6908    -999.2500       0.6964
   2136.5972     124.4900      46.8860      89.5458    -999.2500       0.7128    -999.2500       0.7153
   2136.7495     124.2180      46.3677      91.0723    -999.2500       0.7309    -999.2500       0.7293
   2136.9021     123.7711      43.5653      93.3402    -999.2500       0.7231    -999.2500       0.7227
   2137.0544     123.3530      42.4256      93.2778    -999.2500       0.7087    -999.2500       0.7074
   2137.2068     123.3930      41.6110      92.3587    -999.2500       0.6813    -999.2500       0.6838
   2137.3591     123.7989      40.2448      93.5709    -999.2500       0.6682    -999.2500       0.6728
   2137.5117     123.6291      39.1048      95.0860    -999.2500       0.6921    -999.2500       0.6957
   2137.6641     123.8947      38.6564      94.5579    -999.2500       0.7653    -999.2500       0.7633
   2137.8164     124.8305      40.7414      92.0814    -999.2500       0.8419    -999.2500       0.8350
   2137.9688     125.0118      42.3780      89.0922    -999.2500       0.8440    -999.2500       0.8418
   2138.1211     125.0710      44.5109      88.9939    -999.2500       0.8423    -999.2500       0.8456
   2138.2737     125.1470      45.5082      91.4171    -999.2500       0.8503    -999.2500       0.8541
   2138.4260     124.4104      46.2460      92.1672    -999.2500       0.8988    -999.2500       0.9030
   2138.5784     123.8610      47.2230      90.4235    -999.2500       0.9637    -999.2500       0.9638
   2138.7307     123.3847      47.2882      87.8457    -999.2500       0.9885    -999.2500       0.9855
   2138.8833     122.0110      44.8780      86.8724    -999.2500       0.9517    -999.2500       0.9495
   2139.0356     120.8435      44.0301      87.0395    -999.2500       0.9192    -999.2500       0.9206
   2139.1880     120.1490      41.1870      86.6670    -999.2500       0.9151    -999.2500       0.9229
   2139.3403     120.2422      42.8964      85.9313    -999.2500       0.9362    -999.2500       0.9456
   2139.4929     119.8009      40.2115      83.3123    -999.2500       0.9480    -999.2500       0.9570
   2139.6453     118.9731      39.4954      80.1494    -999.2500       1.0193    -999.2500       1.0212
   2139.7976     117.8284      36.7270      79.4652    -999.2500       1.0424    -999.2500       1.0407
   2139.9500     118.2480      37.1152      81.1689    -999.2500       0.9734    -999.2500       0.9756
