#------------------------------------------------------------------------------
#
#   Created by  : [OpenWorks] Log Export Utility (LEXP)
#   Created on  : 2016-05-23 11:50:15
#   Project     : CANT971
#   User        : R5K
#   Interpreter : PEP
#
#------------------------------------------------------------------------------
~VERSION INFORMATION
VERS. 2.0 : CWLS Log ASCII Standard - version 2.0
WRAP.  NO : One line per depth step
~WELL INFORMATION
#MNEMONIC   .UNIT                                           VALUE :DESCRIPTION
#------------------------------------------------------------------------------
STRT        .M                                          2144.1199 :START DEPTH
STOP        .M                                          3100.2776 :STOP DEPTH
STEP        .M                                             0.1524 :STEP
NULL        .                                           -999.2500 :NULL VALUE
COMP        .                                   PEMEX EXPL & PROD :COMPANY
WELL        .                                               1004D :WELL
FLD         .                                           CANTARELL :FIELD
LOC         .                                             UNKNOWN :LOCATION
CNTY        .                                      CD. DEL CARMEN :COUNTY
STAT        .                                            CAMPECHE :STATE
CTRY        .                                              MEXICO :COUNTRY
SRVC        .                                             UNKNOWN :SERVICE COMPANY
DATE        .                                             UNKNOWN :LOG DATE
UWI         .                                               1004D :UNIQUE WELL ID
XCOORD      .                                       594534.600000 :SURFACE X
YCOORD      .                                      2142053.350000 :SURFACE Y
LAT         .                                           19.371510 :LATITUDE
LON         .                                          -92.099834 :LONGITUDE
ELEV        .M                                            30.0000 :SURFACE ELEV
ELEV_TYPE   .                                                  KB :ELEV TYPE
~CURVE INFORMATION
#MNEMONIC.UNIT        API CODE       : CURVE DESCRIPTION
#------------------------------------------------------------------------------
DEPTH    .M                          : Measured Depth
CALI     .in          UNKNOWN        : CALI:litodensidad:rC:NONE:v0 (auto-composite)
DRHO     .g/cm3       UNKNOWN        : DRHO:litodensidad:rC:NONE:v0 (auto-composite)
DT       .us/ft       UNKNOWN        : DT:DT-Load:rC:NONE:v0 (auto-composite)
GR       .API         UNKNOWN        : GR:TMDL:rC:NONE:v0 (auto-composite)
GR-LWD   .API         UNKNOWN        : GR-LWD:PETROWORKS:rC:NONE:v1 
ILD-LWD  .ohm.m       UNKNOWN        : ILD-LWD:resistivos-LWD:rC:NONE:v0 (auto-composite)
ILM-LWD  .ohm.m       UNKNOWN        : ILM-LWD:resistivos-LWD:rC:NONE:v0 (auto-composite)
LLD-LWD  .ohm.m       UNKNOWN        : LLD-LWD:resistivos-LWD:rC:NONE:v0 (auto-composite)
LLS      .ohm.m       UNKNOWN        : LLS:resistivos:rC:NONE:v0 (auto-composite)
LLS-LWD  .ohm.m       UNKNOWN        : LLS-LWD:resistivos-LWD:rC:NONE:v0 (auto-composite)
MSFL     .ohm.m       UNKNOWN        : MSFL:resistivos:rC:NONE:v0 (auto-composite)
MSFL-LWD .ohm.m       UNKNOWN        : MSFL-LWD:resistivos-LWD:rC:NONE:v0 (auto-composite)
NPHI     .v/v_decimal UNKNOWN        : NPHI:PETROWORKS:rC:NONE:v2 
PEF      .b/elec      UNKNOWN        : PEF:litodensidad:rC:NONE:v0 (auto-composite)
RHOB     .g/cm3       UNKNOWN        : RHOB:litodensidad:rC:NONE:v0 (auto-composite)
~A     DEPTH         CALI         DRHO           DT           GR       GR-LWD      ILD-LWD      ILM-LWD      LLD-LWD          LLS      LLS-LWD         MSFL     MSFL-LWD         NPHI          PEF         RHOB
# ...
   2352.1458       3.7845       1.2130    -999.2500    -999.2500      52.9095       2.5672       2.5939       7.4923       0.1112      45.8484       0.0871     694.8907       0.3260       5.5161       4.6288
   2352.2983       3.7939       1.2130    -999.2500    -999.2500      54.2102       2.6580       2.3833       9.0919       0.1095      62.9170       0.0878    1125.2177       0.3374       5.5161       4.6288
   2352.4507       3.7864       1.2130    -999.2500    -999.2500      54.0986       2.5705       2.2889      11.0337       0.1162      86.3366       0.0916    1822.0177       0.3273       5.5161       4.6288
   2352.6030       3.7939       1.2130    -999.2500    -999.2500      55.4044       2.4384       2.1853      13.3909       0.1119     118.4703       0.0938    2950.2991       0.3389       5.5161       4.6288
   2352.7554       3.7864       1.1695    -999.2500    -999.2500      56.4839       2.5452       2.1764      16.2525       0.1136     162.5605       0.0973    4054.2634       0.3372       5.4841       4.6288
   2352.9080       3.7939       1.0999    -999.2500    -999.2500      57.4983       2.5707       2.1551      19.7263       0.1111     188.9726       0.0980    3818.1611       0.3401       5.4271       4.6288
   2353.0603       3.7958       1.0633    -999.2500    -999.2500      53.9069       2.6141       2.0835      22.5218       0.1113     183.8945       0.1000    3595.8079       0.3323       5.4120       4.6288
   2353.2126       3.8051       1.0914    -999.2500    -999.2500      54.9112       2.5234       2.0283      22.3140       0.1140     178.9528       0.0984    3386.4036       0.3222       5.4317       4.6288
   2353.3650       3.7977       1.0996    -999.2500    -999.2500      56.7604       2.2712       1.8907      22.1082       0.1159     174.1439       0.0958    3189.1938       0.3274       5.4140       4.6288
   2353.5176       3.7958       1.0970    -999.2500    -999.2500      60.5080       2.2317       1.9065      21.9042       0.1135     169.4642       0.0928    3003.4688       0.3092       5.2610       4.6288
   2353.6699       3.7864       1.0834    -999.2500    -999.2500      60.1471       2.2135       2.0236      21.7021       0.1183     164.9102       0.0898     133.6824       0.2978       5.1803       4.6288
   2353.8223       3.7845       1.0989    -999.2500    -999.2500      58.7456       2.2060       2.1362      21.5019       0.1182      40.7835       0.0889     140.3127       0.2951       5.1193       4.6288
   2353.9746       3.7845       1.0886    -999.2500    -999.2500      57.5176       2.1901       2.0664      12.5292       0.1158      41.8709       0.0885     147.2717       0.3063       4.9912       4.6288
   2354.1270       3.7939       1.0801    -999.2500    -999.2500      56.0597       2.1928       1.9769      12.1150       0.1192      42.9873       0.0909     154.5758       0.3246       4.8806       4.6288
   2354.2795       3.7958       1.0860    -999.2500    -999.2500      56.2080       2.0223       1.9469      11.7145       0.1174      44.1334       0.0933     162.2421       0.3306       4.8008       4.6288
   2354.4319       3.7864       1.1200    -999.2500    -999.2500      56.5804       1.9887       1.9922      11.3273       0.1184      45.3101       0.0978     170.2884       0.3150       4.9509       4.6288
   2354.5842       3.7845       1.1121    -999.2500    -999.2500      57.0135       1.9113       1.9021      10.9528       0.1182      46.5182       0.1026     178.7337       0.3159       5.0570       4.6288
   2354.7366       3.7939       1.0814    -999.2500    -999.2500      56.8627       1.9326       1.7547      10.5908       0.1172      47.7584       0.1022     187.5977       0.3023       5.1891       4.6288
   2354.8892       3.7864       1.0748    -999.2500    -999.2500      56.0758       1.8368       1.7145      10.2407       0.1197      49.0317       0.0994     196.9012       0.2896       5.2538       4.6288
   2355.0415       3.8032       1.0932    -999.2500    -999.2500      55.3787       1.9320       1.7562       9.9023       0.1151      50.3389       0.0956     206.6659       0.3001       5.2470       4.6288
   2355.1938       3.8070       1.1357    -999.2500    -999.2500      54.2581       1.8576       1.7911       9.5750       0.1139      51.6809       0.0912     211.1603       0.2907       5.1641       4.6288
   2355.3462       3.8070       1.1476    -999.2500    -999.2500      53.5150       1.9880       1.7556       9.2586       0.1147      51.9858       0.0858     210.0974       0.3097       5.0017       4.6288
   2355.4988       3.7883       1.1383    -999.2500    -999.2500      53.1865       1.9246       1.8235       9.1068       0.1144      51.7977       0.0835     209.0398       0.2973       4.9104       4.6288
   2355.6511       3.8032       1.1164    -999.2500    -999.2500      52.5750       2.0445       1.9354       9.1108       0.1164      51.6103       0.0839     207.9876       0.2895       4.8631       4.6288
   2355.8035       3.7883       1.1027    -999.2500    -999.2500      54.0748       1.9741       2.1029       9.1149       0.1184      51.4236       0.0867     206.9407       0.2780       4.8989       4.6288
   2355.9558       3.7939       1.1508    -999.2500    -999.2500      54.0225       2.1795       1.9509       9.1189       0.1169      51.2376       0.0880     205.8990       0.2802       4.9135       4.6288
   2356.1082       3.8051       1.1666    -999.2500    -999.2500      55.9050       2.2341       1.9077       9.1229       0.1154      51.0522       0.0899     204.8625       0.3105       4.9811       4.6288
   2356.2607       3.7883       1.2076    -999.2500    -999.2500      55.6433       2.2230       1.8950       9.1270       0.1159      50.8676       0.0905     203.8313       0.3051       5.0896       4.6288
   2356.4131       3.7845       1.1652    -999.2500    -999.2500      56.1138       2.3731       1.9342       9.1310       0.1156      50.6835       0.0921     202.8053       0.2844       5.1740       4.6288
   2356.5654       3.8032       1.1804    -999.2500    -999.2500      55.1809       2.4350       2.0661       9.1350       0.1147      50.5002       0.0930     201.7844       0.2706       5.2080       4.6288
   2356.7178       3.7977       1.0900    -999.2500    -999.2500      53.3286       2.2830       2.1922       9.1391       0.1173      50.3175       0.0928     200.7687       0.2818       5.1228       4.6288
   2356.8704       3.7864       1.0335    -999.2500    -999.2500      51.7506       2.3766       2.1529       9.1431       0.1161      50.1355       0.0925     199.7580       0.3006       5.0348       4.6288
   2357.0227       3.7845       1.0232    -999.2500    -999.2500      49.3455       2.4798       2.1504       9.1472       0.1245      49.9541       0.0902     198.7525       0.3152       5.0201       4.6288
   2357.1750       3.7939       1.0844    -999.2500    -999.2500      48.7496       2.5839       2.3393       9.1512       0.1206      49.7734       0.0882     197.7520       0.3199       5.0598       4.6288
   2357.3274       3.7958       1.1624    -999.2500    -999.2500      47.5684       2.6418       2.6659       9.1552       0.1216      49.5933       0.0852     196.7566       0.3051       5.1024       4.6288
   2357.4800       3.7958       1.1541    -999.2500    -999.2500      48.1212       2.6730       2.8709       9.1593       0.1185      49.4139       0.0847     195.7662       0.3088       5.0864       4.6288
   2357.6323       3.8051       1.1289    -999.2500    -999.2500      48.1832       2.5037       3.0157       9.1633       0.1207      49.2352       0.0834     194.7807       0.3143       5.0915       4.6288
   2357.7847       3.8070       1.1111    -999.2500    -999.2500      47.8105       2.6266       3.1856       9.1674       0.1195      49.0570       0.0818     193.8002       0.2986       5.0867       4.6288
   2357.9370       3.7883       1.0693    -999.2500    -999.2500      46.7669       2.5902       3.0341       9.1714       0.1185      48.8796       0.0811     192.8247       0.2541       5.0234       4.6288
