#------------------------------------------------------------------------------
#
#   Created by  : [OpenWorks] Log Export Utility (LEXP)
#   Created on  : 2016-05-23 11:57:11
#   Project     : CANT971
#   User        : R5K
#   Interpreter : PEP
#
#------------------------------------------------------------------------------
~VERSION INFORMATION
VERS. 2.0 : CWLS Log ASCII Standard - version 2.0
WRAP.  NO : One line per depth step
~WELL INFORMATION
#MNEMONIC   .UNIT                                           VALUE :DESCRIPTION
#------------------------------------------------------------------------------
STRT        .M                                           319.2782 :START DEPTH
STOP        .M                                          2532.8882 :STOP DEPTH
STEP        .M                                             0.1524 :STEP
NULL        .                                           -999.2500 :NULL VALUE
COMP        .                                   PEMEX EXPL & PROD :COMPANY
WELL        .                                                 73A :WELL
FLD         .                                           CANTARELL :FIELD
LOC         .                                             UNKNOWN :LOCATION
CNTY        .                                      CD. DEL CARMEN :COUNTY
STAT        .                                            CAMPECHE :STATE
CTRY        .                                              MEXICO :COUNTRY
SRVC        .                                             UNKNOWN :SERVICE COMPANY
DATE        .                                             UNKNOWN :LOG DATE
UWI         .                                          3060000177 :UNIQUE WELL ID
XCOORD      .                                       599722.890000 :SURFACE X
YCOORD      .                                      2147218.550000 :SURFACE Y
LAT         .                                           19.417934 :LATITUDE
LON         .                                          -92.050165 :LONGITUDE
ELEV        .M                                            27.8000 :SURFACE ELEV
ELEV_TYPE   .                                                  KB :ELEV TYPE
~CURVE INFORMATION
#MNEMONIC.UNIT        API CODE       : CURVE DESCRIPTION
#------------------------------------------------------------------------------
DEPTH    .M                          : Measured Depth
CALI     .inches      UNKNOWN        : CALI:registros:rC:NONE:v0 (auto-composite)
DRHO     .g/cm3       UNKNOWN        : DRHO:registros:rC:NONE:v0 (auto-composite)
DT       .UNKNOWN     UNKNOWN        : DT:registros:rC:NONE:v0 (auto-composite)
GR       .API         UNKNOWN        : GR:registros:rC:NONE:v0 (auto-composite)
ILD      .ohm.m       UNKNOWN        : ILD:registros:rC:NONE:v0 (auto-composite)
LLD      .ohm.m       UNKNOWN        : LLD:registros:rC:NONE:v0 (auto-composite)
LLS      .ohm.m       UNKNOWN        : LLS:registros:rC:NONE:v0 (auto-composite)
MSFL     .ohm.m       UNKNOWN        : MSFL:registros:rC:NONE:v0 (auto-composite)
RHOB     .g/cm3       UNKNOWN        : RHOB:registros:rC:NONE:v0 (auto-composite)
~A     DEPTH         CALI         DRHO           DT           GR          ILD          LLD          LLS         MSFL         RHOB
# ...
    564.9470      22.8500       0.0435     120.4161      40.4196       1.4000    -999.2500    -999.2500    -999.2500       2.2295
    565.0994      22.8500       0.0330     121.1840      40.7090       1.4000    -999.2500    -999.2500    -999.2500       2.2000
    565.2518      22.8500       0.0550     128.3932      41.2232       1.3885    -999.2500    -999.2500    -999.2500       2.2050
    565.4042      22.8500       0.0770     135.6200      41.7390       1.3770    -999.2500    -999.2500    -999.2500       2.2100
    565.5566      22.8500       0.0565     135.1166      42.4185       1.3601    -999.2500    -999.2500    -999.2500       2.1900
    565.7090      22.8500       0.0360     134.6120      43.1000       1.3430    -999.2500    -999.2500    -999.2500       2.1700
    565.8614      22.8500       0.0555     129.5378      42.3011       1.3335    -999.2500    -999.2500    -999.2500       2.1795
    566.0138      22.8500       0.0750     124.4500      41.5000       1.3240    -999.2500    -999.2500    -999.2500       2.1890
    566.1662      22.8350       0.0720     125.0428      41.6418       1.2921    -999.2500    -999.2500    -999.2500       2.2015
    566.3186      22.8200       0.0690     125.6370      41.7840       1.2600    -999.2500    -999.2500    -999.2500       2.2140
    566.4710      22.8255       0.0650     126.6679      42.2288       1.2600    -999.2500    -999.2500    -999.2500       2.2170
    566.6234      22.8310       0.0610     127.7010      42.6750       1.2600    -999.2500    -999.2500    -999.2500       2.2200
    566.7758      22.8390       0.0565     129.6263      44.5097       1.2600    -999.2500    -999.2500    -999.2500       2.2105
    566.9282      22.8470       0.0520     131.5560      46.3500       1.2600    -999.2500    -999.2500    -999.2500       2.2010
    567.0806      22.8485       0.0430     134.5344      46.0754       1.2580    -999.2500    -999.2500    -999.2500       2.1805
    567.2330      22.8500       0.0340     137.5200      45.8000       1.2560    -999.2500    -999.2500    -999.2500       2.1600
    567.3854      22.8500       0.0360     137.2054      46.0277       1.2440    -999.2500    -999.2500    -999.2500       2.1600
    567.5378      22.8500       0.0380     136.8900      46.2560       1.2320    -999.2500    -999.2500    -999.2500       2.1600
    567.6902      22.8500       0.0430     138.5029      46.7274       1.2111    -999.2500    -999.2500    -999.2500       2.1700
    567.8426      22.8500       0.0480     140.1200      47.2000       1.1900    -999.2500    -999.2500    -999.2500       2.1800
    567.9950      22.8500       0.0570     139.8868      46.9823       1.1636    -999.2500    -999.2500    -999.2500       2.1780
    568.1474      22.8500       0.0660     139.6530      46.7640       1.1370    -999.2500    -999.2500    -999.2500       2.1760
    568.2998      22.8500       0.0650     137.5242      45.9831       1.0538    -999.2500    -999.2500    -999.2500       2.1630
    568.4522      22.8500       0.0640     135.3900      45.2000       0.9700    -999.2500    -999.2500    -999.2500       2.1500
    568.6046      22.8500       0.0620     135.7791      45.2759       0.9829    -999.2500    -999.2500    -999.2500       2.1500
    568.7570      22.8500       0.0600     136.1690      45.3520       0.9960    -999.2500    -999.2500    -999.2500       2.1500
    568.9094      22.8500       0.0580     137.6393      46.2246       1.0209    -999.2500    -999.2500    -999.2500       2.1400
    569.0618      22.8500       0.0560     139.1130      47.1000       1.0460    -999.2500    -999.2500    -999.2500       2.1300
    569.2142      22.8500       0.0530     141.5285      46.9388       1.0604    -999.2500    -999.2500    -999.2500       2.1300
    569.3666      22.8500       0.0500     143.9500      46.7770       1.0750    -999.2500    -999.2500    -999.2500       2.1300
    569.5190      22.8500       0.0420     143.3593      46.4036       1.0775    -999.2500    -999.2500    -999.2500       2.1320
    569.6714      22.8500       0.0340     142.7670      46.0290       1.0800    -999.2500    -999.2500    -999.2500       2.1340
    569.8238      22.8500       0.0370     140.3967      45.1157       1.0551    -999.2500    -999.2500    -999.2500       2.1420
    569.9762      22.8500       0.0400     138.0200      44.2000       1.0300    -999.2500    -999.2500    -999.2500       2.1500
    570.1286      22.8500       0.0535     138.8535      44.4906       1.0300    -999.2500    -999.2500    -999.2500       2.1480
    570.2810      22.8500       0.0670     139.6890      44.7820       1.0300    -999.2500    -999.2500    -999.2500       2.1460
    570.4334      22.8500       0.0645     142.4665      45.4899       1.0300    -999.2500    -999.2500    -999.2500       2.1380
    570.5858      22.8500       0.0620     145.2500      46.2000       1.0300    -999.2500    -999.2500    -999.2500       2.1300
    570.7382      22.8500       0.0700     144.8604      45.1516       1.0300    -999.2500    -999.2500    -999.2500       2.1350
    570.8906      22.8500       0.0780     144.4700      44.1000       1.0300    -999.2500    -999.2500    -999.2500       2.1400
    571.0430      22.8500       0.0720     144.9839      44.1290       1.0300    -999.2500    -999.2500    -999.2500       2.1300
    571.1954      22.8500       0.0660     145.4990      44.1580       1.0300    -999.2500    -999.2500    -999.2500       2.1200
    571.3478      22.8500       0.0815     148.3758      44.7032       1.0001    -999.2500    -999.2500    -999.2500       2.1240
    571.5002      22.8500       0.0970     151.2600      45.2500       0.9700    -999.2500    -999.2500    -999.2500       2.1280
    571.6526      22.8500       0.0950     150.6024      44.7756       0.9700    -999.2500    -999.2500    -999.2500       2.1390
    571.8050      22.8500       0.0930     149.9430      44.3000       0.9700    -999.2500    -999.2500    -999.2500       2.1500
    571.9574      22.8500       0.0855     146.0262      44.5422       0.9640    -999.2500    -999.2500    -999.2500       2.1480
    572.1098      22.8500       0.0780     142.1000      44.7850       0.9580    -999.2500    -999.2500    -999.2500       2.1460
    572.2622      22.8500       0.0555     142.2953      45.7186       0.9192    -999.2500    -999.2500    -999.2500       2.1230
    572.4146      22.8500       0.0330     142.4910      46.6550       0.8800    -999.2500    -999.2500    -999.2500       2.1000
    572.5670      22.8500       0.0350     142.8511      47.9865       0.8800    -999.2500    -999.2500    -999.2500       2.1000
    572.7194      22.8500       0.0370     143.2120      49.3220       0.8800    -999.2500    -999.2500    -999.2500       2.1000
    572.8718      22.8500       0.0440     144.3731      50.7537       0.8820    -999.2500    -999.2500    -999.2500       2.1100
    573.0242      22.8500       0.0510     145.5370      52.1900       0.8840    -999.2500    -999.2500    -999.2500       2.1200
    573.1766      22.8500       0.0570     147.7557      51.8895       0.8979    -999.2500    -999.2500    -999.2500       2.1150
    573.3290      22.8500       0.0630     149.9800      51.5880       0.9120    -999.2500    -999.2500    -999.2500       2.1100
    573.4814      22.8500       0.0700     147.8078      50.6904       0.9309    -999.2500    -999.2500    -999.2500       2.1120
    573.6338      22.8500       0.0770     145.6300      49.7900       0.9500    -999.2500    -999.2500    -999.2500       2.1140
    573.7862      22.8500       0.0755     145.7464      50.6638       0.9590    -999.2500    -999.2500    -999.2500       2.1170
    573.9386      22.8500       0.0740     145.8630      51.5400       0.9680    -999.2500    -999.2500    -999.2500       2.1200
    574.0910      22.8500       0.0635     146.2026      51.5210       0.9690    -999.2500    -999.2500    -999.2500       2.1050
    574.2434      22.8500       0.0530     146.5430      51.5020       0.9700    -999.2500    -999.2500    -999.2500       2.0900
