#------------------------------------------------------------------------------
#
#   Created by  : [OpenWorks] Log Export Utility (LEXP)
#   Created on  : 2015-10-01 09:49:56
#   Project     : CANT971
#   User        : R5K
#   Interpreter : PEP
#
#------------------------------------------------------------------------------
~VERSION INFORMATION
VERS. 2.0 : CWLS Log ASCII Standard - version 2.0
WRAP.  NO : One line per depth step
~WELL INFORMATION
#MNEMONIC   .UNIT                                           VALUE :DESCRIPTION
#------------------------------------------------------------------------------
STRT        .M                                           799.8710 :START DEPTH
STOP        .M                                          1367.5610 :STOP DEPTH
STEP        .M                                             0.1524 :STEP
NULL        .                                           -999.2500 :NULL VALUE
COMP        .                                   PEMEX EXPL & PROD :COMPANY
WELL        .                                        CANTARELL-1A :WELL
FLD         .                                           CANTARELL :FIELD
LOC         .                                             UNKNOWN :LOCATION
CNTY        .                                      CD. DEL CARMEN :COUNTY
STAT        .                                            CAMPECHE :STATE
CTRY        .                                              MEXICO :COUNTRY
SRVC        .                                             UNKNOWN :SERVICE COMPANY
DATE        .                                             UNKNOWN :LOG DATE
UWI         .                                          3060000138 :UNIQUE WELL ID
XCOORD      .                                       600823.080000 :SURFACE X
YCOORD      .                                      2145118.550000 :SURFACE Y
LAT         .                                           19.398902 :LATITUDE
LON         .                                          -92.039798 :LONGITUDE
ELEV        .M                                            27.7000 :SURFACE ELEV
ELEV_TYPE   .                                                  KB :ELEV TYPE
~CURVE INFORMATION
#MNEMONIC.UNIT        API CODE       : CURVE DESCRIPTION
#------------------------------------------------------------------------------
DEPTH    .M                          : Measured Depth
CALI     .inches      UNKNOWN        : CALI:UNKNOWN:rC:NONE:v0 (auto-composite)
DRHO     .g/cm3       UNKNOWN        : DRHO:UNKNOWN:rC:NONE:v0 (auto-composite)
DT       .us/ft       UNKNOWN        : DT:DT:rC:NONE:v0 (auto-composite)
ILD      .ohm.m       UNKNOWN        : ILD:UNKNOWN:rC:NONE:v0 (auto-composite)
LLD      .ohm.m       UNKNOWN        : LLD:UNKNOWN:rC:NONE:v0 (auto-composite)
LLS      .ohm.m       UNKNOWN        : LLS:UNKNOWN:rC:NONE:v0 (auto-composite)
MSFL     .ohm.m       UNKNOWN        : MSFL:UNKNOWN:rC:NONE:v0 (auto-composite)
NPHI     .v/v_decimal UNKNOWN        : NPHI:NPHI:rC:NONE:v0 (auto-composite)
GR       .API         UNKNOWN        : RG:UNKNOWN:rC:NONE:v0 (auto-composite)
RHOB     .g/cm3       UNKNOWN        : RHOB:UNKNOWN:rC:NONE:v0 (auto-composite)
~A     DEPTH         CALI         DRHO           DT          ILD          LLD          LLS         MSFL         NPHI           GR         RHOB
# ...
   1311.9351      13.6051       0.0251      53.1863       2.8093       0.2000       0.2000       0.2000       5.6466      27.5384       2.4733
   1312.0874      13.6156       0.0210      52.3603       2.8800       0.2000       0.2000       0.2000       5.5576      26.8570       2.4698
   1312.2399      13.5683       0.0114      52.0273       3.0937       0.2000       0.2000       0.2000       5.5160      26.8100       2.4739
   1312.3922      13.4610      -0.0042      52.1929       3.4557       0.2000       0.2000       0.2000       5.5220      27.4212       2.4859
   1312.5447      13.4072      -0.0120      52.2195       4.2688       0.2000       0.2000       0.2000       5.5599      27.3402       2.5022
   1312.6970      13.4078      -0.0120      52.1060       5.5398       0.2000       0.2000       0.2000       5.6299      26.5568       2.5227
   1312.8495      13.3640      -0.0040      51.3281       7.5507       0.2000       0.2000       0.2000       5.7854      24.6790       2.5448
   1313.0018      13.2763       0.0121      49.8802      10.2983       0.2000       0.2000       0.2000       6.0269      21.7113       2.5684
   1313.1542      13.1886       0.0177      49.1679      11.7510       0.2000       0.2000       0.2000       6.2497      19.8517       2.5800
   1313.3066      13.1009       0.0132      49.1979      11.9424       0.2000       0.2000       0.2000       6.4537      19.0713       2.5800
   1313.4590      13.0483       0.0077      49.3429      10.3441       0.2000       0.2000       0.2000       6.5493      18.6454       2.5736
   1313.6115      13.0292       0.0011      49.6039       7.0355       0.2000       0.2000       0.2000       6.5358      18.5581       2.5611
   1313.7638      13.0356       0.0003      50.3426       4.8881       0.2000       0.2000       0.2000       6.4861      19.2958       2.5291
   1313.9163      13.0656       0.0048      51.5636       3.8261       0.2000       0.2000       0.2000       6.4001      20.8045       2.4789
   1314.0686      13.1627       0.0088      52.1407       3.1878       0.2000       0.2000       0.2000       6.3196      23.1955       2.4487
   1314.2211      13.3211       0.0123      52.0677       2.9367       0.2000       0.2000       0.2000       6.2446      26.3931       2.4367
   1314.3734      13.4845       0.0161      51.8397       2.7789       0.2000       0.2000       0.2000       6.1846      28.9607       2.4381
   1314.5259      13.6525       0.0201      51.4552       2.7047       0.2000       0.2000       0.2000       6.1396      30.9633       2.4517
   1314.6782      13.7051       0.0204      51.1359       2.7063       0.2000       0.2000       0.2000       6.0238      32.0641       2.4617
   1314.8307      13.6565       0.0174      50.8824       2.7745       0.2000       0.2000       0.2000       5.8368      32.3739       2.4688
   1314.9830      13.6081       0.0141      50.7771       2.8249       0.2000       0.2000       0.2000       5.7485      32.3613       2.4755
   1315.1354      13.5600       0.0106      50.8216       2.8600       0.2000       0.2000       0.2000       5.7595      32.0722       2.4820
   1315.2878      13.5277       0.0131      50.6784       2.9155       0.2000       0.2000       0.2000       5.8154      32.2196       2.4894
   1315.4402      13.5086       0.0206      50.3454       2.9882       0.2000       0.2000       0.2000       5.9164      32.7345       2.4974
   1315.5927      13.4948       0.0243      50.5676       3.0007       0.2000       0.2000       0.2000       6.1107      32.9189       2.5032
   1315.7450      13.4853       0.0248      51.3511       2.9636       0.2000       0.2000       0.2000       6.3987      32.8312       2.5072
   1315.8975      13.4816       0.0214      51.6861       2.9476       0.2000       0.2000       0.2000       6.8211      33.0217       2.5054
   1316.0498      13.4826       0.0149      51.5675       2.9486       0.2000       0.2000       0.2000       7.3786      33.4369       2.4989
   1316.2023      13.5217       0.0123      51.1131       2.9283       0.2000       0.2000       0.2000       7.6500      33.5710       2.4996
   1316.3546      13.5909       0.0128      50.3202       2.8912       0.2000       0.2000       0.2000       7.6340      33.4832       2.5062
   1316.5071      13.6105       0.0130      50.3233       2.9002       0.2000       0.2000       0.2000       7.5662      33.1169       2.5107
   1316.6594      13.5920       0.0130      51.1293       2.9448       0.2000       0.2000       0.2000       7.4462      32.5355       2.5137
   1316.8119      13.5954       0.0139      51.4899       3.0028       0.2000       0.2000       0.2000       7.1708      31.5011       2.5144
   1316.9642      13.6155       0.0154      51.4014       3.0710       0.2000       0.2000       0.2000       6.7394      30.1238       2.5134
   1317.1166      13.6471       0.0134      50.7973       3.1415       0.2000       0.2000       0.2000       6.5250      29.2608       2.5130
   1317.2690      13.6872       0.0089      49.6728       3.2137       0.2000       0.2000       0.2000       6.5290      28.7785       2.5130
   1317.4214      13.7273       0.0073      49.1769       3.3016       0.2000       0.2000       0.2000       6.5472      28.7034       2.5203
   1317.5739      13.7674       0.0078      49.3154       3.4008       0.2000       0.2000       0.2000       6.5797      28.9229       2.5328
   1317.7262      13.7957       0.0080      50.1904       3.5344       0.2000       0.2000       0.2000       6.6518      28.4975       2.5351
   1317.8787      13.8158       0.0080      51.8089       3.6923       0.2000       0.2000       0.2000       6.7638      27.6146       2.5301
   1318.0310      13.8246       0.0160      52.5028       3.9033       0.2000       0.2000       0.2000       6.7285      26.6727       2.5375
   1318.1835      13.8256       0.0295      52.2633       4.1509       0.2000       0.2000       0.2000       6.5451      25.6900       2.5535
   1318.3358      13.7680       0.0329      51.5326       4.3323       0.2000       0.2000       0.2000       6.4637      24.6555       2.5711
   1318.4883      13.6708       0.0294      50.3056       4.4686       0.2000       0.2000       0.2000       6.4852      23.5860       2.5896
   1318.6406      13.4726       0.0163      49.3082       4.4284       0.2000       0.2000       0.2000       6.5605      22.5689       2.6015
   1318.7931      13.2074      -0.0033      48.5427       4.2710       0.2000       0.2000       0.2000       6.6901      21.5867       2.6090
   1318.9454      13.1152      -0.0070      48.6012       4.3318       0.2000       0.2000       0.2000       6.8323      21.0280       2.6138
   1319.0978      13.1352      -0.0005      49.4921       4.5343       0.2000       0.2000       0.2000       6.9873      20.7443       2.6168
   1319.2502      13.1378       0.0087      49.7522       4.7769       0.2000       0.2000       0.2000       7.1159      21.4328       2.6051
   1319.4026      13.1293       0.0198      49.3745       5.0452       0.2000       0.2000       0.2000       7.2179      22.7399       2.5841
   1319.5551      13.0654       0.0225      49.4709       5.2145       0.2000       0.2000       0.2000       7.3428      23.4917       2.5704
   1319.7074      12.9671       0.0199      50.0449       5.3223       0.2000       0.2000       0.2000       7.4908      23.8984       2.5614
   1319.8599      12.9122       0.0156      50.1365       5.6820       0.2000       0.2000       0.2000       7.5199      23.9373       2.5599
   1320.0122      12.8837       0.0101      49.7421       6.1947       0.2000       0.2000       0.2000       7.4294      23.7528       2.5629
   1320.1647      12.9044       0.0096      49.5706       6.4385       0.2000       0.2000       0.2000       7.3977      24.4412       2.5568
   1320.3170      12.9546       0.0121      49.6241       6.5222       0.2000       0.2000       0.2000       7.4252      25.6491       2.5452
