#------------------------------------------------------------------------------
#
#   Created by  : [OpenWorks] Log Export Utility (LEXP)
#   Created on  : 2016-05-12 17:18:19
#   Project     : CANT971
#   User        : R5K
#   Interpreter : PEP
#
#------------------------------------------------------------------------------
~VERSION INFORMATION
VERS. 2.0 : CWLS Log ASCII Standard - version 2.0
WRAP.  NO : One line per depth step
~WELL INFORMATION
#MNEMONIC   .UNIT                                           VALUE :DESCRIPTION
#------------------------------------------------------------------------------
STRT        .M                                           134.7982 :START DEPTH
STOP        .M                                          2692.2227 :STOP DEPTH
STEP        .M                                             0.1524 :STEP
NULL        .                                           -999.2500 :NULL VALUE
COMP        .                                   PEMEX EXPL & PROD :COMPANY
WELL        .                                                 57A :WELL
FLD         .                                           CANTARELL :FIELD
LOC         .                                             UNKNOWN :LOCATION
CNTY        .                                      CD. DEL CARMEN :COUNTY
STAT        .                                            CAMPECHE :STATE
CTRY        .                                              MEXICO :COUNTRY
SRVC        .                                             UNKNOWN :SERVICE COMPANY
DATE        .                                             UNKNOWN :LOG DATE
UWI         .                                          3060000169 :UNIQUE WELL ID
XCOORD      .                                       602151.210000 :SURFACE X
YCOORD      .                                      2147168.830000 :SURFACE Y
LAT         .                                           19.417362 :LATITUDE
LON         .                                          -92.027041 :LONGITUDE
ELEV        .M                                            28.1700 :SURFACE ELEV
ELEV_TYPE   .                                                  KB :ELEV TYPE
~CURVE INFORMATION
#MNEMONIC.UNIT        API CODE       : CURVE DESCRIPTION
#------------------------------------------------------------------------------
DEPTH    .M                          : Measured Depth
CALI     .inches      UNKNOWN        : CALI:UNKNOWN:r1:MAIN:v1 
DRHO     .UNKNOWN     UNKNOWN        : DRHO:UNKNOWN:r1:MAIN:v1 
DT       .us/ft       UNKNOWN        : DT:UNKNOWN:r1:MAIN:v1 
GR       .API         UNKNOWN        : GR:GR:r1:MAIN:v1 
ILD      .UNKNOWN     UNKNOWN        : ILD:UNKNOWN:r1:MAIN:v1 
LLD      .UNKNOWN     UNKNOWN        : LLD:UNKNOWN:r1:MAIN:v1 
LLS      .UNKNOWN     UNKNOWN        : LLS:UNKNOWN:r1:MAIN:v1 
MSFL     .UNKNOWN     UNKNOWN        : MSFL:UNKNOWN:r1:MAIN:v1 
NORM     .UNKNOWN     UNKNOWN        : NORM:NORM-Load:r1:MAIN:v1 
NPHI     .v/v_decimal UNKNOWN        : NPHI:UNKNOWN:r1:MAIN:v1 
RHOB     .UNKNOWN     UNKNOWN        : RHOB:UNKNOWN:r1:MAIN:v1 
SP       .mV          UNKNOWN        : SP:PETROWORKS:rC:NONE:v1 
~A     DEPTH         CALI         DRHO           DT           GR          ILD          LLD          LLS         MSFL         NORM         NPHI         RHOB           SP
# ...
   2475.6621       9.6170       0.0287      85.4436      70.0538     100.3796     558.3560     418.4357     174.0412    -999.2500       0.1797       2.5113     196.2701
   2475.8147       9.6065       0.0342      81.8100      66.9296      96.7505     415.7172     274.2616     191.0508    -999.2500       0.1707       2.5374     196.2559
   2475.9670       9.6030       0.0293      77.9126      62.7474      93.7750     306.7020     214.9483     187.5667    -999.2500       0.1611       2.5678     196.4300
   2476.1194       9.6030       0.0193      73.8849      58.0429      91.1221     214.2873     197.5320     173.9645    -999.2500       0.1513       2.6004     196.6191
   2476.2717       9.6226       0.0177      71.1515      54.0842      88.4155     184.2655     191.8405     174.7876    -999.2500       0.1389       2.6120     196.6904
   2476.4243       9.6517       0.0202      69.0411      50.4846      85.6829     184.2825     191.7939     182.5556    -999.2500       0.1254       2.6135     196.7531
   2476.5767       9.6075       0.0190      67.4324      48.5284      83.2420     201.7205     193.5840     441.7883    -999.2500       0.1205       2.6133     197.1125
   2476.7290       9.5288       0.0159      66.0592      47.3492      80.9379     227.3355     196.2362     819.0529    -999.2500       0.1197       2.6123     197.4921
   2476.8813       9.5037       0.0126      65.3580      48.7386      81.8532     277.9240     217.6751     887.7950    -999.2500       0.1198       2.6096     197.7586
   2477.0339       9.5032       0.0091      64.9664      51.3031      84.2524     340.0232     247.7730     814.3344    -999.2500       0.1202       2.6061     198.0180
   2477.1863       9.5712       0.0156      64.7108      56.1754      85.0285     411.7503     286.6420     678.4575    -999.2500       0.1208       2.5867     197.5779
   2477.3386       9.6699       0.0266      64.5162      62.0843      85.0757     487.8021     329.4506     514.5446    -999.2500       0.1216       2.5601     197.0981
   2477.4910       9.6927       0.0283      69.4851      64.4923      82.3205     577.5701     387.4033     451.4498    -999.2500       0.1305       2.5478     196.7206
   2477.6433       9.6821       0.0257      76.7136      65.3682      78.3389     673.3405     451.9833     432.4757    -999.2500       0.1430       2.5418     196.3482
   2477.7959       9.6860       0.0310      80.2893      63.2835      74.5782     627.0157     518.0922     337.7802    -999.2500       0.1557       2.5474     196.1389
   2477.9482       9.6961       0.0395      82.3079      59.9367      70.9115     520.1213     584.8527     210.8077    -999.2500       0.1686       2.5579     195.9369
   2478.1006       9.6427       0.0363      82.0007      57.5250      65.2271     338.2013     536.9194     142.9603    -999.2500       0.1736       2.5642     195.3127
   2478.2529       9.5631       0.0283      80.7282      55.5013      58.7053     125.1404     441.3801      99.6540    -999.2500       0.1754       2.5687     194.6722
   2478.4055       9.5892       0.0310      80.3272      54.0020      50.8753      54.9452     295.6073      70.1433    -999.2500       0.1785       2.5736     194.3798
   2478.5579       9.6584       0.0380      80.2811      52.7144      42.5126      42.9279     129.3785      46.2506    -999.2500       0.1820       2.5786     194.0988
   2478.7102       9.6708       0.0386      80.0938      53.2664      36.5859      36.8078      71.5837      35.0538    -999.2500       0.1788       2.5936     193.9613
   2478.8625       9.6608       0.0366      79.8507      54.5475      31.6247      33.0248      56.7642      28.8887    -999.2500       0.1729       2.6127     193.8279
   2479.0151       9.6149       0.0385      78.1897      58.1607      29.5793      25.4173      44.1429      20.4949    -999.2500       0.1621       2.6274     193.8013
   2479.1675       9.5553       0.0420      75.9821      62.6732      28.6582      16.3351      32.3692      11.2418    -999.2500       0.1493       2.6404     193.7770
   2479.3198       9.5962       0.0408      73.2735      65.1026      29.5159      23.1676      31.2944       6.9696    -999.2500       0.1395       2.6458     193.7035
   2479.4722       9.6750       0.0378      70.3770      66.7506      31.0406      35.9685      34.2321       4.5654    -999.2500       0.1309       2.6483     193.6284
   2479.6245       9.6740       0.0410      70.4337      67.7539      34.8180      53.2862      69.4848      27.0056    -999.2500       0.1312       2.6383     193.0186
   2479.7771       9.6439       0.0466      71.5674      68.5220      39.4167      72.2508     116.5207      58.5049    -999.2500       0.1348       2.6238     192.3987
   2479.9294       9.6212       0.0410      71.5403      70.7249      48.3191      99.1773     150.2948      77.6468    -999.2500       0.1396       2.6096     192.2906
   2480.0818       9.6012       0.0315      71.1020      73.4362      58.7466     128.9254     179.3691      92.4094    -999.2500       0.1450       2.5956     192.1818
   2480.2341       9.5811       0.0372      72.8889      73.7509      70.5604     131.8833     166.0381      82.2843    -999.2500       0.1512       2.5726     192.0319
   2480.3867       9.5611       0.0482      75.4485      73.2335      82.8555     125.5397     137.9844      63.5183    -999.2500       0.1577       2.5466     191.8824
   2480.5391       9.5485       0.0458      79.4780      71.0681      84.0505     121.4042     142.4031      63.5659    -999.2500       0.1616       2.5280     191.8404
   2480.6914       9.5385       0.0387      84.0030      68.3471      81.5024     118.0133     157.7717      69.9576    -999.2500       0.1646       2.5120     191.7989
   2480.8438       9.6025       0.0276      81.3451      67.8392      78.1796     142.4772     173.4277      67.8103    -999.2500       0.1562       2.5031     192.3581
   2480.9963       9.6907       0.0150      76.3357      68.0558      74.6032     176.0598     189.1779      62.8676    -999.2500       0.1440       2.4966     192.9045
   2481.1487       9.6671       0.0211      72.4819      68.6350      73.6470     176.3871     183.5410      84.6753    -999.2500       0.1483       2.5205     192.9774
   2481.3010       9.6079       0.0332      68.9953      69.3294      73.5232     166.1502     171.1100     114.9808    -999.2500       0.1580       2.5541     193.0485
   2481.4534       9.5936       0.0291      71.2949      68.2839      73.5898     163.1848     163.7386     101.4884    -999.2500       0.1654       2.5551     193.0384
   2481.6057       9.5931       0.0201      75.3775      66.7023      73.7150     162.4599     157.9261      74.5012    -999.2500       0.1722       2.5461     193.0264
   2481.7583       9.5999       0.0292      74.8921      65.3740      73.5841     159.0207     158.8365      71.4210    -999.2500       0.1752       2.5401     192.9417
   2481.9106       9.6090       0.0437      73.0300      64.1220      73.3760     154.7634     161.7732      75.5464    -999.2500       0.1770       2.5351     192.8474
   2482.0630       9.6261       0.0412      74.1717      64.5464      69.0310     149.7502     161.7051      76.5407    -999.2500       0.1785       2.5433     192.4427
   2482.2153       9.6457       0.0337      76.1908      65.4604      63.4776     144.5161     160.7595      76.6204    -999.2500       0.1799       2.5553     192.0383
   2482.3679       9.6500       0.0371      77.6725      66.6617      60.1472     135.2042     133.2860      77.4892    -999.2500       0.1845       2.5631     191.6408
   2482.5203       9.6500       0.0436      79.0022      67.9443      57.4457     124.7387      98.3081      78.5813    -999.2500       0.1901       2.5696     191.2305
   2482.6726       9.6417       0.0395      78.1721      67.7276      54.5915     104.8782      82.6893      67.6588    -999.2500       0.1893       2.5608     190.5214
   2482.8250       9.6312       0.0325      76.7507      67.1004      51.6955      82.4450      72.3717      53.4464    -999.2500       0.1867       2.5477     189.8490
