#------------------------------------------------------------------------------
#
#   Created by  : [OpenWorks] Log Export Utility (LEXP)
#   Created on  : 2016-05-23 11:55:55
#   Project     : CANT971
#   User        : R5K
#   Interpreter : PEP
#
#------------------------------------------------------------------------------
~VERSION INFORMATION
VERS. 2.0 : CWLS Log ASCII Standard - version 2.0
WRAP.  NO : One line per depth step
~WELL INFORMATION
#MNEMONIC   .UNIT                                           VALUE :DESCRIPTION
#------------------------------------------------------------------------------
STRT        .M                                          1803.5016 :START DEPTH
STOP        .M                                          3154.9849 :STOP DEPTH
STEP        .M                                             0.1524 :STEP
NULL        .                                           -999.2500 :NULL VALUE
COMP        .                                             UNKNOWN :COMPANY
WELL        .                                             418D-ST :WELL
FLD         .                                             UNKNOWN :FIELD
LOC         .                                             UNKNOWN :LOCATION
CNTY        .                                             UNKNOWN :COUNTY
STAT        .                                             UNKNOWN :STATE
CTRY        .                                             UNKNOWN :COUNTRY
SRVC        .                                             UNKNOWN :SERVICE COMPANY
DATE        .                                             UNKNOWN :LOG DATE
UWI         .                                             418D-ST :UNIQUE WELL ID
XCOORD      .                                       597130.010000 :SURFACE X
YCOORD      .                                      2144879.410000 :SURFACE Y
LAT         .                                           19.396924 :LATITUDE
LON         .                                          -92.074978 :LONGITUDE
ELEV        .M                                             0.0000 :SURFACE ELEV
ELEV_TYPE   .                                                  NA :ELEV TYPE
~CURVE INFORMATION
#MNEMONIC.UNIT        API CODE       : CURVE DESCRIPTION
#------------------------------------------------------------------------------
DEPTH    .M                          : Measured Depth
CALI     .inches      UNKNOWN        : CALI:PETROWORKS:rC:NONE:v1 
CGR      .API         UNKNOWN        : CGR:PETROWORKS:rC:NONE:v1 
DRHO     .g/cm3       UNKNOWN        : DRHO:PETROWORKS:rC:NONE:v1 
DT       .us/ft       UNKNOWN        : DT:PETROWORKS:rC:NONE:v1 
GR       .API         UNKNOWN        : GR:PETROWORKS:rC:NONE:v3 
ILD      .ohm.m       UNKNOWN        : ILD:registros:rC:NONE:v0 (auto-composite)
ILM      .ohm.m       UNKNOWN        : ILM:registros:rC:NONE:v0 (auto-composite)
LLD      .ohm.m       UNKNOWN        : LLD:PETROWORKS:rC:NONE:v2 
LLS      .ohm.m       UNKNOWN        : LLS:PETROWORKS:rC:NONE:v2 
MSFL     .ohm.m       UNKNOWN        : MSFL:PETROWORKS:rC:NONE:v1 
NPHI     .v/v_decimal UNKNOWN        : NPHI:PETROWORKS:rC:NONE:v1 
PEF      .b/elec      UNKNOWN        : PEF:PETROWORKS:rC:NONE:v1 
POTA     .wtpercent   UNKNOWN        : POTA:PETROWORKS:rC:NONE:v1 
RHOB     .g/cm3       UNKNOWN        : RHOB:PETROWORKS:rC:NONE:v1 
THOR     .ppm         UNKNOWN        : THOR:PETROWORKS:rC:NONE:v1 
URAN     .ppm         UNKNOWN        : URAN:PETROWORKS:rC:NONE:v1 
~A     DEPTH         CALI          CGR         DRHO           DT           GR          ILD          ILM          LLD          LLS         MSFL         NPHI          PEF         POTA         RHOB         THOR         URAN
# ...
   2091.0803      18.9688       2.7248       0.0113    -999.2500      22.3031    -999.2500    -999.2500     313.7443      16.1562      29.7969       0.0505       3.7422       0.0010       2.7058       0.3356       2.6688
   2091.2327      18.7500      -1.4565       0.0119    -999.2500      15.9822    -999.2500    -999.2500     322.7798      16.1541     510.0000       0.0356       3.6992      -0.0012       2.7962       0.0860       2.3772
   2091.3853      17.7813      -2.6726       0.0031    -999.2500      14.3425    -999.2500    -999.2500     420.8614      16.7335     850.0000       0.0387       3.8789      -0.0018       2.7848      -0.0014       2.3194
   2091.5376      17.7813       2.6665      -0.0069    -999.2500      18.1770    -999.2500    -999.2500     359.5500      20.1838     604.5000       0.0377       3.9082      -0.0002       2.7634       0.8538       2.1143
   2091.6899      17.7656       2.9282      -0.0077    -999.2500      18.2542    -999.2500    -999.2500     352.1505      20.9361      22.1094       0.0436       3.9180      -0.0001       2.6825       0.8813       2.0892
   2091.8423      18.0625       3.2221      -0.0037    -999.2500      18.8367    -999.2500    -999.2500     413.2354      21.4337       8.0938       0.0486       3.7031       0.0002       2.6106       0.8682       2.1285
   2091.9949      18.2500       1.7612       0.0096    -999.2500      15.8252    -999.2500    -999.2500     362.1268      21.3884       8.0234       0.0515       3.5430      -0.0000       2.5602       0.5289       1.9171
   2092.1472      17.8750       2.6945       0.0447    -999.2500      17.0301    -999.2500    -999.2500     493.2832      25.2266      30.4063       0.0589       3.4473      -0.0000       2.5923       0.8001       1.9542
   2092.2996      17.8906       2.4170       0.0673    -999.2500      16.9595    -999.2500    -999.2500     541.4794      25.8505      26.4531       0.0632       3.4531      -0.0004       2.6303       0.8607       1.9824
   2092.4519      17.8438       3.6003       0.0689    -999.2500      18.6114    -999.2500    -999.2500    1006.6267      24.6593      45.8438       0.0685       3.4434       0.0003       2.6598       0.9285       2.0462
   2092.6045      17.1094       3.1145       0.0602    -999.2500      17.5903    -999.2500    -999.2500     332.3479      22.4099      16.4844       0.0608       3.4199       0.0003       2.7030       0.7536       1.9733
   2092.7568      17.1250       2.0043       0.0453    -999.2500      13.9530    -999.2500    -999.2500     347.1622      20.9958      96.5625       0.0479       3.3340       0.0005       2.7391       0.3833       1.6288
   2092.9092      17.1563       4.6768       0.0205    -999.2500      16.5827    -999.2500    -999.2500     390.6897      21.7429     100.1875       0.0348       3.3535       0.0014       2.7450       0.7338       1.6230
   2093.0615      17.1875       4.7025       0.0229    -999.2500      16.1984    -999.2500    -999.2500     428.7376      22.2999      59.5000       0.0293       3.5137       0.0012       2.7330       0.8393       1.5671
   2093.2139      17.1719       3.2806       0.0292    -999.2500      13.0046    -999.2500    -999.2500     416.6372      23.9655      52.1250       0.0159       3.5664       0.0006       2.7153       0.6965       1.3255
   2093.3665      17.6563       4.0082       0.0406    -999.2500      13.5050    -999.2500    -999.2500     553.3278      29.5880      96.3125       0.0076       3.5137       0.0011       2.7258       0.6854       1.2946
   2093.5188      17.8906       4.5477       0.0451    -999.2500      13.1390    -999.2500    -999.2500     630.0593      31.8334     204.1250       0.0053       3.3438       0.0017       2.7532       0.5918       1.1711
   2093.6711      17.8906       3.9289       0.0597    -999.2500      11.6163    -999.2500    -999.2500     583.6846      30.4630      53.9688       0.0074       3.4453       0.0014       2.7977       0.5418       1.0479
   2093.8235      17.4219       4.5415       0.0436    -999.2500      12.6317    -999.2500    -999.2500     767.5623      28.1300      48.5625       0.0054       3.5547       0.0013       2.8007       0.7359       1.1028
   2093.9761      16.4219       4.3848       0.0352    -999.2500      12.8613    -999.2500    -999.2500     608.7148      26.1020      47.6875       0.0009       3.4922       0.0011       2.8175       0.8049       1.1555
   2094.1284      16.3906       5.4121       0.0335    -999.2500      13.9687    -999.2500    -999.2500     790.1974      26.9402      31.8281      -0.0023       3.0938       0.0015       2.8394       0.9110       1.1664
   2094.2808      16.3594       6.1938       0.0347    -999.2500      14.7242    -999.2500    -999.2500     749.8508      26.8558       9.9531       0.0054       2.9141       0.0018       2.8525       1.0161       1.1628
   2094.4331      16.4375       5.2212       0.0164    -999.2500      12.9137    -999.2500    -999.2500     749.3145      29.1090      35.4688       0.0109       3.0684       0.0013       2.8023       0.9418       1.0486
   2094.5857      16.8750       6.3073       0.0128    -999.2500      14.2517    -999.2500    -999.2500     633.1511      32.1551      53.0625       0.0122       3.5566       0.0016       2.7842       1.1337       1.0829
   2094.7380      17.9688       5.1468       0.0087    -999.2500      12.3934    -999.2500    -999.2500     630.8020      32.2501      53.0313       0.0026       3.9922       0.0011       2.7881       1.0107       0.9878
   2094.8904      17.5313       6.2317       0.0078    -999.2500      13.8191    -999.2500    -999.2500     649.4968      29.7402      53.0313      -0.0013       4.0391       0.0017       2.8118       1.0817       1.0343
   2095.0427      17.2969       5.9752       0.0058    -999.2500      13.9688    -999.2500    -999.2500     531.4934      28.5896      56.3125      -0.0023       3.7559       0.0024       2.8314       0.6900       1.0896
   2095.1951      17.4375       6.1128       0.0029    -999.2500      15.1572    -999.2500    -999.2500     682.4489      33.9762     120.0000      -0.0017       3.6641       0.0028       2.8245       0.5715       1.2329
   2095.3477      16.5469       6.2437       0.0017    -999.2500      16.0414    -999.2500    -999.2500     912.5909      33.9056      46.7813       0.0039       3.4141       0.0030       2.8112       0.5158       1.3356
   2095.5000      16.4375       5.0948      -0.0006    -999.2500      14.8090    -999.2500    -999.2500     815.0066      33.9359    2000.0000       0.0066       3.4023       0.0027       2.7867       0.3115       1.3242
   2095.6523      16.6719       3.0560      -0.0006    -999.2500      12.6063    -999.2500    -999.2500     609.1132      34.6435    1849.0000       0.0068       3.2578       0.0017       2.7981       0.1503       1.3019
   2095.8047      17.1094       3.0111       0.0031    -999.2500      12.9486    -999.2500    -999.2500     291.6766      33.4996     427.0000       0.0045       3.3496       0.0015       2.8270       0.2127       1.3546
   2095.9573      16.4688       3.6630       0.0038    -999.2500      13.2671    -999.2500    -999.2500    1401.8901      30.3487     268.7500       0.0062       3.4746       0.0021       2.8595       0.1441       1.3092
   2096.1096      15.7891       3.0503       0.0019    -999.2500      12.4723    -999.2500    -999.2500     793.7798      30.6856     161.5000       0.0092       3.7949       0.0015       2.8517       0.2356       1.2844
   2096.2620      15.8594       3.6028       0.0156    -999.2500      13.6180    -999.2500    -999.2500     799.3475      30.6588     102.5625       0.0224       3.7031       0.0010       2.8139       0.6191       1.3652
   2096.4143      15.8672       2.1733       0.0648    -999.2500      11.6461    -999.2500    -999.2500     556.7365      29.0352     136.8750       0.0789       3.6641       0.0002       2.7632       0.5589       1.2913
   2096.5669      15.8516       3.2115       0.0579    -999.2500      12.9615    -999.2500    -999.2500     388.4932      23.7521      16.3750       0.1231       3.5254       0.0003       2.6432       0.7884       1.3291
