#------------------------------------------------------------------------------
#
#   Created by  : [OpenWorks] Log Export Utility (LEXP)
#   Created on  : 2016-05-23 11:57:11
#   Project     : CANT971
#   User        : R5K
#   Interpreter : PEP
#
#------------------------------------------------------------------------------
~VERSION INFORMATION
VERS. 2.0 : CWLS Log ASCII Standard - version 2.0
WRAP.  NO : One line per depth step
~WELL INFORMATION
#MNEMONIC   .UNIT                                           VALUE :DESCRIPTION
#------------------------------------------------------------------------------
STRT        .M                                           319.2782 :START DEPTH
STOP        .M                                          2532.8882 :STOP DEPTH
STEP        .M                                             0.1524 :STEP
NULL        .                                           -999.2500 :NULL VALUE
COMP        .                                   PEMEX EXPL & PROD :COMPANY
WELL        .                                                 73A :WELL
FLD         .                                           CANTARELL :FIELD
LOC         .                                             UNKNOWN :LOCATION
CNTY        .                                      CD. DEL CARMEN :COUNTY
STAT        .                                            CAMPECHE :STATE
CTRY        .                                              MEXICO :COUNTRY
SRVC        .                                             UNKNOWN :SERVICE COMPANY
DATE        .                                             UNKNOWN :LOG DATE
UWI         .                                          3060000177 :UNIQUE WELL ID
XCOORD      .                                       599722.890000 :SURFACE X
YCOORD      .                                      2147218.550000 :SURFACE Y
LAT         .                                           19.417934 :LATITUDE
LON         .                                          -92.050165 :LONGITUDE
ELEV        .M                                            27.8000 :SURFACE ELEV
ELEV_TYPE   .                                                  KB :ELEV TYPE
~CURVE INFORMATION
#MNEMONIC.UNIT        API CODE       : CURVE DESCRIPTION
#------------------------------------------------------------------------------
DEPTH    .M                          : Measured Depth
CALI     .inches      UNKNOWN        : CALI:registros:rC:NONE:v0 (auto-composite)
DRHO     .g/cm3       UNKNOWN        : DRHO:registros:rC:NONE:v0 (auto-composite)
DT       .UNKNOWN     UNKNOWN        : DT:registros:rC:NONE:v0 (auto-composite)
GR       .API         UNKNOWN        : GR:registros:rC:NONE:v0 (auto-composite)
ILD      .ohm.m       UNKNOWN        : ILD:registros:rC:NONE:v0 (auto-composite)
LLD      .ohm.m       UNKNOWN        : LLD:registros:rC:NONE:v0 (auto-composite)
LLS      .ohm.m       UNKNOWN        : LLS:registros:rC:NONE:v0 (auto-composite)
MSFL     .ohm.m       UNKNOWN        : MSFL:registros:rC:NONE:v0 (auto-composite)
RHOB     .g/cm3       UNKNOWN        : RHOB:registros:rC:NONE:v0 (auto-composite)
~A     DEPTH         CALI         DRHO           DT           GR          ILD          LLD          LLS         MSFL         RHOB
# ...
   2284.6287       6.6700    -999.2500      54.3502      18.9000    -999.2500     264.6108      88.2000       7.8762       2.7235
   2284.7810       6.6700    -999.2500      54.6000      18.9000    -999.2500     272.0000      88.2000      10.6070       2.7450
   2284.9333       6.6700    -999.2500      54.4999      19.1943    -999.2500     264.8250      91.8508      28.5550       2.7775
   2285.0857       6.6700    -999.2500      54.4000      19.4890    -999.2500     257.5940      95.5300      46.4700       2.8100
   2285.2383       6.6700    -999.2500      54.4000      20.7381    -999.2500     238.8712     104.7285     131.3077       2.7895
   2285.3906       6.6700    -999.2500      54.4000      21.9890    -999.2500     220.0000     114.0000     216.0000       2.7690
   2285.5430       6.6700    -999.2500      54.9920      23.1805    -999.2500     262.8619     112.8123     207.4798       2.7470
   2285.6953       6.6700    -999.2500      55.5830      24.3740    -999.2500     306.0000     111.6170     198.9730       2.7250
   2285.8479       6.6700    -999.2500      58.0933      25.3776    -999.2500     275.5230     102.2164     177.1140       2.7090
   2286.0002       6.6700    -999.2500      60.6000      26.3830    -999.2500     244.8460      92.7540     155.2870       2.6930
   2286.1526       6.6700    -999.2500      59.9465      27.6928    -999.2500     170.5717      81.6930     103.1587       2.6810
   2286.3049       6.6700    -999.2500      59.2950      29.0050    -999.2500      95.8000      70.5580      51.1000       2.6690
   2286.4575       6.6700    -999.2500      57.9030      30.8172    -999.2500     147.2984      66.0942      63.0572       2.6445
   2286.6099       6.6700    -999.2500      56.5150      32.6330    -999.2500     199.1480      61.6000      75.0000       2.6200
   2286.7622       6.6700    -999.2500      55.3559      34.6643    -999.2500     445.7171      62.4226      67.5400       2.6260
   2286.9146       6.6700    -999.2500      54.2000      36.7000    -999.2500     694.0000      63.2510      60.1000       2.6320
   2287.0669       6.6700    -999.2500      54.7973      36.4318    -999.2500     673.0560      71.0978      79.6250       2.6355
   2287.2195       6.6700    -999.2500      55.3930      36.1630    -999.2500     651.9640      79.0000      99.1000       2.6390
   2287.3718       6.6700    -999.2500      56.1820      35.3704    -999.2500     487.2647      78.9108      61.9548       2.6395
   2287.5242       6.6700    -999.2500      56.9690      34.5760    -999.2500     321.3790      78.8210      24.9000       2.6400
   2287.6765       6.6700    -999.2500      57.3214      33.7855    -999.2500     253.8533      76.8886      25.0492       2.6400
   2287.8291       6.6700    -999.2500      57.6730      32.9930    -999.2500     185.8330      74.9420      25.1980       2.6400
   2287.9814       6.6700    -999.2500      57.9133      32.2989    -999.2500     159.0917      69.8400      57.9347       2.6550
   2288.1338       6.6700    -999.2500      58.1530      31.6040    -999.2500     132.1510      64.7000      90.6000       2.6700
   2288.2861       6.6700    -999.2500      58.5769      30.6061    -999.2500     119.1248      64.9680      79.3129       2.7050
   2288.4385       6.6700    -999.2500      59.0000      29.6070    -999.2500     106.0000      65.2380      68.0490       2.7400
   2288.5911       6.6700    -999.2500      58.9700      28.7041    -999.2500     122.0830      70.0629      56.8136       2.7100
   2288.7434       6.6700    -999.2500      58.9400      27.8000    -999.2500     138.2900      74.9250      45.6000       2.6800
   2288.8958       6.6700    -999.2500      58.4195      27.8000    -999.2500     161.7789      83.1868      46.1970       2.6400
   2289.0481       6.6700    -999.2500      57.9000      27.8000    -999.2500     185.4140      91.5000      46.7930       2.6000
   2289.2007       6.6700    -999.2500      58.0206      28.1013    -999.2500     197.6681      89.3339      47.3470       2.6210
   2289.3530       6.6700    -999.2500      58.1410      28.4030    -999.2500     210.0000      87.1540      47.9000       2.6420
   2289.5054       6.7059    -999.2500      58.7885      30.0626    -999.2500     204.1818      78.4547      38.2555       2.6910
   2289.6577       6.7420    -999.2500      59.4340      31.7250    -999.2500     198.3260      69.6990      28.6260       2.7400
   2289.8103       6.8064    -999.2500      60.2432      33.2112    -999.2500     175.1335      64.6193      20.9075       2.7100
   2289.9626       6.8710    -999.2500      61.0500      34.7000    -999.2500     151.7880      59.5060      13.2000       2.6800
   2290.1150       6.9409    -999.2500      62.3839      33.4902    -999.2500     130.7548      57.0214      20.5103       2.6190
   2290.2673       7.0110    -999.2500      63.7140      32.2780    -999.2500     109.5800      54.5200      27.8110       2.5580
   2290.4197       7.0604    -999.2500      65.6597      30.4573    -999.2500      95.0398      52.3674      76.4342       2.5190
   2290.5723       7.1100    -999.2500      67.6000      28.6330    -999.2500      80.4000      50.2000     125.0000       2.4800
   2290.7246       7.0766    -999.2500      67.4478      26.0193    -999.2500      81.9944      50.2603     108.4631       2.5225
   2290.8770       7.0430    -999.2500      67.2960      23.4000    -999.2500      83.6000      50.3210      91.9700       2.5650
   2291.0293       6.9806    -999.2500      65.3165      24.2201    -999.2500      79.6142      53.1953      79.7165       2.5935
   2291.1819       6.9180    -999.2500      63.3420      25.0420    -999.2500      75.6000      56.0900      67.4940       2.6220
   2291.3342       6.8516    -999.2500      61.1078      26.1696    -999.2500      78.5897      60.2983      58.8366       2.6290
   2291.4866       6.7850    -999.2500      58.8790      27.3000    -999.2500      81.6010      64.5370      50.2000       2.6360
   2291.6389       6.7276    -999.2500      57.1375      27.0004    -999.2500      86.4327      67.0094      54.4318       2.6470
   2291.7915       6.6700    -999.2500      55.4000      26.7000    -999.2500      91.3000      69.5000      58.6540       2.6580
   2291.9438       6.6700    -999.2500      55.4501      27.0053    -999.2500      78.9328      66.3986      83.8541       2.6730
   2292.0962       6.6700    -999.2500      55.5000      27.3110    -999.2500      66.4730      63.2740     109.0000       2.6880
   2292.2485       6.6700    -999.2500      55.0996      27.5554    -999.2500      56.2255      57.5348     106.5145       2.7030
   2292.4009       6.6700    -999.2500      54.7000      27.8000    -999.2500      45.9000      51.7520     104.0340       2.7180
   2292.5535       6.6700    -999.2500      55.5283      27.6776    -999.2500      49.2291      46.3469      77.2000       2.7265
   2292.7058       6.6700    -999.2500      56.3550      27.5550    -999.2500      52.5840      40.9000      50.4170       2.7350
   2292.8582       6.6700    -999.2500      57.0581      27.0843    -999.2500      62.2119      41.4981      32.7929       2.7375
   2293.0105       6.6700    -999.2500      57.7600      26.6130    -999.2500      71.9000      42.1000      15.2000       2.7400
   2293.1631       6.6700    -999.2500      57.9827      26.2193    -999.2500      67.9650      41.8847      16.5141       2.7370
   2293.3154       6.6700    -999.2500      58.2050      25.8250    -999.2500      64.0050      41.6680      17.8260       2.7340
   2293.4678       6.6700    -999.2500      58.2526      25.3809    -999.2500      58.9754      41.2852      35.0762       2.7220
   2293.6201       6.6700    -999.2500      58.3000      24.9360    -999.2500      53.9130      40.9000      52.3000       2.7100
   2293.7727       6.6700    -999.2500      58.0496      24.1187    -999.2500      50.1191      41.5693      47.0463       2.7100
   2293.9250       6.6700    -999.2500      57.8000      23.3000    -999.2500      46.3000      42.2430      41.8000       2.7100
