#------------------------------------------------------------------------------
#
#   Created by  : [OpenWorks] Log Export Utility (LEXP)
#   Created on  : 2016-05-23 11:53:49
#   Project     : CANT971
#   User        : R5K
#   Interpreter : PEP
#
#------------------------------------------------------------------------------
~VERSION INFORMATION
VERS. 2.0 : CWLS Log ASCII Standard - version 2.0
WRAP.  NO : One line per depth step
~WELL INFORMATION
#MNEMONIC   .UNIT                                           VALUE :DESCRIPTION
#------------------------------------------------------------------------------
STRT        .M                                           293.9797 :START DEPTH
STOP        .M                                          2713.7869 :STOP DEPTH
STEP        .M                                             0.1524 :STEP
NULL        .                                           -999.2500 :NULL VALUE
COMP        .                                   PEMEX EXPL & PROD :COMPANY
WELL        .                                                  28 :WELL
FLD         .                                           CANTARELL :FIELD
LOC         .                                             UNKNOWN :LOCATION
CNTY        .                                      CD. DEL CARMEN :COUNTY
STAT        .                                            CAMPECHE :STATE
CTRY        .                                              MEXICO :COUNTRY
SRVC        .                                             UNKNOWN :SERVICE COMPANY
DATE        .                                             UNKNOWN :LOG DATE
UWI         .                                          3060000156 :UNIQUE WELL ID
XCOORD      .                                       598450.720000 :SURFACE X
YCOORD      .                                      2145024.710000 :SURFACE Y
LAT         .                                           19.398172 :LATITUDE
LON         .                                          -92.062394 :LONGITUDE
ELEV        .M                                            26.5400 :SURFACE ELEV
ELEV_TYPE   .                                                  KB :ELEV TYPE
~CURVE INFORMATION
#MNEMONIC.UNIT        API CODE       : CURVE DESCRIPTION
#------------------------------------------------------------------------------
DEPTH    .M                          : Measured Depth
CALI     .inches      UNKNOWN        : CALI:Import:rC:NONE:v0 (auto-composite)
DRHO     .g/cm3       UNKNOWN        : DRHO:Import:rC:NONE:v0 (auto-composite)
DT       .us/ft       UNKNOWN        : DT:Import:rC:NONE:v0 (auto-composite)
GR       .API         UNKNOWN        : GR:Import:rC:NONE:v0 (auto-composite)
ILD      .ohm.m       UNKNOWN        : ILD:Import:rC:NONE:v0 (auto-composite)
LLD      .ohm.m       UNKNOWN        : LLD:Import:rC:NONE:v0 (auto-composite)
LLS      .ohm.m       UNKNOWN        : LLS:Import:rC:NONE:v0 (auto-composite)
MSFL     .ohm.m       UNKNOWN        : MSFL:Import:rC:NONE:v0 (auto-composite)
NPHI     .v/v_decimal UNKNOWN        : NPHI:Import:rC:NONE:v0 (auto-composite)
PEF      .b/elec      UNKNOWN        : PEF:Import:rC:NONE:v0 (auto-composite)
RHOB     .g/cm3       UNKNOWN        : RHOB:Import:rC:NONE:v0 (auto-composite)
~A     DEPTH         CALI         DRHO           DT           GR          ILD          LLD          LLS         MSFL         NPHI          PEF         RHOB
# ...
   2227.6309       6.4144       0.0484       0.0000      28.6650    -999.2500     895.9222     402.1565     939.6061       0.0605       3.1187       2.7828
   2227.7832       6.3730       0.0270       0.0000      28.5181    -999.2500     762.5130     344.8140     668.6920       0.0543       3.0200       2.7200
   2227.9358       6.3495       0.0145       0.0000      28.3720    -999.2500     809.4498     366.2334     364.7072       0.0540       3.1003       2.6743
   2228.0881       6.3260       0.0020       0.0000      29.2673    -999.2500     856.0670     387.5070      62.7920       0.0583       3.1800       2.6290
   2228.2405       6.3651      -0.0085       0.0000      30.1580    -999.2500     960.9733     436.0496     228.5881       0.0685       3.0019       2.6044
   2228.3928       6.4040      -0.0190       0.0000      28.6066    -999.2500    1065.1790     484.2680     393.2770       0.0801       2.8250       2.5800
   2228.5452       6.4306      -0.0130       0.0000      27.0630    -999.2500    1267.8922     600.6160     272.1623       0.0895       2.9248       2.6171
   2228.6978       6.4570      -0.0070       0.0000      24.8553    -999.2500    1469.2760     716.2010     151.8420       0.0982       3.0240       2.6540
   2228.8501       6.5442       0.0020       0.0000      22.6620    -999.2500    1414.5686     731.2524     274.5695       0.1075       3.0305       2.6083
   2229.0024       6.6310       0.0110       0.0000      26.8500    -999.2500    1360.2130     746.2070     396.5080       0.1112       3.0370       2.5630
   2229.1548       6.8701       0.0080       0.0000      31.0110    -999.2500    1074.3558     600.0469     669.4294       0.1000       2.8663       2.5309
   2229.3074       7.1080       0.0050       0.0000      32.8523    -999.2500     790.3020     454.8090     940.6290       0.0858       2.6970       2.4990
   2229.4597       6.8705       0.0010       0.0000      34.6820    -999.2500     537.7457     321.7975     487.4700       0.0785       2.7693       2.5090
   2229.6121       6.6340      -0.0030       0.0000      35.0797    -999.2500     286.7500     189.6080      37.1110       0.0746       2.8410       2.5190
   2229.7644       6.5298       0.0186       0.0000      35.4750    -999.2500     268.5223     181.2366      86.5713       0.0720       3.0212       2.5767
   2229.9170       6.4260       0.0400       0.0000      39.1657    -999.2500     250.4050     172.9160     135.7320       0.0678       3.2000       2.6340
   2230.0693       6.4095       0.0320       0.0000      42.8340    -999.2500     364.1041     262.3572     544.9583       0.0580       3.1804       2.6215
   2230.2217       6.3930       0.0240       0.0000      40.7929    -999.2500     477.1290     351.2680     951.7580       0.0481       3.1610       2.6090
   2230.3740       6.3399       0.0481       0.0000      38.7640    -999.2500     420.3566     326.0798     547.2977       0.0435       3.0074       2.5126
   2230.5264       6.2870       0.0720       0.0000      30.9994    -999.2500     363.9140     301.0380     145.1870       0.0412       2.8550       2.4170
   2230.6790       6.2544       0.0364       0.0000      23.2800    -999.2500     386.9809     291.0547     113.9263       0.0395       3.0447       2.4481
   2230.8313       6.2220       0.0010       0.0000      20.9860    -999.2500     409.8800     281.1440      82.8930       0.0405       3.2330       2.4790
   2230.9836       6.2596       0.0186       0.0000      18.7050    -999.2500     581.0641     390.5886     718.9979       0.0475       3.4051       2.6260
   2231.1360       6.2970       0.0360       0.0000      19.1773    -999.2500     751.0250     499.2510    1350.5570       0.0536       3.5760       2.7720
   2231.2886       6.2539       0.0179       0.0000      19.6470    -999.2500    1094.5736     718.6785     918.9952       0.0515       3.4250       2.7810
   2231.4409       6.2110       0.0000       0.0000      18.6558    -999.2500    1435.7080     936.5640     490.4660       0.0456       3.2750       2.7900
   2231.5933       6.2095       0.0035       0.0000      17.6700    -999.2500    1517.9060    1014.3924     836.3246       0.0385       3.0899       2.7734
   2231.7456       6.2080       0.0070       0.0000      17.0102    -999.2500    1599.5370    1091.6840    1179.7980       0.0327       2.9060       2.7570
   2231.8982       6.2461       0.0035       0.0000      16.3540    -999.2500    1416.0747     978.5084    1558.9232       0.0310       3.0982       2.7831
   2232.0505       6.2840       0.0000       0.0000      15.5514    -999.2500    1233.8560     866.1000    1935.4790       0.0307       3.2890       2.8090
   2232.2029       6.2564       0.0005       0.0000      14.7530    -999.2500    1167.3068     821.1792    1460.7701       0.0295       3.3497       2.8125
   2232.3552       6.2290       0.0010       0.0000      16.7345    -999.2500    1101.2000     776.5570     989.2170       0.0280       3.4100       2.8160
   2232.5076       6.2415       0.0025       0.0000      18.7060    -999.2500    1242.2875     867.5741     698.6014       0.0265       3.3744       2.8255
   2232.6602       6.2540       0.0040       0.0000      21.4936    -999.2500    1382.4540     957.9970     409.8830       0.0260       3.3390       2.8350
   2232.8125       6.2625       0.0045       0.0000      24.2630    -999.2500    1811.0079    1258.2510     916.4681       0.0280       3.2030       2.8415
   2232.9648       6.2710       0.0050       0.0000      25.1559    -999.2500    2236.8201    1556.5840    1419.8120       0.0316       3.0680       2.8480
   2233.1172       6.2404       0.0090       0.0000      26.0430    -999.2500    2376.1453    1674.6757     919.2125       0.0365       3.2342       2.8565
   2233.2698       6.2100       0.0130       0.0000      25.2696    -999.2500    2514.5959    1792.0260     421.7560       0.0403       3.3990       2.8650
   2233.4221       6.2832       0.0145       0.0000      24.5010    -999.2500    2399.9309    1727.7880     825.4084       0.0400       3.2549       2.8504
   2233.5745       6.3560       0.0160       0.0000      23.9859    -999.2500    2285.9709    1663.9449    1226.5790       0.0372       3.1120       2.8360
   2233.7268       6.3179       0.0095       0.0000      23.4740    -999.2500    2352.4500    1706.1111    1576.5269       0.0325       3.2425       2.8209
   2233.8794       6.2800       0.0030       0.0000      25.9630    -999.2500    2418.5281    1748.0229    1924.3650       0.0286       3.3720       2.8060
   2234.0317       6.2755       0.0050       0.0000      28.4370    -999.2500    2006.7645    1417.7925    1078.1335       0.0285       3.2440       2.7955
   2234.1841       6.2710       0.0070       0.0000      29.3422    -999.2500    1597.4301    1089.5100     236.8940       0.0294       3.1170       2.7850
   2234.3364       6.3076       0.0085       0.0000      30.2420    -999.2500    1392.1283     954.4558     975.0809       0.0290       2.9504       2.8011
   2234.4888       6.3440       0.0100       0.0000      31.4380    -999.2500    1188.0129     820.1820    1709.0020       0.0288       2.7850       2.8170
   2234.6414       6.3640       0.0050       0.0000      32.6270    -999.2500    1430.2601     961.4227    1100.7773       0.0305       2.8713       2.8220
   2234.7937       6.3840       0.0000       0.0000      30.6680    -999.2500    1670.7520    1101.6400     496.9600       0.0335       2.9570       2.8270
   2234.9460       6.3695      -0.0015       0.0000      28.7200    -999.2500    2240.0630    1445.1934     929.6449       0.0375       3.0232       2.8099
   2235.0984       6.3550      -0.0030       0.0000      27.9654    -999.2500    2805.3230    1786.3020    1359.2510       0.0424       3.0890       2.7930
   2235.2510       6.3745       0.0000       0.0000      27.2150    -999.2500    4123.5337    2433.2207    1178.5172       0.0485       3.3002       2.8010
   2235.4033       6.3940       0.0030       0.0000      26.3777    -999.2500    5432.5210    3075.6130     999.0480       0.0527       3.5100       2.8090
