#------------------------------------------------------------------------------
#
#   Created by  : [OpenWorks] Log Export Utility (LEXP)
#   Created on  : 2016-05-23 11:51:58
#   Project     : CANT971
#   User        : R5K
#   Interpreter : PEP
#
#------------------------------------------------------------------------------
~VERSION INFORMATION
VERS. 2.0 : CWLS Log ASCII Standard - version 2.0
WRAP.  NO : One line per depth step
~WELL INFORMATION
#MNEMONIC   .UNIT                                           VALUE :DESCRIPTION
#------------------------------------------------------------------------------
STRT        .M                                           695.7060 :START DEPTH
STOP        .M                                          3054.7056 :STOP DEPTH
STEP        .M                                             0.1524 :STEP
NULL        .                                           -999.2500 :NULL VALUE
COMP        .                                   PEMEX EXPL & PROD :COMPANY
WELL        .                                                 17D :WELL
FLD         .                                           CANTARELL :FIELD
LOC         .                                             UNKNOWN :LOCATION
CNTY        .                                      CD. DEL CARMEN :COUNTY
STAT        .                                            CAMPECHE :STATE
CTRY        .                                              MEXICO :COUNTRY
SRVC        .                                             UNKNOWN :SERVICE COMPANY
DATE        .                                             UNKNOWN :LOG DATE
UWI         .                                          3060000460 :UNIQUE WELL ID
XCOORD      .                                       603362.626000 :SURFACE X
YCOORD      .                                      2145093.910000 :SURFACE Y
LAT         .                                           19.398550 :LATITUDE
LON         .                                          -92.015617 :LONGITUDE
ELEV        .M                                            27.1400 :SURFACE ELEV
ELEV_TYPE   .                                                  KB :ELEV TYPE
~CURVE INFORMATION
#MNEMONIC.UNIT        API CODE       : CURVE DESCRIPTION
#------------------------------------------------------------------------------
DEPTH    .M                          : Measured Depth
CALI     .in          UNKNOWN        : CALI:UNKNOWN:rC:NONE:v0 (auto-composite)
DT       .us/ft       UNKNOWN        : DT:DT:rC:NONE:v0 (auto-composite)
GR       .API         UNKNOWN        : GR:UNKNOWN:rC:NONE:v0 (auto-composite)
ILD      .ohmm        UNKNOWN        : ILD:UNKNOWN:rC:NONE:v0 (auto-composite)
LLD      .ohmm        UNKNOWN        : LLD:UNKNOWN:rC:NONE:v0 (auto-composite)
LLS      .ohmm        UNKNOWN        : LLS:UNKNOWN:rC:NONE:v0 (auto-composite)
MSFL     .ohmm        UNKNOWN        : MSFL:UNKNOWN:rC:NONE:v0 (auto-composite)
NPHI     .v/v_decimal UNKNOWN        : NPHI:UNKNOWN:rC:NONE:v0 (auto-composite)
PEF      .b/elec      UNKNOWN        : PEF:UNKNOWN:rC:NONE:v0 (auto-composite)
RHOB     .g/cm3       UNKNOWN        : RHOB:UNKNOWN:rC:NONE:v0 (auto-composite)
~A     DEPTH         CALI           DT           GR          ILD          LLD          LLS         MSFL         NPHI          PEF         RHOB
# ...
   2940.2532       7.2811      71.3955     128.8667    -999.2500       8.7964       7.9697       3.5555       0.1546       3.1028       2.5284
   2940.4055       6.5880      73.7752     130.0970    -999.2500       8.6330       7.8120       3.2230       0.1275       3.4100       2.5700
   2940.5581       6.7905      75.8502     131.5096    -999.2500       8.3947       7.6428       3.0318       0.1435       3.3337       2.5212
   2940.7104       6.9940      76.9333     132.9310    -999.2500       8.1550       7.4730       2.8400       0.1595       3.2570       2.4720
   2940.8628       7.1182      74.6042     134.9383    -999.2500       7.6813       7.1420       2.7486       0.1744       3.1792       2.5083
   2941.0151       7.2430      71.6867     136.9650    -999.2500       7.2030       6.8100       2.6570       0.1894       3.1010       2.5450
   2941.1675       7.3956      72.1224     133.4166    -999.2500       6.9598       6.6376       2.5886       0.1886       3.0506       2.5664
   2941.3201       7.5490      72.6631     129.8450    -999.2500       6.7150       6.4650       2.5200       0.1877       3.0000       2.5880
   2941.4724       7.3999      72.3935     130.0543    -999.2500       6.6690       6.4280       2.8182       0.1933       3.0554       2.5795
   2941.6248       7.2500      71.8480     130.2640    -999.2500       6.6230       6.3910       3.1170       0.1989       3.1110       2.5710
   2941.7771       7.2719      70.6840     130.0070    -999.2500       6.5117       6.2621       2.8308       0.2072       3.1479       2.5765
   2941.9297       7.2940      69.1579     129.7490    -999.2500       6.4000       6.1330       2.5440       0.2155       3.1850       2.5820
   2942.0820       7.4261      66.5607     127.9961    -999.2500       6.4294       6.1600       2.1849       0.2223       3.1690       2.5750
   2942.2344       7.5590      64.0507     126.2310    -999.2500       6.4590       6.1870       1.8250       0.2292       3.1530       2.5680
   2942.3867       7.7191      65.8946     121.4411    -999.2500       6.7008       6.4482       2.3070       0.2324       3.1036       2.5486
   2942.5393       7.8800      68.5848     116.6020    -999.2500       6.9450       6.7100       2.7900       0.2355       3.0540       2.5290
   2942.6917       7.8316      72.6387     118.0554    -999.2500       6.8652       6.6191       3.2899       0.2306       2.9428       2.4901
   2942.8440       7.7830      76.6415     119.5170    -999.2500       6.7850       6.5280       3.7910       0.2256       2.8310       2.4510
   2942.9963       8.0866      78.6823     120.1272    -999.2500       6.6396       6.3942       3.7685       0.2186       2.8784       2.3760
   2943.1487       8.3920      80.1322     120.7380    -999.2500       6.4940       6.2600       3.7460       0.2116       2.9260       2.3010
   2943.3013       7.6731      80.6453     122.2987    -999.2500       6.1946       5.9659       3.3201       0.2264       2.8657       2.3359
   2943.4536       6.9500      80.8887     123.8660    -999.2500       5.8940       5.6710       2.8930       0.2413       2.8050       2.3710
   2943.6060       7.1369      80.7728     131.7846    -999.2500       5.5393       5.3155       2.9684       0.2388       2.7626       2.3237
   2943.7583       7.3250      80.5186     139.7630    -999.2500       5.1820       4.9590       3.0440       0.2363       2.7200       2.2760
   2943.9109       7.5036      79.8029     138.7801    -999.2500       4.9590       4.7398       2.7789       0.2308       2.8332       2.3402
   2944.0632       7.6830      79.1301     137.7880    -999.2500       4.7340       4.5200       2.5130       0.2252       2.9470       2.4050
   2944.2156       7.7957      78.6649     135.8899    -999.2500       4.6532       4.4456       2.3288       0.2275       3.0508       2.4549
   2944.3679       7.9090      78.2518     133.9830    -999.2500       4.5720       4.3710       2.1440       0.2297       3.1550       2.5050
   2944.5205       7.9589      77.4001     132.9928    -999.2500       4.6924       4.4989       2.2769       0.2392       3.1974       2.4920
   2944.6729       8.0090      76.1395     132.0010    -999.2500       4.8130       4.6270       2.4100       0.2487       3.2400       2.4790
   2944.8252       7.8414      73.6470     130.3555    -999.2500       5.1796       4.9817       2.6253       0.2643       3.2016       2.4890
   2944.9775       7.6730      71.3262     128.7020    -999.2500       5.5480       5.3370       2.8410       0.2799       3.1630       2.4990
   2945.1299       7.6905      72.6304     129.2068    -999.2500       5.7159       5.5049       2.9214       0.2771       3.0598       2.4865
   2945.2825       7.7080      74.0821     129.7150    -999.2500       5.8850       5.6730       3.0020       0.2742       2.9560       2.4740
   2945.4348       7.7698      73.6571     128.3527    -999.2500       6.0060       5.7629       2.8441       0.2715       2.8672       2.5004
   2945.5872       7.8320      72.8639     126.9790    -999.2500       6.1280       5.8530       2.6860       0.2687       2.7780       2.5270
   2945.7395       7.8026      72.3486     127.6707    -999.2500       6.2148       5.9139       2.6161       0.2570       2.8114       2.5464
   2945.8921       7.7730      72.0244     128.3660    -999.2500       6.3020       5.9750       2.5460       0.2451       2.8450       2.5660
   2946.0444       7.6653      72.6817     129.9029    -999.2500       6.2326       5.9091       2.6589       0.2357       2.9243       2.5580
   2946.1968       7.5570      72.9321     131.4430    -999.2500       6.1630       5.8430       2.7720       0.2261       3.0040       2.5500
   2946.3491       7.5605      71.6080     132.7764    -999.2500       6.0557       5.7476       2.8694       0.2310       3.0314       2.5156
   2946.5017       7.5640      69.7747     134.1150    -999.2500       5.9480       5.6520       2.9670       0.2358       3.0590       2.4810
   2946.6541       7.5974      71.1820     135.8013    -999.2500       5.8004       5.5097       2.9036       0.2399       3.0904       2.4626
   2946.8064       7.6310      72.8149     137.4970    -999.2500       5.6520       5.3670       2.8400       0.2439       3.1220       2.4440
   2946.9587       7.6280      75.0322     137.2426    -999.2500       5.4947       5.2252       2.7421       0.2431       3.2940       2.4714
   2947.1111       7.6250      77.2612     136.9860    -999.2500       5.3360       5.0830       2.6440       0.2424       3.4670       2.4990
   2947.2637       7.6290      77.3695     136.0020    -999.2500       5.2545       5.0211       2.5047       0.2436       3.4171       2.5199
   2947.4160       7.6330      76.6823     135.0060    -999.2500       5.1720       4.9590       2.3650       0.2449       3.3670       2.5410
   2947.5684       7.6833      73.8889     135.7616    -999.2500       5.2094       5.0104       2.2022       0.2457       3.2424       2.5515
   2947.7207       7.7340      72.3995     136.5230    -999.2500       5.2470       5.0620       2.0390       0.2465       3.1170       2.5620
   2947.8733       7.7954      80.3002     137.8136    -999.2500       5.4372       5.2637       2.2617       0.2505       3.1190       2.5945
   2948.0256       7.8570      88.0101     139.1080    -999.2500       5.6280       5.4660       2.4850       0.2544       3.1210       2.6270
   2948.1780       7.8136      85.4454     135.6782    -999.2500       6.0243       5.8704       2.7361       0.2657       3.2876       2.6125
   2948.3303       7.7700      81.1889     132.2270    -999.2500       6.4230       6.2760       2.9880       0.2770       3.4550       2.5980
   2948.4829       7.7969      77.6916     129.6421    -999.2500       6.6427       6.5023       3.1274       0.2758       3.5183       2.6020
   2948.6353       7.8240      74.5831     127.0490    -999.2500       6.8630       6.7290       3.2670       0.2746       3.5820       2.6060
