#------------------------------------------------------------------------------
#
#   Created by  : [OpenWorks] Log Export Utility (LEXP)
#   Created on  : 2016-05-23 11:57:11
#   Project     : CANT971
#   User        : R5K
#   Interpreter : PEP
#
#------------------------------------------------------------------------------
~VERSION INFORMATION
VERS. 2.0 : CWLS Log ASCII Standard - version 2.0
WRAP.  NO : One line per depth step
~WELL INFORMATION
#MNEMONIC   .UNIT                                           VALUE :DESCRIPTION
#------------------------------------------------------------------------------
STRT        .M                                           319.2782 :START DEPTH
STOP        .M                                          2532.8882 :STOP DEPTH
STEP        .M                                             0.1524 :STEP
NULL        .                                           -999.2500 :NULL VALUE
COMP        .                                   PEMEX EXPL & PROD :COMPANY
WELL        .                                                 73A :WELL
FLD         .                                           CANTARELL :FIELD
LOC         .                                             UNKNOWN :LOCATION
CNTY        .                                      CD. DEL CARMEN :COUNTY
STAT        .                                            CAMPECHE :STATE
CTRY        .                                              MEXICO :COUNTRY
SRVC        .                                             UNKNOWN :SERVICE COMPANY
DATE        .                                             UNKNOWN :LOG DATE
UWI         .                                          3060000177 :UNIQUE WELL ID
XCOORD      .                                       599722.890000 :SURFACE X
YCOORD      .                                      2147218.550000 :SURFACE Y
LAT         .                                           19.417934 :LATITUDE
LON         .                                          -92.050165 :LONGITUDE
ELEV        .M                                            27.8000 :SURFACE ELEV
ELEV_TYPE   .                                                  KB :ELEV TYPE
~CURVE INFORMATION
#MNEMONIC.UNIT        API CODE       : CURVE DESCRIPTION
#------------------------------------------------------------------------------
DEPTH    .M                          : Measured Depth
CALI     .inches      UNKNOWN        : CALI:registros:rC:NONE:v0 (auto-composite)
DRHO     .g/cm3       UNKNOWN        : DRHO:registros:rC:NONE:v0 (auto-composite)
DT       .UNKNOWN     UNKNOWN        : DT:registros:rC:NONE:v0 (auto-composite)
GR       .API         UNKNOWN        : GR:registros:rC:NONE:v0 (auto-composite)
ILD      .ohm.m       UNKNOWN        : ILD:registros:rC:NONE:v0 (auto-composite)
LLD      .ohm.m       UNKNOWN        : LLD:registros:rC:NONE:v0 (auto-composite)
LLS      .ohm.m       UNKNOWN        : LLS:registros:rC:NONE:v0 (auto-composite)
MSFL     .ohm.m       UNKNOWN        : MSFL:registros:rC:NONE:v0 (auto-composite)
RHOB     .g/cm3       UNKNOWN        : RHOB:registros:rC:NONE:v0 (auto-composite)
~A     DEPTH         CALI         DRHO           DT           GR          ILD          LLD          LLS         MSFL         RHOB
# ...
   2520.8486       6.2200    -999.2500      86.9072      18.9000    -999.2500      51.1962      25.8000      18.3717       2.4160
   2521.0010       6.2200    -999.2500      80.2330      18.9000    -999.2500      47.1460      25.8000      19.8400       2.4290
   2521.1533       6.2200    -999.2500      76.6597      18.9000    -999.2500      44.0345      25.8000      22.9655       2.4470
   2521.3059       6.2200    -999.2500      73.1000      18.9000    -999.2500      40.9000      25.8000      26.0840       2.4650
   2521.4583       6.2200    -999.2500      73.7452      19.8655    -999.2500      42.1926      26.2134      28.2443       2.4915
   2521.6106       6.2200    -999.2500      74.3880      20.8320    -999.2500      43.4950      26.6300      30.4000       2.5180
   2521.7629       6.2170    -999.2500      79.2026      22.3246    -999.2500      45.8211      27.9136      20.4322       2.5290
   2521.9153       6.2140    -999.2500      84.0000      23.8190    -999.2500      48.1650      29.2070      10.5000       2.5400
   2522.0679       6.1621    -999.2500      80.8310      26.7575    -999.2500      49.3957      30.7196      15.3974       2.5000
   2522.2202       6.1100    -999.2500      77.6730      29.7000    -999.2500      50.6360      32.2440      20.2780       2.4600
   2522.3726       6.1100    -999.2500      73.9303      29.5386    -999.2500      51.4314      34.1021      49.7880       2.4950
   2522.5249       6.1100    -999.2500      70.2000      29.3770    -999.2500      52.2330      35.9750      79.2000       2.5300
   2522.6775       6.1389    -999.2500      73.8989      28.5502    -999.2500      52.5428      38.8524      65.7120       2.5100
   2522.8298       6.1680    -999.2500      77.5860      27.7220    -999.2500      52.8550      41.7530      52.2670       2.4900
   2522.9822       6.1940    -999.2500      82.3458      26.5620    -999.2500      56.5818      45.9593      35.6079       2.5160
   2523.1345       6.2200    -999.2500      87.0910      25.4000    -999.2500      60.3390      50.2000      19.0000       2.5420
   2523.2871       6.2135    -999.2500      92.6036      24.4599    -999.2500      69.9795      42.6812      55.4536       2.5910
   2523.4395       6.2070    -999.2500      98.1000      23.5180    -999.2500      79.7000      35.1000      91.8000       2.6400
   2523.5918       6.1581    -999.2500      94.3948      22.3507    -999.2500      72.8986      35.8966      81.1780       2.6600
   2523.7441       6.1090    -999.2500      90.7000      21.1810    -999.2500      66.0400      36.7000      70.5860       2.6800
   2523.8965       6.0546    -999.2500      90.9609      20.0712    -999.2500      62.7222      36.2425      56.9747       2.6670
   2524.0491       6.0000    -999.2500      91.2210      18.9590    -999.2500      59.3760      35.7810      43.4000       2.6540
   2524.2014       6.0324    -999.2500      95.2657      17.8532    -999.2500      58.2814      34.5947      58.0188       2.6310
   2524.3538       6.0650    -999.2500      99.3000      16.7450    -999.2500      57.1790      33.4000      72.6000       2.6080
   2524.5061       6.1374    -999.2500      95.9955      15.8595    -999.2500      52.8052      34.1722      60.3475       2.5930
   2524.6587       6.2100    -999.2500      92.6990      14.9720    -999.2500      48.4000      34.9500      48.1250       2.5780
   2524.8110       6.1601    -999.2500      87.4209      14.2443    -999.2500      53.6837      38.5234      33.4956       2.5545
   2524.9634       6.1100    -999.2500      82.1550      13.5160    -999.2500      59.0060      42.1230      18.9000       2.5310
   2525.1157       6.1100    -999.2500      76.5353      13.1582    -999.2500      73.7745      47.4880      32.3690       2.4855
   2525.2683       6.1100    -999.2500      70.9370      12.8000    -999.2500      88.6530      52.8930      45.7870       2.4400
   2525.4207       6.1100    -999.2500      65.0076      12.9639    -999.2500     111.7391      62.4104      84.7027       2.4665
   2525.5730       6.1100    -999.2500      59.1000      13.1280    -999.2500     135.0000      72.0000     123.4760       2.4930
   2525.7253       6.1100    -999.2500      60.7454      13.5697    -999.2500     122.8229      70.8783     156.7970       2.5485
   2525.8777       6.1100    -999.2500      62.3850      14.0120    -999.2500     110.5520      69.7480     190.0000       2.6040
   2526.0303       6.1100    -999.2500      66.1589      14.1944    -999.2500     102.1589      65.3198     119.9806       2.6370
   2526.1826       6.1100    -999.2500      69.9200      14.3770    -999.2500      93.7000      60.8570      50.2000       2.6700
   2526.3350       6.1100    -999.2500      72.2794      14.3885    -999.2500      94.7458      55.8305      51.6639       2.6570
   2526.4873       6.1100    -999.2500      74.6310      14.4000    -999.2500      95.8000      50.7640      53.1230       2.6440
   2526.6399       6.1100    -999.2500      78.9223      14.2022    -999.2500      92.1069      46.8523      57.3682       2.6340
   2526.7922       6.1100    -999.2500      83.2000      14.0040    -999.2500      88.3840      42.9090      61.6000       2.6240
   2526.9446       6.1100    -999.2500      82.9681      13.4455    -999.2500      83.8456      39.3690      51.2523       2.6170
   2527.0969       6.1100    -999.2500      82.7370      12.8860    -999.2500      79.2700      35.8000      40.9360       2.6100
   2527.2495       6.1100    -999.2500      80.2649      11.8620    -999.2500      76.2974      36.1939      29.2009       2.6250
   2527.4019       6.1100    -999.2500      77.8000      10.8360    -999.2500      73.3000      36.5910      17.5000       2.6400
   2527.5542       6.1100    -999.2500      83.0814      10.2486    -999.2500      69.1177      36.7832      20.3630       2.6050
   2527.7065       6.1100    -999.2500      88.3480       9.6600    -999.2500      64.9000      36.9770      23.2180       2.5700
   2527.8589       6.1100    -999.2500      95.1831       8.6491    -999.2500      64.9000      36.9885      29.1669       2.5800
   2528.0115       6.1100    -999.2500     102.0000       7.6360    -999.2500      64.9000      37.0000      35.1000       2.5900
   2528.1638       6.1100    -999.2500      97.3010       6.5577    -999.2500    -999.2500    -999.2500      30.2078       2.5765
   2528.3162       6.1100    -999.2500      92.6140       5.4770    -999.2500    -999.2500    -999.2500      25.3280       2.5630
   2528.4685       6.1100    -999.2500      80.2922       5.0330    -999.2500    -999.2500    -999.2500      21.5595       2.5365
   2528.6211       6.1100    -999.2500      68.0000       4.5880    -999.2500    -999.2500    -999.2500      17.8000       2.5100
   2528.7734       6.0701    -999.2500      68.6683    -999.2500    -999.2500    -999.2500    -999.2500      29.8137       2.5100
   2528.9258       6.0300    -999.2500      69.3350    -999.2500    -999.2500    -999.2500    -999.2500      41.8000       2.5100
   2529.0781       5.9601    -999.2500      77.7819    -999.2500    -999.2500    -999.2500    -999.2500      39.2452       2.5235
   2529.2307       5.8900    -999.2500      86.1970    -999.2500    -999.2500    -999.2500    -999.2500      36.7000       2.5370
   2529.3831       5.8900    -999.2500      91.8588    -999.2500    -999.2500    -999.2500    -999.2500      44.2637       2.5685
   2529.5354       5.8900    -999.2500      97.5000    -999.2500    -999.2500    -999.2500    -999.2500      51.8000       2.6000
   2529.6877       5.9199    -999.2500      91.6252    -999.2500    -999.2500    -999.2500    -999.2500      42.8844       2.5900
   2529.8401       5.9500    -999.2500      85.7710    -999.2500    -999.2500    -999.2500    -999.2500      34.0000       2.5800
   2529.9927       5.9710    -999.2500      79.8255    -999.2500    -999.2500    -999.2500    -999.2500      38.5577       2.5550
   2530.1450       5.9920    -999.2500      73.9000    -999.2500    -999.2500    -999.2500    -999.2500      43.1000       2.5300
