#------------------------------------------------------------------------------
#
#   Created by  : [OpenWorks] Log Export Utility (LEXP)
#   Created on  : 2016-05-23 11:56:20
#   Project     : CANT971
#   User        : R5K
#   Interpreter : PEP
#
#------------------------------------------------------------------------------
~VERSION INFORMATION
VERS. 2.0 : CWLS Log ASCII Standard - version 2.0
WRAP.  NO : One line per depth step
~WELL INFORMATION
#MNEMONIC   .UNIT                                           VALUE :DESCRIPTION
#------------------------------------------------------------------------------
STRT        .M                                          1446.1469 :START DEPTH
STOP        .M                                          3739.7668 :STOP DEPTH
STEP        .M                                             0.1524 :STEP
NULL        .                                           -999.2500 :NULL VALUE
COMP        .                                             UNKNOWN :COMPANY
WELL        .                                               468-V :WELL
FLD         .                                             UNKNOWN :FIELD
LOC         .                                             UNKNOWN :LOCATION
CNTY        .                                             UNKNOWN :COUNTY
STAT        .                                             UNKNOWN :STATE
CTRY        .                                             UNKNOWN :COUNTRY
SRVC        .                                             UNKNOWN :SERVICE COMPANY
DATE        .                                             UNKNOWN :LOG DATE
UWI         .                                               468-V :UNIQUE WELL ID
XCOORD      .                                       598699.140000 :SURFACE X
YCOORD      .                                      2143301.650000 :SURFACE Y
LAT         .                                           19.382589 :LATITUDE
LON         .                                          -92.060118 :LONGITUDE
ELEV        .M                                             0.0000 :SURFACE ELEV
ELEV_TYPE   .                                                  NA :ELEV TYPE
~CURVE INFORMATION
#MNEMONIC.UNIT        API CODE       : CURVE DESCRIPTION
#------------------------------------------------------------------------------
DEPTH    .M                          : Measured Depth
CALI     .inches      UNKNOWN        : CALI:PETROWORKS:rC:NONE:v1 
DRHO     .g/cm3       UNKNOWN        : DRHO:PETROWORKS:rC:NONE:v1 
DT       .us/ft       UNKNOWN        : DT:sonico:rC:NONE:v0 (auto-composite)
GR       .API         UNKNOWN        : GR:PETROWORKS:rC:NONE:v1 
GR-LWD   .API         UNKNOWN        : GR-LWD:PETROWORKS:rC:NONE:v3 
ILD-LWD  .ohm.m       UNKNOWN        : ILD-LWD:PETROWORKS:rC:NONE:v3 
ILM-LWD  .UNKNOWN     UNKNOWN        : ILM-LWD:PETROWORKS:rC:NONE:v3 
NPHI     .v/v_decimal UNKNOWN        : NPHI:PETROWORKS:rC:NONE:v1 
PEF      .b/elec      UNKNOWN        : PEF:PETROWORKS:rC:NONE:v1 
RHOB     .g/cm3       UNKNOWN        : RHOB:PETROWORKS:rC:NONE:v1 
~A     DEPTH         CALI         DRHO           DT           GR       GR-LWD      ILD-LWD      ILM-LWD         NPHI          PEF         RHOB
# ...
   2333.7244       8.4179       0.0121    -999.2500      81.3505      54.2888      38.3068      36.6643       0.0635       3.1411       2.6347
   2333.8770       8.4515       0.0528    -999.2500      75.1665      53.1552      40.9638      39.2907       0.0666       3.1485       2.6178
   2334.0293       8.4188       0.0598    -999.2500      78.4401      56.9279      45.3644      43.6369       0.0703       3.1561       2.6369
   2334.1816       8.4046       0.0440    -999.2500      81.0117      61.6806      49.2981      47.4301       0.0731       3.1638       2.6641
   2334.3340       8.4141       0.0391    -999.2500      81.4005      69.0880      52.7911      50.6856       0.0774       3.1733       2.6632
   2334.4866       8.4367       0.0389    -999.2500      90.8451      74.4268      57.2547      54.3395       0.0853       3.1955       2.6403
   2334.6389       8.4183       0.0402    -999.2500     105.1788      70.4546      59.2105      55.4727       0.0917       3.2164       2.6202
   2334.7913       8.4137       0.0342    -999.2500     115.4656      69.2802      61.6510      56.3422       0.0966       3.2405       2.6153
   2334.9436       8.4259       0.0179    -999.2500     108.3778      67.5889      64.0619      56.8162       0.0924       3.2097       2.6466
   2335.0959       8.4136       0.0072    -999.2500      93.8196      66.8519      68.4964      58.8303       0.0842       3.1292       2.6624
   2335.2485       8.4326       0.0065    -999.2500      90.4074      68.6392      73.1585      61.5085       0.0847       3.0829       2.6172
   2335.4009       8.4426       0.0052    -999.2500      96.2276      72.3600      85.8200      70.3800       0.0950       3.0537       2.5322
   2335.5532       8.4394       0.0021    -999.2500     100.8253      80.7912      96.9239      80.9151       0.1055       3.0593       2.5024
   2335.7056       8.4634      -0.0044    -999.2500     119.6197      86.6751     109.2845      93.5489       0.1192       3.0573       2.4041
   2335.8582       8.4764      -0.0064    -999.2500     135.2472      85.8588     123.0798     107.6052       0.1325       3.0346       2.3437
   2336.0105       8.4707      -0.0062    -999.2500     135.7164      83.8025     139.5473     125.2413       0.1349       3.1136       2.4198
   2336.1628       8.4649      -0.0031    -999.2500     122.3363      76.2800     159.3043     142.7596       0.1008       3.2016       2.5409
   2336.3152       8.4420       0.0012    -999.2500      86.3064      61.7071     173.2293     154.1423       0.0572       3.2264       2.6537
   2336.4675       8.5213       0.0005    -999.2500      61.6779      42.4416     195.4089     174.2662       0.0450       3.2164       2.6569
   2336.6201       8.4737      -0.0002    -999.2500      43.2823      30.1943     217.8160     185.9361       0.0401       3.2637       2.6139
   2336.7725       8.4790      -0.0013    -999.2500      42.7624      26.0394     255.1371     203.2904       0.0428       3.2689       2.5757
   2336.9248       8.4748      -0.0029    -999.2500      43.3748      23.5454     283.6517     215.2472       0.0444       3.1867       2.5630
   2337.0771       8.4711      -0.0018    -999.2500      41.3681      22.9153     303.1107     221.2912       0.0405       3.0381       2.6044
   2337.2297       8.4450       0.0021    -999.2500      38.6359      22.2541     322.0019     229.5237       0.0370       2.9943       2.6501
   2337.3821       8.4432       0.0083    -999.2500      38.1398      22.2236     323.6560     229.6457       0.0354       3.0106       2.6948
   2337.5344       8.4320       0.0124    -999.2500      39.0680      21.8970     329.8723     231.6050       0.0352       3.0553       2.7207
   2337.6868       8.4634       0.0109    -999.2500      37.8197      22.3546     356.9736     244.9404       0.0375       3.0982       2.7134
   2337.8394       8.4850       0.0037    -999.2500      37.9820      23.2356     445.0428     284.2696       0.0399       3.1163       2.6594
   2337.9917       8.4454      -0.0034    -999.2500      39.2081      24.1775     506.3760     313.4568       0.0467       3.1421       2.5937
   2338.1440       8.4253      -0.0053    -999.2500      38.7085      24.7712     591.7341     350.2939       0.0488       3.1620       2.5605
   2338.2964       8.3792      -0.0027    -999.2500      38.9142      25.2999     666.6883     385.2176       0.0516       3.1561       2.5520
   2338.4487       8.3959       0.0032    -999.2500      41.4973      25.1438     653.9384     385.5695       0.0523       3.0827       2.5664
   2338.6013       8.3809       0.0139    -999.2500      42.0334      25.0800     620.8600     363.3000       0.0507       2.9333       2.6007
   2338.7537       8.3739       0.0258    -999.2500      40.7865      26.0556     576.0839     345.6103       0.0519       2.9598       2.6314
   2338.9060       8.2405       0.0371    -999.2500      44.2523      26.4447     566.8293     336.6187       0.0480       3.0967       2.6822
   2339.0583       8.2905       0.0209    -999.2500      43.3967      26.7926     601.9156     341.2096       0.0467       3.1379       2.7000
   2339.2109       8.3636      -0.0081    -999.2500      36.9958      27.4714     662.1486     355.4928       0.0454       3.1395       2.7204
   2339.3633       8.3565      -0.0117    -999.2500      36.4174      27.8163     680.3900     358.7734       0.0453       3.1160       2.7253
   2339.5156       8.3484      -0.0123    -999.2500      40.1676      28.1866     661.4146     346.4355       0.0459       3.1050       2.7399
   2339.6680       8.3607      -0.0123    -999.2500      43.6675      29.2397     657.8244     346.2180       0.0494       3.1190       2.7571
   2339.8206       8.3846      -0.0131    -999.2500      47.8707      29.9895     649.4128     346.0167       0.0490       3.1268       2.7592
   2339.9729       8.4149      -0.0079    -999.2500      52.1356      30.6754     652.5390     351.3463       0.0466       3.1467       2.7471
   2340.1252       8.4141       0.0058    -999.2500      56.9880      29.9760     666.6802     365.3478       0.0451       3.1987       2.7357
   2340.2776       8.4005       0.0222    -999.2500      54.2609      28.4773     690.3375     387.4972       0.0448       3.2422       2.7309
   2340.4299       8.4153       0.0243    -999.2500      47.0085      26.8415     753.2475     437.2762       0.0420       3.1979       2.7466
   2340.5825       8.4206       0.0093    -999.2500      41.4372      25.5854     771.8374     466.9804       0.0362       3.1224       2.7647
   2340.7349       8.4369      -0.0070    -999.2500      35.4104      22.9633     771.0129     470.6821       0.0318       3.1088       2.7731
   2340.8872       8.4536      -0.0115    -999.2500      27.7931      21.3939     758.3680     463.1374       0.0285       3.1356       2.7911
   2341.0396       8.4435      -0.0095    -999.2500      28.6383      20.5510     747.8482     455.2216       0.0289       3.1820       2.7920
   2341.1921       8.4352      -0.0111    -999.2500      32.6600      20.6578     739.2246     448.2324       0.0307       3.2012       2.7754
   2341.3445       8.4595      -0.0143    -999.2500      39.0647      23.5683     727.4807     435.6340       0.0340       3.1470       2.7519
   2341.4968       8.5061      -0.0178    -999.2500      52.6981      27.3710     712.4459     418.6257       0.0374       3.1022       2.7194
   2341.6492       8.5057      -0.0175    -999.2500      62.6718      32.6464     608.0730     311.1895       0.0410       3.1249       2.7023
   2341.8018       8.5277      -0.0120    -999.2500      57.3282      36.0100     546.4800     267.6500       0.0493       3.1763       2.6922
   2341.9541       8.5686      -0.0112    -999.2500      50.4992      35.6922     507.4316     245.8085       0.0496       3.1697       2.6721
   2342.1064       8.5611       0.0041    -999.2500      45.9235      34.8949     468.5784     227.8794       0.0526       3.1751       2.6203
