#------------------------------------------------------------------------------
#
#   Created by  : [OpenWorks] Log Export Utility (LEXP)
#   Created on  : 2016-05-23 11:50:52
#   Project     : CANT971
#   User        : R5K
#   Interpreter : PEP
#
#------------------------------------------------------------------------------
~VERSION INFORMATION
VERS. 2.0 : CWLS Log ASCII Standard - version 2.0
WRAP.  NO : One line per depth step
~WELL INFORMATION
#MNEMONIC   .UNIT                                           VALUE :DESCRIPTION
#------------------------------------------------------------------------------
STRT        .M                                           540.4100 :START DEPTH
STOP        .M                                          3242.0049 :STOP DEPTH
STEP        .M                                             0.1524 :STEP
NULL        .                                           -999.2500 :NULL VALUE
COMP        .                                   PEMEX EXPL & PROD :COMPANY
WELL        .                                                1041 :WELL
FLD         .                                           CANTARELL :FIELD
LOC         .                                             UNKNOWN :LOCATION
CNTY        .                                      CD. DEL CARMEN :COUNTY
STAT        .                                            CAMPECHE :STATE
CTRY        .                                              MEXICO :COUNTRY
SRVC        .                                             UNKNOWN :SERVICE COMPANY
DATE        .                                             UNKNOWN :LOG DATE
UWI         .                                          3060000494 :UNIQUE WELL ID
XCOORD      .                                       596162.660000 :SURFACE X
YCOORD      .                                      2150607.940000 :SURFACE Y
LAT         .                                           19.448736 :LATITUDE
LON         .                                          -92.083900 :LONGITUDE
ELEV        .M                                            30.0000 :SURFACE ELEV
ELEV_TYPE   .                                                  KB :ELEV TYPE
~CURVE INFORMATION
#MNEMONIC.UNIT        API CODE       : CURVE DESCRIPTION
#------------------------------------------------------------------------------
DEPTH    .M                          : Measured Depth
CALI     .inches      UNKNOWN        : CALI:litodensidad:rC:NONE:v0 (auto-composite)
DRHO     .g/cm3      UNKNOWN        : DRHO:DRHO-Load:rC:NONE:v0 (auto-composite)
DT       .us/ft       UNKNOWN        : DT:DT:rC:NONE:v0 (auto-composite)
GR       .API         UNKNOWN        : GR:GR-Load:rC:NONE:v0 (auto-composite)
ILD      .ohmm        UNKNOWN        : ILD:ILD-Load:rC:NONE:v0 (auto-composite)
ILM      .ohmm        UNKNOWN        : ILM:ILM-Load:rC:NONE:v0 (auto-composite)
LLD      .ohmm        UNKNOWN        : LLD:LLD-Load:rC:NONE:v0 (auto-composite)
LLS      .ohmm        UNKNOWN        : LLS:LLS-Load:rC:NONE:v0 (auto-composite)
MSFL     .ohmm        UNKNOWN        : MSFL:MSFL-Load:rC:NONE:v0 (auto-composite)
NPHI     .v/v_decimal UNKNOWN        : NPHI:NPHI-Load:rC:NONE:v0 (auto-composite)
PEF      .b/elec      UNKNOWN        : PEF:PEF-Load:rC:NONE:v0 (auto-composite)
RHOB     .g/cm3       UNKNOWN        : RHOB:RHOB-Load:rC:NONE:v0 (auto-composite)
~A     DEPTH         CALI         DRHO           DT           GR          ILD          ILM          LLD          LLS         MSFL         NPHI          PEF         RHOB
# ...
   2895.9043       7.0723    -999.2500    -999.2500      36.9249    -999.2500    -999.2500     713.7106     161.6097     148.0072       0.0960    -999.2500    -999.2500
   2896.0569       6.8810    -999.2500    -999.2500      36.3280    -999.2500    -999.2500     895.9261     200.3746     195.3021       0.0860    -999.2500    -999.2500
   2896.2092       6.7815    -999.2500    -999.2500      35.2977    -999.2500    -999.2500    1334.6011     293.1294     143.0680       0.0747    -999.2500    -999.2500
   2896.3616       6.7944    -999.2500    -999.2500      33.3832    -999.2500    -999.2500    2143.7471     495.1225     205.1421       0.0677    -999.2500    -999.2500
   2896.5139       6.8608    -999.2500    -999.2500      31.3910    -999.2500    -999.2500    2462.7070     585.6824     726.3314       0.0653    -999.2500    -999.2500
   2896.6663       6.9176    -999.2500    -999.2500      29.7895    -999.2500    -999.2500    2008.7841     493.9675     576.4132       0.0650    -999.2500    -999.2500
   2896.8188       6.8718    -999.2500    -999.2500      28.5433    -999.2500    -999.2500    1807.1967     463.1002    1240.4260       0.0643    -999.2500    -999.2500
   2896.9712       6.7710    -999.2500    -999.2500      27.4678    -999.2500    -999.2500    1794.7202     479.0433     724.0468       0.0680    -999.2500    -999.2500
   2897.1235       6.7810    -999.2500    -999.2500      26.9158    -999.2500    -999.2500    1600.8817     440.4255    1256.6095       0.0713    -999.2500    -999.2500
   2897.2759       6.8565    -999.2500    -999.2500      26.3528    -999.2500    -999.2500    1507.3302     412.8388    1355.6600       0.0727    -999.2500    -999.2500
   2897.4285       6.9363    -999.2500    -999.2500      26.7060    -999.2500    -999.2500    1516.0608     414.7349     616.0845       0.0737    -999.2500    -999.2500
   2897.5808       6.9285    -999.2500    -999.2500      26.7002    -999.2500    -999.2500    1226.5927     335.8443     552.5197       0.0753    -999.2500    -999.2500
   2897.7332       6.8331    -999.2500    -999.2500      25.6011    -999.2500    -999.2500     809.9123     222.8950     387.4745       0.0820    -999.2500    -999.2500
   2897.8855       6.8324    -999.2500    -999.2500      23.1319    -999.2500    -999.2500     525.7405     146.2926     520.3127       0.0916    -999.2500    -999.2500
   2898.0381       7.0910    -999.2500    -999.2500      21.4147    -999.2500    -999.2500     394.3665     112.0147     319.0248       0.1069    -999.2500    -999.2500
   2898.1904       7.6510    -999.2500    -999.2500      22.1092    -999.2500    -999.2500     326.8983      95.7012     194.3861       0.1143    -999.2500    -999.2500
   2898.3428       7.3789    -999.2500    -999.2500      24.6043    -999.2500    -999.2500     310.7785      92.5961     150.5049       0.1157    -999.2500    -999.2500
   2898.4951       7.0071    -999.2500    -999.2500      26.7360    -999.2500    -999.2500     346.6422     104.5689      85.2837       0.1193    -999.2500    -999.2500
   2898.6475       7.0564    -999.2500    -999.2500      27.4427    -999.2500    -999.2500     394.6070     123.5209      98.5356       0.1223    -999.2500    -999.2500
   2898.8000       7.2166    -999.2500    -999.2500      28.2059    -999.2500    -999.2500     408.5059     133.2263      80.2589       0.1197    -999.2500    -999.2500
   2898.9524       7.1383    -999.2500    -999.2500      29.1943    -999.2500    -999.2500     435.6113     148.1167      83.0159       0.1160    -999.2500    -999.2500
   2899.1047       6.8862    -999.2500    -999.2500      29.9408    -999.2500    -999.2500     489.0977     174.5252      54.7166       0.1117    -999.2500    -999.2500
   2899.2571       6.8488    -999.2500    -999.2500      28.4139    -999.2500    -999.2500     539.2472     201.4052     313.6171       0.1034    -999.2500    -999.2500
   2899.4097       6.9336    -999.2500    -999.2500      26.8278    -999.2500    -999.2500     539.7947     204.2566     219.1858       0.0980    -999.2500    -999.2500
   2899.5620       7.0049    -999.2500    -999.2500      25.8682    -999.2500    -999.2500     519.1419     194.0733     187.5846       0.0977    -999.2500    -999.2500
   2899.7144       7.0211    -999.2500    -999.2500      25.7335    -999.2500    -999.2500     463.1866     167.4958     139.5358       0.1033    -999.2500    -999.2500
   2899.8667       6.9660    -999.2500    -999.2500      24.0014    -999.2500    -999.2500     421.1080     145.2179     135.7355       0.1093    -999.2500    -999.2500
   2900.0193       6.7958    -999.2500    -999.2500      21.3941    -999.2500    -999.2500     438.2039     145.5212     117.9893       0.1117    -999.2500    -999.2500
   2900.1716       6.8453    -999.2500    -999.2500      19.4026    -999.2500    -999.2500     470.4246     154.3486      81.5316       0.1087    -999.2500    -999.2500
   2900.3240       6.9701    -999.2500    -999.2500      18.8851    -999.2500    -999.2500     516.0509     166.8998      89.7066       0.0977    -999.2500    -999.2500
   2900.4763       6.9964    -999.2500    -999.2500      19.9984    -999.2500    -999.2500     622.0956     197.8271      74.0149       0.0837    -999.2500    -999.2500
   2900.6287       6.8280    -999.2500    -999.2500      21.4979    -999.2500    -999.2500     814.3823     254.7081      82.5704       0.0744    -999.2500    -999.2500
   2900.7812       6.7032    -999.2500    -999.2500      24.9321    -999.2500    -999.2500    1007.0566     313.3068     271.8116       0.0694    -999.2500    -999.2500
   2900.9336       6.7631    -999.2500    -999.2500      26.6867    -999.2500    -999.2500    1098.2510     346.8817     198.9642       0.0687    -999.2500    -999.2500
   2901.0859       6.8987    -999.2500    -999.2500      27.3623    -999.2500    -999.2500    1209.6506     395.1953     109.5604       0.0670    -999.2500    -999.2500
   2901.2383       6.9740    -999.2500    -999.2500      27.5721    -999.2500    -999.2500    1296.4552     424.2252     616.3647       0.0634    -999.2500    -999.2500
   2901.3909       6.8193    -999.2500    -999.2500      28.6156    -999.2500    -999.2500    1513.8152     472.4113    1446.1210       0.0620    -999.2500    -999.2500
   2901.5432       6.7624    -999.2500    -999.2500      28.7295    -999.2500    -999.2500    2238.6067     673.6413     707.3607       0.0660    -999.2500    -999.2500
   2901.6956       6.8175    -999.2500    -999.2500      26.4629    -999.2500    -999.2500    1984.8873     584.3050     482.1037       0.0766    -999.2500    -999.2500
   2901.8479       6.9218    -999.2500    -999.2500      23.6505    -999.2500    -999.2500    1180.8971     348.2188     326.3408       0.0910    -999.2500    -999.2500
   2902.0005       7.2836    -999.2500    -999.2500      23.3084    -999.2500    -999.2500     765.9427     232.9490      81.0251       0.1040    -999.2500    -999.2500
   2902.1528       7.9998    -999.2500    -999.2500      23.7073    -999.2500    -999.2500     601.8254     189.3741      98.6386       0.1126    -999.2500    -999.2500
   2902.3052       8.0896    -999.2500    -999.2500      26.2119    -999.2500    -999.2500     560.8306     180.2694      62.3098       0.1097    -999.2500    -999.2500
   2902.4575       7.6499    -999.2500    -999.2500      30.2900    -999.2500    -999.2500     636.0801     207.2061      39.5383       0.0964    -999.2500    -999.2500
   2902.6099       7.1716    -999.2500    -999.2500      35.6056    -999.2500    -999.2500     740.5202     244.5439      64.0047       0.0837    -999.2500    -999.2500
   2902.7625       6.9739    -999.2500    -999.2500      38.2594    -999.2500    -999.2500     793.4914     262.5681      41.4747       0.0787    -999.2500    -999.2500
   2902.9148       6.9323    -999.2500    -999.2500      37.5290    -999.2500    -999.2500     844.8517     279.2505      29.3804       0.0753    -999.2500    -999.2500
   2903.0671       7.0350    -999.2500    -999.2500      37.1533    -999.2500    -999.2500     882.8423     298.5414      83.7429       0.0707    -999.2500    -999.2500
