#------------------------------------------------------------------------------
#
#   Created by  : [OpenWorks] Log Export Utility (LEXP)
#   Created on  : 2016-05-23 11:51:18
#   Project     : CANT971
#   User        : R5K
#   Interpreter : PEP
#
#------------------------------------------------------------------------------
~VERSION INFORMATION
VERS. 2.0 : CWLS Log ASCII Standard - version 2.0
WRAP.  NO : One line per depth step
~WELL INFORMATION
#MNEMONIC   .UNIT                                           VALUE :DESCRIPTION
#------------------------------------------------------------------------------
STRT        .M                                           690.7880 :START DEPTH
STOP        .M                                          2950.1179 :STOP DEPTH
STEP        .M                                             0.1524 :STEP
NULL        .                                           -999.2500 :NULL VALUE
COMP        .                                   PEMEX EXPL & PROD :COMPANY
WELL        .                                                1066 :WELL
FLD         .                                           CANTARELL :FIELD
LOC         .                                             UNKNOWN :LOCATION
CNTY        .                                      CD. DEL CARMEN :COUNTY
STAT        .                                            CAMPECHE :STATE
CTRY        .                                              MEXICO :COUNTRY
SRVC        .                                             UNKNOWN :SERVICE COMPANY
DATE        .                                             UNKNOWN :LOG DATE
UWI         .                                          3060000505 :UNIQUE WELL ID
XCOORD      .                                       596157.670000 :SURFACE X
YCOORD      .                                      2150605.920000 :SURFACE Y
LAT         .                                           19.448718 :LATITUDE
LON         .                                          -92.083948 :LONGITUDE
ELEV        .M                                            30.0000 :SURFACE ELEV
ELEV_TYPE   .                                                  KB :ELEV TYPE
~CURVE INFORMATION
#MNEMONIC.UNIT        API CODE       : CURVE DESCRIPTION
#------------------------------------------------------------------------------
DEPTH    .M                          : Measured Depth
CALI     .inches      UNKNOWN        : CALI:litodensidad:rC:NONE:v0 (auto-composite)
DRHO     .g/cm3       UNKNOWN        : DRHO:litodensidad:rC:NONE:v0 (auto-composite)
DT       .us/ft       UNKNOWN        : DT:DT:rC:NONE:v0 (auto-composite)
GR       .API         UNKNOWN        : GR:UNKNOWN:rC:NONE:v0 (auto-composite)
ILD      .ohmm        UNKNOWN        : ILD:UNKNOWN:rC:NONE:v0 (auto-composite)
ILM      .ohmm        UNKNOWN        : ILM:UNKNOWN:rC:NONE:v0 (auto-composite)
LLD      .ohmm        UNKNOWN        : LLD:UNKNOWN:rC:NONE:v0 (auto-composite)
LLS      .ohmm        UNKNOWN        : LLS:UNKNOWN:rC:NONE:v0 (auto-composite)
MSFL     .ohmm        UNKNOWN        : MSFL:UNKNOWN:rC:NONE:v0 (auto-composite)
NPHI     .v/v_decimal UNKNOWN        : NPHI:PETROWORKS:rC:NONE:v2 
PEF      .b/elec      UNKNOWN        : PEF:litodensidad:rC:NONE:v0 (auto-composite)
RHOB     .g/cm3       UNKNOWN        : RHOB:litodensidad:rC:NONE:v0 (auto-composite)
~A     DEPTH         CALI         DRHO           DT           GR          ILD          ILM          LLD          LLS         MSFL         NPHI          PEF         RHOB
# ...
   1290.6344    -999.2500    -999.2500    -999.2500      25.8289       1.3746       1.3470       0.2000       0.2000       0.2000      -0.1500    -999.2500    -999.2500
   1290.7869    -999.2500    -999.2500    -999.2500      26.6171       1.3550       1.3270       0.2000       0.2000       0.2000      -0.1500    -999.2500    -999.2500
   1290.9392    -999.2500    -999.2500    -999.2500      27.1464       1.3355       1.3075       0.2000       0.2000       0.2000      -0.1500    -999.2500    -999.2500
   1291.0917    -999.2500    -999.2500    -999.2500      27.9540       1.3167       1.2898       0.2000       0.2000       0.2000      -0.1500    -999.2500    -999.2500
   1291.2440    -999.2500    -999.2500    -999.2500      29.8272       1.3007       1.2793       0.2000       0.2000       0.2000      -0.1500    -999.2500    -999.2500
   1291.3965    -999.2500    -999.2500    -999.2500      31.1333       1.2875       1.2702       0.2000       0.2000       0.2000      -0.1500    -999.2500    -999.2500
   1291.5488    -999.2500    -999.2500    -999.2500      30.2574       1.2850       1.2662       0.2000       0.2000       0.2000      -0.1500    -999.2500    -999.2500
   1291.7012    -999.2500    -999.2500    -999.2500      29.8945       1.2873       1.2666       0.2000       0.2000       0.2000      -0.1500    -999.2500    -999.2500
   1291.8536    -999.2500    -999.2500    -999.2500      31.4407       1.3078       1.2836       0.2000       0.2000       0.2000      -0.1500    -999.2500    -999.2500
   1292.0060    -999.2500    -999.2500    -999.2500      32.1567       1.3313       1.3062       0.2000       0.2000       0.2000      -0.1500    -999.2500    -999.2500
   1292.1584    -999.2500    -999.2500    -999.2500      29.7520       1.3659       1.3498       0.2000       0.2000       0.2000      -0.1500    -999.2500    -999.2500
   1292.3108    -999.2500    -999.2500    -999.2500      27.5633       1.3986       1.3939       0.2000       0.2000       0.2000      -0.1500    -999.2500    -999.2500
   1292.4633    -999.2500    -999.2500    -999.2500      26.1600       1.4247       1.4401       0.2000       0.2000       0.2000      -0.1500    -999.2500    -999.2500
   1292.6156    -999.2500    -999.2500    -999.2500      25.0596       1.4514       1.4773       0.2000       0.2000       0.2000      -0.1500    -999.2500    -999.2500
   1292.7681    -999.2500    -999.2500    -999.2500      25.0306       1.4804       1.4833       0.2000       0.2000       0.2000      -0.1500    -999.2500    -999.2500
   1292.9204    -999.2500    -999.2500    -999.2500      25.2558       1.5135       1.4920       0.2000       0.2000       0.2000      -0.1500    -999.2500    -999.2500
   1293.0729    -999.2500    -999.2500    -999.2500      26.3845       1.5611       1.5100       0.2000       0.2000       0.2000      -0.1500    -999.2500    -999.2500
   1293.2252    -999.2500    -999.2500    -999.2500      26.8322       1.6033       1.5417       0.2000       0.2000       0.2000      -0.1500    -999.2500    -999.2500
   1293.3777    -999.2500    -999.2500    -999.2500      24.9250       1.6268       1.6207       0.2000       0.2000       0.2000      -0.1500    -999.2500    -999.2500
   1293.5300    -999.2500    -999.2500    -999.2500      23.5732       1.6415       1.6811       0.2000       0.2000       0.2000      -0.1500    -999.2500    -999.2500
   1293.6824    -999.2500    -999.2500    -999.2500      24.1516       1.6260       1.6771       0.2000       0.2000       0.2000      -0.1500    -999.2500    -999.2500
   1293.8348    -999.2500    -999.2500    -999.2500      24.6898       1.6141       1.6640       0.2000       0.2000       0.2000      -0.1500    -999.2500    -999.2500
   1293.9872    -999.2500    -999.2500    -999.2500      25.0919       1.6146       1.6204       0.2000       0.2000       0.2000      -0.1500    -999.2500    -999.2500
   1294.1396    -999.2500    -999.2500    -999.2500      25.6869       1.6074       1.5780       0.2000       0.2000       0.2000      -0.1500    -999.2500    -999.2500
   1294.2920    -999.2500    -999.2500    -999.2500      26.9144       1.5749       1.5395       0.2000       0.2000       0.2000      -0.1500    -999.2500    -999.2500
   1294.4445    -999.2500    -999.2500    -999.2500      27.8809       1.5398       1.5000       0.2000       0.2000       0.2000      -0.1500    -999.2500    -999.2500
   1294.5968    -999.2500    -999.2500    -999.2500      27.9836       1.4956       1.4569       0.2000       0.2000       0.2000      -0.1500    -999.2500    -999.2500
   1294.7493    -999.2500    -999.2500    -999.2500      28.0988       1.4601       1.4236       0.2000       0.2000       0.2000      -0.1500    -999.2500    -999.2500
   1294.9016    -999.2500    -999.2500    -999.2500      28.2537       1.4521       1.4221       0.2000       0.2000       0.2000      -0.1500    -999.2500    -999.2500
   1295.0541    -999.2500    -999.2500    -999.2500      27.8957       1.4484       1.4272       0.2000       0.2000       0.2000      -0.1500    -999.2500    -999.2500
   1295.2064    -999.2500    -999.2500    -999.2500      25.8839       1.4584       1.4532       0.2000       0.2000       0.2000      -0.1500    -999.2500    -999.2500
   1295.3588    -999.2500    -999.2500    -999.2500      24.3126       1.4668       1.4736       0.2000       0.2000       0.2000      -0.1500    -999.2500    -999.2500
   1295.5112    -999.2500    -999.2500    -999.2500      24.1246       1.4704       1.4761       0.2000       0.2000       0.2000      -0.1500    -999.2500    -999.2500
   1295.6636    -999.2500    -999.2500    -999.2500      24.6357       1.4761       1.4741       0.2000       0.2000       0.2000      -0.1500    -999.2500    -999.2500
   1295.8160    -999.2500    -999.2500    -999.2500      27.2780       1.4886       1.4581       0.2000       0.2000       0.2000      -0.1500    -999.2500    -999.2500
   1295.9684    -999.2500    -999.2500    -999.2500      28.7967       1.4991       1.4490       0.2000       0.2000       0.2000      -0.1500    -999.2500    -999.2500
   1296.1208    -999.2500    -999.2500    -999.2500      26.8599       1.5036       1.4610       0.2000       0.2000       0.2000      -0.1500    -999.2500    -999.2500
   1296.2732    -999.2500    -999.2500    -999.2500      25.8252       1.5034       1.4710       0.2000       0.2000       0.2000      -0.1500    -999.2500    -999.2500
   1296.4257    -999.2500    -999.2500    -999.2500      27.4838       1.4889       1.4750       0.2000       0.2000       0.2000      -0.1500    -999.2500    -999.2500
   1296.5780    -999.2500    -999.2500    -999.2500      29.0853       1.4771       1.4753       0.2000       0.2000       0.2000      -0.1500    -999.2500    -999.2500
   1296.7305    -999.2500    -999.2500    -999.2500      30.5148       1.4736       1.4642       0.2000       0.2000       0.2000      -0.1500    -999.2500    -999.2500
   1296.8828    -999.2500    -999.2500    -999.2500      31.2706       1.4742       1.4551       0.2000       0.2000       0.2000      -0.1500    -999.2500    -999.2500
   1297.0353    -999.2500    -999.2500    -999.2500      30.0562       1.4867       1.4516       0.2000       0.2000       0.2000      -0.1500    -999.2500    -999.2500
   1297.1876    -999.2500    -999.2500    -999.2500      28.8873       1.5035       1.4555       0.2000       0.2000       0.2000      -0.1500    -999.2500    -999.2500
   1297.3400    -999.2500    -999.2500    -999.2500      27.8477       1.5325       1.4805       0.2000       0.2000       0.2000      -0.1500    -999.2500    -999.2500
   1297.4924    -999.2500    -999.2500    -999.2500      26.9015       1.5644       1.5139       0.2000       0.2000       0.2000      -0.1500    -999.2500    -999.2500
   1297.6448    -999.2500    -999.2500    -999.2500      26.2231       1.6045       1.5716       0.2000       0.2000       0.2000      -0.1500    -999.2500    -999.2500
   1297.7972    -999.2500    -999.2500    -999.2500      25.6829       1.6438       1.6264       0.2000       0.2000       0.2000      -0.1500    -999.2500    -999.2500
