#------------------------------------------------------------------------------
#
#   Created by  : [OpenWorks] Log Export Utility (LEXP)
#   Created on  : 2016-05-23 11:57:11
#   Project     : CANT971
#   User        : R5K
#   Interpreter : PEP
#
#------------------------------------------------------------------------------
~VERSION INFORMATION
VERS. 2.0 : CWLS Log ASCII Standard - version 2.0
WRAP.  NO : One line per depth step
~WELL INFORMATION
#MNEMONIC   .UNIT                                           VALUE :DESCRIPTION
#------------------------------------------------------------------------------
STRT        .M                                           319.2782 :START DEPTH
STOP        .M                                          2532.8882 :STOP DEPTH
STEP        .M                                             0.1524 :STEP
NULL        .                                           -999.2500 :NULL VALUE
COMP        .                                   PEMEX EXPL & PROD :COMPANY
WELL        .                                                 73A :WELL
FLD         .                                           CANTARELL :FIELD
LOC         .                                             UNKNOWN :LOCATION
CNTY        .                                      CD. DEL CARMEN :COUNTY
STAT        .                                            CAMPECHE :STATE
CTRY        .                                              MEXICO :COUNTRY
SRVC        .                                             UNKNOWN :SERVICE COMPANY
DATE        .                                             UNKNOWN :LOG DATE
UWI         .                                          3060000177 :UNIQUE WELL ID
XCOORD      .                                       599722.890000 :SURFACE X
YCOORD      .                                      2147218.550000 :SURFACE Y
LAT         .                                           19.417934 :LATITUDE
LON         .                                          -92.050165 :LONGITUDE
ELEV        .M                                            27.8000 :SURFACE ELEV
ELEV_TYPE   .                                                  KB :ELEV TYPE
~CURVE INFORMATION
#MNEMONIC.UNIT        API CODE       : CURVE DESCRIPTION
#------------------------------------------------------------------------------
DEPTH    .M                          : Measured Depth
CALI     .inches      UNKNOWN        : CALI:registros:rC:NONE:v0 (auto-composite)
DRHO     .g/cm3       UNKNOWN        : DRHO:registros:rC:NONE:v0 (auto-composite)
DT       .UNKNOWN     UNKNOWN        : DT:registros:rC:NONE:v0 (auto-composite)
GR       .API         UNKNOWN        : GR:registros:rC:NONE:v0 (auto-composite)
ILD      .ohm.m       UNKNOWN        : ILD:registros:rC:NONE:v0 (auto-composite)
LLD      .ohm.m       UNKNOWN        : LLD:registros:rC:NONE:v0 (auto-composite)
LLS      .ohm.m       UNKNOWN        : LLS:registros:rC:NONE:v0 (auto-composite)
MSFL     .ohm.m       UNKNOWN        : MSFL:registros:rC:NONE:v0 (auto-composite)
RHOB     .g/cm3       UNKNOWN        : RHOB:registros:rC:NONE:v0 (auto-composite)
~A     DEPTH         CALI         DRHO           DT           GR          ILD          LLD          LLS         MSFL         RHOB
# ...
   1935.0229       7.5600    -999.2500      72.5733      14.2083    -999.2500     148.5798      17.2885      12.7925       2.5540
   1935.1754       7.5600    -999.2500      67.3610      14.4000    -999.2500     150.1680      17.2770      14.7560       2.5100
   1935.3278       7.5600    -999.2500      64.2276      14.2592    -999.2500     156.4562      16.5904      20.5372       2.5250
   1935.4802       7.5600    -999.2500      61.0970      14.1180    -999.2500     162.7790      15.9000      26.3130       2.5400
   1935.6326       7.5600    -999.2500      57.4971      13.1602    -999.2500     195.2979      16.2909      67.6729       2.5200
   1935.7850       7.5600    -999.2500      53.9000      12.2000    -999.2500     228.0000      16.6840     109.0000       2.5000
   1935.9374       7.5250    -999.2500      53.9355      12.2000    -999.2500     224.9189      17.9778     104.6966       2.5045
   1936.0898       7.4900    -999.2500      53.9710      12.2000    -999.2500     221.8200      19.2790     100.3960       2.5090
   1936.2422       7.4945    -999.2500      54.4418      11.9983    -999.2500     201.3682      21.2836      78.6736       2.5210
   1936.3947       7.4990    -999.2500      54.9120      11.7960    -999.2500     180.7960      23.3000      56.9630       2.5330
   1936.5470       7.5290    -999.2500      63.0142      10.8993    -999.2500     149.5788      23.0159      34.9769       2.5615
   1936.6993       7.5590    -999.2500      71.1000      10.0000    -999.2500     118.1740      22.7300      13.0000       2.5900
   1936.8518       7.8705    -999.2500      71.0044      10.0000    -999.2500      98.7327      21.6413      15.3158       2.5750
   1937.0042       8.1830    -999.2500      70.9090      10.0000    -999.2500      79.1720      20.5460      17.6310       2.5600
   1937.1566       8.9873    -999.2500      69.4622      10.0000    -999.2500      66.6148      18.8533      33.8668       2.5750
   1937.3090       9.7940    -999.2500      68.0180      10.0000    -999.2500      53.9790      17.1500      50.1000       2.5900
   1937.4614      11.0955    -999.2500      64.6963      10.0000    -999.2500      41.0807      15.3298      33.5997       2.5780
   1937.6138      12.4000    -999.2500      61.3800      10.0000    -999.2500      28.1000      13.4980      17.1000       2.5660
   1937.7662      12.3515    -999.2500      58.8961      10.0000    -999.2500      28.4698      11.6854      19.1499       2.4379
   1937.9186      12.3030    -999.2500      56.4160      10.0000    -999.2500      28.8420       9.8610      21.2000       2.3100
   1938.0710      12.1017    -999.2500      54.8569      10.2782    -999.2500      31.8610       8.1113      18.0148       2.3110
   1938.2234      11.9000    -999.2500      53.3000      10.5570    -999.2500      34.9000       6.3500      14.8290       2.3120
   1938.3759      10.8410    -999.2500      53.3000      11.3302    -999.2500      34.4583       6.5868       7.8134       2.4061
   1938.5282       9.7800    -999.2500      53.3000      12.1050    -999.2500      34.0140       6.8250       0.8010       2.5000
   1938.6805      10.0397    -999.2500      53.3000      12.8243    -999.2500      31.4139       8.9070       0.8530       2.4840
   1938.8330      10.3000    -999.2500      53.3000      13.5450    -999.2500      28.8000      11.0000       0.9050       2.4680
   1938.9854      10.2351    -999.2500      53.0999      14.0989    -999.2500      29.6781      10.9122       3.4088       2.4035
   1939.1378      10.1700    -999.2500      52.9000      14.6540    -999.2500      30.5610      10.8240       5.9100       2.3390
   1939.2902       9.9248    -999.2500      53.2807      15.5105    -999.2500      35.7162      10.3294       5.1587       2.1644
   1939.4426       9.6790    -999.2500      53.6610      16.3690    -999.2500      40.9000       9.8320       4.4080       1.9900
   1939.5950       9.3819    -999.2500      55.9884      17.5546    -999.2500      39.9028       8.6842       3.0685       1.9950
   1939.7474       9.0840    -999.2500      58.3140      18.7430    -999.2500      38.9000       7.5300       1.7300       2.0000
   1939.8998       8.9257    -999.2500      63.8443      19.6553    -999.2500      38.9977       8.4060       3.1004       1.9950
   1940.0522       8.7670    -999.2500      69.3710      20.5700    -999.2500      39.0960       9.2870       4.4700       1.9900
   1940.2046       8.6666    -999.2500      77.2407      21.0079    -999.2500      40.1140      17.9678       3.7148       2.0085
   1940.3571       8.5660    -999.2500      85.1000      21.4470    -999.2500      41.1380      26.7000       2.9600       2.0270
   1940.5094       8.4761    -999.2500      81.2962      22.3726    -999.2500      43.9694      25.8231       4.1472       2.1060
   1940.6617       8.3860    -999.2500      77.5000      23.3000    -999.2500      46.8180      24.9410       5.3340       2.1850
   1940.8142       8.1384    -999.2500      80.8111      23.0132    -999.2500      50.9961      22.1850      66.6750       2.3010
   1940.9666       7.8900    -999.2500      84.1160      22.7260    -999.2500      55.2000      19.4120     128.0000       2.4170
   1941.1190       7.8975    -999.2500      94.2963      21.8631    -999.2500      53.6514      15.9668     111.8874       2.5185
   1941.2714       7.9050    -999.2500     104.4590      20.9990    -999.2500      52.0930      12.5000      95.7770       2.6200
   1941.4238       7.9619    -999.2500     115.0300      20.0513    -999.2500      47.2276      12.7492      65.7564       2.6150
   1941.5762       8.0190    -999.2500     125.5840      19.1020    -999.2500      42.3310      13.0000      35.7360       2.6100
   1941.7286       8.2693    -999.2500     130.4916      17.9020    -999.2500      36.5843      11.5547      18.9240       2.6125
   1941.8810       8.5200    -999.2500     135.3920      16.7000    -999.2500      30.8000      10.1000       2.1100       2.6150
   1942.0334       8.4720    -999.2500     136.9831      16.8264    -999.2500      32.2870      10.3018       2.1175       2.6200
   1942.1858       8.4240    -999.2500     138.5720      16.9530    -999.2500      33.7840      10.5050       2.1250       2.6250
   1942.3383       8.1173    -999.2500     139.2864      17.4031    -999.2500      38.8040      11.4701       2.4186       2.6325
   1942.4906       7.8100    -999.2500     140.0000      17.8540    -999.2500      43.8540      12.4410       2.7120       2.6400
   1942.6429       7.8340    -999.2500     139.8724      19.8749    -999.2500      53.6011      14.2676       4.9207       2.6505
   1942.7954       7.8580    -999.2500     139.7450      21.9000    -999.2500      63.4000      16.1040       7.1270       2.6610
   1942.9478       7.9154    -999.2500     138.4634      21.8361    -999.2500      62.6625      18.8944      16.8318       2.6655
   1943.1002       7.9730    -999.2500     137.1830      21.7720    -999.2500      61.9210      21.7000      26.5270       2.6700
   1943.2526       8.0619    -999.2500     132.4305      20.4376    -999.2500      58.2128      21.4218      47.3224       2.6715
   1943.4050       8.1510    -999.2500     127.6820      19.1000    -999.2500      54.4840      21.1420      68.1000       2.6730
   1943.5574       8.5630    -999.2500     120.4268      21.7467    -999.2500      49.7455      19.8706      58.8081       2.6755
   1943.7098       8.9760    -999.2500     113.1770      24.4000    -999.2500      44.9800      18.5920      49.5230       2.6780
   1943.8622      10.3862    -999.2500     106.8015      23.9501    -999.2500      42.2484      16.3465      26.2945       2.6840
   1944.0146      11.8000    -999.2500     100.4350      23.4990    -999.2500      39.5010      14.0880       3.0800       2.6900
   1944.1670      11.7616    -999.2500      93.9402      21.9207    -999.2500      33.3687      12.1448       3.3076       2.6655
   1944.3195      11.7230    -999.2500      87.4590      20.3380    -999.2500      27.2000      10.1900       3.5350       2.6410
