#------------------------------------------------------------------------------
#
#   Created by  : [OpenWorks] Log Export Utility (LEXP)
#   Created on  : 2016-05-23 11:50:40
#   Project     : CANT971
#   User        : R5K
#   Interpreter : PEP
#
#------------------------------------------------------------------------------
~VERSION INFORMATION
VERS. 2.0 : CWLS Log ASCII Standard - version 2.0
WRAP.  NO : One line per depth step
~WELL INFORMATION
#MNEMONIC   .UNIT                                           VALUE :DESCRIPTION
#------------------------------------------------------------------------------
STRT        .M                                           697.2303 :START DEPTH
STOP        .M                                          3650.8948 :STOP DEPTH
STEP        .M                                             0.1524 :STEP
NULL        .                                           -999.2500 :NULL VALUE
COMP        .                                   PEMEX EXPL & PROD :COMPANY
WELL        .                                                1026 :WELL
FLD         .                                           CANTARELL :FIELD
LOC         .                                             UNKNOWN :LOCATION
CNTY        .                                      CD. DEL CARMEN :COUNTY
STAT        .                                            CAMPECHE :STATE
CTRY        .                                              MEXICO :COUNTRY
SRVC        .                                             UNKNOWN :SERVICE COMPANY
DATE        .                                             UNKNOWN :LOG DATE
UWI         .                                          3060000491 :UNIQUE WELL ID
XCOORD      .                                       596159.330000 :SURFACE X
YCOORD      .                                      2150607.710000 :SURFACE Y
LAT         .                                           19.448735 :LATITUDE
LON         .                                          -92.083932 :LONGITUDE
ELEV        .M                                            30.0000 :SURFACE ELEV
ELEV_TYPE   .                                                  KB :ELEV TYPE
~CURVE INFORMATION
#MNEMONIC.UNIT        API CODE       : CURVE DESCRIPTION
#------------------------------------------------------------------------------
DEPTH    .M                          : Measured Depth
CALI     .inches      UNKNOWN        : CALI:registros:rC:NONE:v0 (auto-composite)
DRHO     .g/cm3       UNKNOWN        : DRHO:registros:rC:NONE:v0 (auto-composite)
DT       .us/ft       UNKNOWN        : DT:registros:rC:NONE:v0 (auto-composite)
GR       .API         UNKNOWN        : GR:registros:rC:NONE:v0 (auto-composite)
ILD      .ohm.m       UNKNOWN        : ILD:registros:rC:NONE:v0 (auto-composite)
ILM      .ohm.m       UNKNOWN        : ILM:registros:rC:NONE:v0 (auto-composite)
LLD      .ohm.m       UNKNOWN        : LLD:registros:rC:NONE:v0 (auto-composite)
LLS      .ohm.m       UNKNOWN        : LLS:registros:rC:NONE:v0 (auto-composite)
MSFL     .ohm.m       UNKNOWN        : MSFL:registros:rC:NONE:v0 (auto-composite)
NPHI     .v/v_decimal UNKNOWN        : NPHI:registros:rC:NONE:v0 (auto-composite)
PEF      .b/elec      UNKNOWN        : PEF:registros:rC:NONE:v0 (auto-composite)
RHOB     .g/cm3       UNKNOWN        : RHOB:registros:rC:NONE:v0 (auto-composite)
~A     DEPTH         CALI         DRHO           DT           GR          ILD          ILM          LLD          LLS         MSFL         NPHI          PEF         RHOB
# ...
   2950.3118       9.6095      -0.9549    -999.2500      41.4547       1.4525       1.3685    -999.2500    -999.2500    -999.2500       0.3060    -999.2500       2.2866
   2950.4644       9.5470      -1.0380    -999.2500      39.4690       1.4530       1.3700    -999.2500    -999.2500    -999.2500       0.4590    -999.2500       2.4330
   2950.6167       9.5485      -1.0964    -999.2500      40.1744       1.4535       1.3720    -999.2500    -999.2500    -999.2500       0.4931    -999.2500       2.3770
   2950.7690       9.5500      -1.1550    -999.2500      40.8810       1.4540       1.3740    -999.2500    -999.2500    -999.2500       0.4827    -999.2500       2.3210
   2950.9214       9.5580      -1.1405    -999.2500      42.0968       1.4880       1.3800    -999.2500    -999.2500    -999.2500       0.4699    -999.2500       2.2495
   2951.0740       9.5660      -1.1260    -999.2500      43.3130       1.5220       1.3860    -999.2500    -999.2500    -999.2500       0.4607    -999.2500       2.1780
   2951.2263       9.5720      -1.1080    -999.2500      43.0471       1.5180       1.4175    -999.2500    -999.2500    -999.2500       0.4638    -999.2500       2.1625
   2951.3787       9.5780      -1.0900    -999.2500      42.7810       1.5140       1.4490    -999.2500    -999.2500    -999.2500       0.4695    -999.2500       2.1470
   2951.5310       9.5760      -1.0720    -999.2500      42.9335       1.4965       1.4365    -999.2500    -999.2500    -999.2500       0.4699    -999.2500       2.1225
   2951.6836       9.5740      -1.0540    -999.2500      43.0860       1.4790       1.4240    -999.2500    -999.2500    -999.2500       0.4715    -999.2500       2.0980
   2951.8359       9.5685      -1.0550    -999.2500      44.0896       1.4495       1.3940    -999.2500    -999.2500    -999.2500       0.4818    -999.2500       2.0635
   2951.9883       9.5630      -1.0560    -999.2500      45.0940       1.4200       1.3640    -999.2500    -999.2500    -999.2500       0.4977    -999.2500       2.0290
   2952.1406       9.5550      -1.0665    -999.2500      44.9336       1.3715       1.3300    -999.2500    -999.2500    -999.2500       0.5208    -999.2500       1.9750
   2952.2930       9.5470      -1.0770    -999.2500      44.7730       1.3230       1.2960    -999.2500    -999.2500    -999.2500       0.5384    -999.2500       1.9210
   2952.4456       9.5585      -1.0715    -999.2500      44.1078       1.2485       1.2375    -999.2500    -999.2500    -999.2500       0.5330    -999.2500       1.8730
   2952.5979       9.5700      -1.0660    -999.2500      43.4420       1.1740       1.1790    -999.2500    -999.2500    -999.2500       0.5234    -999.2500       1.8250
   2952.7502       9.5625      -1.0385    -999.2500      41.6990       1.1020       1.0960    -999.2500    -999.2500    -999.2500       0.5250    -999.2500       1.9135
   2952.9026       9.5550      -1.0110    -999.2500      39.9540       1.0300       1.0130    -999.2500    -999.2500    -999.2500       0.5309    -999.2500       2.0020
   2953.0552       9.5665      -1.0569    -999.2500      36.9474       0.9595       0.9430    -999.2500    -999.2500    -999.2500       0.5376    -999.2500       1.9175
   2953.2075       9.5780      -1.1030    -999.2500      33.9370       0.8890       0.8730    -999.2500    -999.2500    -999.2500       0.5376    -999.2500       1.8330
   2953.3599       9.5625      -1.0945    -999.2500      34.6145       0.8165       0.8200    -999.2500    -999.2500    -999.2500       0.5178    -999.2500       1.8570
   2953.5122       9.5470      -1.0860    -999.2500      35.2930       0.7440       0.7670    -999.2500    -999.2500    -999.2500       0.4836    -999.2500       1.8810
   2953.6648       9.5470      -1.0536    -999.2500      38.1758       0.7085       0.7285    -999.2500    -999.2500    -999.2500       0.4284    -999.2500       2.0020
   2953.8171       9.5470      -1.0210    -999.2500      41.0630       0.6730       0.6900    -999.2500    -999.2500    -999.2500       0.3844    -999.2500       2.1230
   2953.9695       9.5665      -0.9705    -999.2500      40.7038       0.6930       0.7190    -999.2500    -999.2500    -999.2500       0.3945    -999.2500       2.1130
   2954.1218       9.5860      -0.9200    -999.2500      40.3440       0.7130       0.7480    -999.2500    -999.2500    -999.2500       0.4291    -999.2500       2.1030
   2954.2742       9.5820      -0.9270    -999.2500      41.5314       0.7605       0.8175    -999.2500    -999.2500    -999.2500       0.4803    -999.2500       2.0725
   2954.4268       9.5780      -0.9340    -999.2500      42.7190       0.8080       0.8870    -999.2500    -999.2500    -999.2500       0.5250    -999.2500       2.0420
   2954.5791       9.5800      -0.9465    -999.2500      42.5180       0.9130       0.9615    -999.2500    -999.2500    -999.2500       0.5337    -999.2500       2.0015
   2954.7314       9.5820      -0.9590    -999.2500      42.3170       1.0180       1.0360    -999.2500    -999.2500    -999.2500       0.5235    -999.2500       1.9610
   2954.8838       9.5840      -0.9660    -999.2500      41.4177       1.0140       1.0255    -999.2500    -999.2500    -999.2500       0.4947    -999.2500       1.9100
   2955.0364       9.5860      -0.9730    -999.2500      40.5180       1.0100       1.0150    -999.2500    -999.2500    -999.2500       0.4670    -999.2500       1.8590
   2955.1887       9.6015      -0.9450    -999.2500      39.2593       0.9810       0.9370    -999.2500    -999.2500    -999.2500       0.4615    -999.2500       1.9861
   2955.3411       9.6170      -0.9170    -999.2500      38.0000       0.9520       0.8590    -999.2500    -999.2500    -999.2500       0.4654    -999.2500       2.1130
   2955.4934       9.6115      -0.9295    -999.2500      39.9524       0.9145       0.8795    -999.2500    -999.2500    -999.2500       0.4749    -999.2500       2.1015
   2955.6460       9.6060      -0.9420    -999.2500      41.9060       0.8770       0.9000    -999.2500    -999.2500    -999.2500       0.4827    -999.2500       2.0900
   2955.7983       9.5940      -0.9620    -999.2500      40.2971       0.8935       0.9280    -999.2500    -999.2500    -999.2500       0.4801    -999.2500       2.1005
   2955.9507       9.5820      -0.9820    -999.2500      38.6870       0.9100       0.9560    -999.2500    -999.2500    -999.2500       0.4730    -999.2500       2.1110
   2956.1030       9.5645      -0.9985    -999.2500      38.7030       0.9835       1.0175    -999.2500    -999.2500    -999.2500       0.4636    -999.2500       2.1100
   2956.2554       9.5470      -1.0150    -999.2500      38.7190       1.0570       1.0790    -999.2500    -999.2500    -999.2500       0.4454    -999.2500       2.1090
   2956.4080       9.5525      -1.0125    -999.2500      38.5756       1.1375       1.1550    -999.2500    -999.2500    -999.2500       0.4032    -999.2500       2.1050
   2956.5603       9.5580      -1.0100    -999.2500      38.4320       1.2180       1.2310    -999.2500    -999.2500    -999.2500       0.3684    -999.2500       2.1010
   2956.7126       9.5680      -1.0165    -999.2500      36.9514       1.2170       1.1865    -999.2500    -999.2500    -999.2500       0.3805    -999.2500       2.0365
   2956.8650       9.5780      -1.0230    -999.2500      35.4690       1.2160       1.1420    -999.2500    -999.2500    -999.2500       0.4174    -999.2500       1.9720
   2957.0176       9.5585      -1.0475    -999.2500      37.7955       1.2335       1.1595    -999.2500    -999.2500    -999.2500       0.4819    -999.2500       1.7935
   2957.1699       9.5390      -1.0720    -999.2500      40.1250       1.2510       1.1770    -999.2500    -999.2500    -999.2500       0.5393    -999.2500       1.6150
   2957.3223       9.5465      -1.0645    -999.2500      39.7827       1.2820       1.2170    -999.2500    -999.2500    -999.2500       0.5465    -999.2500       1.6635
   2957.4746       9.5540      -1.0570    -999.2500      39.4400       1.3130       1.2570    -999.2500    -999.2500    -999.2500       0.5330    -999.2500       1.7120
