#------------------------------------------------------------------------------
#
#   Created by  : [OpenWorks] Log Export Utility (LEXP)
#   Created on  : 2016-05-12 17:18:19
#   Project     : CANT971
#   User        : R5K
#   Interpreter : PEP
#
#------------------------------------------------------------------------------
~VERSION INFORMATION
VERS. 2.0 : CWLS Log ASCII Standard - version 2.0
WRAP.  NO : One line per depth step
~WELL INFORMATION
#MNEMONIC   .UNIT                                           VALUE :DESCRIPTION
#------------------------------------------------------------------------------
STRT        .M                                           134.7982 :START DEPTH
STOP        .M                                          2692.2227 :STOP DEPTH
STEP        .M                                             0.1524 :STEP
NULL        .                                           -999.2500 :NULL VALUE
COMP        .                                   PEMEX EXPL & PROD :COMPANY
WELL        .                                                 57A :WELL
FLD         .                                           CANTARELL :FIELD
LOC         .                                             UNKNOWN :LOCATION
CNTY        .                                      CD. DEL CARMEN :COUNTY
STAT        .                                            CAMPECHE :STATE
CTRY        .                                              MEXICO :COUNTRY
SRVC        .                                             UNKNOWN :SERVICE COMPANY
DATE        .                                             UNKNOWN :LOG DATE
UWI         .                                          3060000169 :UNIQUE WELL ID
XCOORD      .                                       602151.210000 :SURFACE X
YCOORD      .                                      2147168.830000 :SURFACE Y
LAT         .                                           19.417362 :LATITUDE
LON         .                                          -92.027041 :LONGITUDE
ELEV        .M                                            28.1700 :SURFACE ELEV
ELEV_TYPE   .                                                  KB :ELEV TYPE
~CURVE INFORMATION
#MNEMONIC.UNIT        API CODE       : CURVE DESCRIPTION
#------------------------------------------------------------------------------
DEPTH    .M                          : Measured Depth
CALI     .inches      UNKNOWN        : CALI:UNKNOWN:r1:MAIN:v1 
DRHO     .UNKNOWN     UNKNOWN        : DRHO:UNKNOWN:r1:MAIN:v1 
DT       .us/ft       UNKNOWN        : DT:UNKNOWN:r1:MAIN:v1 
GR       .API         UNKNOWN        : GR:GR:r1:MAIN:v1 
ILD      .UNKNOWN     UNKNOWN        : ILD:UNKNOWN:r1:MAIN:v1 
LLD      .UNKNOWN     UNKNOWN        : LLD:UNKNOWN:r1:MAIN:v1 
LLS      .UNKNOWN     UNKNOWN        : LLS:UNKNOWN:r1:MAIN:v1 
MSFL     .UNKNOWN     UNKNOWN        : MSFL:UNKNOWN:r1:MAIN:v1 
NORM     .UNKNOWN     UNKNOWN        : NORM:NORM-Load:r1:MAIN:v1 
NPHI     .v/v_decimal UNKNOWN        : NPHI:UNKNOWN:r1:MAIN:v1 
RHOB     .UNKNOWN     UNKNOWN        : RHOB:UNKNOWN:r1:MAIN:v1 
SP       .mV          UNKNOWN        : SP:PETROWORKS:rC:NONE:v1 
~A     DEPTH         CALI         DRHO           DT           GR          ILD          LLD          LLS         MSFL         NORM         NPHI         RHOB           SP
# ...
   2080.6414       8.8465       0.0359      73.8254      35.4435       0.2000     246.5191     154.0638      16.7677    -999.2500       0.1708       2.5356     144.1295
   2080.7937       8.7799       0.0375      71.7348      35.7133       0.2000     261.8953     164.2809      18.8387    -999.2500       0.1701       2.5221     144.1707
   2080.9463       8.6721       0.0406      69.1250      36.0462       0.2000     281.9690     178.3434      21.4289    -999.2500       0.1689       2.5081     144.2175
   2081.0986       8.5728       0.0393      69.9504      37.0722       0.2000     304.5024     189.9699      17.5600    -999.2500       0.1681       2.4868     144.3121
   2081.2510       8.4751       0.0373      71.3794      38.2198       0.2000     327.4681     201.1684      12.5561    -999.2500       0.1673       2.4642     144.3870
   2081.4033       8.3859       0.0494      71.2901      39.2087       0.2000     354.6965     211.0437       9.7782    -999.2500       0.1683       2.4533     144.3065
   2081.5559       8.2981       0.0640      70.9457      40.1709       0.2000     382.6414     220.6964       7.3746    -999.2500       0.1697       2.4442     144.2452
   2081.7083       8.2610       0.0643      69.1601      41.0050       0.2000     435.9605     256.4887      10.4962    -999.2500       0.1768       2.4426     144.3284
   2081.8606       8.2319       0.0623      67.1431      41.8186       0.2000     493.3541     296.4785      14.5051    -999.2500       0.1847       2.4421     144.4123
   2082.0129       8.2879       0.0542      67.2990      43.7538       0.2000     470.0750     293.6272      17.2895    -999.2500       0.1919       2.4511     144.5018
   2082.1655       8.3571       0.0452      67.7924      45.8632       0.2000     434.2677     284.1229      19.8837    -999.2500       0.1991       2.4616     144.5414
   2082.3179       8.2808       0.0444      67.7280      48.8757       0.2000     359.3327     250.3017      30.8792    -999.2500       0.1998       2.4665     144.2392
   2082.4702       8.1831       0.0449      67.5811      52.0220       0.2000     278.6089     212.8829      43.1176    -999.2500       0.1996       2.4705     143.9767
   2082.6226       8.1886       0.0534      66.1815      53.0913       0.2000     281.0084     216.0081      51.1240    -999.2500       0.1996       2.4736     143.9733
   2082.7749       8.2086       0.0629      64.6056      53.8685       0.2000     295.1019     224.8371      58.5351    -999.2500       0.1996       2.4766     144.0073
   2082.9275       8.3154       0.0675      64.5514      54.1560       0.2000     309.1614     236.2647      54.8104    -999.2500       0.1980       2.4805     144.2737
   2083.0798       8.4337       0.0715      64.7003      54.3781       0.2000     323.2164     248.0394      49.5990    -999.2500       0.1962       2.4845     144.5148
   2083.2322       8.5346       0.0627      64.4991      55.1259       0.2000     356.5357     269.3078      49.7665    -999.2500       0.1925       2.4935     144.6059
   2083.3845       8.6333       0.0521      64.2536      55.9401       0.2000     392.2906     291.7766      50.6142    -999.2500       0.1885       2.5030     144.6832
   2083.5371       8.5832       0.0456      65.6769      56.2584       0.2000     414.6045     323.3016      47.0153    -999.2500       0.1865       2.5080     144.6814
   2083.6895       8.5150       0.0396      67.3029      56.5174       0.2000     435.2858     355.9265      42.8763    -999.2500       0.1847       2.5125     144.6918
   2083.8418       8.4468       0.0332      68.4867      54.2191       0.2000     385.4648     309.9132      43.8114    -999.2500       0.1792       2.5206     144.7694
   2083.9941       8.3786       0.0266      69.6198      51.6279       0.2000     327.5693     254.8937      45.3276    -999.2500       0.1732       2.5292     144.9208
   2084.1467       8.3100       0.0224      69.5974      50.2068       0.2000     361.8514     279.6845     381.9611    -999.2500       0.1699       2.5309     145.4616
   2084.2991       8.2413       0.0184      69.4505      48.9117       0.2000     406.0594     313.0696     754.6808    -999.2500       0.1670       2.5319     145.9886
   2084.4514       8.1908       0.0253      68.8559      48.6919       0.2000     434.1408     352.1634     977.3221    -999.2500       0.1593       2.5161     146.4456
   2084.6038       8.1422       0.0333      68.2161      48.5806       0.2000     460.5946     391.8334    1184.8173    -999.2500       0.1511       2.4985     146.8359
   2084.7561       8.2196       0.0395      69.1970      49.6872       0.2000     447.6990     373.5566    1207.7366    -999.2500       0.1539       2.4947     146.9013
   2084.9087       8.3088       0.0455      70.3306      50.9086       0.2000     431.0950     349.8188    1213.2609    -999.2500       0.1577       2.4922     146.9649
   2085.0610       8.4247       0.0368      71.6445      53.0471       0.2000     458.4000     364.6301    1208.7710    -999.2500       0.1658       2.4975     147.0205
   2085.2134       8.5429       0.0268      72.9741      55.2659       0.2000     489.5534     382.8199    1203.4033    -999.2500       0.1743       2.5035     147.1022
   2085.3657       8.5525       0.0241      73.1218      56.3587       0.2000     491.9345     397.4339    1180.9725    -999.2500       0.1818       2.4910     147.3038
   2085.5183       8.5530       0.0221      73.1715      57.3580       0.2000     491.9275     411.7511    1157.1255    -999.2500       0.1891       2.4770     147.4514
   2085.6707       8.5348       0.0243      73.0837      57.4290       0.2000     481.7645     409.3258     942.0674    -999.2500       0.1913       2.4658     147.3620
   2085.8230       8.5153       0.0268      72.9854      57.4290       0.2000     470.8242     405.6190     712.3747    -999.2500       0.1931       2.4547     147.2225
   2085.9753       8.4775       0.0354      73.2554      56.2535       0.2000     464.1919     400.3258     409.1276    -999.2500       0.1921       2.4395     146.8704
   2086.1279       8.4383       0.0445      73.5512      54.9955       0.2000     457.8618     394.9213     100.7207    -999.2500       0.1909       2.4239     146.5416
   2086.2803       8.4360       0.0483      73.7542      52.9716       0.2000     455.5327     391.2394      49.3821    -999.2500       0.1900       2.4046     146.3087
   2086.4326       8.4360       0.0518      73.9513      50.8989       0.2000     453.4590     387.6675      14.4543    -999.2500       0.1892       2.3851     146.1140
   2086.5850       8.4739       0.0511      73.4973      50.0863       0.2000     467.4348     396.1081      19.5164    -999.2500       0.1892       2.3764     146.0700
   2086.7373       8.5140       0.0501      73.0058      49.3464       0.2000     482.3352     405.2406      26.8819    -999.2500       0.1892       2.3684     146.0322
   2086.8899       8.5070       0.0567      72.6544      49.4851       0.2000     424.0100     367.2007      34.8157    -999.2500       0.1913       2.3880     146.0183
   2087.0422       8.4974       0.0637      72.3105      49.6707       0.2000     361.7885     326.6508      42.7798    -999.2500       0.1935       2.4091     146.0049
   2087.1946       8.4506       0.0726      72.9539      49.9615       0.2000     315.3821     274.6274      40.2152    -999.2500       0.1977       2.4282     145.9931
   2087.3469       8.4019       0.0816      73.6438      50.2573       0.2000     269.7206     222.0637      37.1547    -999.2500       0.2021       2.4472     145.9672
   2087.4995       8.3624       0.0921      73.2462      50.9447       0.2000     282.1687     269.8323      52.8345    -999.2500       0.2040       2.4851     145.8902
   2087.6519       8.3233       0.1026      72.8040      51.6482       0.2000     297.0023     321.7196      69.2836    -999.2500       0.2057       2.5237     145.7772
   2087.8042       8.3128       0.1011      71.6947      51.7074       0.2000     407.1292     369.3302      76.8415    -999.2500       0.2066       2.5647     145.5388
