#------------------------------------------------------------------------------
#
#   Created by  : [OpenWorks] Log Export Utility (LEXP)
#   Created on  : 2016-05-23 11:56:12
#   Project     : CANT971
#   User        : R5K
#   Interpreter : PEP
#
#------------------------------------------------------------------------------
~VERSION INFORMATION
VERS. 2.0 : CWLS Log ASCII Standard - version 2.0
WRAP.  NO : One line per depth step
~WELL INFORMATION
#MNEMONIC   .UNIT                                           VALUE :DESCRIPTION
#------------------------------------------------------------------------------
STRT        .M                                           365.7604 :START DEPTH
STOP        .M                                          2883.8655 :STOP DEPTH
STEP        .M                                             0.1524 :STEP
NULL        .                                           -999.2500 :NULL VALUE
COMP        .                                   PEMEX EXPL & PROD :COMPANY
WELL        .                                                  44 :WELL
FLD         .                                           CANTARELL :FIELD
LOC         .                                             UNKNOWN :LOCATION
CNTY        .                                      CD. DEL CARMEN :COUNTY
STAT        .                                            CAMPECHE :STATE
CTRY        .                                              MEXICO :COUNTRY
SRVC        .                                             UNKNOWN :SERVICE COMPANY
DATE        .                                             UNKNOWN :LOG DATE
UWI         .                                          3060000162 :UNIQUE WELL ID
XCOORD      .                                       599695.380000 :SURFACE X
YCOORD      .                                      2143038.730000 :SURFACE Y
LAT         .                                           19.380164 :LATITUDE
LON         .                                          -92.050646 :LONGITUDE
ELEV        .M                                            26.7400 :SURFACE ELEV
ELEV_TYPE   .                                                  KB :ELEV TYPE
~CURVE INFORMATION
#MNEMONIC.UNIT        API CODE       : CURVE DESCRIPTION
#------------------------------------------------------------------------------
DEPTH    .M                          : Measured Depth
CALI     .inches      UNKNOWN        : CALI:registros:rC:NONE:v0 (auto-composite)
CGR      .API         UNKNOWN        : CGR:registros:rC:NONE:v0 (auto-composite)
DRHO     .g/cm3       UNKNOWN        : DRHO:registros:rC:NONE:v0 (auto-composite)
DT       .UNKNOWN     UNKNOWN        : DT:registros:rC:NONE:v0 (auto-composite)
GR       .API         UNKNOWN        : GR:registros:rC:NONE:v0 (auto-composite)
ILD      .ohm.m       UNKNOWN        : ILD:registros:rC:NONE:v0 (auto-composite)
LLD      .ohm.m       UNKNOWN        : LLD:registros:rC:NONE:v0 (auto-composite)
LLS      .ohm.m       UNKNOWN        : LLS:registros:rC:NONE:v0 (auto-composite)
MSFL     .ohm.m       UNKNOWN        : MSFL:registros:rC:NONE:v0 (auto-composite)
NPHI     .UNKNOWN     UNKNOWN        : NPHI:registros:rC:NONE:v0 (auto-composite)
PEF      .b/elec      UNKNOWN        : PEF:registros:rC:NONE:v0 (auto-composite)
POTA     .wtpercent   UNKNOWN        : POTA:registros:rC:NONE:v0 (auto-composite)
RHOB     .g/cm3       UNKNOWN        : RHOB:registros:rC:NONE:v0 (auto-composite)
THOR     .ppm         UNKNOWN        : THOR:registros:rC:NONE:v0 (auto-composite)
URAN     .ppm         UNKNOWN        : URAN:registros:rC:NONE:v0 (auto-composite)
~A     DEPTH         CALI          CGR         DRHO           DT           GR          ILD          LLD          LLS         MSFL         NPHI          PEF         POTA         RHOB         THOR         URAN
# ...
   2077.5171      10.1620    -999.2500       0.0050      59.7000      19.9120    -999.2500   41854.7305   62601.3633    1002.6630       0.0801    -999.2500    -999.2500       2.6210    -999.2500    -999.2500
   2077.6697      10.1097    -999.2500       0.0085      61.2679      27.1797    -999.2500   41984.2266   62358.0898     721.3337       0.0756    -999.2500    -999.2500       2.6381    -999.2500    -999.2500
   2077.8220      10.0580    -999.2500       0.0120      62.8250      34.3970    -999.2500   42112.8203   62116.5039     441.9580       0.0717    -999.2500    -999.2500       2.6550    -999.2500    -999.2500
   2077.9744       9.9383    -999.2500       0.0472      61.7996      45.1054    -999.2500   40761.9453   58832.3047     221.0640       0.0706    -999.2500    -999.2500       2.6781    -999.2500    -999.2500
   2078.1267       9.8200    -999.2500       0.0820      60.7860      55.6900    -999.2500   39426.6836   55586.0625       2.7230       0.0726    -999.2500    -999.2500       2.7010    -999.2500    -999.2500
   2078.2793       9.8668    -999.2500       0.0755      59.5343      59.1968    -999.2500   37862.1758   53377.5078       8.5341       0.0787    -999.2500    -999.2500       2.6703    -999.2500    -999.2500
   2078.4316       9.9130    -999.2500       0.0690      58.2950      62.6690    -999.2500   36313.0781   51190.7031      14.2880       0.0857    -999.2500    -999.2500       2.6400    -999.2500    -999.2500
   2078.5840      10.0623    -999.2500       0.0373      57.9358      58.0659    -999.2500   34606.2109   49534.3125      35.1809       0.0907    -999.2500    -999.2500       2.6103    -999.2500    -999.2500
   2078.7363      10.2100    -999.2500       0.0060      57.5790      53.4930    -999.2500   32910.5117   47888.7617      55.9370       0.0902    -999.2500    -999.2500       2.5810    -999.2500    -999.2500
   2078.8887      10.1793    -999.2500       0.0115      57.4378      44.1298    -999.2500   31323.3535   46358.8164      37.1416       0.0790    -999.2500    -999.2500       2.6021    -999.2500    -999.2500
   2079.0413      10.1490    -999.2500       0.0170      57.2970      34.7970    -999.2500   29741.3301   44833.8242      18.4070       0.0671    -999.2500    -999.2500       2.6230    -999.2500    -999.2500
   2079.1936      10.0177    -999.2500       0.0286      57.2513      29.6587    -999.2500   33186.7656   49228.9062      12.7832       0.0641    -999.2500    -999.2500       2.6436    -999.2500    -999.2500
   2079.3459       9.8880    -999.2500       0.0400      57.2060      24.5610    -999.2500   36604.9375   53589.2070       7.2040       0.0646    -999.2500    -999.2500       2.6640    -999.2500    -999.2500
   2079.4983       9.9906    -999.2500       0.0440      56.7084      26.8015    -999.2500   38322.8008   55409.9648       8.2465       0.0644    -999.2500    -999.2500       2.6494    -999.2500    -999.2500
   2079.6509      10.0920    -999.2500       0.0480      56.2170      29.0140    -999.2500   40019.1602   57207.9258       9.2760       0.0606    -999.2500    -999.2500       2.6350    -999.2500    -999.2500
   2079.8032      10.2465    -999.2500       0.1864      54.7477      31.9726    -999.2500   42043.4141   60690.1211      14.1339       0.0497    -999.2500    -999.2500       2.6838    -999.2500    -999.2500
   2079.9556      10.3990    -999.2500       0.3230      53.2920      34.9040    -999.2500   44049.0039   64140.2070      18.9470       0.0417    -999.2500    -999.2500       2.7320    -999.2500    -999.2500
   2080.1079      10.2984    -999.2500       0.3114      54.1450      37.2153    -999.2500   41891.8672   63574.4336      48.4168       0.0470    -999.2500    -999.2500       2.6616    -999.2500    -999.2500
   2080.2603      10.1990    -999.2500       0.3000      54.9930      39.5130    -999.2500   39747.5078   63012.0156      77.7120       0.0629    -999.2500    -999.2500       2.5920    -999.2500    -999.2500
   2080.4128      10.1608    -999.2500       0.1893      57.8355      40.6033    -999.2500   42140.3047   65273.6016     167.7383       0.0890    -999.2500    -999.2500       2.5231    -999.2500    -999.2500
   2080.5652      10.1230    -999.2500       0.0800      60.6660      41.6890    -999.2500   44523.0391   67525.6719     257.3860       0.1110    -999.2500    -999.2500       2.4550    -999.2500    -999.2500
   2080.7175      10.8730    -999.2500       0.0976      61.7086      40.1341    -999.2500   46633.2461   68905.7344     297.1109       0.1137    -999.2500    -999.2500       2.4952    -999.2500    -999.2500
   2080.8699      11.6140    -999.2500       0.1150      62.7420      38.5930    -999.2500   48724.7070   70273.5312     336.4830       0.1093    -999.2500    -999.2500       2.5350    -999.2500    -999.2500
   2081.0225      11.5300    -999.2500       0.1070      62.1389      36.8758    -999.2500   50646.7188   72029.7188     169.3273       0.1083    -999.2500    -999.2500       2.5576    -999.2500    -999.2500
   2081.1748      11.4470    -999.2500       0.0990      61.5430      35.1790    -999.2500   52545.8789   73765.0312       4.1590       0.1094    -999.2500    -999.2500       2.5800    -999.2500    -999.2500
   2081.3271      11.0396    -999.2500       0.1005      62.2008      33.8834    -999.2500   52268.5820   73330.8281       8.5328       0.1115    -999.2500    -999.2500       2.5896    -999.2500    -999.2500
   2081.4795      10.6370    -999.2500       0.1020      62.8530      32.5990    -999.2500   51993.6680   72900.3594      12.8690       0.1113    -999.2500    -999.2500       2.5990    -999.2500    -999.2500
   2081.6321      10.4881    -999.2500       0.1146      61.7191      31.1159    -999.2500   51454.2656   73072.0703     266.8627       0.1047    -999.2500    -999.2500       2.6166    -999.2500    -999.2500
   2081.7844      10.3410    -999.2500       0.1270      60.5930      29.6430    -999.2500   50918.5781   73242.5938     519.1060       0.0926    -999.2500    -999.2500       2.6340    -999.2500    -999.2500
   2081.9368      10.2852    -999.2500       0.1109      58.5874      27.6569    -999.2500   49112.8359   72937.2734     300.1658       0.0749    -999.2500    -999.2500       2.6400    -999.2500    -999.2500
   2082.0891      10.2300    -999.2500       0.0950      56.5890      25.6780    -999.2500   47313.5547   72633.0469      82.0090       0.0560    -999.2500    -999.2500       2.6460    -999.2500    -999.2500
   2082.2415      10.1878    -999.2500       0.0854      55.6198      25.8380    -999.2500   48788.8320   71452.6797      43.8574       0.0401    -999.2500    -999.2500       2.6440    -999.2500    -999.2500
   2082.3940      10.1460    -999.2500       0.0760      54.6570      25.9970    -999.2500   50254.2812   70280.1719       5.9600       0.0278    -999.2500    -999.2500       2.6420    -999.2500    -999.2500
   2082.5464      10.1143    -999.2500       0.0790      54.2331      25.9150    -999.2500   48079.6602   69060.6250       4.2182       0.0205    -999.2500    -999.2500       2.6420    -999.2500    -999.2500
   2082.6987      10.0830    -999.2500       0.0820      53.8140      25.8340    -999.2500   45929.5625   67854.8359       2.4960       0.0169    -999.2500    -999.2500       2.6420    -999.2500    -999.2500
   2082.8511      10.1157    -999.2500       0.0795      53.5738      26.0475    -999.2500   42199.7617   62617.5625       2.5116       0.0165    -999.2500    -999.2500       2.6400    -999.2500    -999.2500
   2083.0037      10.1480    -999.2500       0.0770      53.3360      26.2590    -999.2500   38505.6523   57430.4062       2.5270       0.0169    -999.2500    -999.2500       2.6380    -999.2500    -999.2500
   2083.1560      10.0967    -999.2500       0.0564      52.6504      28.2086    -999.2500   36442.5195   54585.6523     433.4670       0.0160    -999.2500    -999.2500       2.6249    -999.2500    -999.2500
   2083.3083      10.0460    -999.2500       0.0360      51.9690      30.1460    -999.2500   34392.3047   51758.7188     861.7080       0.0141    -999.2500    -999.2500       2.6120    -999.2500    -999.2500
