#------------------------------------------------------------------------------
#
#   Created by  : [OpenWorks] Log Export Utility (LEXP)
#   Created on  : 2016-05-23 11:50:53
#   Project     : CANT971
#   User        : R5K
#   Interpreter : PEP
#
#------------------------------------------------------------------------------
~VERSION INFORMATION
VERS. 2.0 : CWLS Log ASCII Standard - version 2.0
WRAP.  NO : One line per depth step
~WELL INFORMATION
#MNEMONIC   .UNIT                                           VALUE :DESCRIPTION
#------------------------------------------------------------------------------
STRT        .M                                           494.4622 :START DEPTH
STOP        .M                                          2707.4626 :STOP DEPTH
STEP        .M                                             0.1524 :STEP
NULL        .                                           -999.2500 :NULL VALUE
COMP        .                                   PEMEX EXPL & PROD :COMPANY
WELL        .                                                1042 :WELL
FLD         .                                           CANTARELL :FIELD
LOC         .                                             UNKNOWN :LOCATION
CNTY        .                                      CD. DEL CARMEN :COUNTY
STAT        .                                            CAMPECHE :STATE
CTRY        .                                              MEXICO :COUNTRY
SRVC        .                                             UNKNOWN :SERVICE COMPANY
DATE        .                                             UNKNOWN :LOG DATE
UWI         .                                          3060000495 :UNIQUE WELL ID
XCOORD      .                                       596162.680000 :SURFACE X
YCOORD      .                                      2150604.600000 :SURFACE Y
LAT         .                                           19.448706 :LATITUDE
LON         .                                          -92.083900 :LONGITUDE
ELEV        .M                                            30.0000 :SURFACE ELEV
ELEV_TYPE   .                                                  KB :ELEV TYPE
~CURVE INFORMATION
#MNEMONIC.UNIT        API CODE       : CURVE DESCRIPTION
#------------------------------------------------------------------------------
DEPTH    .M                          : Measured Depth
CALI     .inches      UNKNOWN        : CALI:litodensidad:rC:NONE:v0 (auto-composite)
DT       .us/ft       UNKNOWN        : DT:DT:rC:NONE:v0 (auto-composite)
GR       .API         UNKNOWN        : GR:GR-Load:rC:NONE:v0 (auto-composite)
ILD      .ohmm        UNKNOWN        : ILD:UNKNOWN:rC:NONE:v0 (auto-composite)
LLD      .ohmm        UNKNOWN        : LLD:UNKNOWN:rC:NONE:v0 (auto-composite)
LLS      .ohmm        UNKNOWN        : LLS:UNKNOWN:rC:NONE:v0 (auto-composite)
MSFL     .ohmm        UNKNOWN        : MSFL:UNKNOWN:rC:NONE:v0 (auto-composite)
NPHI     .v/v_decimal UNKNOWN        : NPHI:NPHI:rC:NONE:v0 (auto-composite)
~A     DEPTH         CALI           DT           GR          ILD          LLD          LLS         MSFL         NPHI
# ...
   2313.6611       8.4720    -999.2500      17.5396       0.2000      28.9947      27.0756       8.7422       0.1963
   2313.8135       8.4678    -999.2500      18.9043       0.2000      28.6101      26.8124       9.1814       0.2317
   2313.9658       8.4693    -999.2500      20.9604       0.2000      28.2491      26.5611       9.6372       0.2833
   2314.1182       8.4740    -999.2500      23.0575       0.2000      27.9102      26.3209      10.1085       0.2896
   2314.2708       8.4820    -999.2500      25.1958       0.2000      28.9423      27.4076      10.2289       0.2509
   2314.4231       8.4822    -999.2500      25.4369       0.2000      31.2322      29.7115      10.0273       0.2165
   2314.5754       8.4747    -999.2500      23.7771       0.2000      33.3967      32.0371      12.1542       0.1866
   2314.7278       8.4682    -999.2500      22.9450       0.2000      35.4489      34.3821      16.3698       0.1645
   2314.8804       8.4627    -999.2500      22.9450       0.2000      35.8204      35.1359      18.1923       0.1501
   2315.0327       8.4577    -999.2500      25.0218       0.2000      34.7174      34.4936      17.9150       0.1407
   2315.1851       8.4532    -999.2500      29.1805       0.2000      32.5360      32.6542      15.2427       0.1361
   2315.3374       8.4467    -999.2500      30.2686       0.2000      29.4294      29.7875      10.5154       0.1350
   2315.4897       8.4382    -999.2500      28.2678       0.2000      26.2089      26.7190       7.8701       0.1373
   2315.6423       8.4393    -999.2500      29.3246       0.2000      22.8922      23.4800       6.9832       0.1379
   2315.7947       8.4498    -999.2500      33.4478       0.2000      21.6301      22.0359       6.8561       0.1367
   2315.9470       8.4583    -999.2500      33.9968       0.2000      22.0648      22.0740       7.3564       0.1331
   2316.0994       8.4648    -999.2500      30.9487       0.2000      23.0190      22.8130       8.2485       0.1272
   2316.2520       8.4667    -999.2500      30.1455       0.2000      24.3928      24.1182       9.4569       0.1227
   2316.4043       8.4642    -999.2500      31.5951       0.2000      25.7400      25.4922       9.7101       0.1196
   2316.5566       8.4612    -999.2500      32.0457       0.2000      27.0662      26.9207       9.2092       0.1217
   2316.7090       8.4577    -999.2500      31.4969       0.2000      30.1625      29.9235       9.0020       0.1290
   2316.8613       8.4530    -999.2500      30.6402       0.2000      34.6253      34.1418       9.0216       0.1378
   2317.0139       8.4470    -999.2500      29.4743       0.2000      38.8958      38.1472      10.1751       0.1480
   2317.1663       8.4440    -999.2500      29.2499       0.2000      43.0202      41.9909      12.1902       0.1611
   2317.3186       8.4440    -999.2500      29.9681       0.2000      44.3185      42.9210      13.1155       0.1771
   2317.4709       8.4468    -999.2500      32.0426       0.2000      43.5178      41.6870      13.2313       0.1904
   2317.6235       8.4523    -999.2500      35.4793       0.2000      41.3361      38.9127      12.4972       0.2012
   2317.7759       8.4605    -999.2500      37.8400       0.2000      38.1518      35.0199      11.1459       0.2018
   2317.9282       8.4715    -999.2500      39.1229       0.2000      34.6302      31.4268       9.8178       0.1923
   2318.0806       8.4788    -999.2500      37.2224       0.2000      30.8693      28.0465       8.5062       0.1783
   2318.2332       8.4823    -999.2500      32.1225       0.2000      28.5566      25.9456       7.6327       0.1601
   2318.3855       8.4893    -999.2500      31.3252       0.2000      27.2485      24.7322       7.0631       0.1400
   2318.5378       8.4998    -999.2500      34.8392       0.2000      26.9502      24.4892       7.2636       0.1180
   2318.6902       8.5000    -999.2500      37.9593       0.2000      27.3365      24.9040       7.9860       0.1204
   2318.8425       8.4900    -999.2500      40.6833       0.2000      27.2218      24.8964       7.5380       0.1472
   2318.9951       8.4858    -999.2500      39.8495       0.2000      26.7730      24.6071       6.3096       0.2134
   2319.1475       8.4873    -999.2500      35.4489       0.2000      25.5271      23.9623       6.7883       0.3189
   2319.2998       8.4910    -999.2500      35.6051       0.2000      23.7617      23.0859       8.3792       0.3682
   2319.4521       8.4970    -999.2500      40.3453       0.2000      23.5906      23.6319       8.1353       0.3618
   2319.6047       8.5033    -999.2500      42.4520       0.2000      24.4344      25.0834       6.7234       0.3122
   2319.7571       8.5098    -999.2500      41.9172       0.2000      26.7226      27.4834       5.9455       0.2196
   2319.9094       8.5107    -999.2500      38.3420       0.2000      29.9089      30.4732       5.5619       0.1511
   2320.0618       8.5062    -999.2500      31.7066       0.2000      29.0669      29.8249       5.2097       0.1066
   2320.2144       8.5030    -999.2500      28.6521       0.2000      25.7779      26.9668       4.8766       0.0992
   2320.3667       8.5010    -999.2500      29.1913       0.2000      22.4054      23.5645       4.8167       0.1285
   2320.5190       8.5093    -999.2500      27.9856       0.2000      18.9829      19.8372       4.9199       0.1791
   2320.6714       8.5278    -999.2500      25.0338       0.2000      17.5421      17.7262       6.0119       0.2508
   2320.8237       8.5453    -999.2500      23.9057       0.2000      17.2573      16.5579       7.6805       0.3063
   2320.9763       8.5618    -999.2500      24.6084       0.2000      16.7799      15.7641       6.7299       0.3456
   2321.1287       8.6002    -999.2500      26.1309       0.2000      16.1928      15.1835       4.2877       0.3398
   2321.2810       8.6601    -999.2500      28.4739       0.2000      15.5435      14.4108       7.3562       0.2892
   2321.4333       8.7761    -999.2500      28.8725       0.2000      14.8596      13.5314      13.4887       0.2403
   2321.5859       8.9477    -999.2500      27.3179       0.2000      14.0328      12.6365      18.9000       0.1932
   2321.7383       9.1725    -999.2500      25.4668       0.2000      13.1285      11.7332      23.9199       0.1484
   2321.8906       9.4499    -999.2500      23.3187       0.2000      17.3477      15.1058      32.8035       0.1060
   2322.0430       9.5393    -999.2500      23.4534       0.2000      24.2995      20.7590      43.7479       0.0755
   2322.1956       9.4423    -999.2500      25.8823       0.2000      44.1703      36.6745      35.1735       0.0570
   2322.3479       9.2247    -999.2500      27.8030       0.2000      70.7645      57.9310      16.4411       0.0516
   2322.5002       8.8878    -999.2500      29.2144       0.2000      67.7848      56.8890      11.5872       0.0592
   2322.6526       8.6480    -999.2500      29.4728       0.2000      49.7900      44.5257      13.7798       0.0737
   2322.8049       8.5044    -999.2500      28.5720       0.2000      41.8462      38.9177      14.3387       0.0950
   2322.9575       8.4031    -999.2500      27.2303       0.2000      38.8800      36.6549      14.0885       0.1107
   2323.1099       8.3436    -999.2500      25.4466       0.2000      49.5006      45.2582      27.4688       0.1206
   2323.2622       8.2794    -999.2500      23.5943       0.2000      66.6828      59.1091      47.4316       0.1132
   2323.4146       8.2103    -999.2500      21.6731       0.2000      83.3269      75.3405      47.2280       0.0886
   2323.5671       8.1838    -999.2500      22.9903       0.2000      99.7177      92.6927      37.5294       0.0773
   2323.7195       8.1993    -999.2500      27.5558       0.2000     112.0546     107.3671      28.5030       0.0793
   2323.8718       8.2130    -999.2500      31.0999       0.2000     122.5171     120.8033      19.7873       0.0818
   2324.0242       8.2250    -999.2500      33.6158       0.2000     129.7654     129.3480      19.8244       0.0848
