#------------------------------------------------------------------------------
#
#   Created by  : [OpenWorks] Log Export Utility (LEXP)
#   Created on  : 2016-05-23 11:57:01
#   Project     : CANT971
#   User        : R5K
#   Interpreter : PEP
#
#------------------------------------------------------------------------------
~VERSION INFORMATION
VERS. 2.0 : CWLS Log ASCII Standard - version 2.0
WRAP.  NO : One line per depth step
~WELL INFORMATION
#MNEMONIC   .UNIT                                           VALUE :DESCRIPTION
#------------------------------------------------------------------------------
STRT        .M                                           485.8514 :START DEPTH
STOP        .M                                          3526.5361 :STOP DEPTH
STEP        .M                                             0.1524 :STEP
NULL        .                                           -999.2500 :NULL VALUE
COMP        .                                   PEMEX EXPL & PROD :COMPANY
WELL        .                                                  62 :WELL
FLD         .                                           CANTARELL :FIELD
LOC         .                                             UNKNOWN :LOCATION
CNTY        .                                      CD. DEL CARMEN :COUNTY
STAT        .                                            CAMPECHE :STATE
CTRY        .                                              MEXICO :COUNTRY
SRVC        .                                             UNKNOWN :SERVICE COMPANY
DATE        .                                             UNKNOWN :LOG DATE
UWI         .                                          3060000468 :UNIQUE WELL ID
XCOORD      .                                       601711.280000 :SURFACE X
YCOORD      .                                      2142346.320000 :SURFACE Y
LAT         .                                           19.373806 :LATITUDE
LON         .                                          -92.031488 :LONGITUDE
ELEV        .M                                            24.0000 :SURFACE ELEV
ELEV_TYPE   .                                                  KB :ELEV TYPE
~CURVE INFORMATION
#MNEMONIC.UNIT        API CODE       : CURVE DESCRIPTION
#------------------------------------------------------------------------------
DEPTH    .M                          : Measured Depth
CALI     .inches      UNKNOWN        : CALI:editado:rC:NONE:v0 (auto-composite)
DRHO     .g/cm3       UNKNOWN        : DRHO:editado:rC:NONE:v0 (auto-composite)
DT       .us/ft       UNKNOWN        : DT:editado:rC:NONE:v0 (auto-composite)
GR       .API         UNKNOWN        : GR:editado:rC:NONE:v0 (auto-composite)
ILD      .ohm.m       UNKNOWN        : ILD:editado:rC:NONE:v0 (auto-composite)
ILM      .ohm.m       UNKNOWN        : ILM:editado:rC:NONE:v0 (auto-composite)
LLD      .ohm.m       UNKNOWN        : LLD:editado:rC:NONE:v0 (auto-composite)
LLS      .ohm.m       UNKNOWN        : LLS:editado:rC:NONE:v0 (auto-composite)
MSFL     .ohm.m       UNKNOWN        : MSFL:editado:rC:NONE:v0 (auto-composite)
NPHI     .v/v_decimal UNKNOWN        : NPHI:editado:rC:NONE:v0 (auto-composite)
PEF      .b/elec      UNKNOWN        : PEF:editado:rC:NONE:v0 (auto-composite)
RHOB     .g/cm3       UNKNOWN        : RHOB:editado:rC:NONE:v0 (auto-composite)
~A     DEPTH         CALI         DRHO           DT           GR          ILD          ILM          LLD          LLS         MSFL         NPHI          PEF         RHOB
# ...
   1839.1635    -999.2500    -999.2500      80.9690      31.5940       0.2000       0.0000    -999.2500    -999.2500    -999.2500     -15.0000    -999.2500    -999.2500
   1839.3158    -999.2500    -999.2500      73.9242      31.5599    -999.2500    -999.2500    -999.2500    -999.2500    -999.2500     -15.0000    -999.2500    -999.2500
   1839.4683    -999.2500    -999.2500      66.8750      31.5260    -999.2500    -999.2500    -999.2500    -999.2500    -999.2500     -15.0000    -999.2500    -999.2500
   1839.6206    -999.2500    -999.2500      71.9981      29.3877    -999.2500    -999.2500    -999.2500    -999.2500    -999.2500     -15.0000    -999.2500    -999.2500
   1839.7729    -999.2500    -999.2500      77.1250      27.2580    -999.2500    -999.2500    -999.2500    -999.2500    -999.2500     -15.0000    -999.2500    -999.2500
   1839.9254    -999.2500    -999.2500      76.5003      27.3552    -999.2500    -999.2500    -999.2500    -999.2500    -999.2500     -15.0000    -999.2500    -999.2500
   1840.0778    -750.7380       0.2500      75.8750      27.4520    -999.2500    -999.2500    -999.2500    -999.2500       0.1190     -13.9138       0.0000    -750.2530
   1840.2302    -372.3930       0.1570      77.6248      28.7645    -999.2500    -999.2500    -999.2500    -999.2500       0.2090      -7.3661      -5.0326    -371.8864
   1840.3826       2.1050       0.0650      79.3750      30.0700    -999.2500    -999.2500       0.2010       0.4830       0.2980      -0.8169     -10.0140       2.6330
   1840.5350       5.2990      -0.2174      78.6623      29.8254    -999.2500    -999.2500       1.1088       0.3098       0.6573       0.2439     -82.0563       2.6255
   1840.6874       8.4610      -0.4970      77.9500      29.5820    -999.2500    -999.2500       2.0090       0.1380       1.0130       0.2261    -153.3750       2.6180
   1840.8398       8.4610      -0.4935      69.7705      27.4184    -999.2500    -999.2500       1.8001       0.2309       1.0758       0.2260     -24.9099       2.6376
   1840.9922       8.4610      -0.4900      61.5940      25.2660    -999.2500    -999.2500       1.5930       0.3230       1.1380       0.2326     102.2810       2.6570
   1841.1447       8.4610      -0.4764      64.8444      25.4560    -999.2500    -999.2500       1.6035       0.2698       1.2696       0.2557      94.7144       2.6515
   1841.2970       8.4610      -0.4630      68.0940      25.6450    -999.2500    -999.2500       1.6140       0.2170       1.4000       0.2773      87.2220       2.6460
   1841.4495       8.4610      -0.4635      66.7969      27.5537    -999.2500    -999.2500     128.9370       0.2376       1.7753       0.2743      59.6612       2.6264
   1841.6018       8.4610      -0.4640      65.5000      29.4530    -999.2500    -999.2500     255.2310       0.2580       2.1470       0.2690      32.3670       2.6070
   1841.7542       8.4610      -0.4761      66.6095      29.1984    -999.2500    -999.2500     242.7569       0.2224       1.7476       0.2764      37.1202       2.6120
   1841.9066       8.4610      -0.4880      67.7190      28.9450    -999.2500    -999.2500     230.3820       0.1870       1.3520       0.2846      41.8280       2.6170
   1842.0590       8.4610      -0.4845      63.0163      29.2151    -999.2500    -999.2500     170.2505       0.4646       1.4771       0.2848       0.3425       2.6522
   1842.2114       8.4610      -0.4810      58.3130      29.4840    -999.2500    -999.2500     110.5900       0.7400       1.6010       0.2828     -40.7190       2.6870
   1842.3638       8.4218      -0.5066      84.8539      27.4013    -999.2500    -999.2500      61.8140       0.6938       1.5095       0.2776      -4.4904       2.6840
   1842.5162       8.3830      -0.5320     111.4020      25.3280    -999.2500    -999.2500      13.4530       0.6480       1.4190       0.2712      31.3440       2.6810
   1842.6686       8.3981      -0.5159     274.6686      25.4468    -999.2500    -999.2500       7.1581       0.3989       1.0364       0.2613      30.5930       2.5774
   1842.8210       8.4130      -0.5000     438.0000      25.5650    -999.2500    -999.2500       0.9210       0.1520       0.6580       0.2434      29.8500       2.4750
   1842.9734       8.4859      -0.3849     369.6429      26.1753    -999.2500    -999.2500       0.9346       0.2243     503.7973       0.1861      25.1309       2.4881
   1843.1259       8.5580      -0.2710     301.2500      26.7830    -999.2500    -999.2500       0.9480       0.2960    1001.5860       0.1303      20.4620       2.5010
   1843.2782       8.7264      -0.0121     317.9186      28.0992    -999.2500    -999.2500       2.6782       7.8668     686.0931       0.1226      12.9716       2.5613
   1843.4307       8.8930       0.2440     334.5980      29.4100    -999.2500    -999.2500       4.3930      15.3700     373.9160       0.1260       5.5600       2.6210
   1843.5830       9.2247       0.1827     407.8687      31.8188    -999.2500    -999.2500     324.5787      15.1350     194.7873       0.1423       5.1393       2.5768
   1843.7354       9.5530       0.1220     481.1960      34.2180    -999.2500    -999.2500     641.9470      14.9020      17.5190       0.1577       4.7230       2.5330
   1843.8878      10.0184       0.1305     576.5933      36.6728    -999.2500    -999.2500     429.3901      13.4934      14.0050       0.1549       4.2848       2.5451
   1844.0402      10.4790       0.1390     672.0000      39.1160    -999.2500    -999.2500     218.6770      12.0970      10.5270       0.1528       3.8510       2.5570
   1844.1926      11.2368       0.1284     671.7819      40.0134    -999.2500    -999.2500     110.6944       9.8479      10.5310       0.1725       3.8219       2.5500
   1844.3450      11.9870       0.1180     671.5640      40.9060    -999.2500    -999.2500       3.6350       7.6180      10.5350       0.1928       3.7930       2.5430
   1844.4974      12.1388       0.0843     669.3830      40.6007    -999.2500    -999.2500       3.7781       6.1438       7.7566       0.1943       3.7126       2.5083
   1844.6498      12.2890       0.0510     667.2030      40.2970    -999.2500    -999.2500       3.9200       4.6820       5.0060       0.1911       3.6330       2.4740
   1844.8022      12.1734       0.0415     658.8076      40.4253    -999.2500    -999.2500       5.0803       4.8125       7.7822       0.1798       3.6903       2.4825
   1844.9546      12.0590       0.0320     650.4150      40.5530    -999.2500    -999.2500       6.2310       4.9420      10.5310       0.1687       3.7470       2.4910
   1845.1071      12.0620       0.0240     590.8265      41.8111    -999.2500    -999.2500      10.5928       6.0164      10.3531       0.1675       3.9420       2.5166
   1845.2594      12.0650       0.0160     531.2500      43.0630    -999.2500    -999.2500      14.9190       7.0820      10.1770       0.1686       4.1350       2.5420
   1845.4119      12.0911       0.0190     537.4152      42.7192    -999.2500    -999.2500      14.6278       7.0810       9.5756       0.1723       4.2852       2.5510
   1845.5642      12.1170       0.0220     543.5800      42.3770    -999.2500    -999.2500      14.3390       7.0800       8.9800       0.1748       4.4340       2.5600
   1845.7166      12.0879       0.0190     572.4398      39.9873    -999.2500    -999.2500      13.3049       7.0649      11.4156       0.1671       4.4124       2.5555
   1845.8690      12.0590       0.0160     601.3010      37.6090    -999.2500    -999.2500      12.2790       7.0500      13.8280       0.1592       4.3910       2.5510
   1846.0214      12.0605       0.0281     634.5466      37.8335    -999.2500    -999.2500      10.1632       6.9300      10.2834       0.1603       4.3955       2.5520
   1846.1738      12.0620       0.0400     667.7980      38.0570    -999.2500    -999.2500       8.0640       6.8110       6.7750       0.1646       4.4000       2.5530
   1846.3262      11.8896       0.0400     674.7104      39.2938    -999.2500    -999.2500       8.3959       6.4118       8.6436       0.1788       4.4468       2.5565
