#------------------------------------------------------------------------------
#
#   Created by  : [OpenWorks] Log Export Utility (LEXP)
#   Created on  : 2016-05-23 11:56:12
#   Project     : CANT971
#   User        : R5K
#   Interpreter : PEP
#
#------------------------------------------------------------------------------
~VERSION INFORMATION
VERS. 2.0 : CWLS Log ASCII Standard - version 2.0
WRAP.  NO : One line per depth step
~WELL INFORMATION
#MNEMONIC   .UNIT                                           VALUE :DESCRIPTION
#------------------------------------------------------------------------------
STRT        .M                                           365.7604 :START DEPTH
STOP        .M                                          2883.8655 :STOP DEPTH
STEP        .M                                             0.1524 :STEP
NULL        .                                           -999.2500 :NULL VALUE
COMP        .                                   PEMEX EXPL & PROD :COMPANY
WELL        .                                                  44 :WELL
FLD         .                                           CANTARELL :FIELD
LOC         .                                             UNKNOWN :LOCATION
CNTY        .                                      CD. DEL CARMEN :COUNTY
STAT        .                                            CAMPECHE :STATE
CTRY        .                                              MEXICO :COUNTRY
SRVC        .                                             UNKNOWN :SERVICE COMPANY
DATE        .                                             UNKNOWN :LOG DATE
UWI         .                                          3060000162 :UNIQUE WELL ID
XCOORD      .                                       599695.380000 :SURFACE X
YCOORD      .                                      2143038.730000 :SURFACE Y
LAT         .                                           19.380164 :LATITUDE
LON         .                                          -92.050646 :LONGITUDE
ELEV        .M                                            26.7400 :SURFACE ELEV
ELEV_TYPE   .                                                  KB :ELEV TYPE
~CURVE INFORMATION
#MNEMONIC.UNIT        API CODE       : CURVE DESCRIPTION
#------------------------------------------------------------------------------
DEPTH    .M                          : Measured Depth
CALI     .inches      UNKNOWN        : CALI:registros:rC:NONE:v0 (auto-composite)
CGR      .API         UNKNOWN        : CGR:registros:rC:NONE:v0 (auto-composite)
DRHO     .g/cm3       UNKNOWN        : DRHO:registros:rC:NONE:v0 (auto-composite)
DT       .UNKNOWN     UNKNOWN        : DT:registros:rC:NONE:v0 (auto-composite)
GR       .API         UNKNOWN        : GR:registros:rC:NONE:v0 (auto-composite)
ILD      .ohm.m       UNKNOWN        : ILD:registros:rC:NONE:v0 (auto-composite)
LLD      .ohm.m       UNKNOWN        : LLD:registros:rC:NONE:v0 (auto-composite)
LLS      .ohm.m       UNKNOWN        : LLS:registros:rC:NONE:v0 (auto-composite)
MSFL     .ohm.m       UNKNOWN        : MSFL:registros:rC:NONE:v0 (auto-composite)
NPHI     .UNKNOWN     UNKNOWN        : NPHI:registros:rC:NONE:v0 (auto-composite)
PEF      .b/elec      UNKNOWN        : PEF:registros:rC:NONE:v0 (auto-composite)
POTA     .wtpercent   UNKNOWN        : POTA:registros:rC:NONE:v0 (auto-composite)
RHOB     .g/cm3       UNKNOWN        : RHOB:registros:rC:NONE:v0 (auto-composite)
THOR     .ppm         UNKNOWN        : THOR:registros:rC:NONE:v0 (auto-composite)
URAN     .ppm         UNKNOWN        : URAN:registros:rC:NONE:v0 (auto-composite)
~A     DEPTH         CALI          CGR         DRHO           DT           GR          ILD          LLD          LLS         MSFL         NPHI          PEF         POTA         RHOB         THOR         URAN
# ...
   2166.6711       9.4473    -999.2500       0.0079      56.3396      13.0456    -999.2500   52594.2109   72442.7344       2.6860       0.1027    -999.2500    -999.2500       2.6034    -999.2500    -999.2500
   2166.8235       9.4180    -999.2500      -0.0020      56.7090      10.6640    -999.2500   52212.4961   70193.5625       2.3440       0.1048    -999.2500    -999.2500       2.5860    -999.2500    -999.2500
   2166.9761       9.4281    -999.2500       0.0141      57.7566      12.0112    -999.2500   51789.8203   70692.7891     173.8059       0.1143    -999.2500    -999.2500       2.5719    -999.2500    -999.2500
   2167.1284       9.4380    -999.2500       0.0300      58.7970      13.3490    -999.2500   51370.0859   71188.5391     344.0730       0.1259    -999.2500    -999.2500       2.5580    -999.2500    -999.2500
   2167.2808       9.5034    -999.2500       0.0255      59.7783      13.9802    -999.2500   50709.7227   71447.0781     238.1960       0.1376    -999.2500    -999.2500       2.5610    -999.2500    -999.2500
   2167.4331       9.5680    -999.2500       0.0210      60.7560      14.6090    -999.2500   50051.7734   71704.6719     132.7060       0.1467    -999.2500    -999.2500       2.5640    -999.2500    -999.2500
   2167.5857       9.6007    -999.2500       0.0225      61.5151      13.9899    -999.2500   45850.2305   70666.9453     290.3729       0.1473    -999.2500    -999.2500       2.5615    -999.2500    -999.2500
   2167.7380       9.6330    -999.2500       0.0240      62.2690      13.3750    -999.2500   41677.0078   69636.2188     446.9770       0.1450    -999.2500    -999.2500       2.5590    -999.2500    -999.2500
   2167.8904       9.6008    -999.2500       0.0155      62.2454      13.5062    -999.2500   37711.2656   57959.2578     600.5187       0.1410    -999.2500    -999.2500       2.5595    -999.2500    -999.2500
   2168.0427       9.5690    -999.2500       0.0070      62.2220      13.6360    -999.2500   33790.5547   46414.8906     752.3170       0.1365    -999.2500    -999.2500       2.5600    -999.2500    -999.2500
   2168.1951       9.5283    -999.2500       0.0090      61.1182      13.8048    -999.2500   38281.4141   54235.8125    1213.3351       0.1321    -999.2500    -999.2500       2.5696    -999.2500    -999.2500
   2168.3477       9.4880    -999.2500       0.0110      60.0250      13.9720    -999.2500   42728.9531   61981.2930    1669.9060       0.1266    -999.2500    -999.2500       2.5790    -999.2500    -999.2500
   2168.5000       9.5297    -999.2500       0.0125      57.8958      14.0432    -999.2500   44525.2891   66254.6016    1540.3303       0.1173    -999.2500    -999.2500       2.5835    -999.2500    -999.2500
   2168.6523       9.5710    -999.2500       0.0140      55.7800      14.1140    -999.2500   46310.2344   70500.8203    1411.5760       0.1070    -999.2500    -999.2500       2.5880    -999.2500    -999.2500
   2168.8047       9.5981    -999.2500       0.0140      54.6838      14.2387    -999.2500   46050.5781   69124.4297     705.8085       0.0972    -999.2500    -999.2500       2.6036    -999.2500    -999.2500
   2168.9573       9.6250    -999.2500       0.0140      53.5910      14.3630    -999.2500   45791.7070   67752.2109       2.1810       0.0879    -999.2500    -999.2500       2.6190    -999.2500    -999.2500
   2169.1096       9.6003    -999.2500       0.0039      53.7401      14.1296    -999.2500   30982.8750   50354.2891       3.1939       0.0795    -999.2500    -999.2500       2.6361    -999.2500    -999.2500
   2169.2620       9.5760    -999.2500      -0.0060      53.8880      13.8980    -999.2500   16288.2188   33090.5000       4.1990       0.0722    -999.2500    -999.2500       2.6530    -999.2500    -999.2500
   2169.4143       9.5277    -999.2500       0.0020      53.6455      13.4206    -999.2500   30729.1953   44277.6289       3.8609       0.0674    -999.2500    -999.2500       2.6681    -999.2500    -999.2500
   2169.5669       9.4800    -999.2500       0.0100      53.4060      12.9490    -999.2500   44992.3047   55326.9688       3.5270       0.0643    -999.2500    -999.2500       2.6830    -999.2500    -999.2500
   2169.7192       9.5555    -999.2500       0.0050      54.5522      15.7707    -999.2500   44400.4023   60782.4805     352.0197       0.0648    -999.2500    -999.2500       2.6639    -999.2500    -999.2500
   2169.8716       9.6300    -999.2500       0.0000      55.6880      18.5670    -999.2500   43813.8398   66188.7969     697.3700       0.0657    -999.2500    -999.2500       2.6450    -999.2500    -999.2500
   2170.0239       9.6889    -999.2500       0.0342      55.6434      26.1702    -999.2500   44380.7227   66304.8750     351.1728       0.0642    -999.2500    -999.2500       2.6671    -999.2500    -999.2500
   2170.1763       9.7470    -999.2500       0.0680      55.5990      33.7300    -999.2500   44944.3594   66420.2891       6.9560       0.0618    -999.2500    -999.2500       2.6890    -999.2500    -999.2500
   2170.3289       9.6036    -999.2500       0.0615      54.3209      37.3669    -999.2500   45883.7734   66014.5938      44.1000       0.0586    -999.2500    -999.2500       2.7011    -999.2500    -999.2500
   2170.4812       9.4620    -999.2500       0.0550      53.0560      40.9660    -999.2500   46813.4258   65613.1094      80.8580       0.0555    -999.2500    -999.2500       2.7130    -999.2500    -999.2500
   2170.6335       9.4761    -999.2500       0.0464      53.8479      42.9589    -999.2500   46377.4727   65701.0469      54.5379       0.0532    -999.2500    -999.2500       2.6994    -999.2500    -999.2500
   2170.7859       9.4900    -999.2500       0.0380      54.6280      44.9220    -999.2500   45948.0508   65787.6719      28.6120       0.0560    -999.2500    -999.2500       2.6860    -999.2500    -999.2500
   2170.9385       9.6102    -999.2500       0.0496      63.2147      44.8667    -999.2500   46168.0234   67630.8594     113.3145       0.0760    -999.2500    -999.2500       2.5955    -999.2500    -999.2500
   2171.0908       9.7290    -999.2500       0.0610      71.7010      44.8120    -999.2500   46385.4219   69452.5000     197.0270       0.1042    -999.2500    -999.2500       2.5060    -999.2500    -999.2500
   2171.2432       9.8411    -999.2500       0.0218      75.7696      45.9970    -999.2500   38506.5977   58930.8906     945.3969       0.1455    -999.2500    -999.2500       2.4125    -999.2500    -999.2500
   2171.3955       9.9520    -999.2500      -0.0170      79.8040      47.1720    -999.2500   30693.9688   48497.6836    1687.4790       0.1747    -999.2500    -999.2500       2.3200    -999.2500    -999.2500
   2171.5481       9.7282    -999.2500      -0.0170      75.0090      43.3437    -999.2500   35918.3516   59318.5039    1010.7153       0.1471    -999.2500    -999.2500       2.4105    -999.2500    -999.2500
   2171.7004       9.5070    -999.2500      -0.0170      70.2460      39.5410    -999.2500   41107.7891   70066.9531     338.4780       0.1065    -999.2500    -999.2500       2.5000    -999.2500    -999.2500
   2171.8528       9.6216    -999.2500       0.0091      64.4361      36.5601    -999.2500   43749.9219   67539.7891     504.3278       0.0751    -999.2500    -999.2500       2.5850    -999.2500    -999.2500
   2172.0051       9.7350    -999.2500       0.0350      58.6550      33.5940    -999.2500   46378.9180   65025.1914     669.3530       0.0516    -999.2500    -999.2500       2.6690    -999.2500    -999.2500
   2172.1575       9.8476    -999.2500       0.1149      57.1073      39.5555    -999.2500   48009.0664   68744.3047     334.1683       0.0487    -999.2500    -999.2500       2.7087    -999.2500    -999.2500
   2172.3101       9.9590    -999.2500       0.1940      55.5720      45.4690    -999.2500   49626.0938   72433.4844       1.6810       0.0517    -999.2500    -999.2500       2.7480    -999.2500    -999.2500
   2172.4624       9.8227    -999.2500       0.1487      55.6886      41.8907    -999.2500   49376.3125   71763.5391       2.6298       0.0564    -999.2500    -999.2500       2.7244    -999.2500    -999.2500
