#------------------------------------------------------------------------------
#
#   Created by  : [OpenWorks] Log Export Utility (LEXP)
#   Created on  : 2016-05-12 17:01:14
#   Project     : CANT971
#   User        : R5K
#   Interpreter : PEP
#
#------------------------------------------------------------------------------
~VERSION INFORMATION
VERS. 2.0 : CWLS Log ASCII Standard - version 2.0
WRAP.  NO : One line per depth step
~WELL INFORMATION
#MNEMONIC   .UNIT                                           VALUE :DESCRIPTION
#------------------------------------------------------------------------------
STRT        .M                                          1708.0991 :START DEPTH
STOP        .M                                          2834.0303 :STOP DEPTH
STEP        .M                                             0.1524 :STEP
NULL        .                                           -999.2500 :NULL VALUE
COMP        .                                             UNKNOWN :COMPANY
WELL        .                                                3016 :WELL
FLD         .                                           CANTARELL :FIELD
LOC         .                                             UNKNOWN :LOCATION
CNTY        .                                             UNKNOWN :COUNTY
STAT        .                                            CAMPECHE :STATE
CTRY        .                                              MEXICO :COUNTRY
SRVC        .                                             UNKNOWN :SERVICE COMPANY
DATE        .                                             UNKNOWN :LOG DATE
UWI         .                                                3016 :UNIQUE WELL ID
XCOORD      .                                       192548.498000 :SURFACE X
YCOORD      .                                        92151.948000 :SURFACE Y
LAT         .                                            0.832805 :LATITUDE
LON         .                                          -95.762171 :LONGITUDE
ELEV        .M                                            46.0000 :SURFACE ELEV
ELEV_TYPE   .                                                  KB :ELEV TYPE
~CURVE INFORMATION
#MNEMONIC.UNIT        API CODE       : CURVE DESCRIPTION
#------------------------------------------------------------------------------
DEPTH    .M                          : Measured Depth
CALI     .inches      UNKNOWN        : CALI:litodensidad:rC:NONE:v0 (auto-composite)
CGR      .API         UNKNOWN        : CGR:Espectrometria:rC:NONE:v0 (auto-composite)
DRHO     .g/cm3       UNKNOWN        : DRHO:litodensidad:rC:NONE:v0 (auto-composite)
DT       .us/ft       UNKNOWN        : DT:DT-Load:rC:NONE:v0 (auto-composite)
GR       .API         UNKNOWN        : GR:PETROWORKS:rC:NONE:v1 
GR-LWD   .API         UNKNOWN        : GR-LWD:PETROWORKS:rC:NONE:v1 
ILD-LWD  .ohm.m       UNKNOWN        : ILD-LWD:PETROWORKS:rC:NONE:v1 
ILM-LWD  .ohm.m       UNKNOWN        : ILM-LWD:PETROWORKS:rC:NONE:v1 
LLD      .ohm.m       UNKNOWN        : LLD:Resistivos:rC:NONE:v0 (auto-composite)
LLS      .ohm.m       UNKNOWN        : LLS:Resistivos:rC:NONE:v0 (auto-composite)
MSFL     .ohm.m       UNKNOWN        : MSFL:Resistivos:rC:NONE:v0 (auto-composite)
NPHI     .v/v_decimal UNKNOWN        : NPHI:Porosidad:rC:NONE:v0 (auto-composite)
PEF      .UNKNOWN     UNKNOWN        : PEF:litodensidad:rC:NONE:v0 (auto-composite)
POTA     .wtpercent   UNKNOWN        : POTA:Espectrometria:rC:NONE:v0 (auto-composite)
RHOB     .g/cm3       UNKNOWN        : RHOB:litodensidad:rC:NONE:v0 (auto-composite)
SP       .mV          UNKNOWN        : SP:SP-Load:rC:NONE:v0 (auto-composite)
THOR     .ppm         UNKNOWN        : THOR:Espectrometria:rC:NONE:v0 (auto-composite)
URAN     .ppm         UNKNOWN        : URAN:Espectrometria:rC:NONE:v0 (auto-composite)
~A     DEPTH         CALI          CGR         DRHO           DT           GR       GR-LWD      ILD-LWD      ILM-LWD          LLD          LLS         MSFL         NPHI          PEF         POTA         RHOB           SP         THOR         URAN
# ...
   2779.3186       8.5658      14.3735       0.0102      55.6061     117.9632    -999.2500    -999.2500    -999.2500     587.9819     291.5055     763.0694       0.0675       3.3053       0.0051       2.6695     -29.1875       1.6406      13.2540
   2779.4712       8.6089      10.8974       0.0140      54.0418      98.9736    -999.2500    -999.2500    -999.2500     625.3381     293.5481     285.3265       0.0674       3.1398       0.0040       2.6958     -28.9375       1.1746      11.2293
   2779.6235       8.6017       6.4840       0.0197      53.4129      66.3164    -999.2500    -999.2500    -999.2500     654.9868     310.8298     225.4778       0.0599       3.1652       0.0024       2.7354     -28.4375       0.6422       7.6211
   2779.7759       8.5874       3.2439       0.0187      53.9017      35.6562    -999.2500    -999.2500    -999.2500     746.7531     364.0902     387.9058       0.0558       3.2990       0.0014       2.7552     -26.6875       0.2218       4.0501
   2779.9282       8.5874       2.1748       0.0246      53.2630      23.7407    -999.2500    -999.2500    -999.2500     781.6445     369.4947     859.4603       0.0515       3.3824       0.0009       2.7767     -25.1250       0.1926       2.7148
   2780.0808       8.5802       1.5864       0.0185      53.4380      20.4790    -999.2500    -999.2500    -999.2500     743.0554     363.3544     282.8149       0.0494       3.4856       0.0007       2.7681     -25.1875       0.1163       2.4287
   2780.2332       8.5802       1.0919       0.0134      53.5261      19.7514    -999.2500    -999.2500    -999.2500     796.0364     388.5901     408.1649       0.0438       3.2500       0.0004       2.7589     -25.5000       0.0865       2.4018
   2780.3855       8.5730       1.6527       0.0136      54.7208      19.1707    -999.2500    -999.2500    -999.2500     807.1095     407.6902     302.9642       0.0421       3.0143       0.0006       2.7661     -24.0000       0.1893       2.2573
   2780.5378       8.5730       1.0319       0.0174      54.7234      18.1970    -999.2500    -999.2500    -999.2500     826.3837     389.2869     278.4574       0.0416       2.8779       0.0006       2.7776     -24.0625      -0.0137       2.1554
   2780.6904       8.5945       1.7399       0.0169      54.6866      16.5264    -999.2500    -999.2500    -999.2500     903.9919     457.6665     351.1620       0.0454       2.9267       0.0008       2.7833     -27.3750       0.0946       1.7922
   2780.8428       8.6032       1.4608       0.0165      54.5812      15.7140    -999.2500    -999.2500    -999.2500     964.1002     532.0721     224.9516       0.0426       3.2106       0.0006       2.7781     -36.3125       0.1227       1.7388
   2780.9951       8.6089       0.9658       0.0182      54.4066      16.1756    -999.2500    -999.2500    -999.2500     968.0135     542.7581     359.0096       0.0423       3.3921       0.0004       2.7720     -36.8750       0.0874       1.8648
   2781.1475       8.6305       1.4087       0.0137      54.3895      16.6964    -999.2500    -999.2500    -999.2500     919.4166     554.1841     396.9585       0.0400       3.2466       0.0006       2.7690     -38.1250       0.1180       1.9120
   2781.2998       8.5802       2.7759       0.0166      52.5399      17.1716    -999.2500    -999.2500    -999.2500     791.4844     443.7151     621.5926       0.0384       3.2886       0.0009       2.7750     -29.1875       0.3477       1.7605
   2781.4524       8.5514       3.1609       0.0274      51.2680      19.3732    -999.2500    -999.2500    -999.2500     666.8870     339.2141     248.9681       0.0346       3.2469       0.0012       2.7800     -26.8125       0.3120       2.0000
   2781.6047       8.5629       3.1918       0.0331      53.2758      21.6132    -999.2500    -999.2500    -999.2500     584.7871     309.5788     183.4273       0.0319       3.2875       0.0011       2.7806     -26.1250       0.3713       2.2757
   2781.7571       8.5658       3.7888       0.0360      53.5947      24.5172    -999.2500    -999.2500    -999.2500     511.4510     245.5841      41.7478       0.0333       3.2551       0.0012       2.7787     -27.6875       0.5012       2.5509
   2781.9094       8.5730       4.7634       0.0359      53.9587      28.8137    -999.2500    -999.2500    -999.2500     415.0292     181.5140     103.8806       0.0343       3.1809       0.0015       2.7809     -28.6875       0.6609       3.0356
   2782.0620       8.5802       5.6604       0.0324      53.2269      33.4760    -999.2500    -999.2500    -999.2500     420.5690     182.1882      46.5163       0.0396       3.4475       0.0017       2.7818     -29.3125       0.7891       3.4874
   2782.2144       8.5370       5.3947       0.0211      51.5676      33.3836    -999.2500    -999.2500    -999.2500     430.4924     188.7199      64.9015       0.0414       3.5170       0.0015       2.7750     -29.7500       0.8242       3.5519
   2782.3667       8.5687       4.6170       0.0135      50.7799      29.4737    -999.2500    -999.2500    -999.2500     475.8667     215.5903     186.5033       0.0410       3.6685       0.0013       2.7746     -28.7500       0.7113       3.2171
   2782.5190       8.5155       4.9019       0.0102      49.3302      26.3162    -999.2500    -999.2500    -999.2500     569.5862     333.6310     543.3387       0.0389       3.5040       0.0015       2.7711     -28.4375       0.7090       2.7649
   2782.6716       8.5442       5.4781       0.0110      49.5295      26.9936    -999.2500    -999.2500    -999.2500     635.4048     447.4788     445.9320       0.0408       3.3792       0.0018       2.7629     -25.8125       0.7197       2.7450
   2782.8240       8.5859       5.6747       0.0104      49.7661      26.8112    -999.2500    -999.2500    -999.2500     606.5338     445.4247     372.4186       0.0403       3.0873       0.0016       2.7369     -25.8750       0.8604       2.6711
   2782.9763       8.5658       4.0230       0.0392      50.2158      23.2720    -999.2500    -999.2500    -999.2500     503.2509     328.7087     261.6199       0.0376       3.0341       0.0010       2.7191     -26.5000       0.6870       2.4409
   2783.1287       8.5730       3.6849       0.0394      49.3331      20.5467    -999.2500    -999.2500    -999.2500     375.1541     199.5006     555.6055       0.0307       2.9118       0.0009       2.6895     -27.1875       0.6610       2.1429
   2783.2810       8.4939       3.5061       0.0392      49.1983      19.9682    -999.2500    -999.2500    -999.2500     254.8917     126.7555       4.4218       0.0285       3.0172       0.0009       2.6733     -27.3125       0.6032       2.1025
   2783.4336       8.4939       3.9223       0.0421      54.2103      20.4700    -999.2500    -999.2500    -999.2500     208.2211      97.3904       3.7702       0.0351       3.0639       0.0008       2.6824     -28.1875       0.7682       2.0836
   2783.5859       8.4996       3.8683       0.0428      54.4371      21.4411    -999.2500    -999.2500    -999.2500     183.8986      87.0169      14.5288       0.0531       3.0527       0.0008       2.6852     -27.8125       0.7675       2.2150
   2783.7383       8.4867       3.7136       0.0087      55.6649      19.8943    -999.2500    -999.2500    -999.2500     175.2614      80.3622      55.1467       0.0677       3.1819       0.0008       2.6571     -27.5000       0.7338       2.0367
   2783.8906       8.5442       4.0870       0.0094      54.1866      20.5809    -999.2500    -999.2500    -999.2500     168.2710      87.6783      56.3792       0.0717       3.2060       0.0009       2.6763     -28.6875       0.7934       2.0868
   2784.0432       8.4939       3.9426       0.0087      53.5312      19.0856    -999.2500    -999.2500    -999.2500     179.0306     106.9693      31.5272       0.0668       3.3283       0.0008       2.6814     -28.2500       0.8065       1.8954
   2784.1956       8.5457       3.3796       0.0019      54.3753      20.1253    -999.2500    -999.2500    -999.2500     168.8416     104.1771     122.8128       0.0633       3.2319       0.0005       2.6712     -27.7500       0.7980       2.1556
