#------------------------------------------------------------------------------
#
#   Created by  : [OpenWorks] Log Export Utility (LEXP)
#   Created on  : 2016-05-23 11:55:51
#   Project     : CANT971
#   User        : R5K
#   Interpreter : PEP
#
#------------------------------------------------------------------------------
~VERSION INFORMATION
VERS. 2.0 : CWLS Log ASCII Standard - version 2.0
WRAP.  NO : One line per depth step
~WELL INFORMATION
#MNEMONIC   .UNIT                                           VALUE :DESCRIPTION
#------------------------------------------------------------------------------
STRT        .M                                           490.1183 :START DEPTH
STOP        .M                                          2794.5586 :STOP DEPTH
STEP        .M                                             0.1524 :STEP
NULL        .                                           -999.2500 :NULL VALUE
COMP        .                                   PEMEX EXPL & PROD :COMPANY
WELL        .                                                  41 :WELL
FLD         .                                           CANTARELL :FIELD
LOC         .                                             UNKNOWN :LOCATION
CNTY        .                                      CD. DEL CARMEN :COUNTY
STAT        .                                            CAMPECHE :STATE
CTRY        .                                              MEXICO :COUNTRY
SRVC        .                                             UNKNOWN :SERVICE COMPANY
DATE        .                                             UNKNOWN :LOG DATE
UWI         .                                          3060000463 :UNIQUE WELL ID
XCOORD      .                                       601713.000000 :SURFACE X
YCOORD      .                                      2142348.040000 :SURFACE Y
LAT         .                                           19.373822 :LATITUDE
LON         .                                          -92.031472 :LONGITUDE
ELEV        .M                                            24.0000 :SURFACE ELEV
ELEV_TYPE   .                                                  KB :ELEV TYPE
~CURVE INFORMATION
#MNEMONIC.UNIT        API CODE       : CURVE DESCRIPTION
#------------------------------------------------------------------------------
DEPTH    .M                          : Measured Depth
CALI     .inches      UNKNOWN        : CALI:Import:rC:NONE:v0 (auto-composite)
DRHO     .g/cm3       UNKNOWN        : DRHO:Import:rC:NONE:v0 (auto-composite)
DT       .us/ft       UNKNOWN        : DT:Import:rC:NONE:v0 (auto-composite)
GR       .API         UNKNOWN        : GR:Import:rC:NONE:v0 (auto-composite)
ILD      .ohm.m       UNKNOWN        : ILD:Import:rC:NONE:v0 (auto-composite)
LLD      .ohm.m       UNKNOWN        : LLD:Import:rC:NONE:v0 (auto-composite)
LLS      .ohm.m       UNKNOWN        : LLS:Import:rC:NONE:v0 (auto-composite)
NPHI     .v/v_decimal UNKNOWN        : NPHI:Import:rC:NONE:v0 (auto-composite)
PEF      .b/elec      UNKNOWN        : PEF:Import:rC:NONE:v0 (auto-composite)
RHOB     .g/cm3       UNKNOWN        : RHOB:Import:rC:NONE:v0 (auto-composite)
~A     DEPTH         CALI         DRHO           DT           GR          ILD          LLD          LLS         NPHI          PEF         RHOB
# ...
   2555.4431       8.5560       0.0680      51.2630      59.6670    -999.2500     276.1440     197.4460       0.0279       3.2220       2.7860
   2555.5955       8.5560       0.0485      51.5329      59.3149    -999.2500     257.4178     191.7010       0.0299       3.2220       2.8030
   2555.7478       8.5560       0.0290      51.8030      58.9630    -999.2500     238.7050     185.9510       0.0322       3.2220       2.8200
   2555.9004       8.5595       0.0300      52.4922      57.0884    -999.2500     217.4697     169.4461       0.0349       3.2210       2.8190
   2556.0527       8.5630       0.0310      53.1810      55.2150    -999.2500     196.2470     152.9510       0.0387       3.2200       2.8180
   2556.2051       8.5845       0.0400      53.5406      52.9181    -999.2500     202.7200     153.1516       0.0446       3.2000       2.8125
   2556.3574       8.6060       0.0490      53.9000      50.6260    -999.2500     209.1900     153.3520       0.0494       3.1800       2.8070
   2556.5098       8.6365       0.0480      53.9365      47.4329    -999.2500     207.5622     156.9851       0.0500       3.0195       2.7995
   2556.6624       8.6670       0.0470      53.9730      44.2460    -999.2500     205.9350     160.6170       0.0490       2.8590       2.7920
   2556.8147       8.6655       0.0385      54.9476      45.7068    -999.2500     196.5270     158.0967       0.0492       2.8955       2.7810
   2556.9670       8.6640       0.0300      55.9220      47.1650    -999.2500     187.1210     155.5770       0.0505       2.9320       2.7700
   2557.1194       8.6100       0.0315      55.8195      55.2738    -999.2500     172.0098     142.1839       0.0534       3.2080       2.7715
   2557.2720       8.5560       0.0330      55.7170      63.3690    -999.2500     156.9000     128.7920       0.0580       3.4840       2.7730
   2557.4243       8.5560       0.0410      55.1730      76.4683    -999.2500     139.9443     110.8033       0.0645       3.3780       2.7795
   2557.5767       8.5560       0.0490      54.6290      89.5470    -999.2500     122.9880      92.8140       0.0698       3.2720       2.7860
   2557.7290       8.5560       0.0690      53.4396      86.7545    -999.2500     125.8058      94.4694       0.0705       3.2855       2.7915
   2557.8816       8.5560       0.0890      52.2500      83.9660    -999.2500     128.6240      96.1250       0.0679       3.2990       2.7970
   2558.0339       8.5560       0.0875      52.3765      67.8844    -999.2500     142.7460     105.1927       0.0625       3.3560       2.8135
   2558.1863       8.5560       0.0860      52.5030      51.8240    -999.2500     156.8720     114.2630       0.0560       3.4130       2.8300
   2558.3386       8.5560       0.0765      53.8057      58.4059    -999.2500     167.0444     126.3785       0.0495       3.3920       2.8285
   2558.4910       8.5560       0.0670      55.1090      64.9800    -999.2500     177.2210     138.4990       0.0445       3.3710       2.8270
   2558.6436       8.5565       0.0395      54.7966      64.6658    -999.2500     179.2361     135.7602       0.0431       3.2634       2.8160
   2558.7959       8.5570       0.0120      54.4840      64.3520    -999.2500     181.2490     133.0200       0.0435       3.1560       2.8050
   2558.9482       8.5795       0.0145      54.7889      64.7907    -999.2500     183.8897     133.4274       0.0443       3.2585       2.7730
   2559.1006       8.6020       0.0170      55.0940      65.2290    -999.2500     186.5280     133.8350       0.0463       3.3610       2.7410
   2559.2532       8.6010       0.0430      55.0680      70.6997    -999.2500     193.7459     136.4845       0.0504       3.3580       2.7445
   2559.4055       8.6000       0.0690      55.0420      76.1660    -999.2500     200.9580     139.1360       0.0541       3.3550       2.7480
   2559.5579       8.5780       0.0685      54.7959      75.0601    -999.2500     211.7132     146.0183       0.0548       3.2985       2.7765
   2559.7102       8.5560       0.0680      54.5500      73.9550    -999.2500     222.4610     152.9070       0.0526       3.2420       2.8050
   2559.8628       8.5560       0.0640      53.4622      65.6847    -999.2500     233.9017     177.6779       0.0467       3.2520       2.8040
   2560.0151       8.5560       0.0600      52.3750      57.4190    -999.2500     245.3360     202.4350       0.0411       3.2620       2.8030
   2560.1675       8.5560       0.0465      55.4772      60.2904    -999.2500     242.7840     201.6718       0.0397       3.3140       2.7965
   2560.3198       8.5560       0.0330      58.5780      63.1560    -999.2500     240.2330     200.9090       0.0408       3.3660       2.7900
   2560.4722       8.5545       0.0335      58.3305      90.2188    -999.2500     223.5504     192.4237       0.0435       3.3590       2.7810
   2560.6248       8.5530       0.0340      58.0830     117.2300    -999.2500     206.8730     183.9410       0.0495       3.3520       2.7720
   2560.7771       8.5405       0.0380      56.9034     116.2972    -999.2500     169.9506     145.2429       0.0621       3.2550       2.7740
   2560.9294       8.5280       0.0420      55.7240     115.3660    -999.2500     133.0350     106.5520       0.0737       3.1580       2.7760
   2561.0818       8.4985       0.0755      53.2684     108.7025    -999.2500     140.3977     109.5976       0.0770       3.1640       2.7840
   2561.2344       8.4690       0.1090      50.8130     102.0500    -999.2500     147.7600     112.6430       0.0755       3.1700       2.7920
   2561.3867       8.4790       0.1080      51.0875      79.2740    -999.2500     215.4867     170.3516       0.0715       3.1945       2.7995
   2561.5391       8.4890       0.1070      51.3620      56.5330    -999.2500     283.2180     228.0640       0.0638       3.2190       2.8070
   2561.6914       8.5225       0.0860      53.5088      57.2205    -999.2500     276.4211     226.4456       0.0501       3.2110       2.8200
   2561.8440       8.5560       0.0650      55.6560      57.9070    -999.2500     269.6230     224.8270       0.0379       3.2030       2.8330
   2561.9963       8.5560       0.0750      55.3046      68.3052    -999.2500     218.4006     212.8249       0.0357       3.1000       2.8295
   2562.1487       8.5560       0.0850      54.9530      78.6900    -999.2500     167.1620     200.8190       0.0399       2.9970       2.8260
   2562.3010       8.5560       0.0830      55.3949      77.8210    -999.2500     167.6709     179.1668       0.0495       3.0085       2.8125
   2562.4534       8.5560       0.0810      55.8370      76.9530    -999.2500     168.1800     157.5050       0.0584       3.0200       2.7990
   2562.6060       8.5560       0.0720      57.3631      69.0689    -999.2500     166.5687     149.4913       0.0607       3.1196       2.8125
   2562.7583       8.5560       0.0630      58.8900      61.1930    -999.2500     164.9590     141.4730       0.0603       3.2190       2.8260
   2562.9106       8.5565       0.0500      59.1574      61.2955    -999.2500     147.6642     136.5517       0.0606       3.2145       2.8255
   2563.0630       8.5570       0.0370      59.4250      61.3980    -999.2500     130.3850     131.6270       0.0610       3.2100       2.8250
   2563.2156       8.5665       0.0270      62.5732      62.1798    -999.2500     130.4420     122.7346       0.0611       3.1925       2.8170
   2563.3679       8.5760       0.0170      65.7190      62.9610    -999.2500     130.4990     113.8350       0.0609       3.1750       2.8090
   2563.5203       8.6035       0.0180      65.4144      67.0621    -999.2500     132.1810     114.5706       0.0605       3.1805       2.7830
   2563.6726       8.6310       0.0190      65.1100      71.1540    -999.2500     133.8620     115.3070       0.0596       3.1860       2.7570
   2563.8252       8.6490       0.0215      63.8227      69.9527    -999.2500     142.3863     121.4641       0.0577       3.2075       2.7615
