#------------------------------------------------------------------------------
#
#   Created by  : [OpenWorks] Log Export Utility (LEXP)
#   Created on  : 2016-05-23 11:57:11
#   Project     : CANT971
#   User        : R5K
#   Interpreter : PEP
#
#------------------------------------------------------------------------------
~VERSION INFORMATION
VERS. 2.0 : CWLS Log ASCII Standard - version 2.0
WRAP.  NO : One line per depth step
~WELL INFORMATION
#MNEMONIC   .UNIT                                           VALUE :DESCRIPTION
#------------------------------------------------------------------------------
STRT        .M                                           319.2782 :START DEPTH
STOP        .M                                          2532.8882 :STOP DEPTH
STEP        .M                                             0.1524 :STEP
NULL        .                                           -999.2500 :NULL VALUE
COMP        .                                   PEMEX EXPL & PROD :COMPANY
WELL        .                                                 73A :WELL
FLD         .                                           CANTARELL :FIELD
LOC         .                                             UNKNOWN :LOCATION
CNTY        .                                      CD. DEL CARMEN :COUNTY
STAT        .                                            CAMPECHE :STATE
CTRY        .                                              MEXICO :COUNTRY
SRVC        .                                             UNKNOWN :SERVICE COMPANY
DATE        .                                             UNKNOWN :LOG DATE
UWI         .                                          3060000177 :UNIQUE WELL ID
XCOORD      .                                       599722.890000 :SURFACE X
YCOORD      .                                      2147218.550000 :SURFACE Y
LAT         .                                           19.417934 :LATITUDE
LON         .                                          -92.050165 :LONGITUDE
ELEV        .M                                            27.8000 :SURFACE ELEV
ELEV_TYPE   .                                                  KB :ELEV TYPE
~CURVE INFORMATION
#MNEMONIC.UNIT        API CODE       : CURVE DESCRIPTION
#------------------------------------------------------------------------------
DEPTH    .M                          : Measured Depth
CALI     .inches      UNKNOWN        : CALI:registros:rC:NONE:v0 (auto-composite)
DRHO     .g/cm3       UNKNOWN        : DRHO:registros:rC:NONE:v0 (auto-composite)
DT       .UNKNOWN     UNKNOWN        : DT:registros:rC:NONE:v0 (auto-composite)
GR       .API         UNKNOWN        : GR:registros:rC:NONE:v0 (auto-composite)
ILD      .ohm.m       UNKNOWN        : ILD:registros:rC:NONE:v0 (auto-composite)
LLD      .ohm.m       UNKNOWN        : LLD:registros:rC:NONE:v0 (auto-composite)
LLS      .ohm.m       UNKNOWN        : LLS:registros:rC:NONE:v0 (auto-composite)
MSFL     .ohm.m       UNKNOWN        : MSFL:registros:rC:NONE:v0 (auto-composite)
RHOB     .g/cm3       UNKNOWN        : RHOB:registros:rC:NONE:v0 (auto-composite)
~A     DEPTH         CALI         DRHO           DT           GR          ILD          LLD          LLS         MSFL         RHOB
# ...
   2171.2429       7.1755    -999.2500      76.5311      27.7988    -999.2500      13.1230       8.4532      20.6033       2.6055
   2171.3955       7.1910    -999.2500      80.2090      26.4000    -999.2500      11.2300       8.9500      34.3000       2.5810
   2171.5479       7.2604    -999.2500      87.7940      27.4024    -999.2500       8.1765       8.7692      29.7948       2.5105
   2171.7002       7.3300    -999.2500      95.3630      28.4060    -999.2500       5.1000       8.5870      25.2990       2.4400
   2171.8525       7.2851    -999.2500     104.6907      34.6492    -999.2500       5.1404       7.1678      13.4478       2.3400
   2172.0049       7.2400    -999.2500     114.0000      40.9000    -999.2500       5.1810       5.7400       1.6200       2.2400
   2172.1575       7.3099    -999.2500     111.2545      40.6157    -999.2500       5.9950       6.0206       1.8127       2.2490
   2172.3098       7.3800    -999.2500     108.5140      40.3310    -999.2500       6.8140       6.3030       2.0050       2.2580
   2172.4622       7.3451    -999.2500     100.7358      39.1294    -999.2500      13.1869       7.3063       3.7260       2.3155
   2172.6145       7.3100    -999.2500      92.9710      37.9260    -999.2500      19.6000       8.3160       5.4440       2.3730
   2172.7671       7.3599    -999.2500      78.8742      36.0875    -999.2500      18.6615      10.4013      21.3347       2.5465
   2172.9194       7.4100    -999.2500      64.8000      34.2460    -999.2500      17.7170      12.5000      37.2000       2.7200
   2173.0718       7.3850    -999.2500      65.4014      31.0258    -999.2500      13.7714      12.3380      23.3248       2.7095
   2173.2241       7.3600    -999.2500      66.0020      27.8000    -999.2500       9.8000      12.1750       9.4700       2.6990
   2173.3767       7.2352    -999.2500      67.2403      28.1012    -999.2500       9.9495      11.6936       9.8172       2.6645
   2173.5291       7.1100    -999.2500      68.4770      28.4030    -999.2500      10.1000      11.2090      10.1640       2.6300
   2173.6814       7.1180    -999.2500      69.3998      29.6513    -999.2500       9.9356      10.4919      11.2397       2.6355
   2173.8337       7.1260    -999.2500      70.3200      30.9020    -999.2500       9.7700       9.7700      12.3140       2.6410
   2173.9861       7.1729    -999.2500      71.8120      33.0657    -999.2500       9.8129       9.8129      14.0324       2.6555
   2174.1387       7.2200    -999.2500      73.3000      35.2340    -999.2500       9.8560       9.8560      15.7490       2.6700
   2174.2910       7.2070    -999.2500      73.1012      38.1637    -999.2500      10.1644      10.0932      17.8030       2.6645
   2174.4434       7.1940    -999.2500      72.9030      41.1000    -999.2500      10.4750      10.3320      19.8550       2.6590
   2174.5957       7.1520    -999.2500      72.2692      40.4238    -999.2500      11.0594      10.7839      25.4799       2.6395
   2174.7483       7.1100    -999.2500      71.6370      39.7460    -999.2500      11.6480      11.2390      31.1000       2.6200
   2174.9006       7.1100    -999.2500      69.5661      37.6901    -999.2500      12.0346      11.6465      28.2467       2.6240
   2175.0530       7.1100    -999.2500      67.5000      35.6290    -999.2500      12.4240      12.0570      25.4000       2.6280
   2175.2053       7.1100    -999.2500      68.0506      31.3701    -999.2500      12.9754      12.4276      26.1874       2.6490
   2175.3579       7.1100    -999.2500      68.6000      27.1000    -999.2500      13.5310      12.8010      26.9730       2.6700
   2175.5103       7.1100    -999.2500      68.1435      27.2744    -999.2500      14.8002      13.2852      37.4473       2.6685
   2175.6626       7.1100    -999.2500      67.6880      27.4490    -999.2500      16.0790      13.7730      47.9000       2.6670
   2175.8149       7.1100    -999.2500      66.0925      28.1740    -999.2500      18.0336      14.3433      45.6153       2.6185
   2175.9673       7.1100    -999.2500      64.5000      28.9000    -999.2500      20.0000      14.9170      43.3350       2.5700
   2176.1199       7.1100    -999.2500      68.0032      28.7501    -999.2500      19.6321      15.7345      24.6155       2.5725
   2176.2722       7.1100    -999.2500      71.5000      28.6000    -999.2500      19.2620      16.5570       5.9300       2.5750
   2176.4246       7.1100    -999.2500      71.4324      28.6944    -999.2500      15.1440      18.7715       7.4748       2.5825
   2176.5769       7.1100    -999.2500      71.3650      28.7890    -999.2500      11.0000      21.0000       9.0170       2.5900
   2176.7295       7.1100    -999.2500      70.1866      30.3432    -999.2500      11.4495      20.9178      38.1314       2.5750
   2176.8818       7.1100    -999.2500      69.0100      31.9000    -999.2500      11.9020      20.8350      67.2000       2.5600
   2177.0342       7.1100    -999.2500      64.5518      31.2740    -999.2500      13.9283      20.3810      63.3857       2.5695
   2177.1865       7.1100    -999.2500      60.1000      30.6470    -999.2500      15.9680      19.9240      59.5770       2.5790
   2177.3391       7.1100    -999.2500      60.5518      29.1874    -999.2500      22.2629      19.1341      51.7553       2.6030
   2177.4915       7.1100    -999.2500      61.0030      27.7250    -999.2500      28.6000      18.3390      43.9440       2.6270
   2177.6438       7.1100    -999.2500      62.0840      26.5802    -999.2500      26.1564      17.5407      35.7671       2.6585
   2177.7961       7.1100    -999.2500      63.1620      25.4330    -999.2500      23.6960      16.7370      27.6000       2.6900
   2177.9485       7.1100    -999.2500      64.1528      24.3676    -999.2500      18.4164      15.7220      27.6820       2.6870
   2178.1011       7.1100    -999.2500      65.1410      23.3000    -999.2500      13.1000      14.7000      27.7640       2.6840
   2178.2534       7.1100    -999.2500      66.1718      23.7690    -999.2500      13.2211      14.7000      28.1362       2.6620
   2178.4058       7.1100    -999.2500      67.2000      24.2390    -999.2500      13.3430      14.7000      28.5080       2.6400
   2178.5581       7.1100    -999.2500      67.1309      25.8681    -999.2500      13.6703      14.7000      31.7053       2.6400
   2178.7107       7.1100    -999.2500      67.0620      27.5010    -999.2500      14.0000      14.7000      34.9000       2.6400
   2178.8630       7.1100    -999.2500      66.7647      29.7911    -999.2500      14.3039      14.7000      34.4690       2.6300
   2179.0154       7.1100    -999.2500      66.4680      32.0870    -999.2500      14.6100      14.7000      34.0390       2.6200
   2179.1677       7.1100    -999.2500      66.0075      34.2407    -999.2500      14.8164      14.7414      27.0119       2.6200
   2179.3203       7.1100    -999.2500      65.5480      36.4000    -999.2500      15.0240      14.7830      20.0000       2.6200
   2179.4727       7.1100    -999.2500      65.1881      35.9393    -999.2500      15.4133      14.9296      20.2833       2.6230
   2179.6250       7.1100    -999.2500      64.8290      35.4780    -999.2500      15.8050      15.0770      20.5660       2.6260
   2179.7773       7.1100    -999.2500      64.5282      33.8401    -999.2500      16.5208      15.4254      51.6127       2.6365
   2179.9297       7.1100    -999.2500      64.2280      32.2000    -999.2500      17.2410      15.7760      82.6000       2.6470
   2180.0823       7.1100    -999.2500      63.7571      32.7496    -999.2500      18.3082      16.4813      78.7926       2.6610
   2180.2346       7.1100    -999.2500      63.2870      33.3000    -999.2500      19.3820      17.1910      74.9920       2.6750
   2180.3870       7.1100    -999.2500      62.1425      32.9757    -999.2500      20.5164      18.0727      55.4332       2.6825
   2180.5393       7.1100    -999.2500      61.0000      32.6510    -999.2500      21.6580      18.9600      35.9070       2.6900
