#------------------------------------------------------------------------------
#
#   Created by  : [OpenWorks] Log Export Utility (LEXP)
#   Created on  : 2016-05-23 11:51:57
#   Project     : CANT971
#   User        : R5K
#   Interpreter : PEP
#
#------------------------------------------------------------------------------
~VERSION INFORMATION
VERS. 2.0 : CWLS Log ASCII Standard - version 2.0
WRAP. YES : Mulitple lines per depth step
~WELL INFORMATION
#MNEMONIC   .UNIT                                           VALUE :DESCRIPTION
#------------------------------------------------------------------------------
STRT        .M                                           782.8787 :START DEPTH
STOP        .M                                          2966.0088 :STOP DEPTH
STEP        .M                                             0.1524 :STEP
NULL        .                                           -999.2500 :NULL VALUE
COMP        .                                   PEMEX EXPL & PROD :COMPANY
WELL        .                                                 178 :WELL
FLD         .                                           CANTARELL :FIELD
LOC         .                                             UNKNOWN :LOCATION
CNTY        .                                      CD. DEL CARMEN :COUNTY
STAT        .                                            CAMPECHE :STATE
CTRY        .                                              MEXICO :COUNTRY
SRVC        .                                             UNKNOWN :SERVICE COMPANY
DATE        .                                             UNKNOWN :LOG DATE
UWI         .                                          3060000702 :UNIQUE WELL ID
XCOORD      .                                       602144.590000 :SURFACE X
YCOORD      .                                      2147185.340000 :SURFACE Y
LAT         .                                           19.417512 :LATITUDE
LON         .                                          -92.027103 :LONGITUDE
ELEV        .M                                            28.1700 :SURFACE ELEV
ELEV_TYPE   .                                                  KB :ELEV TYPE
~CURVE INFORMATION
#MNEMONIC.UNIT        API CODE       : CURVE DESCRIPTION
#------------------------------------------------------------------------------
DEPTH    .M                          : Measured Depth
CALI     .inches      UNKNOWN        : CALI:registros:rC:NONE:v0 (auto-composite)
CGR      .API         UNKNOWN        : CGR:registros:rC:NONE:v0 (auto-composite)
DRHO     .g/cm3       UNKNOWN        : DRHO:registros:rC:NONE:v0 (auto-composite)
DT       .UNKNOWN     UNKNOWN        : DT:registros:rC:NONE:v0 (auto-composite)
GR       .API         UNKNOWN        : GR:registros:rC:NONE:v0 (auto-composite)
GR-LWD   .UNKNOWN     UNKNOWN        : GR-LWD:registros:rC:NONE:v0 (auto-composite)
ILD      .ohm.m       UNKNOWN        : ILD:registros:rC:NONE:v0 (auto-composite)
ILM      .ohm.m       UNKNOWN        : ILM:registros:rC:NONE:v0 (auto-composite)
LLD      .ohm.m       UNKNOWN        : LLD:registros:rC:NONE:v0 (auto-composite)
LLD-LWD  .UNKNOWN     UNKNOWN        : LLD-LWD:registros:rC:NONE:v0 (auto-composite)
LLS      .ohm.m       UNKNOWN        : LLS:registros:rC:NONE:v0 (auto-composite)
LLS-LWD  .UNKNOWN     UNKNOWN        : LLS-LWD:registros:rC:NONE:v0 (auto-composite)
MSFL     .ohm.m       UNKNOWN        : MSFL:registros:rC:NONE:v0 (auto-composite)
MSFL-LWD .UNKNOWN     UNKNOWN        : MSFL-LWD:registros:rC:NONE:v0 (auto-composite)
NPHI     .v/v_decimal UNKNOWN        : NPHI:registros:rC:NONE:v0 (auto-composite)
PEF      .b/elec      UNKNOWN        : PEF:registros:rC:NONE:v0 (auto-composite)
POTA     .wtpercent   UNKNOWN        : POTA:registros:rC:NONE:v0 (auto-composite)
RHOB     .g/cm3       UNKNOWN        : RHOB:registros:rC:NONE:v0 (auto-composite)
THOR     .ppm         UNKNOWN        : THOR:registros:rC:NONE:v0 (auto-composite)
URAN     .ppm         UNKNOWN        : URAN:registros:rC:NONE:v0 (auto-composite)
~A
# ...
   1985.0099
      10.9477       8.5723      -0.5849      56.5210      25.0001    -999.2500
    -999.2500    -999.2500     298.4944    -999.2500      47.5678    -999.2500
       1.0747    -999.2500       0.1094      16.0084       0.0029       2.3242
       1.3191       2.2553
   1985.1624
      10.6551       7.8416      -0.5873      56.6308      23.8698    -999.2500
    -999.2500    -999.2500     305.9604    -999.2500      52.3417    -999.2500
       1.0007    -999.2500       0.1052      16.2356       0.0029       2.3582
       1.0806       2.1984
   1985.3147
      10.8070       7.3774      -0.5663      56.6533      22.8606    -999.2500
    -999.2500    -999.2500     279.1326    -999.2500      51.9499    -999.2500
       0.7590    -999.2500       0.0995      14.9776       0.0029       2.3232
       1.0018       2.1784
   1985.4672
      10.9686       6.9384      -0.5449      56.6721      22.0131    -999.2500
    -999.2500    -999.2500     251.4781    -999.2500      51.1838    -999.2500
       0.5456    -999.2500       0.0952      13.8769       0.0029       2.2904
       0.9287       2.1713
   1985.6195
      11.2373       6.8071      -0.5194      56.6486      23.0255    -999.2500
    -999.2500    -999.2500     214.6211    -999.2500      46.1038    -999.2500
       0.6527    -999.2500       0.1018      14.6080       0.0028       2.2824
       0.9247       2.3115
   1985.7720
      11.4795       6.6778      -0.4996      56.6196      24.1192    -999.2500
    -999.2500    -999.2500     176.6348    -999.2500      40.5762    -999.2500
       0.7355    -999.2500       0.1102      15.3327       0.0026       2.2675
       0.9220       2.4640
   1985.9243
      11.4106       6.5760      -0.5445      56.5275      26.1443    -999.2500
    -999.2500    -999.2500     126.1195    -999.2500      29.9514    -999.2500
       0.5435    -999.2500       0.1282      15.9629       0.0025       2.1745
       0.9340       2.7495
   1986.0768
      11.3816       6.5082      -0.5906      56.4323      28.3855    -999.2500
    -999.2500    -999.2500      78.4730    -999.2500      19.9402    -999.2500
       0.3732    -999.2500       0.1479      16.5129       0.0024       2.0826
       0.9518       3.0542
   1986.2291
      11.8122       6.8346      -0.6481      56.2997      33.0623    -999.2500
    -999.2500    -999.2500      64.7475    -999.2500      17.1805    -999.2500
       0.4507    -999.2500       0.1777      16.1257       0.0024       2.0036
       1.0367       3.5660
   1986.3815
      12.1925       7.1411      -0.6960      56.1764      37.6833    -999.2500
    -999.2500    -999.2500      53.0772    -999.2500      14.8995    -999.2500
       0.5182    -999.2500       0.2079      15.7291       0.0023       1.9387
       1.1157       4.0656
   1986.5339
      11.9866       7.2051      -0.6341      56.1559      41.3344    -999.2500
    -999.2500    -999.2500      65.2620    -999.2500      18.1653    -999.2500
       0.4712    -999.2500       0.2379      15.2330       0.0023       2.0347
       1.1247       4.4091
   1986.6863
      11.7999       7.2510      -0.5780      56.1386      44.3300    -999.2500
    -999.2500    -999.2500      76.1682    -999.2500      21.1011    -999.2500
       0.4319    -999.2500       0.2608      14.8276       0.0022       2.1257
       1.1302       4.6882
   1986.8387
      11.8364       7.0892      -0.5900      56.1581      39.5789    -999.2500
    -999.2500    -999.2500      72.0118    -999.2500      20.1430    -999.2500
       0.4804    -999.2500       0.2341      15.4701       0.0023       2.1592
       1.0953       4.2174
   1986.9911
      11.8820       6.9594      -0.6023      56.1770      34.9479    -999.2500
    -999.2500    -999.2500      67.0964    -999.2500      19.0508    -999.2500
       0.5301    -999.2500       0.2068      16.0873       0.0025       2.1876
       1.0707       3.7543
   1987.1436
      12.0319       7.2010      -0.6188      56.1895      31.6487    -999.2500
    -999.2500    -999.2500      53.6284    -999.2500      16.4563    -999.2500
       0.5941    -999.2500       0.1924      16.4020       0.0026       2.1570
       1.1660       3.3967
   1987.2959
      12.1747       7.4535      -0.6336      56.2049      28.5424    -999.2500
    -999.2500    -999.2500      40.8777    -999.2500      14.0108    -999.2500
       0.6416    -999.2500       0.1820      16.6818       0.0027       2.1308
       1.2619       3.0523
   1987.4484
      12.2338       7.8209      -0.6291      56.2534      27.7609    -999.2500
    -999.2500    -999.2500      36.8582    -999.2500      13.3716    -999.2500
       0.4996    -999.2500       0.1948      16.5550       0.0027       2.1533
       1.3603       2.8690
   1987.6007
      12.2935       8.1798      -0.6252      56.3072      27.0769    -999.2500
    -999.2500    -999.2500      33.2298    -999.2500      12.7642    -999.2500
       0.3700    -999.2500       0.2077      16.4273       0.0028       2.1755
       1.4495       2.6980
   1987.7532
      12.3620       8.4264      -0.6277      56.4218      27.5583    -999.2500
    -999.2500    -999.2500      34.2134    -999.2500      12.5425    -999.2500
       0.3825    -999.2500       0.2133      16.2938       0.0029       2.1940
       1.4305       2.6724
   1987.9055
      12.4248       8.6471      -0.6311      56.5357      28.0630    -999.2500
    -999.2500    -999.2500      35.4753    -999.2500      12.4031    -999.2500
       0.3994    -999.2500       0.2186      16.1412       0.0029       2.2098
       1.4067       2.6593
   1988.0580
      12.4228       8.5612      -0.6446      56.6438      28.8135    -999.2500
    -999.2500    -999.2500      39.9138    -999.2500      13.2163    -999.2500
       0.4664    -999.2500       0.2242      15.7731       0.0030       2.1953
       1.3277       2.7877
   1988.2103
      12.4151       8.5324      -0.6528      56.7442      29.8913    -999.2500
    -999.2500    -999.2500      44.5071    -999.2500      14.0705    -999.2500
       0.5615    -999.2500       0.2276      15.4483       0.0031       2.1803
       1.2509       2.9361
   1988.3627
      12.3417       9.1623      -0.6015      56.7597      34.7925    -999.2500
    -999.2500    -999.2500      50.7702    -999.2500      15.3770    -999.2500
       0.9796    -999.2500       0.2165      15.6251       0.0032       2.1599
       1.2000       3.3090
   1988.5151
      12.2551       9.7121      -0.5519      56.7724      39.1008    -999.2500
    -999.2500    -999.2500      58.6553    -999.2500      17.0112    -999.2500
       2.1411    -999.2500       0.2037      15.8130       0.0032       2.1448
       1.1675       3.6369
   1988.6675
      12.0187       9.3292      -0.5259      56.7529      36.5776    -999.2500
    -999.2500    -999.2500      85.1537    -999.2500      22.4048    -999.2500
      11.8614    -999.2500       0.1851      16.1232       0.0030       2.1923
       1.3472       3.4377
   1988.8199
      11.7794       8.8506      -0.5051      56.7250      33.7855    -999.2500
    -999.2500    -999.2500     112.6359    -999.2500      28.1705    -999.2500
      20.6752    -999.2500       0.1655      16.4333       0.0026       2.2425
       1.5045       3.2164
   1988.9723
      11.5091       7.2954      -0.5435      56.6015      27.8405    -999.2500
    -999.2500    -999.2500     151.1815    -999.2500      38.1676    -999.2500
      19.1134    -999.2500       0.1413      16.7344       0.0021       2.3235
       1.3998       2.7502
   1989.1248
      11.2515       5.8067      -0.5758      56.4801      22.2115    -999.2500
    -999.2500    -999.2500     189.6845    -999.2500      48.3182    -999.2500
      17.3569    -999.2500       0.1187      16.9587       0.0016       2.4014
       1.2861       2.3119
   1989.2771
      11.1450       5.1455      -0.5364      56.3826      20.4704    -999.2500
    -999.2500    -999.2500     227.2536    -999.2500      60.1239    -999.2500
      13.3467    -999.2500       0.1088      16.2970       0.0015       2.4439
       1.0760       2.2116
