#------------------------------------------------------------------------------
#
#   Created by  : [OpenWorks] Log Export Utility (LEXP)
#   Created on  : 2016-05-23 11:55:37
#   Project     : CANT971
#   User        : R5K
#   Interpreter : PEP
#
#------------------------------------------------------------------------------
~VERSION INFORMATION
VERS. 2.0 : CWLS Log ASCII Standard - version 2.0
WRAP.  NO : One line per depth step
~WELL INFORMATION
#MNEMONIC   .UNIT                                           VALUE :DESCRIPTION
#------------------------------------------------------------------------------
STRT        .M                                           299.0628 :START DEPTH
STOP        .M                                          2570.8896 :STOP DEPTH
STEP        .M                                             0.1524 :STEP
NULL        .                                           -999.2500 :NULL VALUE
COMP        .                                   PEMEX EXPL & PROD :COMPANY
WELL        .                                                  31 :WELL
FLD         .                                           CANTARELL :FIELD
LOC         .                                             UNKNOWN :LOCATION
CNTY        .                                      CD. DEL CARMEN :COUNTY
STAT        .                                            CAMPECHE :STATE
CTRY        .                                              MEXICO :COUNTRY
SRVC        .                                             UNKNOWN :SERVICE COMPANY
DATE        .                                             UNKNOWN :LOG DATE
UWI         .                                          3060000157 :UNIQUE WELL ID
XCOORD      .                                       599727.810000 :SURFACE X
YCOORD      .                                      2147216.930000 :SURFACE Y
LAT         .                                           19.417919 :LATITUDE
LON         .                                          -92.050118 :LONGITUDE
ELEV        .M                                            27.8000 :SURFACE ELEV
ELEV_TYPE   .                                                  KB :ELEV TYPE
~CURVE INFORMATION
#MNEMONIC.UNIT        API CODE       : CURVE DESCRIPTION
#------------------------------------------------------------------------------
DEPTH    .M                          : Measured Depth
CALI     .inches      UNKNOWN        : CALI:Import:rC:NONE:v0 (auto-composite)
DRHO     .g/cm3       UNKNOWN        : DRHO:Import:rC:NONE:v0 (auto-composite)
DT       .us/ft       UNKNOWN        : DT:Import:rC:NONE:v0 (auto-composite)
GR       .API         UNKNOWN        : GR:Import:rC:NONE:v0 (auto-composite)
ILD      .ohm.m       UNKNOWN        : ILD:Import:rC:NONE:v0 (auto-composite)
LLD      .ohm.m       UNKNOWN        : LLD:Import:rC:NONE:v0 (auto-composite)
LLS      .ohm.m       UNKNOWN        : LLS:Import:rC:NONE:v0 (auto-composite)
MSFL     .ohm.m       UNKNOWN        : MSFL:Import:rC:NONE:v0 (auto-composite)
NPHI     .v/v_decimal UNKNOWN        : NPHI:Import:rC:NONE:v0 (auto-composite)
RHOB     .g/cm3       UNKNOWN        : RHOB:Import:rC:NONE:v0 (auto-composite)
~A     DEPTH         CALI         DRHO           DT           GR          ILD          LLD          LLS         MSFL         NPHI         RHOB
# ...
   2398.5251       6.7780       0.0930    -999.2500      28.0537    -999.2500      43.8734      57.1371      74.9082       0.0907       2.7163
   2398.6775       6.7780       0.0930    -999.2500      28.1103    -999.2500      43.8414      64.1289      73.2152       0.0991       2.7148
   2398.8301       6.7780       0.0921    -999.2500      32.7258    -999.2500      43.5267      67.8737      70.5466       0.1063       2.7103
   2398.9824       6.7780       0.0901    -999.2500      42.7475    -999.2500      42.8770      67.7681      66.7135       0.1122       2.7023
   2399.1348       6.7780       0.0826    -999.2500      48.1449    -999.2500      41.0205      66.7903      62.8598       0.1271       2.6812
   2399.2871       6.7780       0.0686    -999.2500      48.1098    -999.2500      37.7557      64.7879      58.9817       0.1520       2.6447
   2399.4397       6.7782       0.0612    -999.2500      47.7312    -999.2500      34.3825      59.6026      52.1780       0.1656       2.6257
   2399.5920       6.7787       0.0617    -999.2500      46.9528    -999.2500      30.8839      50.7132      41.9696       0.1658       2.6272
   2399.7444       6.7827       0.0601    -999.2500      42.1405    -999.2500      27.6849      42.3847      31.9239       0.1639       2.6361
   2399.8967       6.7907       0.0561    -999.2500      32.6779    -999.2500      24.8290      34.7027      22.0659       0.1599       2.6537
   2400.0493       6.8065       0.0542    -999.2500      27.6625    -999.2500      21.6137      27.2601      14.1809       0.1514       2.6864
   2400.2017       6.8310       0.0547    -999.2500      27.6936    -999.2500      17.9905      20.0910       8.5493       0.1379       2.7364
   2400.3540       6.8546       0.0693    -999.2500      27.8837    -999.2500      16.1485      16.3272       5.5899       0.1205       2.7625
   2400.5063       6.8771       0.0999    -999.2500      28.2526    -999.2500      16.3088      16.3912       5.6535       0.0994       2.7615
   2400.6587       6.8878       0.1160    -999.2500      29.8612    -999.2500      17.4123      16.8345       6.1034       0.0880       2.7421
   2400.8113       6.8853       0.1160    -999.2500      32.8502    -999.2500      19.5593      17.7000       6.9834       0.0877       2.7020
   2400.9636       6.8702       0.1056    -999.2500      34.3785    -999.2500      22.7805      19.3174       8.4715       0.0887       2.6810
   2401.1160       6.8412       0.0835    -999.2500      34.2954    -999.2500      27.1791      21.7643      10.6306       0.0906       2.6810
   2401.2683       6.7880       0.0732    -999.2500      33.8212    -999.2500      32.7844      27.8250      13.6356       0.0950       2.6824
   2401.4209       6.7084       0.0757    -999.2500      32.9197    -999.2500      39.7000      37.8352      17.5652       0.1019       2.6854
   2401.5732       6.6670       0.0768    -999.2500      30.8093    -999.2500      43.2223      42.9681      27.3599       0.1055       2.6892
   2401.7256       6.6670       0.0763    -999.2500      27.3900    -999.2500      43.0941      42.8204      43.5048       0.1053       2.6937
   2401.8779       6.6680       0.0762    -999.2500      25.6493    -999.2500      41.0298      40.9304      47.1790       0.1000       2.7165
   2402.0305       6.6700       0.0767    -999.2500      25.6973    -999.2500      36.9019      37.1715      37.4771       0.0895       2.7591
   2402.1829       6.6824       0.0857    -999.2500      27.1733    -999.2500      34.8451      35.2994      33.0379       0.0839       2.7805
   2402.3352       6.7060       0.1038    -999.2500      30.1568    -999.2500      34.9749      35.4196      34.1907       0.0837       2.7795
   2402.4875       6.7332       0.1128    -999.2500      31.2240    -999.2500      36.4319      38.1132      34.7056       0.0841       2.7734
   2402.6399       6.7642       0.1123    -999.2500      30.2869    -999.2500      39.2682      43.4985      34.5534       0.0847       2.7619
   2402.7925       6.7965       0.1088    -999.2500      29.9649    -999.2500      40.6029      46.1677      33.7132       0.0859       2.7499
   2402.9448       6.8300       0.1023    -999.2500      30.2803    -999.2500      40.3917      46.0225      32.1598       0.0884       2.7373
   2403.0972       6.8841       0.0938    -999.2500      33.4187    -999.2500      39.1753      45.0857      30.2696       0.1013       2.7280
   2403.2495       6.9592       0.0833    -999.2500      39.4551    -999.2500      36.9337      43.3361      28.0335       0.1246       2.7220
   2403.4021       6.9970       0.0802    -999.2500      41.7540    -999.2500      33.8089      40.2424      24.0732       0.1369       2.7083
   2403.5544       6.9970       0.0847    -999.2500      40.2763    -999.2500      29.7917      35.7817      18.3595       0.1373       2.6868
   2403.7068       6.9945       0.0868    -999.2500      40.3030    -999.2500      25.3695      30.1523      16.4114       0.1352       2.6456
   2403.8591       6.9895       0.0863    -999.2500      41.8358    -999.2500      20.5418      23.3453      18.2570       0.1314       2.5845
   2404.0117       6.9624       0.0842    -999.2500      41.1855    -999.2500      19.3833      21.1840      19.0405       0.1312       2.5553
   2404.1641       6.9133       0.0807    -999.2500      38.3702    -999.2500      21.8637      23.6299      18.7707       0.1342       2.5578
   2404.3164       6.8890       0.0641    -999.2500      37.0374    -999.2500      23.0644      24.7804      16.0499       0.1293       2.6042
   2404.4688       6.8890       0.0346    -999.2500      37.1610    -999.2500      23.0159      24.6582      10.9209       0.1168       2.6938
   2404.6211       6.8877       0.0205    -999.2500      40.4185    -999.2500      21.2753      22.9019      16.6057       0.1103       2.7347
   2404.7737       6.8852       0.0215    -999.2500      46.7264    -999.2500      17.8984      19.5550      32.8162       0.1101       2.7282
   2404.9260       6.8570       0.0378    -999.2500      49.6269    -999.2500      16.3733      18.3626      35.6356       0.1120       2.7253
   2405.0784       6.8039       0.0688    -999.2500      49.2416    -999.2500      16.6226      19.2476      25.5422       0.1157       2.7258
   2405.2307       6.7780       0.0809    -999.2500      47.2154    -999.2500      20.3795      45.2992      20.7324       0.1173       2.7270
   2405.3833       6.7780       0.0749    -999.2500      43.6317    -999.2500      27.4658      95.3919      20.9696       0.1170       2.7290
   2405.5356       6.7780       0.0733    -999.2500      39.7988    -999.2500      30.6080     118.6722      23.5910       0.1151       2.7369
   2405.6880       6.7780       0.0758    -999.2500      35.7316    -999.2500      30.0414     116.7399      28.4686       0.1118       2.7505
   2405.8403       6.7767       0.0757    -999.2500      32.1927    -999.2500      29.8478      98.0199      30.3568       0.1074       2.7523
   2405.9929       6.7742       0.0732    -999.2500      29.1462    -999.2500      29.9994      63.6612      29.4603       0.1020       2.7433
   2406.1453       6.7454       0.0723    -999.2500      24.2666    -999.2500      31.0032      47.1923      29.2797       0.0962       2.7437
   2406.2976       6.6923       0.0728    -999.2500      17.6954    -999.2500      32.7883      47.2334      29.7597       0.0899       2.7527
   2406.4500       6.6670       0.0764    -999.2500      14.7999    -999.2500      41.3459      53.3068      43.5961       0.0826       2.7468
   2406.6023       6.6670       0.0829    -999.2500      15.2650    -999.2500      56.0556      64.8954      69.6436       0.0746       2.7273
   2406.7549       6.6670       0.0855    -999.2500      17.6992    -999.2500      62.6388      70.2446      80.8756       0.0712       2.7206
   2406.9072       6.6670       0.0845    -999.2500      21.9171    -999.2500      61.9090      69.9428      78.6891       0.0725       2.7256
