#------------------------------------------------------------------------------
#
#   Created by  : [OpenWorks] Log Export Utility (LEXP)
#   Created on  : 2016-05-23 11:57:11
#   Project     : CANT971
#   User        : R5K
#   Interpreter : PEP
#
#------------------------------------------------------------------------------
~VERSION INFORMATION
VERS. 2.0 : CWLS Log ASCII Standard - version 2.0
WRAP.  NO : One line per depth step
~WELL INFORMATION
#MNEMONIC   .UNIT                                           VALUE :DESCRIPTION
#------------------------------------------------------------------------------
STRT        .M                                           319.2782 :START DEPTH
STOP        .M                                          2532.8882 :STOP DEPTH
STEP        .M                                             0.1524 :STEP
NULL        .                                           -999.2500 :NULL VALUE
COMP        .                                   PEMEX EXPL & PROD :COMPANY
WELL        .                                                 73A :WELL
FLD         .                                           CANTARELL :FIELD
LOC         .                                             UNKNOWN :LOCATION
CNTY        .                                      CD. DEL CARMEN :COUNTY
STAT        .                                            CAMPECHE :STATE
CTRY        .                                              MEXICO :COUNTRY
SRVC        .                                             UNKNOWN :SERVICE COMPANY
DATE        .                                             UNKNOWN :LOG DATE
UWI         .                                          3060000177 :UNIQUE WELL ID
XCOORD      .                                       599722.890000 :SURFACE X
YCOORD      .                                      2147218.550000 :SURFACE Y
LAT         .                                           19.417934 :LATITUDE
LON         .                                          -92.050165 :LONGITUDE
ELEV        .M                                            27.8000 :SURFACE ELEV
ELEV_TYPE   .                                                  KB :ELEV TYPE
~CURVE INFORMATION
#MNEMONIC.UNIT        API CODE       : CURVE DESCRIPTION
#------------------------------------------------------------------------------
DEPTH    .M                          : Measured Depth
CALI     .inches      UNKNOWN        : CALI:registros:rC:NONE:v0 (auto-composite)
DRHO     .g/cm3       UNKNOWN        : DRHO:registros:rC:NONE:v0 (auto-composite)
DT       .UNKNOWN     UNKNOWN        : DT:registros:rC:NONE:v0 (auto-composite)
GR       .API         UNKNOWN        : GR:registros:rC:NONE:v0 (auto-composite)
ILD      .ohm.m       UNKNOWN        : ILD:registros:rC:NONE:v0 (auto-composite)
LLD      .ohm.m       UNKNOWN        : LLD:registros:rC:NONE:v0 (auto-composite)
LLS      .ohm.m       UNKNOWN        : LLS:registros:rC:NONE:v0 (auto-composite)
MSFL     .ohm.m       UNKNOWN        : MSFL:registros:rC:NONE:v0 (auto-composite)
RHOB     .g/cm3       UNKNOWN        : RHOB:registros:rC:NONE:v0 (auto-composite)
~A     DEPTH         CALI         DRHO           DT           GR          ILD          LLD          LLS         MSFL         RHOB
# ...
    442.1126      22.8500       0.0810     126.1647      30.9780       1.4497    -999.2500    -999.2500    -999.2500       2.1785
    442.2650      22.8500       0.0510     123.5000      31.2970       1.2700    -999.2500    -999.2500    -999.2500       2.1700
    442.4174      22.8500       0.0735     125.9367      31.9655       1.3108    -999.2500    -999.2500    -999.2500       2.1800
    442.5698      22.8500       0.0960     128.3800      32.6360       1.3520    -999.2500    -999.2500    -999.2500       2.1900
    442.7222      22.8500       0.0905     127.1802      32.8976       1.4805    -999.2500    -999.2500    -999.2500       2.1855
    442.8746      22.8500       0.0850     125.9770      33.1600       1.6100    -999.2500    -999.2500    -999.2500       2.1810
    443.0270      22.8500       0.0625     122.6184      32.8744       1.7529    -999.2500    -999.2500    -999.2500       2.1605
    443.1794      22.8500       0.0400     119.2500      32.5880       1.8970    -999.2500    -999.2500    -999.2500       2.1400
    443.3318      22.8350       0.0495     120.1138      31.5506       2.1415    -999.2500    -999.2500    -999.2500       2.1445
    443.4842      22.8200       0.0590     120.9800      30.5100       2.3880    -999.2500    -999.2500    -999.2500       2.1490
    443.6366      22.8245       0.0590     120.1761      30.7331       2.8571    -999.2500    -999.2500    -999.2500       2.1645
    443.7890      22.8290       0.0590     119.3700      30.9570       3.3300    -999.2500    -999.2500    -999.2500       2.1800
    443.9414      22.8390       0.0570     121.5718      32.5810       3.2299    -999.2500    -999.2500    -999.2500       2.1700
    444.0938      22.8490       0.0550     123.7800      34.2100       3.1290    -999.2500    -999.2500    -999.2500       2.1600
    444.2462      22.8495       0.0295     123.4365      33.6503       2.8182    -999.2500    -999.2500    -999.2500       2.1615
    444.3986      22.8500       0.0040     123.0920      33.0890       2.5050    -999.2500    -999.2500    -999.2500       2.1630
    444.5510      22.8500       0.0085     121.6380      31.7950       2.2037    -999.2500    -999.2500    -999.2500       2.1915
    444.7034      22.8500       0.0130     120.1800      30.4970       1.9000    -999.2500    -999.2500    -999.2500       2.2200
    444.8558      22.8500       0.0230     118.2358      29.6598       1.7207    -999.2500    -999.2500    -999.2500       2.1900
    445.0082      22.8500       0.0330     116.2860      28.8200       1.5400    -999.2500    -999.2500    -999.2500       2.1600
    445.1606      22.8500       0.0350     113.0675      29.0556       1.4748    -999.2500    -999.2500    -999.2500       2.1645
    445.3130      22.8500       0.0370     109.8400      29.2920       1.4090    -999.2500    -999.2500    -999.2500       2.1690
    445.4654      22.8500       0.0400     110.9889      30.2245       1.3697    -999.2500    -999.2500    -999.2500       2.1995
    445.6178      22.8500       0.0430     112.1410      31.1600       1.3300    -999.2500    -999.2500    -999.2500       2.2300
    445.7702      22.8500       0.0355     117.4279      32.3996       1.3300    -999.2500    -999.2500    -999.2500       2.2270
    445.9226      22.8500       0.0280     122.7300      33.6430       1.3300    -999.2500    -999.2500    -999.2500       2.2240
    446.0750      22.8500       0.0405     121.6315      34.4503       1.3230    -999.2500    -999.2500    -999.2500       2.2160
    446.2274      22.8500       0.0530     120.5300      35.2600       1.3160    -999.2500    -999.2500    -999.2500       2.2080
    446.3798      22.8500       0.0980     121.2780      34.6360       1.2881    -999.2500    -999.2500    -999.2500       2.1890
    446.5322      22.8500       0.1430     122.0280      34.0100       1.2600    -999.2500    -999.2500    -999.2500       2.1700
    446.6846      22.8500       0.1375     125.9035      34.0240       1.2600    -999.2500    -999.2500    -999.2500       2.1700
    446.8370      22.8500       0.1320     129.7900      34.0380       1.2600    -999.2500    -999.2500    -999.2500       2.1700
    446.9894      22.8500       0.1120     128.0874      34.7479       1.2600    -999.2500    -999.2500    -999.2500       2.1750
    447.1418      22.8500       0.0920     126.3800      35.4600       1.2600    -999.2500    -999.2500    -999.2500       2.1800
    447.2942      22.8500       0.0510     126.3910      35.0357       1.2799    -999.2500    -999.2500    -999.2500       2.1700
    447.4466      22.8500       0.0100     126.4020      34.6100       1.3000    -999.2500    -999.2500    -999.2500       2.1600
    447.5990      22.8500       0.0150     126.7645      34.7094       1.2955    -999.2500    -999.2500    -999.2500       2.1630
    447.7514      22.8500       0.0200     127.1280      34.8090       1.2910    -999.2500    -999.2500    -999.2500       2.1660
    447.9038      22.8500       0.0350     127.9843      37.0812       1.2795    -999.2500    -999.2500    -999.2500       2.1730
    448.0562      22.8500       0.0500     128.8430      39.3600       1.2680    -999.2500    -999.2500    -999.2500       2.1800
    448.2086      22.8500       0.0635     132.2769      39.2147       1.2610    -999.2500    -999.2500    -999.2500       2.1785
    448.3610      22.8500       0.0770     135.7200      39.0690       1.2540    -999.2500    -999.2500    -999.2500       2.1770
    448.5134      22.8500       0.0910     134.7064      38.6582       1.2366    -999.2500    -999.2500    -999.2500       2.1660
    448.6658      22.8500       0.1050     133.6900      38.2460       1.2190    -999.2500    -999.2500    -999.2500       2.1550
    448.8182      22.8500       0.1200     133.9821      37.8881       1.1851    -999.2500    -999.2500    -999.2500       2.1365
    448.9706      22.8500       0.1350     134.2750      37.5290       1.1510    -999.2500    -999.2500    -999.2500       2.1180
    449.1230      22.8500       0.1080     140.3539      36.9838       1.1231    -999.2500    -999.2500    -999.2500       2.0940
    449.2754      22.8500       0.0810     146.4500      36.4370       1.0950    -999.2500    -999.2500    -999.2500       2.0700
    449.4278      22.8500       0.1000     145.1218      35.9398       1.0676    -999.2500    -999.2500    -999.2500       2.0755
    449.5802      22.8500       0.1190     143.7900      35.4410       1.0400    -999.2500    -999.2500    -999.2500       2.0810
    449.7326      22.8500       0.1185     139.5731      34.5679       1.0455    -999.2500    -999.2500    -999.2500       2.0995
    449.8850      22.8500       0.1180     135.3440      33.6920       1.0510    -999.2500    -999.2500    -999.2500       2.1180
    450.0374      22.8500       0.0720     131.7780      32.8772       1.0709    -999.2500    -999.2500    -999.2500       2.1360
    450.1898      22.8500       0.0260     128.2020      32.0600       1.0910    -999.2500    -999.2500    -999.2500       2.1540
    450.3422      22.8500       0.0325     122.7585      32.2098       1.1149    -999.2500    -999.2500    -999.2500       2.2121
    450.4946      22.8500       0.0390     117.3000      32.3600       1.1390    -999.2500    -999.2500    -999.2500       2.2700
    450.6470      22.8350       0.0200     120.8449      31.7609       1.1734    -999.2500    -999.2500    -999.2500       2.2670
    450.7994      22.8200       0.0010     124.4000      31.1600       1.2080    -999.2500    -999.2500    -999.2500       2.2640
    450.9518      22.8200       0.0030     123.1547      31.4845       1.2364    -999.2500    -999.2500    -999.2500       2.2470
    451.1042      22.8200       0.0050     121.9060      31.8100       1.2650    -999.2500    -999.2500    -999.2500       2.2300
    451.2566      22.8200       0.0130     117.2543      31.6722       1.2824    -999.2500    -999.2500    -999.2500       2.2300
    451.4090      22.8200       0.0210     112.5900      31.5340       1.3000    -999.2500    -999.2500    -999.2500       2.2300
