#------------------------------------------------------------------------------
#
#   Created by  : [OpenWorks] Log Export Utility (LEXP)
#   Created on  : 2015-10-01 09:49:56
#   Project     : CANT971
#   User        : R5K
#   Interpreter : PEP
#
#------------------------------------------------------------------------------
~VERSION INFORMATION
VERS. 2.0 : CWLS Log ASCII Standard - version 2.0
WRAP.  NO : One line per depth step
~WELL INFORMATION
#MNEMONIC   .UNIT                                           VALUE :DESCRIPTION
#------------------------------------------------------------------------------
STRT        .M                                           799.8710 :START DEPTH
STOP        .M                                          1367.5610 :STOP DEPTH
STEP        .M                                             0.1524 :STEP
NULL        .                                           -999.2500 :NULL VALUE
COMP        .                                   PEMEX EXPL & PROD :COMPANY
WELL        .                                        CANTARELL-1A :WELL
FLD         .                                           CANTARELL :FIELD
LOC         .                                             UNKNOWN :LOCATION
CNTY        .                                      CD. DEL CARMEN :COUNTY
STAT        .                                            CAMPECHE :STATE
CTRY        .                                              MEXICO :COUNTRY
SRVC        .                                             UNKNOWN :SERVICE COMPANY
DATE        .                                             UNKNOWN :LOG DATE
UWI         .                                          3060000138 :UNIQUE WELL ID
XCOORD      .                                       600823.080000 :SURFACE X
YCOORD      .                                      2145118.550000 :SURFACE Y
LAT         .                                           19.398902 :LATITUDE
LON         .                                          -92.039798 :LONGITUDE
ELEV        .M                                            27.7000 :SURFACE ELEV
ELEV_TYPE   .                                                  KB :ELEV TYPE
~CURVE INFORMATION
#MNEMONIC.UNIT        API CODE       : CURVE DESCRIPTION
#------------------------------------------------------------------------------
DEPTH    .M                          : Measured Depth
CALI     .inches      UNKNOWN        : CALI:UNKNOWN:rC:NONE:v0 (auto-composite)
DRHO     .g/cm3       UNKNOWN        : DRHO:UNKNOWN:rC:NONE:v0 (auto-composite)
DT       .us/ft       UNKNOWN        : DT:DT:rC:NONE:v0 (auto-composite)
ILD      .ohm.m       UNKNOWN        : ILD:UNKNOWN:rC:NONE:v0 (auto-composite)
LLD      .ohm.m       UNKNOWN        : LLD:UNKNOWN:rC:NONE:v0 (auto-composite)
LLS      .ohm.m       UNKNOWN        : LLS:UNKNOWN:rC:NONE:v0 (auto-composite)
MSFL     .ohm.m       UNKNOWN        : MSFL:UNKNOWN:rC:NONE:v0 (auto-composite)
NPHI     .v/v_decimal UNKNOWN        : NPHI:NPHI:rC:NONE:v0 (auto-composite)
GR       .API         UNKNOWN        : RG:UNKNOWN:rC:NONE:v0 (auto-composite)
RHOB     .g/cm3       UNKNOWN        : RHOB:UNKNOWN:rC:NONE:v0 (auto-composite)
~A     DEPTH         CALI         DRHO           DT          ILD          LLD          LLS         MSFL         NPHI           GR         RHOB
# ...
   1294.8662      13.7407       0.0154      55.6723       1.8525       0.2000       0.2000       0.2000       7.4424      26.7564       2.4992
   1295.0187      13.8695       0.0174      56.5122       1.9282       0.2000       0.2000       0.2000       7.5154      27.0662       2.5058
   1295.1710      13.9402       0.0185      56.9082       2.0202       0.2000       0.2000       0.2000       7.6260      27.4165       2.5113
   1295.3235      13.7738       0.0160      56.8541       2.1786       0.2000       0.2000       0.2000       7.7745      27.9312       2.5128
   1295.4758      13.6292       0.0160      55.9906       2.3229       0.2000       0.2000       0.2000       7.9577      28.3243       2.5152
   1295.6282      13.5705       0.0261      54.3092       2.4117       0.2000       0.2000       0.2000       8.1757      28.2365       2.5212
   1295.7806      13.5180       0.0350      53.6463       2.4605       0.2000       0.2000       0.2000       8.3960      28.3768       2.5202
   1295.9330      13.4889       0.0401      54.0128       2.3567       0.2000       0.2000       0.2000       8.6185      29.3882       2.4921
   1296.0854      13.4975       0.0408      53.7024       2.2569       0.2000       0.2000       0.2000       8.7193      30.3780       2.4682
   1296.2378      13.6459       0.0258      52.7080       2.1717       0.2000       0.2000       0.2000       8.6978      31.2875       2.4597
   1296.3903      13.7751       0.0137      52.6371       2.0942       0.2000       0.2000       0.2000       8.5633      31.9806       2.4530
   1296.5426      13.8353       0.0122      53.5001       2.0446       0.2000       0.2000       0.2000       8.3153      31.8958       2.4530
   1296.6951      13.8931       0.0129      53.9275       2.0078       0.2000       0.2000       0.2000       8.0045      31.6994       2.4552
   1296.8474      13.9427       0.0214      53.9145       2.0158       0.2000       0.2000       0.2000       7.6305      31.1145       2.4653
   1296.9999      14.0036       0.0257      53.7912       2.0386       0.2000       0.2000       0.2000       7.4577      30.5764       2.4727
   1297.1522      14.1029       0.0157      53.5562       2.1113       0.2000       0.2000       0.2000       7.4872      30.1963       2.4712
   1297.3047      14.1907       0.0085      52.9181       2.1953       0.2000       0.2000       0.2000       7.6479      29.7917       2.4698
   1297.4570      14.2408       0.0105      51.8721       2.3167       0.2000       0.2000       0.2000       7.9403      29.3063       2.4688
   1297.6094      14.2886       0.0126      51.4131       2.4243       0.2000       0.2000       0.2000       8.0798      28.7973       2.4706
   1297.7618      14.3287       0.0151      51.5481       2.4885       0.2000       0.2000       0.2000       8.0653      28.2129       2.4817
   1297.9142      14.3616       0.0177      52.9572       2.5227       0.2000       0.2000       0.2000       7.9795      27.6783       2.4938
   1298.0667      14.3721       0.0207      55.6561       2.4640       0.2000       0.2000       0.2000       7.8220      27.2983       2.5093
   1298.2190      14.3900       0.0221      57.0063       2.4124       0.2000       0.2000       0.2000       7.6373      26.8920       2.5175
   1298.3715      14.4301       0.0186      56.9908       2.3818       0.2000       0.2000       0.2000       7.4253      26.4069       2.5035
   1298.5238      14.4276       0.0160      55.6871       2.3645       0.2000       0.2000       0.2000       7.1620      25.8712       2.4931
   1298.6763      14.3003       0.0160      53.0787       2.3860       0.2000       0.2000       0.2000       6.8470      25.1873       2.4936
   1298.8286      14.2037       0.0185      51.8212       2.4386       0.2000       0.2000       0.2000       6.6915      24.4791       2.5014
   1298.9811      14.1946       0.0280      51.9282       2.5795       0.2000       0.2000       0.2000       6.6965      23.7014       2.5300
   1299.1334      14.1803       0.0327      52.4653       2.7374       0.2000       0.2000       0.2000       6.7294      23.0804       2.5578
   1299.2859      14.1512       0.0242      53.4368       2.9423       0.2000       0.2000       0.2000       6.7904      22.8935       2.5833
   1299.4382      14.0531       0.0161      54.4184       3.1031       0.2000       0.2000       0.2000       6.9206      22.9764       2.6104
   1299.5906      13.7683       0.0091      55.4104       3.1442       0.2000       0.2000       0.2000       7.1200      23.7891       2.6415
   1299.7430      13.5351       0.0047      59.3553       3.1848       0.2000       0.2000       0.2000       7.3235      24.6277       2.6546
   1299.8954      13.4373       0.0072      66.2846       3.2239       0.2000       0.2000       0.2000       7.5310      25.5342       2.6205
   1300.0479      13.3452       0.0098      73.5699       3.2500       0.2000       0.2000       0.2000       7.6522      26.5260       2.5826
   1300.2002      13.2675       0.0129      81.2152       3.2430       0.2000       0.2000       0.2000       7.6867      27.7359       2.5350
   1300.3527      13.2375       0.0136      83.0620       3.2116       0.2000       0.2000       0.2000       7.7269      28.7463       2.4997
   1300.5050      13.3268       0.0086      79.0456       3.1194       0.2000       0.2000       0.2000       7.7729      29.2582       2.4952
   1300.6575      13.4074       0.0051      77.2783       3.0639       0.2000       0.2000       0.2000       7.9000      29.5094       2.4919
   1300.8098      13.4670       0.0056      77.7858       3.0980       0.2000       0.2000       0.2000       8.1085      29.1263       2.4914
   1300.9623      13.5063       0.0067      77.4192       3.2337       0.2000       0.2000       0.2000       8.3673      28.7424       2.4922
   1301.1146      13.4973       0.0092      76.1682       3.6101       0.2000       0.2000       0.2000       8.6768      28.3565       2.4962
   1301.2671      13.4794       0.0118      69.5146       3.8662       0.2000       0.2000       0.2000       9.0860      27.9415       2.5035
   1301.4194      13.4407       0.0143      57.3940       3.8436       0.2000       0.2000       0.2000       9.5955      27.4592       2.5186
   1301.5718      13.4081       0.0135      51.5996       3.6690       0.2000       0.2000       0.2000       9.8316      27.1601       2.5238
   1301.7242      13.3891       0.0055      52.2086       3.1513       0.2000       0.2000       0.2000       9.7926      27.2744       2.5067
   1301.8766      13.3671       0.0045      52.4250       2.6973       0.2000       0.2000       0.2000       9.5863      27.4815       2.4898
   1302.0291      13.3385       0.0191      52.2440       2.3839       0.2000       0.2000       0.2000       9.2118      27.8937       2.4733
   1302.1814      13.3410       0.0296      52.2164       2.1364       0.2000       0.2000       0.2000       8.5801      28.5587       2.4540
   1302.3339      13.4102       0.0316      52.3439       2.0306       0.2000       0.2000       0.2000       7.6897      29.7676       2.4290
   1302.4862      13.4860       0.0309      52.1289       1.9493       0.2000       0.2000       0.2000       7.2477      30.6234       2.4057
   1302.6387      13.5757       0.0244      51.5679       1.9192       0.2000       0.2000       0.2000       7.2572      30.7392       2.3861
   1302.7910      13.6879       0.0174      53.8957       1.9048       0.2000       0.2000       0.2000       7.3278      30.7557       2.3796
   1302.9435      13.8464       0.0093      59.1410       1.9223       0.2000       0.2000       0.2000       7.4598      30.5687       2.3996
   1303.0958      13.9589       0.0035      59.3109       1.9723       0.2000       0.2000       0.2000       7.7645      30.2490       2.4112
   1303.2483      13.9794       0.0020      54.3536       2.0871       0.2000       0.2000       0.2000       8.2432      29.6639       2.4056
