#------------------------------------------------------------------------------
#
#   Created by  : [OpenWorks] Log Export Utility (LEXP)
#   Created on  : 2016-05-23 11:56:01
#   Project     : CANT971
#   User        : R5K
#   Interpreter : PEP
#
#------------------------------------------------------------------------------
~VERSION INFORMATION
VERS. 2.0 : CWLS Log ASCII Standard - version 2.0
WRAP.  NO : One line per depth step
~WELL INFORMATION
#MNEMONIC   .UNIT                                           VALUE :DESCRIPTION
#------------------------------------------------------------------------------
STRT        .M                                          1572.0055 :START DEPTH
STOP        .M                                          3732.1230 :STOP DEPTH
STEP        .M                                             0.1524 :STEP
NULL        .                                           -999.2500 :NULL VALUE
COMP        .                                             UNKNOWN :COMPANY
WELL        .                                               428-V :WELL
FLD         .                                             UNKNOWN :FIELD
LOC         .                                             UNKNOWN :LOCATION
CNTY        .                                             UNKNOWN :COUNTY
STAT        .                                             UNKNOWN :STATE
CTRY        .                                             UNKNOWN :COUNTRY
SRVC        .                                             UNKNOWN :SERVICE COMPANY
DATE        .                                             UNKNOWN :LOG DATE
UWI         .                                               428-V :UNIQUE WELL ID
XCOORD      .                                            0.000000 :SURFACE X
YCOORD      .                                            0.000000 :SURFACE Y
LAT         .                                            0.000000 :LATITUDE
LON         .                                            0.000000 :LONGITUDE
ELEV        .M                                             0.0000 :SURFACE ELEV
ELEV_TYPE   .                                                  KB :ELEV TYPE
~CURVE INFORMATION
#MNEMONIC .UNIT        API CODE       : CURVE DESCRIPTION
#------------------------------------------------------------------------------
DEPTH     .M                          : Measured Depth
CALIH-LWD .inches      UNKNOWN        : CALIH-LWD:PETROWORKS:rC:NONE:v5 
CALIV-LWD .inches      UNKNOWN        : CALIV-LWD:PETROWORKS:rC:NONE:v5 
CGR       .API         UNKNOWN        : CGR:Espectrometria:rC:NONE:v0 (auto-composite)
DRHO-LWD  .g/cm3       UNKNOWN        : DRHO-LWD:PETROWORKS:rC:NONE:v5 
DT        .us/ft       UNKNOWN        : DT:sonico:rC:NONE:v0 (auto-composite)
GR        .API         UNKNOWN        : GR:Espectrometria:rC:NONE:v0 (auto-composite)
GR-LWD    .API         UNKNOWN        : GR-LWD:PETROWORKS:rC:NONE:v3 
ILD-LWD   .ohm.m       UNKNOWN        : ILD-LWD:PETROWORKS:rC:NONE:v2 
ILM-LWD   .ohm.m       UNKNOWN        : ILM-LWD:PETROWORKS:rC:NONE:v2 
LLD-LWD   .ohm.m       UNKNOWN        : LLD-LWD:registros-LWD:rC:NONE:v0 (auto-composite)
LLS-LWD   .ohm.m       UNKNOWN        : LLS-LWD:registros-LWD:rC:NONE:v0 (auto-composite)
MSFL-LWD  .ohm.m       UNKNOWN        : MSFL-LWD:registros-LWD:rC:NONE:v0 (auto-composite)
NPHI-LWD  .v/v_decimal UNKNOWN        : NPHI-LWD:PETROWORKS:rC:NONE:v5 
PEF-LWD   .b/elec      UNKNOWN        : PEF-LWD:PETROWORKS:rC:NONE:v5 
POTA      .wtpercent   UNKNOWN        : POTA:Espectrometria:rC:NONE:v0 (auto-composite)
RHOB-LWD  .g/cm3       UNKNOWN        : RHOB-LWD:PETROWORKS:rC:NONE:v5 
THOR      .UNKNOWN     UNKNOWN        : THOR:Espectrometria:rC:NONE:v0 (auto-composite)
URAN      .UNKNOWN     UNKNOWN        : URAN:Espectrometria:rC:NONE:v0 (auto-composite)
~A     DEPTH    CALIH-LWD    CALIV-LWD          CGR     DRHO-LWD           DT           GR       GR-LWD      ILD-LWD      ILM-LWD      LLD-LWD      LLS-LWD     MSFL-LWD     NPHI-LWD      PEF-LWD         POTA     RHOB-LWD         THOR         URAN
# ...
   2799.1304       9.3643       9.0052    -999.2500       0.0070    -999.2500    -999.2500      20.6252    -999.2500    -999.2500     171.9377      72.2637      56.8540       0.0539       2.5741    -999.2500       2.8068    -999.2500    -999.2500
   2799.2827       9.3168       9.2375    -999.2500       0.0166    -999.2500    -999.2500      22.4065    -999.2500    -999.2500     124.4902     115.3655      87.5313       0.0558       2.5838    -999.2500       2.7939    -999.2500    -999.2500
   2799.4351       9.3628       9.4530    -999.2500       0.0189    -999.2500    -999.2500      23.0885    -999.2500    -999.2500      83.8546     149.6913     104.3777       0.0556       2.5948    -999.2500       2.7904    -999.2500    -999.2500
   2799.5874       9.1361       9.5775    -999.2500       0.0016    -999.2500    -999.2500      23.1330    -999.2500    -999.2500     106.8342     174.8627     102.9279       0.0567       2.6780    -999.2500       2.7912    -999.2500    -999.2500
   2799.7400       9.1874       9.5950    -999.2500      -0.0027    -999.2500    -999.2500      22.4174    -999.2500    -999.2500     405.9905     432.7435      68.4691       0.0546       2.6641    -999.2500       2.7949    -999.2500    -999.2500
   2799.8923       9.2746       9.6015    -999.2500      -0.0054    -999.2500    -999.2500      22.2226    -999.2500    -999.2500     313.5504     328.0042     243.9004       0.0522       2.6382    -999.2500       2.7988    -999.2500    -999.2500
   2800.0447       9.1556       9.3262    -999.2500      -0.0030    -999.2500    -999.2500      21.4883    -999.2500    -999.2500     347.2171     484.1742     351.0627       0.0525       2.5930    -999.2500       2.8139    -999.2500    -999.2500
   2800.1970       9.1292       9.2035    -999.2500      -0.0016    -999.2500    -999.2500      20.2858    -999.2500    -999.2500     299.8529     290.1646     237.6717       0.0528       2.5836    -999.2500       2.8198    -999.2500    -999.2500
   2800.3496       8.8451       9.1185    -999.2500      -0.0045    -999.2500    -999.2500      20.4359    -999.2500    -999.2500     180.1605     184.5421     223.1694       0.0522       2.6142    -999.2500       2.8107    -999.2500    -999.2500
   2800.5020       9.0424       9.0254    -999.2500      -0.0050    -999.2500    -999.2500      20.7469    -999.2500    -999.2500     153.5368     183.1989     146.1183       0.0505       2.6069    -999.2500       2.8108    -999.2500    -999.2500
   2800.6543       9.2465       8.9342    -999.2500      -0.0053    -999.2500    -999.2500      22.3279    -999.2500    -999.2500     111.3458     156.9686      83.0232       0.0487       2.5990    -999.2500       2.8111    -999.2500    -999.2500
   2800.8066       8.9687       8.8047    -999.2500      -0.0046    -999.2500    -999.2500      23.1646    -999.2500    -999.2500     172.0108     253.3584     180.0919       0.0503       2.5817    -999.2500       2.8163    -999.2500    -999.2500
   2800.9590       8.8997       8.8226    -999.2500      -0.0030    -999.2500    -999.2500      24.7293    -999.2500    -999.2500      97.0094     129.6059      88.1270       0.0505       2.5902    -999.2500       2.8175    -999.2500    -999.2500
   2801.1116       9.6203       9.1524    -999.2500       0.0110    -999.2500    -999.2500      25.0417    -999.2500    -999.2500      67.0525     107.0152      96.8805       0.0450       2.6177    -999.2500       2.8347    -999.2500    -999.2500
   2801.2639       9.5388       8.9876    -999.2500       0.0122    -999.2500    -999.2500      24.2625    -999.2500    -999.2500     123.1438     176.5845     127.0103       0.0474       2.6557    -999.2500       2.8291    -999.2500    -999.2500
   2801.4163       9.4799       8.8271    -999.2500       0.0117    -999.2500    -999.2500      23.4047    -999.2500    -999.2500     189.9288     160.3610     184.9979       0.0496       2.6933    -999.2500       2.8214    -999.2500    -999.2500
   2801.5686       9.6311       8.7363    -999.2500      -0.0036    -999.2500    -999.2500      23.3067    -999.2500    -999.2500     115.3612     164.4863     100.2779       0.0486       2.7247    -999.2500       2.7932    -999.2500    -999.2500
   2801.7212       9.4535       8.8976    -999.2500      -0.0006    -999.2500    -999.2500      23.7221    -999.2500    -999.2500     102.6773     113.9747     109.6064       0.0491       2.7443    -999.2500       2.7874    -999.2500    -999.2500
   2801.8735       8.7482       9.2076    -999.2500      -0.0004    -999.2500    -999.2500      24.5659    -999.2500    -999.2500     131.6910     137.2608      94.2965       0.0549       2.7691    -999.2500       2.7957    -999.2500    -999.2500
   2802.0259       8.8313       9.0151    -999.2500      -0.0019    -999.2500    -999.2500      25.6298    -999.2500    -999.2500     110.2074     126.2489     111.2711       0.0565       2.7546    -999.2500       2.7914    -999.2500    -999.2500
   2802.1782       8.8907       8.9138    -999.2500      -0.0015    -999.2500    -999.2500      25.8592    -999.2500    -999.2500     113.5650     137.0355      85.4643       0.0574       2.7233    -999.2500       2.7887    -999.2500    -999.2500
   2802.3308       8.8358       9.2140    -999.2500       0.0072    -999.2500    -999.2500      26.1512    -999.2500    -999.2500     119.2532     124.7052      33.4888       0.0552       2.6189    -999.2500       2.7930    -999.2500    -999.2500
   2802.4832       9.0086       9.2910    -999.2500       0.0092    -999.2500    -999.2500      26.6253    -999.2500    -999.2500      67.4246     118.8929     100.8378       0.0543       2.5971    -999.2500       2.7907    -999.2500    -999.2500
   2802.6355       9.8094       9.4800    -999.2500       0.0107    -999.2500    -999.2500      27.3694    -999.2500    -999.2500     121.0345      70.4625      70.0015       0.0502       2.6819    -999.2500       2.7810    -999.2500    -999.2500
   2802.7878       9.8050       9.5293    -999.2500       0.0118    -999.2500    -999.2500      27.5087    -999.2500    -999.2500     157.2924     163.7365     111.2022       0.0504       2.6991    -999.2500       2.7787    -999.2500    -999.2500
   2802.9402       9.7330       9.5042    -999.2500       0.0142    -999.2500    -999.2500      26.7167    -999.2500    -999.2500     120.1232     112.1928      78.4440       0.0517       2.6795    -999.2500       2.7742    -999.2500    -999.2500
   2803.0928       9.4791       9.2708    -999.2500       0.0185    -999.2500    -999.2500      26.2611    -999.2500    -999.2500     104.4896     118.4828      83.8209       0.0557       2.5706    -999.2500       2.7667    -999.2500    -999.2500
   2803.2451       9.4226       9.2606    -999.2500       0.0176    -999.2500    -999.2500      26.7748    -999.2500    -999.2500      75.6202     133.8322     130.0763       0.0575       2.5516    -999.2500       2.7716    -999.2500    -999.2500
   2803.3975       9.6008       9.5560    -999.2500       0.0175    -999.2500    -999.2500      27.8597    -999.2500    -999.2500     107.1199      62.3518      55.3632       0.0564       2.5843    -999.2500       2.7805    -999.2500    -999.2500
   2803.5498       9.5882       9.5676    -999.2500       0.0168    -999.2500    -999.2500      28.2582    -999.2500    -999.2500     152.5549     119.6729       9.1319       0.0566       2.6026    -999.2500       2.7818    -999.2500    -999.2500
   2803.7024       9.5130       9.5460    -999.2500       0.0111    -999.2500    -999.2500      27.3551    -999.2500    -999.2500     143.3703     149.5811      88.3571       0.0574       2.6214    -999.2500       2.7723    -999.2500    -999.2500
   2803.8547       9.3883       9.4802    -999.2500      -0.0015    -999.2500    -999.2500      25.8310    -999.2500    -999.2500     155.2780     153.8339     109.6284       0.0584       2.6344    -999.2500       2.7393    -999.2500    -999.2500
   2804.0071       9.4283       9.4332    -999.2500       0.0279    -999.2500    -999.2500      24.5424    -999.2500    -999.2500     131.2696     130.0255      67.8878       0.0583       2.6448    -999.2500       2.6977    -999.2500    -999.2500
