#------------------------------------------------------------------------------
#
#   Created by  : [OpenWorks] Log Export Utility (LEXP)
#   Created on  : 2016-05-23 11:51:58
#   Project     : CANT971
#   User        : R5K
#   Interpreter : PEP
#
#------------------------------------------------------------------------------
~VERSION INFORMATION
VERS. 2.0 : CWLS Log ASCII Standard - version 2.0
WRAP.  NO : One line per depth step
~WELL INFORMATION
#MNEMONIC   .UNIT                                           VALUE :DESCRIPTION
#------------------------------------------------------------------------------
STRT        .M                                           695.7060 :START DEPTH
STOP        .M                                          3054.7056 :STOP DEPTH
STEP        .M                                             0.1524 :STEP
NULL        .                                           -999.2500 :NULL VALUE
COMP        .                                   PEMEX EXPL & PROD :COMPANY
WELL        .                                                 17D :WELL
FLD         .                                           CANTARELL :FIELD
LOC         .                                             UNKNOWN :LOCATION
CNTY        .                                      CD. DEL CARMEN :COUNTY
STAT        .                                            CAMPECHE :STATE
CTRY        .                                              MEXICO :COUNTRY
SRVC        .                                             UNKNOWN :SERVICE COMPANY
DATE        .                                             UNKNOWN :LOG DATE
UWI         .                                          3060000460 :UNIQUE WELL ID
XCOORD      .                                       603362.626000 :SURFACE X
YCOORD      .                                      2145093.910000 :SURFACE Y
LAT         .                                           19.398550 :LATITUDE
LON         .                                          -92.015617 :LONGITUDE
ELEV        .M                                            27.1400 :SURFACE ELEV
ELEV_TYPE   .                                                  KB :ELEV TYPE
~CURVE INFORMATION
#MNEMONIC.UNIT        API CODE       : CURVE DESCRIPTION
#------------------------------------------------------------------------------
DEPTH    .M                          : Measured Depth
CALI     .in          UNKNOWN        : CALI:UNKNOWN:rC:NONE:v0 (auto-composite)
DT       .us/ft       UNKNOWN        : DT:DT:rC:NONE:v0 (auto-composite)
GR       .API         UNKNOWN        : GR:UNKNOWN:rC:NONE:v0 (auto-composite)
ILD      .ohmm        UNKNOWN        : ILD:UNKNOWN:rC:NONE:v0 (auto-composite)
LLD      .ohmm        UNKNOWN        : LLD:UNKNOWN:rC:NONE:v0 (auto-composite)
LLS      .ohmm        UNKNOWN        : LLS:UNKNOWN:rC:NONE:v0 (auto-composite)
MSFL     .ohmm        UNKNOWN        : MSFL:UNKNOWN:rC:NONE:v0 (auto-composite)
NPHI     .v/v_decimal UNKNOWN        : NPHI:UNKNOWN:rC:NONE:v0 (auto-composite)
PEF      .b/elec      UNKNOWN        : PEF:UNKNOWN:rC:NONE:v0 (auto-composite)
RHOB     .g/cm3       UNKNOWN        : RHOB:UNKNOWN:rC:NONE:v0 (auto-composite)
~A     DEPTH         CALI           DT           GR          ILD          LLD          LLS         MSFL         NPHI          PEF         RHOB
# ...
   2487.9299       6.2765      67.6820      23.3628    -999.2500     177.4150     212.6940     226.8829       0.0325       3.1781       2.8340
   2488.0823       6.2780      65.9656      22.5780    -999.2500     219.1340     262.1180     231.1390       0.0312       3.0950       2.8330
   2488.2349       6.2805      66.0488      21.9782    -999.2500     217.3251     258.5909     264.1824       0.0327       3.1265       2.8260
   2488.3872       6.2830      66.4154      21.3730    -999.2500     215.5000     255.0550     297.3090       0.0343       3.1580       2.8190
   2488.5396       6.2850      63.8784      22.6937    -999.2500     183.5776     216.2374     333.3868       0.0385       3.2310       2.8090
   2488.6919       6.2870      61.0202      24.0200    -999.2500     151.5190     177.3170     369.5600       0.0428       3.3040       2.7990
   2488.8445       6.2865      57.9883      25.7730    -999.2500     120.9813     142.2231     423.8478       0.0459       3.3620       2.7915
   2488.9968       6.2860      54.8700      27.5280    -999.2500      90.4080     107.0320     478.2860       0.0490       3.4200       2.7840
   2489.1492       6.2840      50.3907      25.5978    -999.2500     112.5018     135.5152     774.1443       0.0442       3.3875       2.7860
   2489.3015       6.2820      47.0922      23.6590    -999.2500     134.6950     164.0810    1070.8600       0.0394       3.3550       2.7880
   2489.4541       6.2805      47.4780      25.7051    -999.2500     128.1629     158.0701    1027.6818       0.0413       3.3790       2.7830
   2489.6064       6.2790      49.8538      27.7640    -999.2500     121.5900     152.0410     984.3730       0.0433       3.4030       2.7780
   2489.7588       6.2765      58.2427      37.6083    -999.2500      97.9667     123.7570     719.3903       0.0583       3.4724       2.7382
   2489.9111       6.2740      65.5363      47.5470    -999.2500      74.1170      95.3840     453.5730       0.0734       3.5420       2.6980
   2490.0635       6.2620      65.3768      67.1806    -999.2500      49.4513      63.7902     245.3049       0.0965       3.5350       2.6536
   2490.2161       6.2500      63.7119      86.9420    -999.2500      24.6250      32.0930      36.3550       0.1199       3.5280       2.6090
   2490.3684       6.2295      63.9134      86.5214    -999.2500      29.6850      38.0594      52.8589       0.1089       3.4701       2.6520
   2490.5208       6.2090      63.8313      86.1000    -999.2500      34.7540      44.0460      69.4190       0.0978       3.4120       2.6950
   2490.6731       6.1940      58.7687      73.9594    -999.2500      55.4984      69.5461     127.2980       0.0763       3.4220       2.7544
   2490.8257       6.1790      53.4726      61.7760    -999.2500      76.3160      95.1360     185.3810       0.0545       3.4320       2.8140
   2490.9780       6.1745      49.7634      48.3526    -999.2500     102.1229     128.0129     184.2116       0.0428       3.4790       2.8369
   2491.1304       6.1700      46.6909      34.8370    -999.2500     128.1070     161.0100     183.0380       0.0309       3.5260       2.8600
   2491.2827       6.1735      47.0082      29.4888    -999.2500     142.3755     180.5652     189.4355       0.0285       3.5495       2.8585
   2491.4353       6.1770      47.2869      24.0860    -999.2500     156.7900     200.1630     195.8470       0.0260       3.5730       2.8570
   2491.5876       6.1930      47.0442      23.0504    -999.2500     177.2494     225.7126     236.4229       0.0246       3.5156       2.8605
   2491.7400       6.2090      46.7585      22.0090    -999.2500     197.8220     251.3210     277.0920       0.0231       3.4580       2.8640
   2491.8923       6.2325      48.5162      21.3403    -999.2500     229.5245     285.2574     376.5015       0.0233       3.3322       2.8705
   2492.0447       6.2560      50.3438      20.6710    -999.2500     261.2530     319.2760     476.1520       0.0235       3.2060       2.8770
   2492.1973       6.2680      51.9378      19.9675    -999.2500     311.2831     368.1867     450.5831       0.0243       3.2180       2.8810
   2492.3496       6.2800      53.4713      19.2610    -999.2500     361.5210     417.2220     424.9490       0.0250       3.2300       2.8850
   2492.5020       6.2825      55.0425      18.2204    -999.2500     431.5916     512.3032     385.4349       0.0257       3.3160       2.8820
   2492.6543       6.2850      56.5538      17.1720    -999.2500     502.1880     607.6390     345.8150       0.0264       3.4020       2.8790
   2492.8069       6.2905      57.5046      16.1423    -999.2500     532.6815     607.0593     474.1473       0.0271       3.5179       2.8710
   2492.9592       6.2960      59.5458      15.1030    -999.2500     563.4570     606.4780     602.8390       0.0278       3.6340       2.8630
   2493.1116       6.3050      65.9562      15.6278    -999.2500     504.6786     542.5142     973.3359       0.0292       3.6270       2.8525
   2493.2639       6.3140      72.6942      16.1550    -999.2500     445.6330     478.3630    1344.9180       0.0306       3.6200       2.8420
   2493.4165       6.3215      70.0666      17.5510    -999.2500     372.3850     400.9521    1209.8112       0.0327       3.6060       2.8335
   2493.5688       6.3290      67.4811      18.9490    -999.2500     299.0310     323.3050    1074.2920       0.0348       3.5920       2.8250
   2493.7212       6.3305      67.6892      20.0583    -999.2500     272.5848     296.4946     768.9606       0.0365       3.6075       2.8275
   2493.8735       6.3320      68.8590      21.1730    -999.2500     246.0120     269.5990     462.6580       0.0382       3.6230       2.8300
   2494.0259       6.3320      70.6462      21.6225    -999.2500     253.6511     278.4614     376.0780       0.0397       3.6400       2.8310
   2494.1785       6.3320      71.8804      22.0750    -999.2500     261.3400     287.3530     289.2120       0.0412       3.6570       2.8320
   2494.3308       6.3320      71.4387      23.1695    -999.2500     247.9095     273.5941     317.0123       0.0426       3.6845       2.8310
   2494.4832       6.3320      70.1233      24.2730    -999.2500     234.3680     259.7880     344.9080       0.0440       3.7120       2.8300
   2494.6355       6.3320      66.0982      26.4414    -999.2500     203.7353     227.7904     337.4682       0.0448       3.7490       2.8350
   2494.7881       6.3320      62.8969      28.6210    -999.2500     172.9440     195.6790     330.0020       0.0456       3.7860       2.8400
   2494.9404       6.3320      64.0041      31.1763    -999.2500     153.2739     175.0660     309.5976       0.0453       3.7765       2.8450
   2495.0928       6.3320      66.1330      33.7370    -999.2500     133.5630     154.3770     289.1180       0.0450       3.7670       2.8500
   2495.2451       6.3320      67.7032      33.6581    -999.2500     134.2023     155.8629     253.1217       0.0428       3.7545       2.8460
   2495.3977       6.3320      68.8846      33.5790    -999.2500     134.8440     157.3520     217.0460       0.0405       3.7420       2.8420
   2495.5500       6.3320      68.4365      32.1933    -999.2500     128.9698     151.2656     200.0348       0.0361       3.7145       2.8350
   2495.7024       6.3320      68.0390      30.8000    -999.2500     123.0630     145.1650     182.9840       0.0316       3.6870       2.8280
   2495.8547       6.3320      68.6573      28.9542    -999.2500     110.4700     131.2740     199.2156       0.0319       3.6191       2.8225
   2496.0071       6.3320      69.5248      27.0920    -999.2500      97.7650     117.3490     215.4870       0.0322       3.5510       2.8170
   2496.1597       6.3320      68.8970      27.6608    -999.2500      91.2709     109.7413     197.8837       0.0355       3.4560       2.8215
   2496.3120       6.3320      67.8116      28.2330    -999.2500      84.7390     102.1140     180.2350       0.0388       3.3610       2.8260
