#------------------------------------------------------------------------------
#
#   Created by  : [OpenWorks] Log Export Utility (LEXP)
#   Created on  : 2016-05-23 11:57:25
#   Project     : CANT971
#   User        : R5K
#   Interpreter : PEP
#
#------------------------------------------------------------------------------
~VERSION INFORMATION
VERS. 2.0 : CWLS Log ASCII Standard - version 2.0
WRAP.  NO : One line per depth step
~WELL INFORMATION
#MNEMONIC   .UNIT                                           VALUE :DESCRIPTION
#------------------------------------------------------------------------------
STRT        .M                                           497.5860 :START DEPTH
STOP        .M                                          2904.1343 :STOP DEPTH
STEP        .M                                             0.1524 :STEP
NULL        .                                           -999.2500 :NULL VALUE
COMP        .                                   PEMEX EXPL & PROD :COMPANY
WELL        .                                                 82A :WELL
FLD         .                                           CANTARELL :FIELD
LOC         .                                             UNKNOWN :LOCATION
CNTY        .                                      CD. DEL CARMEN :COUNTY
STAT        .                                            CAMPECHE :STATE
CTRY        .                                              MEXICO :COUNTRY
SRVC        .                                             UNKNOWN :SERVICE COMPANY
DATE        .                                             UNKNOWN :LOG DATE
UWI         .                                          3060000184 :UNIQUE WELL ID
XCOORD      .                                       601716.340000 :SURFACE X
YCOORD      .                                      2142348.150000 :SURFACE Y
LAT         .                                           19.373822 :LATITUDE
LON         .                                          -92.031440 :LONGITUDE
ELEV        .M                                            24.0000 :SURFACE ELEV
ELEV_TYPE   .                                                  KB :ELEV TYPE
~CURVE INFORMATION
#MNEMONIC.UNIT        API CODE       : CURVE DESCRIPTION
#------------------------------------------------------------------------------
DEPTH    .M                          : Measured Depth
CAL      .inches      UNKNOWN        : CAL:UNKNOWN:rC:NONE:v0 (auto-composite)
DRHO     .g/cm3       UNKNOWN        : DRHO:UNKNOWN:rC:NONE:v0 (auto-composite)
DT       .us/ft       UNKNOWN        : DT:DT:rC:NONE:v0 (auto-composite)
GR       .api         UNKNOWN        : GR:GR-Load:rC:NONE:v0 (auto-composite)
ILD      .ohm.m       UNKNOWN        : ILD:PETROWORKS:rC:NONE:v1 
LLD      .ohmm        UNKNOWN        : LLD:UNKNOWN:rC:NONE:v0 (auto-composite)
LLS      .ohmm        UNKNOWN        : LLS:UNKNOWN:rC:NONE:v0 (auto-composite)
MSFL     .ohmm        UNKNOWN        : MSFL:PETROWORKS:rC:NONE:v1 
NPHI     .v/v_decimal UNKNOWN        : NPHI:NPHI:rC:NONE:v0 (auto-composite)
PEF      .b/elec      UNKNOWN        : PEF:UNKNOWN:rC:NONE:v0 (auto-composite)
RG       .API         UNKNOWN        : RG:UNKNOWN:rC:NONE:v0 (auto-composite)
RHOB     .g/cm3       UNKNOWN        : RHOB:UNKNOWN:rC:NONE:v0 (auto-composite)
~A     DEPTH          CAL         DRHO           DT           GR          ILD          LLD          LLS         MSFL         NPHI          PEF           RG         RHOB
# ...
   2684.8308       5.7891       0.0178      54.2550      17.7412    -999.2500     704.2506     675.8629    -999.2500       4.2932       3.6116      17.8749       2.8099
   2684.9832       5.7917       0.0223      54.0515      18.4789    -999.2500     562.2748     554.7717    -999.2500       4.2687       3.5774      21.1681       2.8026
   2685.1355       5.7952       0.0278      53.7389      19.1742    -999.2500     366.4944     384.7166    -999.2500       4.2443       3.5289      24.9935       2.7931
   2685.2881       5.8041       0.0383      53.9759      19.6319    -999.2500     334.9633     352.6815    -999.2500       4.2197       3.4576      25.1483       2.7925
   2685.4404       5.8146       0.0503      54.3625      19.7323    -999.2500     351.1773     360.7670    -999.2500       4.2440       3.3796      24.2362       2.7945
   2685.5928       5.8166       0.0437      53.9810      17.8396    -999.2500     580.5297     557.7175    -999.2500       4.5371       3.3342      21.4062       2.7977
   2685.7451       5.8161       0.0317      53.3913      16.2515    -999.2500     872.1457     809.8407    -999.2500       4.7935       3.2982      18.0159       2.8012
   2685.8977       5.8114       0.0224      52.7764      16.3530    -999.2500    1008.1029     937.5349    -999.2500       4.8485       3.3197      18.2943       2.8039
   2686.0500       5.8054       0.0139      52.1547      16.3197    -999.2500    1097.9452    1028.3662    -999.2500       4.8694       3.3582      19.6598       2.8064
   2686.2024       5.7944       0.0128      52.3467      15.5345    -999.2500    1058.6351     994.5428    -999.2500       4.7043       3.4691      19.5505       2.8055
   2686.3547       5.7819       0.0138      52.7573      14.9567    -999.2500     980.8752     923.6085    -999.2500       4.5469       3.6015      19.0023       2.8035
   2686.5071       5.7782       0.0113      52.8993      15.5314    -999.2500     864.0626     822.1923    -999.2500       4.4309       3.6174      17.8304       2.7980
   2686.6597       5.7772       0.0078      52.9693      16.7186    -999.2500     735.5665     711.6570    -999.2500       4.4649       3.5984      16.4720       2.7915
   2686.8120       5.7774       0.0062      53.2956      21.2876    -999.2500     682.5802     674.2457    -999.2500       5.3077       3.5291      16.2041       2.7938
   2686.9644       5.7779       0.0052      53.6903      25.1904    -999.2500     652.2940     658.8172    -999.2500       6.0333       3.4447      16.2640       2.7988
   2687.1167       5.7765       0.0061      53.3069      25.3900    -999.2500     680.3514     693.5051    -999.2500       6.1309       3.5265      15.6046       2.8038
   2687.2693       5.7745       0.0076      52.7172      25.3602    -999.2500     726.1926     743.4690    -999.2500       6.1001       3.6589      14.7260       2.8088
   2687.4216       5.7732       0.0076      52.6743      24.0627    -999.2500     584.2502     610.0320    -999.2500       5.3859       3.7558      15.9666       2.8035
   2687.5740       5.7722       0.0071      52.7759      22.7405    -999.2500     384.7929     420.4224    -999.2500       4.7569       3.8418      17.8563       2.7950
   2687.7263       5.7728       0.0104      52.6607      21.2821    -999.2500     257.7312     289.7001    -999.2500       4.5798       3.7791      21.2322       2.7762
   2687.8789       5.7738       0.0149      52.4887      19.9908    -999.2500     152.9499     177.1009    -999.2500       4.4213       3.6708      25.0655       2.7542
   2688.0312       5.7748       0.0190      52.6140      19.6237    -999.2500     131.0561     152.6213    -999.2500       4.3602       3.5966      25.5191       2.7559
   2688.1836       5.7758       0.0230      52.8170      19.3638    -999.2500     135.0224     155.6340    -999.2500       4.3237       3.5331      24.9184       2.7649
   2688.3359       5.7787       0.0175      53.1352      19.6939    -999.2500     177.6023     197.3284    -999.2500       4.4152       3.4624      23.8237       2.7822
   2688.4883       5.7822       0.0090      53.4833      20.2385    -999.2500     232.2867     251.1486    -999.2500       4.5215       3.3895      22.5743       2.8022
   2688.6409       5.7845       0.0078      53.3469      21.9563    -999.2500     261.4184     278.5056    -999.2500       4.7045       3.3028      21.2788       2.8135
   2688.7932       5.7865       0.0088      53.0848      23.3130    -999.2500     282.5018     297.5273    -999.2500       4.8768       3.2119      19.9689       2.8220
   2688.9456       5.7859       0.0200      53.1769      22.6817    -999.2500     305.6215     318.9525    -999.2500       4.9928       3.2048      19.5061       2.8331
   2689.0979       5.7844       0.0345      53.3605      22.4000    -999.2500     329.3857     341.1381    -999.2500       5.0930       3.2243      19.3113       2.8451
   2689.2505       5.7829       0.0335      53.5942      24.0316    -999.2500     318.9407     333.2821    -999.2500       5.1115       3.3187      19.9588       2.8435
   2689.4028       5.7814       0.0275      53.8408      25.3043    -999.2500     297.5229     315.7901    -999.2500       5.0971       3.4371      20.8764       2.8375
   2689.5552       5.7799       0.0177      53.6667      24.6231    -999.2500     271.1586     289.0173    -999.2500       4.9141       3.3783      21.8064       2.8258
   2689.7075       5.7784       0.0067      53.3851      23.9355    -999.2500     243.2002     259.2537    -999.2500       4.7430       3.2624      22.7405       2.8123
   2689.8601       5.7780       0.0066      53.1661      23.2127    -999.2500     211.5043     227.3464    -999.2500       4.6329       3.2019      22.9705       2.8075
   2690.0125       5.7780       0.0101      52.9631      22.5723    -999.2500     178.5984     194.7451    -999.2500       4.5209       3.1595      22.9725       2.8055
   2690.1648       5.7791       0.0087      52.9783      22.3807    -999.2500     170.2647     186.1453    -999.2500       4.3989       3.2224      23.8460       2.8027
   2690.3171       5.7806       0.0057      53.0488      22.1715    -999.2500     169.9933     185.4207    -999.2500       4.2778       3.3198      25.0055       2.7997
   2690.4695       5.7825       0.0061      53.2188      21.8666    -999.2500     198.0821     212.3473    -999.2500       4.1618       3.3714      24.6890       2.8046
   2690.6221       5.7845       0.0076      53.4138      21.7922    -999.2500     235.5195     248.3887    -999.2500       4.1360       3.4079      23.8858       2.8121
   2690.7744       5.7854       0.0084      53.0812      22.9746    -999.2500     258.6124     269.3273    -999.2500       4.5631       3.4117      23.1690       2.8151
   2690.9268       5.7859       0.0089      52.6160      24.1357    -999.2500     276.9550     285.2645    -999.2500       4.9577       3.4047      22.4808       2.8166
   2691.0791       5.7853       0.0083      52.5390      25.1811    -999.2500     286.9116     292.0500    -999.2500       5.1896       3.3502      22.2768       2.8099
   2691.2317       5.7843       0.0073      52.5590      25.7475    -999.2500     294.0782     295.7909    -999.2500       5.3445       3.2798      22.2338       2.8004
   2691.3840       5.7862       0.0081      52.5221      23.7304    -999.2500     312.0441     309.5287    -999.2500       5.1124       3.3222      22.0361       2.8044
   2691.5364       5.7892       0.0096      52.4711      21.9304    -999.2500     333.6503     326.6363    -999.2500       4.9201       3.4026      21.7862       2.8129
   2691.6887       5.7922       0.0093      52.1479      21.3091    -999.2500     300.2517     294.2495    -999.2500       4.9266       3.4835      22.9909       2.8124
   2691.8413       5.7952       0.0083      51.7573      20.5588    -999.2500     248.2267     245.1022    -999.2500       4.9350       3.5644      24.6882       2.8089
   2691.9937       5.7964       0.0110      52.0026      19.1113    -999.2500     211.8826     209.2814    -999.2500       4.9530       3.5034      25.0687       2.8058
