#------------------------------------------------------------------------------
#
#   Created by  : [OpenWorks] Log Export Utility (LEXP)
#   Created on  : 2016-05-23 11:57:24
#   Project     : CANT971
#   User        : R5K
#   Interpreter : PEP
#
#------------------------------------------------------------------------------
~VERSION INFORMATION
VERS. 2.0 : CWLS Log ASCII Standard - version 2.0
WRAP.  NO : One line per depth step
~WELL INFORMATION
#MNEMONIC   .UNIT                                           VALUE :DESCRIPTION
#------------------------------------------------------------------------------
STRT        .M                                           648.1292 :START DEPTH
STOP        .M                                          2685.5647 :STOP DEPTH
STEP        .M                                             0.1524 :STEP
NULL        .                                           -999.2500 :NULL VALUE
COMP        .                                   PEMEX EXPL & PROD :COMPANY
WELL        .                                                 81D :WELL
FLD         .                                           CANTARELL :FIELD
LOC         .                                             UNKNOWN :LOCATION
CNTY        .                                      CD. DEL CARMEN :COUNTY
STAT        .                                            CAMPECHE :STATE
CTRY        .                                              MEXICO :COUNTRY
SRVC        .                                             UNKNOWN :SERVICE COMPANY
DATE        .                                             UNKNOWN :LOG DATE
UWI         .                                          3060000666 :UNIQUE WELL ID
XCOORD      .                                       601717.100000 :SURFACE X
YCOORD      .                                      2142375.260000 :SURFACE Y
LAT         .                                           19.374067 :LATITUDE
LON         .                                          -92.031430 :LONGITUDE
ELEV        .M                                            30.0000 :SURFACE ELEV
ELEV_TYPEF  .b/elec                                            KB :ELEV TYPE
~CURVE INFORMATION
#MNEMONIC.UNIT        API CODE       : CURVE DESCRIPTION
#------------------------------------------------------------------------------
DEPTH    .M                          : Measured Depth
CALI     .in          UNKNOWN        : CALI:UNKNOWN:rC:NONE:v0 (auto-composite)
CGR      .API         UNKNOWN        : CGR:UNKNOWN:rC:NONE:v0 (auto-composite)
DRHO     .g/cm3       UNKNOWN        : DRHO:UNKNOWN:rC:NONE:v0 (auto-composite)
DT       .us/ft       UNKNOWN        : DT:DT:rC:NONE:v0 (auto-composite)
GR       .API         UNKNOWN        : GR:UNKNOWN:rC:NONE:v0 (auto-composite)
ILD      .ohmm        UNKNOWN        : ILD:UNKNOWN:rC:NONE:v0 (auto-composite)
ILM      .ohmm        UNKNOWN        : ILM:UNKNOWN:rC:NONE:v0 (auto-composite)
LLD      .ohmm        UNKNOWN        : LLD:UNKNOWN:rC:NONE:v0 (auto-composite)
LLS      .ohmm        UNKNOWN        : LLS:UNKNOWN:rC:NONE:v0 (auto-composite)
NPHI     .v/v_decimal UNKNOWN        : NPHI:NPHI:rC:NONE:v0 (auto-composite)
PEF      .b/elec      UNKNOWN        : PEF:UNKNOWN:rC:NONE:v0 (auto-composite)
POTA     .%           UNKNOWN        : POTA:UNKNOWN:rC:NONE:v0 (auto-composite)
RHOB     .g/cm3       UNKNOWN        : RHOB:UNKNOWN:rC:NONE:v0 (auto-composite)
THOR     .ppm         UNKNOWN        : THOR:UNKNOWN:rC:NONE:v0 (auto-composite)
URAN     .ppm         UNKNOWN        : URAN:UNKNOWN:rC:NONE:v0 (auto-composite)
~A     DEPTH         CALI          CGR         DRHO           DT           GR          ILD          ILM          LLD          LLS         NPHI          PEF         POTA         RHOB         THOR         URAN
# ...
   2169.6909      12.8464       6.5192    -999.2500    -999.2500       9.5869    -999.2500    -999.2500     560.5378      62.7735       7.4614    -999.2500       0.0893    -999.2500       1.6338       0.3447
   2169.8433      12.7511       6.7122    -999.2500    -999.2500       9.4785    -999.2500    -999.2500     536.8640      61.1078       7.7671    -999.2500       0.0983    -999.2500       1.6508       0.3172
   2169.9956      12.6467       6.5179    -999.2500    -999.2500       9.2267    -999.2500    -999.2500     519.4643      59.7785       7.8866    -999.2500       0.0858    -999.2500       1.6516       0.3092
   2170.1479      12.5403       6.2323    -999.2500    -999.2500       8.9413    -999.2500    -999.2500     503.5149      58.5271       7.9250    -999.2500       0.0683    -999.2500       1.6486       0.3057
   2170.3003      12.4621       5.9726    -999.2500    -999.2500       8.9647    -999.2500    -999.2500     511.9864      60.0568       7.7298    -999.2500       0.0561    -999.2500       1.6294       0.3346
   2170.4529      12.3907       5.7191    -999.2500    -999.2500       9.0607    -999.2500    -999.2500     526.0758      62.2264       7.4432    -999.2500       0.0451    -999.2500       1.6064       0.3711
   2170.6052      12.3640       5.3992    -999.2500    -999.2500       9.2356    -999.2500    -999.2500     539.4615      64.0496       7.2574    -999.2500       0.0321    -999.2500       1.5578       0.4254
   2170.7576      12.3480       5.0638    -999.2500    -999.2500       9.4291    -999.2500    -999.2500     552.6844      65.7928       7.1217    -999.2500       0.0186    -999.2500       1.5034       0.4839
   2170.9099      12.3287       4.9008    -999.2500    -999.2500       9.7973    -999.2500    -999.2500     543.6235      65.1676       7.1903    -999.2500       0.0290    -999.2500       1.4655       0.5217
   2171.0625      12.3088       4.7782    -999.2500    -999.2500      10.2053    -999.2500    -999.2500     529.4321      63.9971       7.2447    -999.2500       0.0450    -999.2500       1.4314       0.5547
   2171.2148      12.3139       5.0750    -999.2500    -999.2500      10.4488    -999.2500    -999.2500     512.2501      61.7443       6.9013    -999.2500       0.0541    -999.2500       1.4602       0.5675
   2171.3672      12.3249       5.4698    -999.2500    -999.2500      10.6542    -999.2500    -999.2500     494.3755      59.2408       6.3560    -999.2500       0.0616    -999.2500       1.5037       0.5755
   2171.5195      12.3181       5.3774    -999.2500    -999.2500      10.8256    -999.2500    -999.2500     509.2317      61.4926       5.8602    -999.2500       0.0444    -999.2500       1.5331       0.6074
   2171.6721      12.3071       5.1703    -999.2500    -999.2500      10.9890    -999.2500    -999.2500     531.6300      64.8402       5.4534    -999.2500       0.0214    -999.2500       1.5591       0.6449
   2171.8245      12.3030       5.0840    -999.2500    -999.2500      10.9172    -999.2500    -999.2500     544.7949      67.0525       5.4103    -999.2500       0.0190    -999.2500       1.5429       0.6443
   2171.9768      12.3005       5.0261    -999.2500    -999.2500      10.7904    -999.2500    -999.2500     555.8199      69.0017       5.5661    -999.2500       0.0215    -999.2500       1.5170       0.6348
   2172.1292      12.3392       5.1118    -999.2500    -999.2500      10.5343    -999.2500    -999.2500     536.2716      68.0796       5.7195    -999.2500       0.0435    -999.2500       1.4335       0.5901
   2172.2815      12.3876       5.2313    -999.2500    -999.2500      10.2474    -999.2500    -999.2500     509.6726      66.4953       5.9330    -999.2500       0.0700    -999.2500       1.3364       0.5371
   2172.4341      12.4087       5.2305    -999.2500    -999.2500      10.0998    -999.2500    -999.2500     486.8595      64.4081       6.4855    -999.2500       0.0766    -999.2500       1.2969       0.5250
   2172.5864      12.4233       5.2015    -999.2500    -999.2500       9.9854    -999.2500    -999.2500     464.9244      62.2043       7.2188    -999.2500       0.0786    -999.2500       1.2710       0.5225
   2172.7388      12.3988       4.9369    -999.2500    -999.2500       9.9396    -999.2500    -999.2500     435.3143      58.5895       8.1175    -999.2500       0.0640    -999.2500       1.2591       0.5503
   2172.8911      12.3653       4.6168    -999.2500    -999.2500       9.9096    -999.2500    -999.2500     403.9327      54.6490       9.0588    -999.2500       0.0455    -999.2500       1.2506       0.5853
   2173.0437      12.3254       4.7357    -999.2500    -999.2500      10.0471    -999.2500    -999.2500     365.1306      50.3336       9.8918    -999.2500       0.0485    -999.2500       1.2777       0.5831
   2173.1960      12.2839       4.9576    -999.2500    -999.2500      10.2234    -999.2500    -999.2500     324.6241      45.9320      10.5544    -999.2500       0.0565    -999.2500       1.3132       0.5721
   2173.3484      12.2930       4.8753    -999.2500    -999.2500      10.1510    -999.2500    -999.2500     293.5923      41.6896      10.3473    -999.2500       0.0535    -999.2500       1.2973       0.5817
   2173.5007      12.3140       4.7213    -999.2500    -999.2500      10.0201    -999.2500    -999.2500     264.7491      37.4841       9.7478    -999.2500       0.0480    -999.2500       1.2693       0.5962
   2173.6533      12.3071       4.3876    -999.2500    -999.2500      10.1000    -999.2500    -999.2500     256.2651      38.1174       9.6930    -999.2500       0.0349    -999.2500       1.2296       0.6399
   2173.8057      12.2935       4.0118    -999.2500    -999.2500      10.2298    -999.2500    -999.2500     252.4613      39.8632       9.7477    -999.2500       0.0199    -999.2500       1.1871       0.6904
   2173.9580      12.3601       3.9032    -999.2500    -999.2500      10.4187    -999.2500    -999.2500     275.2399      42.7379       9.6845    -999.2500       0.0182    -999.2500       1.1661       0.7210
   2174.1104      12.4451       3.8577    -999.2500    -999.2500      10.6211    -999.2500    -999.2500     304.1641      45.8735       9.5586    -999.2500       0.0197    -999.2500       1.1500       0.7471
   2174.2627      12.5337       4.4881    -999.2500    -999.2500      10.5417    -999.2500    -999.2500     306.0952      45.7498       8.9630    -999.2500       0.0455    -999.2500       1.2179       0.6694
   2174.4153      12.6231       5.2774    -999.2500    -999.2500      10.3973    -999.2500    -999.2500     301.8160      44.8762       8.3165    -999.2500       0.0770    -999.2500       1.3054       0.5673
   2174.5676      12.5711       5.4890    -999.2500    -999.2500      10.3408    -999.2500    -999.2500     294.0030      43.9882       7.9486    -999.2500       0.0891    -999.2500       1.2831       0.5379
   2174.7200      12.4862       5.5654    -999.2500    -999.2500      10.3049    -999.2500    -999.2500     285.3723      43.0968       7.7307    -999.2500       0.0966    -999.2500       1.2351       0.5254
   2174.8723      12.5659       5.2828    -999.2500    -999.2500      10.3854    -999.2500    -999.2500     288.5324      44.3425       7.7709    -999.2500       0.0883    -999.2500       1.2045       0.5639
   2175.0249      12.6843       4.9156    -999.2500    -999.2500      10.4934    -999.2500    -999.2500     294.4073      46.0803       7.9210    -999.2500       0.0763    -999.2500       1.1780       0.6144
   2175.1772      12.7694       4.7512    -999.2500    -999.2500      10.4820    -999.2500    -999.2500     305.7747      49.7008       8.3918    -999.2500       0.0699    -999.2500       1.1584       0.6362
   2175.3296      12.8467       4.6343    -999.2500    -999.2500      10.4424    -999.2500    -999.2500     318.4138      53.7573       8.9994    -999.2500       0.0650    -999.2500       1.1404       0.6511
   2175.4819      12.8216       4.9023    -999.2500    -999.2500      10.3264    -999.2500    -999.2500     303.4355      55.4894       9.5220    -999.2500       0.0855    -999.2500       1.1131       0.6082
