#------------------------------------------------------------------------------
#
#   Created by  : [OpenWorks] Log Export Utility (LEXP)
#   Created on  : 2016-05-23 11:56:05
#   Project     : CANT971
#   User        : R5K
#   Interpreter : PEP
#
#------------------------------------------------------------------------------
~VERSION INFORMATION
VERS. 2.0 : CWLS Log ASCII Standard - version 2.0
WRAP.  NO : One line per depth step
~WELL INFORMATION
#MNEMONIC   .UNIT                                           VALUE :DESCRIPTION
#------------------------------------------------------------------------------
STRT        .M                                          1100.3549 :START DEPTH
STOP        .M                                          2766.5439 :STOP DEPTH
STEP        .M                                             0.1524 :STEP
NULL        .                                           -999.2500 :NULL VALUE
COMP        .                                   PEMEX EXPL & PROD :COMPANY
WELL        .                                                  43 :WELL
FLD         .                                           CANTARELL :FIELD
LOC         .                                             UNKNOWN :LOCATION
CNTY        .                                      CD. DEL CARMEN :COUNTY
STAT        .                                            CAMPECHE :STATE
CTRY        .                                              MEXICO :COUNTRY
SRVC        .                                             UNKNOWN :SERVICE COMPANY
DATE        .                                             UNKNOWN :LOG DATE
UWI         .                                          3060000465 :UNIQUE WELL ID
XCOORD      .                                       601717.960000 :SURFACE X
YCOORD      .                                      2142346.560000 :SURFACE Y
LAT         .                                           19.373808 :LATITUDE
LON         .                                          -92.031425 :LONGITUDE
ELEV        .M                                            24.0000 :SURFACE ELEV
ELEV_TYPE   .                                                  KB :ELEV TYPE
~CURVE INFORMATION
#MNEMONIC.UNIT        API CODE       : CURVE DESCRIPTION
#------------------------------------------------------------------------------
DEPTH    .M                          : Measured Depth
CAL      .inches      UNKNOWN        : CAL:UNKNOWN:rC:NONE:v0 (auto-composite)
CALI     .in          UNKNOWN        : CALI:UNKNOWN:rC:NONE:v0 (auto-composite)
CNL      .v/v_decimal UNKNOWN        : CNL:UNKNOWN:rC:NONE:v0 (auto-composite)
DT       .us/ft       UNKNOWN        : DT:DT:rC:NONE:v0 (auto-composite)
GR       .API         UNKNOWN        : GR:UNKNOWN:rC:NONE:v0 (auto-composite)
ILD      .ohmm        UNKNOWN        : ILD:UNKNOWN:rC:NONE:v0 (auto-composite)
ILM      .ohmm        UNKNOWN        : ILM:UNKNOWN:rC:NONE:v0 (auto-composite)
LLD      .ohmm        UNKNOWN        : LLD:UNKNOWN:rC:NONE:v0 (auto-composite)
LLS      .ohmm        UNKNOWN        : LLS:UNKNOWN:rC:NONE:v0 (auto-composite)
NPHI     .v/v_decimal UNKNOWN        : NPHI:UNKNOWN:rC:NONE:v0 (auto-composite)
PEF      .b/elec      UNKNOWN        : PEF:UNKNOWN:rC:NONE:v0 (auto-composite)
RHOB     .g/cm3       UNKNOWN        : RHOB:UNKNOWN:rC:NONE:v0 (auto-composite)
~A     DEPTH          CAL         CALI          CNL           DT           GR          ILD          ILM          LLD          LLS         NPHI          PEF         RHOB
# ...
   2314.6780    -999.2500      11.0000    -999.2500      51.7592      19.6896    -999.2500    -999.2500     669.3900     149.2101       2.3946       4.4015       2.7904
   2314.8306    -999.2500      11.0000    -999.2500      54.6218      20.2758    -999.2500    -999.2500     550.8821     125.9523       3.2840       4.3146       2.7535
   2314.9829    -999.2500      11.0032    -999.2500      57.0657      20.7087    -999.2500    -999.2500     438.1527     103.8319       4.0046       4.2232       2.7232
   2315.1353    -999.2500      11.0212    -999.2500      57.0497      20.4229    -999.2500    -999.2500     352.5002      87.0414       3.9339       4.1109       2.7242
   2315.2876    -999.2500      11.0561    -999.2500      56.3665      20.1379    -999.2500    -999.2500     290.9858      73.8198       3.7582       4.0072       2.7276
   2315.4399    -999.2500      11.1671    -999.2500      51.7358      19.8560    -999.2500    -999.2500     338.3828      76.7016       3.1090       3.9422       2.7421
   2315.5925    -999.2500      11.2548    -999.2500      47.7780      19.5047    -999.2500    -999.2500     421.8333      82.6521       2.4078       3.8957       2.7595
   2315.7449    -999.2500      11.2368    -999.2500      47.7780      18.8385    -999.2500    -999.2500     668.9081     102.5301       1.4704       3.9326       2.7900
   2315.8972    -999.2500      11.2220    -999.2500      47.7776      18.0949    -999.2500    -999.2500     944.6671     124.1804       0.7000       3.9545       2.8144
   2316.0496    -999.2500      11.2220    -999.2500      47.7746      16.9939    -999.2500    -999.2500    1352.8048     154.0100       0.7000       3.9071       2.8109
   2316.2021    -999.2500      11.2220    -999.2500      47.7422      15.9424    -999.2500    -999.2500    1719.4084     181.8602       0.7000       3.8448       2.8072
   2316.3545    -999.2500      11.2220    -999.2500      47.5368      15.1207    -999.2500    -999.2500    1893.1924     200.5206       0.7000       3.7138       2.8027
   2316.5068    -999.2500      11.2186    -999.2500      46.9372      14.5127    -999.2500    -999.2500    2021.5034     220.8244       0.7000       3.5887       2.7983
   2316.6592    -999.2500      11.1991    -999.2500      44.0012      14.9020    -999.2500    -999.2500    1937.4528     248.8028       0.7000       3.4908       2.7943
   2316.8118    -999.2500      11.1736    -999.2500      41.4952      15.4786    -999.2500    -999.2500    1878.4504     271.4555       0.7000       3.4320       2.7925
   2316.9641    -999.2500      11.1200    -999.2500      41.5242      16.9350    -999.2500    -999.2500    1937.1251     269.0878       0.7000       3.5572       2.8010
   2317.1165    -999.2500      11.0956    -999.2500      41.7999      18.0335    -999.2500    -999.2500    1974.0076     264.9415       0.7140       3.6900       2.8133
   2317.2688    -999.2500      11.2045    -999.2500      43.5401      17.4957    -999.2500    -999.2500    1911.2386     252.6618       0.7920       3.8575       2.8428
   2317.4211    -999.2500      11.2876    -999.2500      45.4971      17.1421    -999.2500    -999.2500    1829.3604     240.1552       0.8689       3.9826       2.8666
   2317.5737    -999.2500      11.2516    -999.2500      48.7337      17.6354    -999.2500    -999.2500    1659.5833     226.6051       0.9408       3.9131       2.8641
   2317.7261    -999.2500      11.2239    -999.2500      51.5040      18.2583    -999.2500    -999.2500    1487.5421     214.0490       1.0000       3.8663       2.8604
   2317.8784    -999.2500      11.2344    -999.2500      51.5040      19.4813    -999.2500    -999.2500    1305.0259     206.0924       1.0000       3.9243       2.8514
   2318.0308    -999.2500      11.2498    -999.2500      51.4536      20.8444    -999.2500    -999.2500    1123.3397     198.3845       1.0000       3.9905       2.8421
   2318.1833    -999.2500      11.2883    -999.2500      51.1055      22.8600    -999.2500    -999.2500     945.5164     191.8335       1.0000       4.0954       2.8317
   2318.3357    -999.2500      11.3279    -999.2500      50.8089      24.5158    -999.2500    -999.2500     837.7150     185.1234       1.0167       4.1699       2.8215
   2318.4880    -999.2500      11.3730    -999.2500      50.8149      24.4687    -999.2500    -999.2500    1061.4261     177.6598       1.1125       4.1007       2.8130
   2318.6404    -999.2500      11.4150    -999.2500      50.8738      24.3026    -999.2500    -999.2500    1227.9124     171.5390       1.1768       4.0201       2.8049
   2318.7930    -999.2500      11.4430    -999.2500      51.2454      23.5944    -999.2500    -999.2500    1133.5831     171.5390       1.0978       3.8871       2.7989
   2318.9453    -999.2500      11.4730    -999.2500      51.6109      22.8726    -999.2500    -999.2500    1036.8192     171.1079       1.0043       3.7858       2.7942
   2319.0977    -999.2500      11.5120    -999.2500      51.9403      22.0884    -999.2500    -999.2500     928.8939     168.7004       0.8438       3.8293       2.7952
   2319.2500    -999.2500      11.5513    -999.2500      52.2220      21.3754    -999.2500    -999.2500     834.0704     164.7347       0.6753       3.9042       2.7968
   2319.4023    -999.2500      11.5922    -999.2500      52.2220      20.9904    -999.2500    -999.2500     799.6678     153.5830       0.4696       4.1239       2.8013
   2319.5549    -999.2500      11.6207    -999.2500      52.0726      20.5351    -999.2500    -999.2500     774.7026     145.3330       0.3070       4.3037       2.8059
   2319.7073    -999.2500      11.5907    -999.2500      51.0440      19.7504    -999.2500    -999.2500     794.0023     150.6932       0.3470       4.2962       2.8109
   2319.8596    -999.2500      11.5553    -999.2500      50.3127      18.8665    -999.2500    -999.2500     813.9822     150.0822       0.4171       4.2256       2.8163
   2320.0120    -999.2500      11.4941    -999.2500      51.3421      17.5143    -999.2500    -999.2500     837.1714     121.2969       0.6292       3.8576       2.8238
   2320.1646    -999.2500      11.4440    -999.2500      52.2217      16.5333    -999.2500    -999.2500     864.0284      98.1071       0.8374       3.5560       2.8308
   2320.3169    -999.2500      11.4440    -999.2500      52.2197      17.2390    -999.2500    -999.2500     907.5466     100.3356       1.0278       3.5560       2.8353
   2320.4692    -999.2500      11.4461    -999.2500      52.2007      17.9972    -999.2500    -999.2500     957.7025     103.7635       1.1697       3.5581       2.8386
   2320.6216    -999.2500      11.4575    -999.2500      52.0812      18.9949    -999.2500    -999.2500    1038.1888     112.6721       1.0898       3.5695       2.8361
   2320.7742    -999.2500      11.4720    -999.2500      51.9211      19.6785    -999.2500    -999.2500    1104.0115     122.4567       0.9953       3.5840       2.8329
   2320.9265    -999.2500      11.5005    -999.2500      51.5218      18.9018    -999.2500    -999.2500    1101.6929     136.3127       0.8334       3.6119       2.8269
   2321.0789    -999.2500      11.5268    -999.2500      51.0148      18.0237    -999.2500    -999.2500    1091.7074     149.4024       0.7000       3.6378       2.8212
   2321.2312    -999.2500      11.5428    -999.2500      49.8689      16.6713    -999.2500    -999.2500    1045.8817     158.9098       0.7000       3.6538       2.8167
   2321.3835    -999.2500      11.5658    -999.2500      48.8890      15.6730    -999.2500    -999.2500    1008.9939     167.4887       0.6924       3.6670       2.8141
   2321.5361    -999.2500      11.6214    -999.2500      48.8890      16.3404    -999.2500    -999.2500    1014.1371     171.7014       0.6493       3.6670       2.8201
   2321.6885    -999.2500      11.6648    -999.2500      48.8890      16.8005    -999.2500    -999.2500    1004.3212     174.7537       0.5856       3.6757       2.8262
   2321.8408    -999.2500      11.6528    -999.2500      48.8890      16.3226    -999.2500    -999.2500     926.7728     172.5519       0.4288       3.7236       2.8327
