#------------------------------------------------------------------------------
#
#   Created by  : [OpenWorks] Log Export Utility (LEXP)
#   Created on  : 2016-05-23 11:57:14
#   Project     : CANT971
#   User        : R5K
#   Interpreter : PEP
#
#------------------------------------------------------------------------------
~VERSION INFORMATION
VERS. 2.0 : CWLS Log ASCII Standard - version 2.0
WRAP.  NO : One line per depth step
~WELL INFORMATION
#MNEMONIC   .UNIT                                           VALUE :DESCRIPTION
#------------------------------------------------------------------------------
STRT        .M                                           551.2302 :START DEPTH
STOP        .M                                          2435.9609 :STOP DEPTH
STEP        .M                                             0.1524 :STEP
NULL        .                                           -999.2500 :NULL VALUE
COMP        .                                   PEMEX EXPL & PROD :COMPANY
WELL        .                                                  76 :WELL
FLD         .                                           CANTARELL :FIELD
LOC         .                                             UNKNOWN :LOCATION
CNTY        .                                      CD. DEL CARMEN :COUNTY
STAT        .                                            CAMPECHE :STATE
CTRY        .                                              MEXICO :COUNTRY
SRVC        .                                             UNKNOWN :SERVICE COMPANY
DATE        .                                             UNKNOWN :LOG DATE
UWI         .                                          3060000416 :UNIQUE WELL ID
XCOORD      .                                       599729.570000 :SURFACE X
YCOORD      .                                      2147218.620000 :SURFACE Y
LAT         .                                           19.417934 :LATITUDE
LON         .                                          -92.050101 :LONGITUDE
ELEV        .M                                            27.8000 :SURFACE ELEV
ELEV_TYPE   .                                                  KB :ELEV TYPE
~CURVE INFORMATION
#MNEMONIC.UNIT        API CODE       : CURVE DESCRIPTION
#------------------------------------------------------------------------------
DEPTH    .M                          : Measured Depth
CAL      .inches      UNKNOWN        : CAL:UNKNOWN:rC:NONE:v0 (auto-composite)
DRHO     .UNKNOWN     UNKNOWN        : DRHO:UNKNOWN:rC:NONE:v0 (auto-composite)
DT       .us/ft       UNKNOWN        : DT:DT:rC:NONE:v0 (auto-composite)
GR       .UNKNOWN     UNKNOWN        : GR:GR-Load:rC:NONE:v0 (auto-composite)
ILD      .UNKNOWN     UNKNOWN        : ILD:ILD-Load:rC:NONE:v0 (auto-composite)
LLD      .UNKNOWN     UNKNOWN        : LLD:UNKNOWN:rC:NONE:v0 (auto-composite)
LLS      .UNKNOWN     UNKNOWN        : LLS:UNKNOWN:rC:NONE:v0 (auto-composite)
NPHI     .v/v_decimal UNKNOWN        : NPHI:NPHI:rC:NONE:v0 (auto-composite)
RHOB     .UNKNOWN     UNKNOWN        : RHOB:UNKNOWN:rC:NONE:v0 (auto-composite)
~A     DEPTH          CAL         DRHO           DT           GR          ILD          LLD          LLS         NPHI         RHOB
# ...
   1751.2278       0.0000       0.2500    -999.2500      34.3735       0.2000       0.2000       0.2000    -999.2500       1.9500
   1751.3802       0.0000       0.2500    -999.2500      32.5940       0.2000       0.2000       0.2000    -999.2500       1.9500
   1751.5326       0.0000       0.2500    -999.2500      34.0634       0.2000       0.2000       0.2000    -999.2500       1.9500
   1751.6851       0.0000       0.2500    -999.2500      35.5310       0.2000       0.2000       0.2000    -999.2500       1.9500
   1751.8374       0.0000       0.2500    -999.2500      35.2634       0.2000       0.2000       0.2000    -999.2500       1.9500
   1751.9899       0.0000       0.2500    -999.2500      34.9960       0.2000       0.2000       0.2000    -999.2500       1.9500
   1752.1422       0.0000       0.2500    -999.2500      34.0991       0.2000       0.2000       0.2000    -999.2500       1.9500
   1752.2947       0.0000       0.2500    -999.2500      33.2030       0.2000       0.2000       0.2000    -999.2500       1.9500
   1752.4470       0.0000       0.2500    -999.2500      33.8558       0.2000       0.2000       0.2000    -999.2500       1.9500
   1752.5994       0.0000       0.2500    -999.2500      34.5080       0.2000       0.2000       0.2000    -999.2500       1.9500
   1752.7518       0.0000       0.2500    -999.2500      36.1471       0.2000       0.2000       0.2000    -999.2500       1.9500
   1752.9042       0.0000       0.2500    -999.2500      37.7850       0.2000       0.2000       0.2000    -999.2500       1.9500
   1753.0566       0.0000       0.2500    -999.2500      38.4912       0.2000       0.2000       0.2000    -999.2500       1.9500
   1753.2090       0.0000       0.2500    -999.2500      39.1970       0.2000       0.2000       0.2000    -999.2500       1.9500
   1753.3615       0.0000       0.2500    -999.2500      44.4592       0.2000       0.2000       0.2000    -999.2500       1.9500
   1753.5138       0.0000       0.2500    -999.2500      49.7190       0.2000       0.2000       0.2000    -999.2500       1.9500
   1753.6663       0.0000       0.2500    -999.2500      47.0891       0.2000       0.2000       0.2000    -999.2500       1.9500
   1753.8186       0.0000       0.2500    -999.2500      44.4600       0.2000       0.2000       0.2000    -999.2500       1.9500
   1753.9711       0.0000       0.2500    -999.2500      37.8543       0.2000       0.2000       0.2000    -999.2500       1.9500
   1754.1234       0.0000       0.2500    -999.2500      31.2500       0.2000       0.2000       0.2000    -999.2500       1.9500
   1754.2759       0.0000       0.2500    -999.2500      31.4860       0.2000       0.2000       0.2000    -999.2500       1.9500
   1754.4282       0.0000       0.2500    -999.2500      31.7220       0.2000       0.2000       0.2000    -999.2500       1.9500
   1754.5806       0.0000       0.2500    -999.2500      32.9875       0.2000       0.2000       0.2000    -999.2500       1.9500
   1754.7330       0.0000       0.2500    -999.2500      34.2530       0.2000       0.2000       0.2000    -999.2500       1.9500
   1754.8854       0.0000       0.2500    -999.2500      36.0689       0.2000       0.2000       0.2000    -999.2500       1.9500
   1755.0378       0.0000       0.2500    -999.2500      37.8850       0.2000       0.2000       0.2000    -999.2500       1.9500
   1755.1902       0.0000       0.2500    -999.2500      38.6772       0.2000       0.2000       0.2000    -999.2500       1.9500
   1755.3427       0.0000       0.2500    -999.2500      39.4690       0.2000       0.2000       0.2000    -999.2500       1.9500
   1755.4950       0.0000       0.2500    -999.2500      38.3178       0.2000       0.2000       0.2000    -999.2500       1.9500
   1755.6475       0.0000       0.2500    -999.2500      37.1680       0.2000       0.2000       0.2000    -999.2500       1.9500
   1755.7998       0.0000       0.2500    -999.2500      35.4386       0.2000       0.2000       0.2000    -999.2500       1.9500
   1755.9523       0.0000       0.2500    -999.2500      33.7110       0.2000       0.2000       0.2000    -999.2500       1.9500
   1756.1046       0.0000       0.2500    -999.2500      33.2148       0.2000       0.2000       0.2000    -999.2500       1.9500
   1756.2571       0.0000       0.2500    -999.2500      32.7190       0.2000       0.2000       0.2000    -999.2500       1.9500
   1756.4094       0.0000       0.2500    -999.2500      34.4227       0.2000       0.2000       0.2000    -999.2500       1.9500
   1756.5618       0.0000       0.2500    -999.2500      36.1250       0.2000       0.2000       0.2000    -999.2500       1.9500
   1756.7142       0.0000       0.2500    -999.2500      35.6818       0.2000       0.2000       0.2000    -999.2500       1.9500
   1756.8666       0.0000       0.2500    -999.2500      35.2390       0.2000       0.2000       0.2000    -999.2500       1.9500
   1757.0190       0.0000       0.2500    -999.2500      33.2399       0.2000       0.2000       0.2000    -999.2500       1.9500
   1757.1714       0.0000       0.2500    -999.2500      31.2420       0.2000       0.2000       0.2000    -999.2500       1.9500
   1757.3239       0.0000       0.2500    -999.2500      32.0507       0.2000       0.2000       0.2000    -999.2500       1.9500
   1757.4762       0.0000       0.2500    -999.2500      32.8590       0.2000       0.2000       0.2000    -999.2500       1.9500
   1757.6287       0.0000       0.2500    -999.2500      32.6580       0.2000       0.2000       0.2000    -999.2500       1.9500
   1757.7810       0.0000       0.2500    -999.2500      32.4570       0.2000       0.2000       0.2000    -999.2500       1.9500
   1757.9335       0.0000       0.2500    -999.2500      31.4759       0.2000       0.2000       0.2000    -999.2500       1.9500
   1758.0858       0.0000       0.2500    -999.2500      30.4950       0.2000       0.2000       0.2000    -999.2500       1.9500
   1758.2383       0.0000       0.2500    -999.2500      28.3099       0.2000       0.2000       0.2000    -999.2500       1.9500
   1758.3906       0.0000       0.2500    -999.2500      26.1250       0.2000       0.2000       0.2000    -999.2500       1.9500
   1758.5430       0.0000       0.2500    -999.2500      27.2055       0.2000       0.2000       0.2000    -999.2500       1.9500
   1758.6954       0.0000       0.2500    -999.2500      28.2860       0.2000       0.2000       0.2000    -999.2500       1.9500
   1758.8478       0.0000       0.2500    -999.2500      30.1896       0.2000       0.2000       0.2000    -999.2500       1.9500
   1759.0002       0.0000       0.2500    -999.2500      32.0920       0.2000       0.2000       0.2000    -999.2500       1.9500
   1759.1526       0.0000       0.2500    -999.2500      34.1488       0.2000       0.2000       0.2000    -999.2500       1.9500
   1759.3051       0.0000       0.2500    -999.2500      36.2030       0.2000       0.2000       0.2000    -999.2500       1.9500
   1759.4574       0.0000       0.2500    -999.2500      34.9678       0.2000       0.2000       0.2000    -999.2500       1.9500
   1759.6099       0.0000       0.2500    -999.2500      33.7340       0.2000       0.2000       0.2000    -999.2500       1.9500
   1759.7622       0.0000       0.2500    -999.2500      37.5875       0.2000       0.2000       0.2000    -999.2500       1.9500
   1759.9147       0.0000       0.2500    -999.2500      41.4370       0.2000       0.2000       0.2000    -999.2500       1.9500
   1760.0670       0.0000       0.2500    -999.2500      40.4556       0.2000       0.2000       0.2000    -999.2500       1.9500
   1760.2195       0.0000       0.2500    -999.2500      39.4750       0.2000       0.2000       0.2000    -999.2500       1.9500
   1760.3718       0.0000       0.2500    -999.2500      37.2992       0.2000       0.2000       0.2000    -999.2500       1.9500
   1760.5242       0.0000       0.2500    -999.2500      35.1250       0.2000       0.2000       0.2000    -999.2500       1.9500
