#------------------------------------------------------------------------------
#
#   Created by  : [OpenWorks] Log Export Utility (LEXP)
#   Created on  : 2016-05-23 11:56:20
#   Project     : CANT971
#   User        : R5K
#   Interpreter : PEP
#
#------------------------------------------------------------------------------
~VERSION INFORMATION
VERS. 2.0 : CWLS Log ASCII Standard - version 2.0
WRAP.  NO : One line per depth step
~WELL INFORMATION
#MNEMONIC   .UNIT                                           VALUE :DESCRIPTION
#------------------------------------------------------------------------------
STRT        .M                                          1446.1469 :START DEPTH
STOP        .M                                          3739.7668 :STOP DEPTH
STEP        .M                                             0.1524 :STEP
NULL        .                                           -999.2500 :NULL VALUE
COMP        .                                             UNKNOWN :COMPANY
WELL        .                                               468-V :WELL
FLD         .                                             UNKNOWN :FIELD
LOC         .                                             UNKNOWN :LOCATION
CNTY        .                                             UNKNOWN :COUNTY
STAT        .                                             UNKNOWN :STATE
CTRY        .                                             UNKNOWN :COUNTRY
SRVC        .                                             UNKNOWN :SERVICE COMPANY
DATE        .                                             UNKNOWN :LOG DATE
UWI         .                                               468-V :UNIQUE WELL ID
XCOORD      .                                       598699.140000 :SURFACE X
YCOORD      .                                      2143301.650000 :SURFACE Y
LAT         .                                           19.382589 :LATITUDE
LON         .                                          -92.060118 :LONGITUDE
ELEV        .M                                             0.0000 :SURFACE ELEV
ELEV_TYPE   .                                                  NA :ELEV TYPE
~CURVE INFORMATION
#MNEMONIC.UNIT        API CODE       : CURVE DESCRIPTION
#------------------------------------------------------------------------------
DEPTH    .M                          : Measured Depth
CALI     .inches      UNKNOWN        : CALI:PETROWORKS:rC:NONE:v1 
DRHO     .g/cm3       UNKNOWN        : DRHO:PETROWORKS:rC:NONE:v1 
DT       .us/ft       UNKNOWN        : DT:sonico:rC:NONE:v0 (auto-composite)
GR       .API         UNKNOWN        : GR:PETROWORKS:rC:NONE:v1 
GR-LWD   .API         UNKNOWN        : GR-LWD:PETROWORKS:rC:NONE:v3 
ILD-LWD  .ohm.m       UNKNOWN        : ILD-LWD:PETROWORKS:rC:NONE:v3 
ILM-LWD  .UNKNOWN     UNKNOWN        : ILM-LWD:PETROWORKS:rC:NONE:v3 
NPHI     .v/v_decimal UNKNOWN        : NPHI:PETROWORKS:rC:NONE:v1 
PEF      .b/elec      UNKNOWN        : PEF:PETROWORKS:rC:NONE:v1 
RHOB     .g/cm3       UNKNOWN        : RHOB:PETROWORKS:rC:NONE:v1 
~A     DEPTH         CALI         DRHO           DT           GR       GR-LWD      ILD-LWD      ILM-LWD         NPHI          PEF         RHOB
# ...
   2589.7563       8.6871      -0.0318    -999.2500      82.1871      50.0508      49.6066      43.1015       0.1180       3.2132       2.5705
   2589.9089       8.6898      -0.0251    -999.2500      69.9229      50.6911      50.1945      42.6010       0.1117       3.2075       2.6402
   2590.0613       8.7434      -0.0261    -999.2500      66.9598      51.2265      50.2829      41.5890       0.1056       3.2622       2.6595
   2590.2136       8.8032      -0.0214    -999.2500      68.1991      50.8931      50.1919      40.2498       0.1072       3.3480       2.6340
   2590.3660       8.7943      -0.0111    -999.2500      68.1230      48.9790      48.6441      37.9990       0.1118       3.3498       2.6247
   2590.5186       8.7460      -0.0035    -999.2500      66.5253      47.0057      47.0603      35.6532       0.1254       3.2691       2.6183
   2590.6709       8.7447      -0.0080    -999.2500      68.1910      45.4377      46.0170      33.7965       0.1254       3.2210       2.6021
   2590.8232       8.7393      -0.0154    -999.2500      71.7596      45.3080      45.0712      32.1990       0.1322       3.2417       2.5759
   2590.9756       8.7085      -0.0184    -999.2500      75.3191      46.2613      44.4333      31.0719       0.1398       3.2747       2.5650
   2591.1279       8.7671      -0.0230    -999.2500      78.6359      47.1620      43.3552      30.2051       0.1405       3.2674       2.5515
   2591.2805       8.8742      -0.0274    -999.2500      74.8093      47.7657      41.6506      29.2229       0.1461       3.2315       2.5466
   2591.4329       8.8595      -0.0270    -999.2500      70.1175      46.8163      38.5444      27.4661       0.1451       3.2353       2.5431
   2591.5852       8.8634      -0.0254    -999.2500      66.3506      45.6997      34.9842      25.2335       0.1467       3.2655       2.5264
   2591.7375       8.8671      -0.0224    -999.2500      63.7039      43.9488      32.2240      22.6742       0.1477       3.2813       2.5263
   2591.8901       8.9361      -0.0128    -999.2500      60.4583      42.5626      30.4957      21.0318       0.1484       3.2636       2.5467
   2592.0425       8.8792      -0.0045    -999.2500      57.3750      41.3112      28.9586      19.6152       0.1567       3.2388       2.5557
   2592.1948       8.8390      -0.0048    -999.2500      56.5280      40.7282      27.5779      18.7080       0.1636       3.2460       2.5424
   2592.3472       8.8397      -0.0009    -999.2500      58.1733      39.9718      26.1704      18.0787       0.1660       3.2824       2.5209
   2592.4998       8.7842       0.0191    -999.2500      60.1335      39.5300      25.0900      17.7900       0.1664       3.3480       2.4962
   2592.6521       8.8723       0.0139    -999.2500      61.2654      39.8647      24.5679      17.9078       0.1617       3.3592       2.4936
   2592.8044       8.9503      -0.0170    -999.2500      61.1178      39.7823      24.6272      18.3476       0.1482       3.3347       2.5190
   2592.9568       8.8922      -0.0253    -999.2500      59.1600      40.1723      25.2475      18.9206       0.1335       3.3139       2.5544
   2593.1091       8.8181      -0.0196    -999.2500      55.6544      40.5157      26.0005      19.4629       0.1183       3.2915       2.6264
   2593.2617       8.8124      -0.0141    -999.2500      56.1528      40.4778      27.7346      20.2981       0.1070       3.2731       2.6674
   2593.4141       8.7685      -0.0099    -999.2500      62.2075      40.3284      28.5213      20.6715       0.1085       3.2469       2.6898
   2593.5664       8.7720      -0.0104    -999.2500      64.1482      40.3801      28.6765      20.5601       0.1072       3.2591       2.6771
   2593.7188       8.7733      -0.0123    -999.2500      60.5363      39.6554      28.3586      20.3528       0.1175       3.2398       2.6746
   2593.8713       8.7560      -0.0149    -999.2500      61.5559      39.1343      27.8087      20.0216       0.1225       3.2014       2.6703
   2594.0237       8.7163      -0.0190    -999.2500      63.9105      39.0242      28.1111      20.1492       0.1254       3.2257       2.6271
   2594.1760       8.6766      -0.0233    -999.2500      64.5894      39.0319      28.8348      21.0327       0.1303       3.3404       2.5539
   2594.3284       8.7023      -0.0244    -999.2500      64.5054      39.1739      31.2309      23.0028       0.1316       3.3800       2.5471
   2594.4810       8.7536      -0.0242    -999.2500      63.3431      39.6930      34.4264      25.6030       0.1265       3.3768       2.5756
   2594.6333       8.7394      -0.0206    -999.2500      62.4945      39.9101      36.8672      28.1539       0.1199       3.3842       2.6041
   2594.7856       8.7250      -0.0167    -999.2500      61.6005      40.7094      39.3299      30.6985       0.1068       3.3697       2.6354
   2594.9380       8.7517      -0.0095    -999.2500      60.7649      41.4863      42.3451      33.9441       0.1055       3.3314       2.6661
   2595.0903       8.7466       0.0062    -999.2500      61.6269      41.8940      45.4919      37.4421       0.1120       3.3322       2.6879
   2595.2429       8.7087       0.0196    -999.2500      62.1606      43.0500      49.4643      41.3029       0.1206       3.3662       2.6432
   2595.3953       8.7351       0.0361    -999.2500      61.8923      44.0888      52.6431      44.4417       0.1415       3.3700       2.5630
   2595.5476       8.7365       0.0607    -999.2500      62.7536      44.7256      54.7309      46.4695       0.1462       3.3668       2.5119
   2595.7000       8.8302       0.1098    -999.2500      64.5849      45.6700      55.4000      46.6400       0.1632       3.3641       2.4386
   2595.8525       8.8925       0.1160    -999.2500      66.2408      46.1549      53.6414      45.3083       0.1588       3.3061       2.3955
   2596.0049       8.9506       0.0868    -999.2500      69.4456      47.2041      50.4683      43.1562       0.1623       3.2897       2.4101
   2596.1572       8.8509       0.0668    -999.2500      70.0890      47.5603      46.9612      40.9875       0.1602       3.3908       2.4727
   2596.3096       8.7666       0.0240    -999.2500      67.3202      48.3535      43.7675      39.0929       0.1423       3.5007       2.5191
   2596.4622       8.7430      -0.0045    -999.2500      64.9592      48.4986      41.5055      36.9072       0.1352       3.4959       2.5186
   2596.6145       8.7124      -0.0237    -999.2500      62.4212      47.2260      38.9008      33.9956       0.1193       3.4537       2.5709
   2596.7668       8.7209      -0.0319    -999.2500      59.1562      45.2479      36.5152      31.1046       0.1057       3.3806       2.5848
   2596.9192       8.7548      -0.0477    -999.2500      51.6356      41.4965      34.4255      28.6459       0.0947       3.2596       2.5500
   2597.0715       8.6936      -0.0458    -999.2500      50.2236      36.6150      32.4692      26.7783       0.0940       3.2798       2.5582
   2597.2241       8.6766      -0.0383    -999.2500      48.7199      32.6383      30.7918      25.4609       0.0899       3.3819       2.6020
   2597.3765       8.6947      -0.0283    -999.2500      46.6821      30.0393      28.9783      24.1426       0.0849       3.4781       2.6678
   2597.5288       8.6805      -0.0234    -999.2500      47.2179      28.9244      27.3533      22.9769       0.0851       3.4374       2.6995
   2597.6812       8.6929      -0.0203    -999.2500      46.7939      28.4204      26.0231      21.9088       0.0853       3.3482       2.7223
   2597.8337       8.6781      -0.0198    -999.2500      42.6429      28.0259      24.9105      20.9277       0.0887       3.3127       2.7238
   2597.9861       8.6582      -0.0209    -999.2500      37.9424      27.6793      23.8466      20.1660       0.0878       3.2825       2.7019
   2598.1384       8.6673      -0.0248    -999.2500      39.7904      27.8010      23.5631      20.1764       0.0849       3.2565       2.6751
