#------------------------------------------------------------------------------
#
#   Created by  : [OpenWorks] Log Export Utility (LEXP)
#   Created on  : 2016-05-12 17:01:19
#   Project     : CANT971
#   User        : R5K
#   Interpreter : PEP
#
#------------------------------------------------------------------------------
~VERSION INFORMATION
VERS. 2.0 : CWLS Log ASCII Standard - version 2.0
WRAP.  NO : One line per depth step
~WELL INFORMATION
#MNEMONIC   .UNIT                                           VALUE :DESCRIPTION
#------------------------------------------------------------------------------
STRT        .M                                           335.5854 :START DEPTH
STOP        .M                                          2510.4858 :STOP DEPTH
STEP        .M                                             0.1524 :STEP
NULL        .                                           -999.2500 :NULL VALUE
COMP        .                                   PEMEX EXPL & PROD :COMPANY
WELL        .                                                  35 :WELL
FLD         .                                           CANTARELL :FIELD
LOC         .                                             UNKNOWN :LOCATION
CNTY        .                                      CD. DEL CARMEN :COUNTY
STAT        .                                            CAMPECHE :STATE
CTRY        .                                              MEXICO :COUNTRY
SRVC        .                                             UNKNOWN :SERVICE COMPANY
DATE        .                                             UNKNOWN :LOG DATE
UWI         .                                          3060000159 :UNIQUE WELL ID
XCOORD      .                                       602147.900000 :SURFACE X
YCOORD      .                                      2147168.470000 :SURFACE Y
LAT         .                                           19.417359 :LATITUDE
LON         .                                          -92.027072 :LONGITUDE
ELEV        .M                                            28.1700 :SURFACE ELEV
ELEV_TYPE   .                                                  KB :ELEV TYPE
~CURVE INFORMATION
#MNEMONIC.UNIT        API CODE       : CURVE DESCRIPTION
#------------------------------------------------------------------------------
DEPTH    .M                          : Measured Depth
CALI     .inches      UNKNOWN        : CALI:Import:rC:NONE:v0 (auto-composite)
DRHO     .g/cm3       UNKNOWN        : DRHO:Import:rC:NONE:v0 (auto-composite)
DT       .us/ft       UNKNOWN        : DT:Import:rC:NONE:v0 (auto-composite)
GR       .API         UNKNOWN        : GR:Import:rC:NONE:v0 (auto-composite)
ILD      .ohm.m       UNKNOWN        : ILD:Import:rC:NONE:v0 (auto-composite)
LLD      .ohm.m       UNKNOWN        : LLD:Import:rC:NONE:v0 (auto-composite)
LLS      .ohm.m       UNKNOWN        : LLS:Import:rC:NONE:v0 (auto-composite)
MSFL     .ohm.m       UNKNOWN        : MSFL:Import:rC:NONE:v0 (auto-composite)
NPHI     .v/v_decimal UNKNOWN        : NPHI:Import:rC:NONE:v0 (auto-composite)
RHOB     .g/cm3       UNKNOWN        : RHOB:Import:rC:NONE:v0 (auto-composite)
SP       .mV          UNKNOWN        : SP:Import:rC:NONE:v0 (auto-composite)
~A     DEPTH         CALI         DRHO           DT           GR          ILD          LLD          LLS         MSFL         NPHI         RHOB           SP
# ...
   2197.9133       6.0770   -1998.5000      92.2110      33.9750    -999.2500    1071.2939     488.1780      48.7400    -999.2500    -999.2500    -999.2500
   2198.0657       6.0544   -1998.5000      97.4848      32.5356    -999.2500     690.8646     326.0180      26.8122    -999.2500    -999.2500    -999.2500
   2198.2183       6.0320   -1998.5000     102.6900      31.1150    -999.2500     315.3900     165.9700       5.1700    -999.2500    -999.2500    -999.2500
   2198.3706       6.0109   -1998.5000     100.4264      29.9681    -999.2500     319.3873     166.1814       6.4206    -999.2500    -999.2500    -999.2500
   2198.5229       5.9900   -1998.5000      98.1920      28.8360    -999.2500     323.3330     166.3900       7.6550    -999.2500    -999.2500    -999.2500
   2198.6753       5.9900   -1998.5000      89.5503      26.8574    -999.2500     368.7064     186.4346      25.5720    -999.2500    -999.2500    -999.2500
   2198.8279       5.9900   -1998.5000      81.0190      24.9040    -999.2500     413.5000     206.2230      43.2600    -999.2500    -999.2500    -999.2500
   2198.9802       5.9900   -1998.5000      70.5583      23.3622    -999.2500     642.7977     473.0257      40.9826    -999.2500    -999.2500    -999.2500
   2199.1326       5.9900   -1998.5000      60.2300      21.8400    -999.2500     869.1920     736.4500      38.7340    -999.2500    -999.2500    -999.2500
   2199.2849       5.9825   -1998.5000      60.4017      21.9629    -999.2500    1327.7485     719.6171      33.5485    -999.2500    -999.2500    -999.2500
   2199.4375       5.9750   -1998.5000      60.5710      22.0840    -999.2500    1780.5601     702.9950      28.4280    -999.2500    -999.2500    -999.2500
   2199.5898       5.9272   -1998.5000      61.8494      22.7053    -999.2500    1730.2517     635.2983      25.7172    -999.2500    -999.2500    -999.2500
   2199.7422       5.8800   -1998.5000      63.1100      23.3180    -999.2500    1680.5680     568.4420      23.0400    -999.2500    -999.2500    -999.2500
   2199.8945       5.8840   -1998.5000      62.4101      24.2102    -999.2500    1507.5366     498.0236      24.6454    -999.2500    -999.2500    -999.2500
   2200.0469       5.8880   -1998.5000      61.7200      25.0900    -999.2500    1336.6300     428.4700      26.2310    -999.2500    -999.2500    -999.2500
   2200.1995       5.9091   -1998.5000      62.0211      25.0110    -999.2500    1401.5253     450.1821      46.5038    -999.2500    -999.2500    -999.2500
   2200.3518       5.9300   -1998.5000      62.3180      24.9330    -999.2500    1465.6310     471.6300      66.5300    -999.2500    -999.2500    -999.2500
   2200.5042       5.9235   -1998.5000      65.5208      24.6335    -999.2500    1738.4025     465.3558      64.2880    -999.2500    -999.2500    -999.2500
   2200.6565       5.9170   -1998.5000      68.6800      24.3380    -999.2500    2007.8920     459.1570      62.0730    -999.2500    -999.2500    -999.2500
   2200.8091       5.8833   -1998.5000      61.6576      23.8271    -999.2500    2226.6863     435.3924      46.7150    -999.2500    -999.2500    -999.2500
   2200.9614       5.8500   -1998.5000      54.7300      23.3230    -999.2500    2442.8730     411.9110      31.5400    -999.2500    -999.2500    -999.2500
   2201.1138       5.8611   -1998.5000      55.8631      22.1235    -999.2500    2858.4006     394.8494      40.7818    -999.2500    -999.2500    -999.2500
   2201.2661       5.8720   -1998.5000      56.9810      20.9400    -999.2500    3268.3701     378.0160      49.9000    -999.2500    -999.2500    -999.2500
   2201.4187       5.9012   -1998.5000      66.5136      20.9400    -999.2500    3264.5920     366.1610      49.5416    -999.2500    -999.2500    -999.2500
   2201.5710       5.9300   -1998.5000      75.9200      20.9400    -999.2500    3260.8640     354.4630      49.1880    -999.2500    -999.2500    -999.2500
   2201.7234       5.9049   -1998.5000      75.3040      21.1896    -999.2500    2952.0706     304.3184      46.6961    -999.2500    -999.2500    -999.2500
   2201.8757       5.8800   -1998.5000      74.6960      21.4360    -999.2500    2647.3311     254.8320      44.2370    -999.2500    -999.2500    -999.2500
   2202.0281       5.8800   -1998.5000      71.1902      22.2201    -999.2500    1931.8794     187.6495      38.8284    -999.2500    -999.2500    -999.2500
   2202.1807       5.8800   -1998.5000      67.7300      22.9940    -999.2500    1225.7240     121.3400      33.4900    -999.2500    -999.2500    -999.2500
   2202.3330       5.8870   -1998.5000      68.4753      23.5445    -999.2500     802.2951      82.7766      27.1542    -999.2500    -999.2500    -999.2500
   2202.4854       5.8940   -1998.5000      69.2110      24.0880    -999.2500     384.3200      44.7100      20.9000    -999.2500    -999.2500    -999.2500
   2202.6377       5.9121   -1998.5000      74.0312      25.0245    -999.2500     432.7134      46.8607      22.2078    -999.2500    -999.2500    -999.2500
   2202.7903       5.9300   -1998.5000      78.7900      25.9490    -999.2500     480.4900      48.9840      23.4990    -999.2500    -999.2500    -999.2500
   2202.9426       5.9381   -1998.5000      75.8313      28.2219    -999.2500     478.6635      63.3024      35.1581    -999.2500    -999.2500    -999.2500
   2203.0950       5.9460   -1998.5000      72.9100      30.4660    -999.2500     476.8600      77.4400      46.6700    -999.2500    -999.2500    -999.2500
   2203.2473       5.9933   -1998.5000      78.3685      35.2029    -999.2500     443.8442      76.4101      42.8526    -999.2500    -999.2500    -999.2500
   2203.3999       6.0400   -1998.5000      83.7500      39.8730    -999.2500     411.2410      75.3930      39.0830    -999.2500    -999.2500    -999.2500
   2203.5522       6.2161   -1998.5000      82.7455      51.6638    -999.2500     328.7135      68.9491      29.6103    -999.2500    -999.2500    -999.2500
   2203.7046       6.3900   -1998.5000      81.7550      63.2900    -999.2500     247.2080      62.5850      20.2550    -999.2500    -999.2500    -999.2500
   2203.8569       6.3729   -1998.5000      72.5437      60.6049    -999.2500     182.4725      47.7718      15.9864    -999.2500    -999.2500    -999.2500
   2204.0093       6.3560   -1998.5000      63.4600      57.9570    -999.2500     118.5300      33.1400      11.7700    -999.2500    -999.2500    -999.2500
   2204.1619       6.2559   -1998.5000      64.9663      49.5610    -999.2500     119.1065      33.3432       7.7355    -999.2500    -999.2500    -999.2500
   2204.3142       6.1570   -1998.5000      66.4520      41.2800    -999.2500     119.6760      33.5440       3.7500    -999.2500    -999.2500    -999.2500
   2204.4666       5.9623   -1998.5000      72.9426      38.3848    -999.2500     133.8018      37.1788       6.1092    -999.2500    -999.2500    -999.2500
   2204.6189       5.7700   -1998.5000      79.3450      35.5290    -999.2500     147.7580      40.7700       8.4400    -999.2500    -999.2500    -999.2500
   2204.7715       5.7700   -1998.5000     103.0923      32.1820    -999.2500     231.7165      59.2111       8.3696    -999.2500    -999.2500    -999.2500
   2204.9238       5.7700   -1998.5000     126.5200      28.8800    -999.2500     314.6770      77.4330       8.3000    -999.2500    -999.2500    -999.2500
   2205.0762       5.7740   -1998.5000     125.3290      29.5560    -999.2500     469.7070     104.9718       6.1960    -999.2500    -999.2500    -999.2500
   2205.2285       5.7780   -1998.5000     124.1540      30.2230    -999.2500     622.6680     132.1430       4.1200    -999.2500    -999.2500    -999.2500
   2205.3811       5.7956   -1998.5000     112.4290      32.4104    -999.2500    1010.2241     189.4299      11.5642    -999.2500    -999.2500    -999.2500
   2205.5334       5.8130   -1998.5000     100.8590      34.5690    -999.2500    1392.6600     245.9600      18.9100    -999.2500    -999.2500    -999.2500
   2205.6858       5.8467   -1998.5000      71.7438      35.6969    -999.2500    1367.4741     237.6118      11.8790    -999.2500    -999.2500    -999.2500
