#------------------------------------------------------------------------------
#
#   Created by  : [OpenWorks] Log Export Utility (LEXP)
#   Created on  : 2016-05-23 11:56:31
#   Project     : CANT971
#   User        : R5K
#   Interpreter : PEP
#
#------------------------------------------------------------------------------
~VERSION INFORMATION
VERS. 2.0 : CWLS Log ASCII Standard - version 2.0
WRAP.  NO : One line per depth step
~WELL INFORMATION
#MNEMONIC   .UNIT                                           VALUE :DESCRIPTION
#------------------------------------------------------------------------------
STRT        .M                                          1639.8856 :START DEPTH
STOP        .M                                          2789.8960 :STOP DEPTH
STEP        .M                                             0.1524 :STEP
NULL        .                                           -999.2500 :NULL VALUE
COMP        .                                             UNKNOWN :COMPANY
WELL        .                                                 477 :WELL
FLD         .                                             UNKNOWN :FIELD
LOC         .                                             UNKNOWN :LOCATION
CNTY        .                                             UNKNOWN :COUNTY
STAT        .                                             UNKNOWN :STATE
CTRY        .                                             UNKNOWN :COUNTRY
SRVC        .                                             UNKNOWN :SERVICE COMPANY
DATE        .                                             UNKNOWN :LOG DATE
UWI         .                                                 477 :UNIQUE WELL ID
XCOORD      .                                       598704.070000 :SURFACE X
YCOORD      .                                      2143268.860000 :SURFACE Y
LAT         .                                           19.382293 :LATITUDE
LON         .                                          -92.060073 :LONGITUDE
ELEV        .M                                             0.0000 :SURFACE ELEV
ELEV_TYPE   .                                                  KB :ELEV TYPE
~CURVE INFORMATION
#MNEMONIC.UNIT        API CODE       : CURVE DESCRIPTION
#------------------------------------------------------------------------------
DEPTH    .M                          : Measured Depth
CALI     .inches      UNKNOWN        : CALI:litodensidad:rC:NONE:v0 (auto-composite)
CGR      .API         UNKNOWN        : CGR:Espectrometria:rC:NONE:v0 (auto-composite)
DRHO     .g/cm3       UNKNOWN        : DRHO:litodensidad:rC:NONE:v0 (auto-composite)
DT       .us/ft       UNKNOWN        : DT:Sonico:rC:NONE:v0 (auto-composite)
GR       .API         UNKNOWN        : GR:Espectrometria:rC:NONE:v0 (auto-composite)
GR-LWD   .API         UNKNOWN        : GR-LWD:resistivos-LWD:rC:NONE:v0 (auto-composite)
LLD      .ohm.m       UNKNOWN        : LLD:resistivos:rC:NONE:v0 (auto-composite)
LLD-LWD  .ohm.m       UNKNOWN        : LLD-LWD:resistivos-LWD:rC:NONE:v0 (auto-composite)
LLS      .ohm.m       UNKNOWN        : LLS:resistivos:rC:NONE:v0 (auto-composite)
LLS-LWD  .ohm.m       UNKNOWN        : LLS-LWD:resistivos-LWD:rC:NONE:v0 (auto-composite)
MSFL     .ohm.m       UNKNOWN        : MSFL:resistivos:rC:NONE:v0 (auto-composite)
MSFL-LWD .ohm.m       UNKNOWN        : MSFL-LWD:resistivos-LWD:rC:NONE:v0 (auto-composite)
NPHI     .UNKNOWN     UNKNOWN        : NPHI:porosidad:rC:NONE:v0 (auto-composite)
PEF      .UNKNOWN     UNKNOWN        : PEF:litodensidad:rC:NONE:v0 (auto-composite)
POTA     .wtpercent   UNKNOWN        : POTA:PETROWORKS:rC:NONE:v1 
RHOB     .g/cm3       UNKNOWN        : RHOB:litodensidad:rC:NONE:v0 (auto-composite)
THOR     .ppm         UNKNOWN        : THOR:Espectrometria:rC:NONE:v0 (auto-composite)
URAN     .ppm         UNKNOWN        : URAN:Espectrometria:rC:NONE:v0 (auto-composite)
~A     DEPTH         CALI          CGR         DRHO           DT           GR       GR-LWD          LLD      LLD-LWD          LLS      LLS-LWD         MSFL     MSFL-LWD         NPHI          PEF         POTA         RHOB         THOR         URAN
# ...
   2082.4553       9.1232       1.2983       0.1655    -999.2500      61.6873    -999.2500     276.2996    -999.2500     147.3957    -999.2500      20.5946    -999.2500       0.0011       3.6681       0.0008       2.6966       0.0428       6.7233
   2082.6077       9.1337       1.1816       0.3618    -999.2500      66.8606    -999.2500     270.7190    -999.2500     139.7352    -999.2500      17.3792    -999.2500       0.0015       3.9664       0.0005       2.7420       0.1526       7.3123
   2082.7600       9.1268       2.0461       0.4706    -999.2500      69.5931    -999.2500     276.0101    -999.2500     139.2656    -999.2500      18.1643    -999.2500       0.0020       4.0538       0.0004       2.7715       0.4039       7.5203
   2082.9124       9.1761       3.9740       0.3854    -999.2500      66.9641    -999.2500     283.9403    -999.2500     142.1062    -999.2500      29.4989    -999.2500       0.0028       3.8548       0.0010       2.7396       0.7305       7.0129
   2083.0649       9.2376       7.2582       0.1843    -999.2500      60.4458    -999.2500     292.4432    -999.2500     144.8841    -999.2500      20.7102    -999.2500       0.0039       3.5205       0.0034       2.6748       0.7033       5.9216
   2083.2173       9.2336       7.2142       0.0405    -999.2500      51.8751    -999.2500     264.5583    -999.2500     132.1666    -999.2500       7.5500    -999.2500       0.0045       3.3314       0.0043       2.6437       0.3300       4.9723
   2083.3696       9.2535       6.5856       0.0061    -999.2500      45.6606    -999.2500     224.1009    -999.2500     112.5150    -999.2500       3.7510    -999.2500       0.0040       3.3137       0.0035       2.6614       0.4689       4.3503
   2083.5220       9.1583       7.4168       0.0134    -999.2500      43.4330    -999.2500     192.8489    -999.2500      94.8400    -999.2500       6.2306    -999.2500       0.0034       3.3507       0.0020       2.6821       1.2948       4.0099
   2083.6743       9.1238       7.9886       0.0411    -999.2500      44.0651    -999.2500     178.4320    -999.2500      86.1181    -999.2500       9.0907    -999.2500       0.0017       3.4008       0.0012       2.6900       1.8005       4.0165
   2083.8269       9.2291       6.8060       0.0809    -999.2500      45.4860    -999.2500     162.0752    -999.2500      76.8462    -999.2500      23.8004    -999.2500      -0.0007       3.4442       0.0011       2.6929       1.4815       4.3064
   2083.9792       9.3798       5.7932       0.1061    -999.2500      45.6487    -999.2500     161.0101    -999.2500      77.6668    -999.2500      33.3173    -999.2500      -0.0022       3.4617       0.0017       2.6991       0.9825       4.4373
   2084.1316       9.4699       5.9756       0.1315    -999.2500      44.7546    -999.2500     171.3482    -999.2500      85.5420    -999.2500      41.4186    -999.2500      -0.0033       3.5250       0.0021       2.7111       0.8490       4.3174
   2084.2839       9.5519       5.8076       0.2077    -999.2500      42.7420    -999.2500     186.4618    -999.2500      96.8012    -999.2500      42.3376    -999.2500      -0.0048       3.6838       0.0020       2.7488       0.8416       4.1121
   2084.4365       9.9881       5.0785       0.2892    -999.2500      41.9338    -999.2500     204.5542    -999.2500     108.0538    -999.2500      30.0085    -999.2500      -0.0048       3.8303       0.0018       2.7741       0.7201       4.1033
   2084.5889      10.2841       6.3558       0.2950    -999.2500      41.6251    -999.2500     211.6060    -999.2500     112.9654    -999.2500      18.2648    -999.2500      -0.0028       3.8970       0.0020       2.7185       1.0168       3.9267
   2084.7412      10.7842       7.2956       0.2310    -999.2500      42.0194    -999.2500     188.1141    -999.2500     103.1872    -999.2500      17.2117    -999.2500       0.0008       3.8953       0.0023       2.5818       1.1743       3.8659
   2084.8936       9.9582       8.2178       0.1626    -999.2500      41.9567    -999.2500     143.6266    -999.2500      80.1783    -999.2500      18.8024    -999.2500       0.0049       3.8293       0.0032       2.4634       1.0582       3.7563
   2085.0459       9.8070       8.5277       0.1105    -999.2500      44.1855    -999.2500     104.7287    -999.2500      57.4547    -999.2500      12.6405    -999.2500       0.0083       3.6378       0.0041       2.4806       0.8001       3.9699
   2085.1985       9.7978       9.4169       0.0586    -999.2500      46.4522    -999.2500      80.5431    -999.2500      41.2116    -999.2500       8.4089    -999.2500       0.0094       3.4127       0.0052       2.5526       0.5991       4.1233
   2085.3508       9.6981       8.4962       0.0467    -999.2500      46.9939    -999.2500      73.3555    -999.2500      37.3367    -999.2500       5.2401    -999.2500       0.0085       3.3326       0.0052       2.5560       0.3316       4.2861
   2085.5032       9.3289       7.5327       0.0985    -999.2500      46.9347    -999.2500      75.3286    -999.2500      39.0759    -999.2500       2.8625    -999.2500       0.0078       3.4165       0.0051       2.4252       0.1262       4.3868
   2085.6555       9.3282       6.1697       0.2379    -999.2500      46.4837    -999.2500      87.7793    -999.2500      47.2572    -999.2500       2.3850    -999.2500       0.0069       3.6893       0.0040       2.2195       0.1749       4.4883
   2085.8081       9.3878       7.1721       0.4038    -999.2500      46.8834    -999.2500     110.3406    -999.2500      60.8288    -999.2500       6.2215    -999.2500       0.0070       4.0374       0.0040       2.0805       0.4421       4.4212
   2085.9604       9.5111       8.5538       0.5165    -999.2500      47.7203    -999.2500     136.3495    -999.2500      72.6405    -999.2500      10.7424    -999.2500       0.0092       4.3175       0.0047       2.1127       0.5772       4.3605
   2086.1128       9.4880      10.1198       0.5508    -999.2500      49.7299    -999.2500     154.0515    -999.2500      79.2094    -999.2500       6.2054    -999.2500       0.0111       4.4465       0.0058       2.2563       0.5764       4.4100
   2086.2651       9.3423       9.8149       0.5120    -999.2500      53.0760    -999.2500     150.9673    -999.2500      74.9802    -999.2500       2.1888    -999.2500       0.0109       4.4181       0.0058       2.4163       0.4842       4.8164
   2086.4177       9.3173       8.8939       0.4161    -999.2500      57.4676    -999.2500     138.3522    -999.2500      67.8114    -999.2500       1.4398    -999.2500       0.0092       4.2486       0.0052       2.5312       0.4770       5.4079
   2086.5701       9.2968       7.5991       0.2596    -999.2500      61.1100    -999.2500     127.7336    -999.2500      61.5351    -999.2500       1.2572    -999.2500       0.0072       3.9378       0.0038       2.5838       0.6285       5.9576
   2086.7224       9.2915       7.1894       0.1237    -999.2500      62.2986    -999.2500     129.0333    -999.2500      60.3664    -999.2500       1.3844    -999.2500       0.0052       3.6369       0.0028       2.6444       0.9106       6.1355
   2086.8748       9.2967       6.5592       0.0437    -999.2500      60.6225    -999.2500     143.3491    -999.2500      66.4919    -999.2500       1.7929    -999.2500       0.0037       3.4445       0.0016       2.6959       1.2369       6.0190
   2087.0271       9.2881       5.3617       0.0174    -999.2500      57.6969    -999.2500     176.8949    -999.2500      79.6746    -999.2500       3.1496    -999.2500       0.0030       3.3802       0.0006       2.7451       1.3009       5.8267
   2087.1797       9.2813       4.7692       0.0124    -999.2500      55.6637    -999.2500     215.3415    -999.2500      94.7018    -999.2500       9.8451    -999.2500       0.0030       3.3896       0.0004       2.7631       1.2017       5.6663
   2087.3320       9.2837       4.9964       0.0236    -999.2500      54.1086    -999.2500     239.7602    -999.2500     105.6498    -999.2500      30.8368    -999.2500       0.0040       3.4276       0.0006       2.7634       1.1658       5.4678
