#------------------------------------------------------------------------------
#
#   Created by  : [OpenWorks] Log Export Utility (LEXP)
#   Created on  : 2016-05-23 11:53:36
#   Project     : CANT971
#   User        : R5K
#   Interpreter : PEP
#
#------------------------------------------------------------------------------
~VERSION INFORMATION
VERS. 2.0 : CWLS Log ASCII Standard - version 2.0
WRAP.  NO : One line per depth step
~WELL INFORMATION
#MNEMONIC   .UNIT                                           VALUE :DESCRIPTION
#------------------------------------------------------------------------------
STRT        .M                                           940.3716 :START DEPTH
STOP        .M                                          3167.2405 :STOP DEPTH
STEP        .M                                             0.1524 :STEP
NULL        .                                           -999.2500 :NULL VALUE
COMP        .                                   PEMEX EXPL & PROD :COMPANY
WELL        .                                                  24 :WELL
FLD         .                                           CANTARELL :FIELD
LOC         .                                             UNKNOWN :LOCATION
CNTY        .                                      CD. DEL CARMEN :COUNTY
STAT        .                                            CAMPECHE :STATE
CTRY        .                                              MEXICO :COUNTRY
SRVC        .                                             UNKNOWN :SERVICE COMPANY
DATE        .                                             UNKNOWN :LOG DATE
UWI         .                                          3060000153 :UNIQUE WELL ID
XCOORD      .                                       598455.290000 :SURFACE X
YCOORD      .                                      2145024.750000 :SURFACE Y
LAT         .                                           19.398172 :LATITUDE
LON         .                                          -92.062351 :LONGITUDE
ELEV        .M                                            26.5400 :SURFACE ELEV
ELEV_TYPE   .                                                  KB :ELEV TYPE
~CURVE INFORMATION
#MNEMONIC.UNIT        API CODE       : CURVE DESCRIPTION
#------------------------------------------------------------------------------
DEPTH    .M                          : Measured Depth
CALI     .inches      UNKNOWN        : CALI:Import:rC:NONE:v0 (auto-composite)
DRHO     .g/cm3       UNKNOWN        : DRHO:Import:rC:NONE:v0 (auto-composite)
DT       .us/ft       UNKNOWN        : DT:Import:rC:NONE:v0 (auto-composite)
GR       .API         UNKNOWN        : GR:Import:rC:NONE:v0 (auto-composite)
ILD      .ohm.m       UNKNOWN        : ILD:Import:rC:NONE:v0 (auto-composite)
LLD      .ohm.m       UNKNOWN        : LLD:Import:rC:NONE:v0 (auto-composite)
LLS      .ohm.m       UNKNOWN        : LLS:Import:rC:NONE:v0 (auto-composite)
MSFL     .ohm.m       UNKNOWN        : MSFL:Import:rC:NONE:v0 (auto-composite)
NPHI     .v/v_decimal UNKNOWN        : NPHI:Import:rC:NONE:v0 (auto-composite)
RHOB     .g/cm3       UNKNOWN        : RHOB:Import:rC:NONE:v0 (auto-composite)
~A     DEPTH         CALI         DRHO           DT           GR          ILD          LLD          LLS         MSFL         NPHI         RHOB
# ...
   3142.2468    -999.2500    -999.2500    -999.2500      49.7393    -999.2500      58.2454      55.9826      59.4648       0.0449    -999.2500
   3142.3992    -999.2500    -999.2500    -999.2500      52.2902    -999.2500      55.9046      54.2235      56.5653       0.0472    -999.2500
   3142.5515    -999.2500    -999.2500    -999.2500      58.0191    -999.2500      53.7271      53.1415      55.4241       0.0502    -999.2500
   3142.7041    -999.2500    -999.2500    -999.2500      63.5419    -999.2500      51.7234      52.2816      54.5870       0.0546    -999.2500
   3142.8564    -999.2500    -999.2500    -999.2500      67.4202    -999.2500      51.1077      53.1942      56.1763       0.0604    -999.2500
   3143.0088    -999.2500    -999.2500    -999.2500      70.7708    -999.2500      50.8108      54.4368      59.1276       0.0670    -999.2500
   3143.1611    -999.2500    -999.2500    -999.2500      69.8729    -999.2500      53.0805      58.3360      73.0440       0.0734    -999.2500
   3143.3135    -999.2500    -999.2500    -999.2500      68.5471    -999.2500      55.3433      62.3776      88.5306       0.0763    -999.2500
   3143.4661    -999.2500    -999.2500    -999.2500      63.6877    -999.2500      57.5488      67.5954     116.9833       0.0731    -999.2500
   3143.6184    -999.2500    -999.2500    -999.2500      59.1252    -999.2500      59.5992      72.7653     148.0846       0.0660    -999.2500
   3143.7708    -999.2500    -999.2500    -999.2500      57.0369    -999.2500      60.3573      77.5365     201.2535       0.0574    -999.2500
   3143.9231    -999.2500    -999.2500    -999.2500      55.1235    -999.2500      60.9625      81.6061     243.7132       0.0510    -999.2500
   3144.0757    -999.2500    -999.2500    -999.2500      54.5867    -999.2500      60.3638      80.1517     201.8623       0.0498    -999.2500
   3144.2280    -999.2500    -999.2500    -999.2500      54.1081    -999.2500      59.6550      78.3812     161.3932       0.0516    -999.2500
   3144.3804    -999.2500    -999.2500    -999.2500      54.0911    -999.2500      58.0725      74.1005     131.8976       0.0541    -999.2500
   3144.5327    -999.2500    -999.2500    -999.2500      54.0041    -999.2500      56.4351      69.8873     103.9287       0.0557    -999.2500
   3144.6853    -999.2500    -999.2500    -999.2500      53.3463    -999.2500      54.3515      66.2239      88.3919       0.0547    -999.2500
   3144.8376    -999.2500    -999.2500    -999.2500      53.1172    -999.2500      52.3821      62.7022      73.8669       0.0524    -999.2500
   3144.9900    -999.2500    -999.2500    -999.2500      56.4093    -999.2500      51.3505      60.3453      67.6546       0.0498    -999.2500
   3145.1423    -999.2500    -999.2500    -999.2500      59.8274    -999.2500      50.3754      57.9407      61.7704       0.0486    -999.2500
   3145.2947    -999.2500    -999.2500    -999.2500      64.2897    -999.2500      49.8685      55.1420      58.6061       0.0504    -999.2500
   3145.4473    -999.2500    -999.2500    -999.2500      68.5117    -999.2500      49.3716      52.5820      55.9413       0.0557    -999.2500
   3145.5996    -999.2500    -999.2500    -999.2500      70.8503    -999.2500      48.9526      51.8928      57.1892       0.0644    -999.2500
   3145.7520    -999.2500    -999.2500    -999.2500      72.3899    -999.2500      48.7108      51.5239      58.8293       0.0712    -999.2500
   3145.9043    -999.2500    -999.2500    -999.2500      67.5120    -999.2500      49.8923      53.7270      63.6182       0.0713    -999.2500
   3146.0569    -999.2500    -999.2500    -999.2500      62.6539    -999.2500      50.9624      55.8221      68.1785       0.0650    -999.2500
   3146.2092    -999.2500    -999.2500    -999.2500      57.9559    -999.2500      51.1304      57.0426      70.8869       0.0534    -999.2500
   3146.3616    -999.2500    -999.2500    -999.2500      53.8421    -999.2500      51.2190      57.9626      72.8976       0.0433    -999.2500
   3146.5139    -999.2500    -999.2500    -999.2500      54.5033    -999.2500      50.6598      56.4268      69.2057       0.0406    -999.2500
   3146.6665    -999.2500    -999.2500    -999.2500      55.3988    -999.2500      50.0610      54.7888      65.3304       0.0428    -999.2500
   3146.8188    -999.2500    -999.2500    -999.2500      58.2268    -999.2500      49.1367      52.3083      59.9425       0.0476    -999.2500
   3146.9712    -999.2500    -999.2500    -999.2500      61.0237    -999.2500      48.4391      49.9946      54.8753       0.0532    -999.2500
   3147.1235    -999.2500    -999.2500    -999.2500      63.5572    -999.2500      49.6610      49.0921      52.5218       0.0577    -999.2500
   3147.2759    -999.2500    -999.2500    -999.2500      65.9780    -999.2500      50.8294      48.4073      50.6305       0.0611    -999.2500
   3147.4285    -999.2500    -999.2500    -999.2500      67.4979    -999.2500      51.5706      49.4624      52.4338       0.0631    -999.2500
   3147.5808    -999.2500    -999.2500    -999.2500      68.7150    -999.2500      52.2391      50.5755      54.2648       0.0643    -999.2500
   3147.7332    -999.2500    -999.2500    -999.2500      67.4921    -999.2500      52.3216      52.1568      56.3199       0.0649    -999.2500
   3147.8855    -999.2500    -999.2500    -999.2500      66.0285    -999.2500      52.5297      53.7900      58.4761       0.0650    -999.2500
   3148.0381    -999.2500    -999.2500    -999.2500      62.6077    -999.2500      53.7602      55.8450      61.4544       0.0646    -999.2500
   3148.1904    -999.2500    -999.2500    -999.2500      59.4876    -999.2500      54.9703      57.7645      64.2122       0.0627    -999.2500
   3148.3428    -999.2500    -999.2500    -999.2500      58.8764    -999.2500      56.0104      58.5542      65.1298       0.0589    -999.2500
   3148.4951    -999.2500    -999.2500    -999.2500      58.4583    -999.2500      56.7862      59.1051      65.7270       0.0564    -999.2500
   3148.6475    -999.2500    -999.2500    -999.2500      59.6666    -999.2500      55.3372      57.6461      63.6262       0.0577    -999.2500
   3148.8000    -999.2500    -999.2500    -999.2500      59.5365    -999.2500      54.2275      56.7948      62.3895       0.0616    -999.2500
   3148.9524    -999.2500    -999.2500    -999.2500      48.7616    -999.2500      55.8163      60.7771      68.0256       0.0665    -999.2500
   3149.1047    -999.2500    -999.2500    -999.2500      38.6634    -999.2500      57.4483      64.8635      73.8498       0.0670    -999.2500
   3149.2571    -999.2500    -999.2500    -999.2500      33.9937    -999.2500      59.4269      69.7849      81.1827       0.0589    -999.2500
   3149.4097    -999.2500    -999.2500    -999.2500      30.0241    -999.2500      61.2684      74.4046      88.0876       0.0504    -999.2500
   3149.5620    -999.2500    -999.2500    -999.2500      31.8153    -999.2500      61.9826      76.5422      91.4707       0.0482    -999.2500
   3149.7144    -999.2500    -999.2500    -999.2500      33.6202    -999.2500      62.5783      78.3644      94.3406       0.0494    -999.2500
   3149.8667    -999.2500    -999.2500    -999.2500      35.5386    -999.2500      62.1908      77.5682      92.9513       0.0512    -999.2500
   3150.0193    -999.2500    -999.2500    -999.2500      37.1807    -999.2500      61.7416      76.6347      91.4387       0.0522    -999.2500
   3150.1716    -999.2500    -999.2500    -999.2500      36.6559    -999.2500      60.8090      74.6241      88.9593       0.0514    -999.2500
   3150.3240    -999.2500    -999.2500    -999.2500      36.3285    -999.2500      59.7594      72.4155      86.1350       0.0504    -999.2500
   3150.4763    -999.2500    -999.2500    -999.2500      37.5630    -999.2500      57.7838      68.6401      80.5813       0.0504    -999.2500
   3150.6287    -999.2500    -999.2500    -999.2500      38.7722    -999.2500      55.9377      64.9484      75.1642       0.0511    -999.2500
