#------------------------------------------------------------------------------
#
#   Created by  : [OpenWorks] Log Export Utility (LEXP)
#   Created on  : 2016-05-23 11:57:10
#   Project     : CANT971
#   User        : R5K
#   Interpreter : PEP
#
#------------------------------------------------------------------------------
~VERSION INFORMATION
VERS. 2.0 : CWLS Log ASCII Standard - version 2.0
WRAP.  NO : One line per depth step
~WELL INFORMATION
#MNEMONIC   .UNIT                                           VALUE :DESCRIPTION
#------------------------------------------------------------------------------
STRT        .M                                           345.0980 :START DEPTH
STOP        .M                                          2040.8528 :STOP DEPTH
STEP        .M                                             0.1524 :STEP
NULL        .                                           -999.2500 :NULL VALUE
COMP        .                                   PEMEX EXPL & PROD :COMPANY
WELL        .                                                  71 :WELL
FLD         .                                           CANTARELL :FIELD
LOC         .                                             UNKNOWN :LOCATION
CNTY        .                                      CD. DEL CARMEN :COUNTY
STAT        .                                            CAMPECHE :STATE
CTRY        .                                              MEXICO :COUNTRY
SRVC        .                                             UNKNOWN :SERVICE COMPANY
DATE        .                                             UNKNOWN :LOG DATE
UWI         .                                          3060000175 :UNIQUE WELL ID
XCOORD      .                                       599724.470000 :SURFACE X
YCOORD      .                                      2147216.900000 :SURFACE Y
LAT         .                                           19.417919 :LATITUDE
LON         .                                          -92.050150 :LONGITUDE
ELEV        .M                                            27.8000 :SURFACE ELEV
ELEV_TYPE   .                                                  KB :ELEV TYPE
~CURVE INFORMATION
#MNEMONIC.UNIT        API CODE       : CURVE DESCRIPTION
#------------------------------------------------------------------------------
DEPTH    .M                          : Measured Depth
DT       .us/ft       UNKNOWN        : DT:DT:rC:NONE:v0 (auto-composite)
GR       .UNKNOWN     UNKNOWN        : GR:GR-Load:rC:NONE:v0 (auto-composite)
ILD      .UNKNOWN     UNKNOWN        : ILD:ILD-Load:rC:NONE:v0 (auto-composite)
NPHI     .v/v_decimal UNKNOWN        : NPHI:NPHI:rC:NONE:v0 (auto-composite)
RG       .UNKNOWN     UNKNOWN        : RG:RG-Loader:rC:NONE:v0 (auto-composite)
RHOB     .UNKNOWN     UNKNOWN        : RHOB:RHOB-Load:rC:NONE:v0 (auto-composite)
~A     DEPTH           DT           GR          ILD         NPHI           RG         RHOB
# ...
    653.5556     137.6803      53.9139     126.7178    -999.2500    -999.2500    -999.2500
    653.7080     136.6354      53.6519     125.3623    -999.2500    -999.2500    -999.2500
    653.8604     135.2545      52.8968     123.8216    -999.2500    -999.2500    -999.2500
    654.0128     133.4145      51.4614     122.0267    -999.2500    -999.2500    -999.2500
    654.1652     131.7876      49.5861     121.3244    -999.2500    -999.2500    -999.2500
    654.3176     130.4519      47.1037     122.1229    -999.2500    -999.2500    -999.2500
    654.4700     129.8503      45.7451     123.5322    -999.2500    -999.2500    -999.2500
    654.6224     130.2508      45.9356     125.7805    -999.2500    -999.2500    -999.2500
    654.7748     130.7936      46.3371     127.7888    -999.2500    -999.2500    -999.2500
    654.9272     131.5306      47.0296     129.4678    -999.2500    -999.2500    -999.2500
    655.0797     132.2466      47.1683     130.3254    -999.2500    -999.2500    -999.2500
    655.2320     132.9341      46.5433     130.0559    -999.2500    -999.2500    -999.2500
    655.3844     132.7963      46.3430     129.6117    -999.2500    -999.2500    -999.2500
    655.5368     131.5314      46.7285     128.9277    -999.2500    -999.2500    -999.2500
    655.6892     131.1298      46.3135     128.2362    -999.2500    -999.2500    -999.2500
    655.8416     131.9077      44.7941     127.5342    -999.2500    -999.2500    -999.2500
    655.9940     132.1960      44.5473     127.3747    -999.2500    -999.2500    -999.2500
    656.1464     131.8150      46.0571     127.9602    -999.2500    -999.2500    -999.2500
    656.2988     130.5887      46.9202     128.8256    -999.2500    -999.2500    -999.2500
    656.4512     128.2068      46.8922     130.0755    -999.2500    -999.2500    -999.2500
    656.6036     127.2309      46.1491     131.5259    -999.2500    -999.2500    -999.2500
    656.7560     128.1744      44.4202     133.2517    -999.2500    -999.2500    -999.2500
    656.9084     129.3956      43.8098     133.7144    -999.2500    -999.2500    -999.2500
    657.0609     130.9960      44.7417     132.4440    -999.2500    -999.2500    -999.2500
    657.2132     132.2197      45.2368     130.6585    -999.2500    -999.2500    -999.2500
    657.3656     132.9286      45.1293     128.1660    -999.2500    -999.2500    -999.2500
    657.5180     133.0468      45.0872     125.9227    -999.2500    -999.2500    -999.2500
    657.6704     132.3578      45.1352     124.0212    -999.2500    -999.2500    -999.2500
    657.8228     132.5237      45.0382     122.2902    -999.2500    -999.2500    -999.2500
    657.9752     133.8577      44.7412     120.7933    -999.2500    -999.2500    -999.2500
    658.1276     133.5967      44.2892     120.0176    -999.2500    -999.2500    -999.2500
    658.2800     131.1558      43.6231     120.2326    -999.2500    -999.2500    -999.2500
    658.4324     129.8212      43.3461     120.7688    -999.2500    -999.2500    -999.2500
    658.5848     129.9967      43.6056     121.7465    -999.2500    -999.2500    -999.2500
    658.7372     130.3741      43.8928     123.0879    -999.2500    -999.2500    -999.2500
    658.8896     131.0271      44.2183     124.9283    -999.2500    -999.2500    -999.2500
    659.0420     132.5081      44.1615     125.8746    -999.2500    -999.2500    -999.2500
    659.1944     135.1200      43.5776     125.5936    -999.2500    -999.2500    -999.2500
    659.3468     136.2464      42.9381     125.0062    -999.2500    -999.2500    -999.2500
    659.4992     135.3434      42.2221     123.9982    -999.2500    -999.2500    -999.2500
    659.6516     135.0582      42.0410     122.5248    -999.2500    -999.2500    -999.2500
    659.8040     135.6172      42.5980     120.4124    -999.2500    -999.2500    -999.2500
    659.9564     135.9210      42.8368     118.4594    -999.2500    -999.2500    -999.2500
    660.1088     135.8760      42.6362     116.7255    -999.2500    -999.2500    -999.2500
    660.2612     135.5559      42.2415     115.5838    -999.2500    -999.2500    -999.2500
    660.4136     134.8598      41.5790     115.2557    -999.2500    -999.2500    -999.2500
    660.5660     134.0048      41.3737     115.1465    -999.2500    -999.2500    -999.2500
    660.7184     132.9328      41.7986     115.3375    -999.2500    -999.2500    -999.2500
    660.8708     132.8109      42.4460     115.5563    -999.2500    -999.2500    -999.2500
    661.0232     133.9864      43.4000     115.8133    -999.2500    -999.2500    -999.2500
    661.1756     134.3093      44.2283     116.0998    -999.2500    -999.2500    -999.2500
    661.3280     133.4678      44.8833     116.4268    -999.2500    -999.2500    -999.2500
    661.4804     133.1261      45.3960     116.6109    -999.2500    -999.2500    -999.2500
    661.6328     133.4671      45.7125     116.5989    -999.2500    -999.2500    -999.2500
    661.7852     133.0209      45.7481     116.5810    -999.2500    -999.2500    -999.2500
    661.9376     131.4989      45.3960     116.5550    -999.2500    -999.2500    -999.2500
    662.0900     130.9031      44.9584     116.3437    -999.2500    -999.2500    -999.2500
    662.2424     131.5732      44.4029     115.8777    -999.2500    -999.2500    -999.2500
    662.3948     131.6845      43.9294     115.6575    -999.2500    -999.2500    -999.2500
    662.5472     131.0331      43.5690     115.7750    -999.2500    -999.2500    -999.2500
    662.6996     129.5392      43.4436     116.3094    -999.2500    -999.2500    -999.2500
    662.8521     126.8953      43.6426     117.4159    -999.2500    -999.2500    -999.2500
    663.0044     125.8794      43.6149     118.9856    -999.2500    -999.2500    -999.2500
    663.1568     127.0869      43.2744     121.1910    -999.2500    -999.2500    -999.2500
    663.3092     128.8549      42.8211     123.7174    -999.2500    -999.2500    -999.2500
    663.4616     131.3889      42.2121     126.6843    -999.2500    -999.2500    -999.2500
    663.6140     131.3320      41.3687     127.9335    -999.2500    -999.2500    -999.2500
    663.7664     127.7351      40.2017     126.8240    -999.2500    -999.2500    -999.2500
    663.9188     126.0204      39.5847     126.5292    -999.2500    -999.2500    -999.2500
    664.0712     126.8780      39.7267     127.3531    -999.2500    -999.2500    -999.2500
    664.2236     127.1100      40.2751     129.6556    -999.2500    -999.2500    -999.2500
    664.3760     126.4880      41.3835     133.9893    -999.2500    -999.2500    -999.2500
    664.5284     125.0289      41.9703     136.4897    -999.2500    -999.2500    -999.2500
    664.6808     122.4270      41.8378     136.4747    -999.2500    -999.2500    -999.2500
    664.8333     121.9797      42.0914     136.3147    -999.2500    -999.2500    -999.2500
    664.9856     124.4746      42.8773     135.9557    -999.2500    -999.2500    -999.2500
    665.1380     127.0792      43.8829     135.0046    -999.2500    -999.2500    -999.2500
    665.2904     129.8336      45.1914     133.2406    -999.2500    -999.2500    -999.2500
    665.4428     131.5480      45.6586     130.9272    -999.2500    -999.2500    -999.2500
    665.5952     131.8415      44.9651     127.8593    -999.2500    -999.2500    -999.2500
    665.7476     132.2014      44.2340     124.6172    -999.2500    -999.2500    -999.2500
    665.9000     132.6518      43.4508     121.1358    -999.2500    -999.2500    -999.2500
    666.0524     132.6266      44.1039     119.1878    -999.2500    -999.2500    -999.2500
    666.2048     131.9510      46.7363     119.3463    -999.2500    -999.2500    -999.2500
    666.3572     130.8501      47.8916     120.1119    -999.2500    -999.2500    -999.2500
    666.5096     129.1686      47.0107     121.7104    -999.2500    -999.2500    -999.2500
    666.6620     127.6831      45.2926     123.8353    -999.2500    -999.2500    -999.2500
    666.8144     126.4651      42.4202     126.6827    -999.2500    -999.2500    -999.2500
