#------------------------------------------------------------------------------
#
#   Created by  : [OpenWorks] Log Export Utility (LEXP)
#   Created on  : 2016-05-23 11:56:12
#   Project     : CANT971
#   User        : R5K
#   Interpreter : PEP
#
#------------------------------------------------------------------------------
~VERSION INFORMATION
VERS. 2.0 : CWLS Log ASCII Standard - version 2.0
WRAP.  NO : One line per depth step
~WELL INFORMATION
#MNEMONIC   .UNIT                                           VALUE :DESCRIPTION
#------------------------------------------------------------------------------
STRT        .M                                           365.7604 :START DEPTH
STOP        .M                                          2883.8655 :STOP DEPTH
STEP        .M                                             0.1524 :STEP
NULL        .                                           -999.2500 :NULL VALUE
COMP        .                                   PEMEX EXPL & PROD :COMPANY
WELL        .                                                  44 :WELL
FLD         .                                           CANTARELL :FIELD
LOC         .                                             UNKNOWN :LOCATION
CNTY        .                                      CD. DEL CARMEN :COUNTY
STAT        .                                            CAMPECHE :STATE
CTRY        .                                              MEXICO :COUNTRY
SRVC        .                                             UNKNOWN :SERVICE COMPANY
DATE        .                                             UNKNOWN :LOG DATE
UWI         .                                          3060000162 :UNIQUE WELL ID
XCOORD      .                                       599695.380000 :SURFACE X
YCOORD      .                                      2143038.730000 :SURFACE Y
LAT         .                                           19.380164 :LATITUDE
LON         .                                          -92.050646 :LONGITUDE
ELEV        .M                                            26.7400 :SURFACE ELEV
ELEV_TYPE   .                                                  KB :ELEV TYPE
~CURVE INFORMATION
#MNEMONIC.UNIT        API CODE       : CURVE DESCRIPTION
#------------------------------------------------------------------------------
DEPTH    .M                          : Measured Depth
CALI     .inches      UNKNOWN        : CALI:registros:rC:NONE:v0 (auto-composite)
CGR      .API         UNKNOWN        : CGR:registros:rC:NONE:v0 (auto-composite)
DRHO     .g/cm3       UNKNOWN        : DRHO:registros:rC:NONE:v0 (auto-composite)
DT       .UNKNOWN     UNKNOWN        : DT:registros:rC:NONE:v0 (auto-composite)
GR       .API         UNKNOWN        : GR:registros:rC:NONE:v0 (auto-composite)
ILD      .ohm.m       UNKNOWN        : ILD:registros:rC:NONE:v0 (auto-composite)
LLD      .ohm.m       UNKNOWN        : LLD:registros:rC:NONE:v0 (auto-composite)
LLS      .ohm.m       UNKNOWN        : LLS:registros:rC:NONE:v0 (auto-composite)
MSFL     .ohm.m       UNKNOWN        : MSFL:registros:rC:NONE:v0 (auto-composite)
NPHI     .UNKNOWN     UNKNOWN        : NPHI:registros:rC:NONE:v0 (auto-composite)
PEF      .b/elec      UNKNOWN        : PEF:registros:rC:NONE:v0 (auto-composite)
POTA     .wtpercent   UNKNOWN        : POTA:registros:rC:NONE:v0 (auto-composite)
RHOB     .g/cm3       UNKNOWN        : RHOB:registros:rC:NONE:v0 (auto-composite)
THOR     .ppm         UNKNOWN        : THOR:registros:rC:NONE:v0 (auto-composite)
URAN     .ppm         UNKNOWN        : URAN:registros:rC:NONE:v0 (auto-composite)
~A     DEPTH         CALI          CGR         DRHO           DT           GR          ILD          LLD          LLS         MSFL         NPHI          PEF         POTA         RHOB         THOR         URAN
# ...
   1934.8707      10.3500    -999.2500       0.3480      48.7620      33.3410    -999.2500   45585.1758   67425.7969     274.9550       0.0354    -999.2500    -999.2500       2.9500    -999.2500    -999.2500
   1935.0232      10.2761    -999.2500       0.3113      48.4441      35.9631    -999.2500   45837.5703   66910.1953     140.9170       0.0341    -999.2500    -999.2500       2.9002    -999.2500    -999.2500
   1935.1755      10.2030    -999.2500       0.2750      48.1290      38.5620    -999.2500   46087.7383   66399.1328       8.0600       0.0379    -999.2500    -999.2500       2.8510    -999.2500    -999.2500
   1935.3280      10.1773    -999.2500       0.2016      49.0434      39.4087    -999.2500   45974.8320   67961.5625       5.1553       0.0465    -999.2500    -999.2500       2.7891    -999.2500    -999.2500
   1935.4803      10.1520    -999.2500       0.1290      49.9520      40.2500    -999.2500   45862.6367   69514.1328       2.2690       0.0558    -999.2500    -999.2500       2.7280    -999.2500    -999.2500
   1935.6328      10.2113    -999.2500       0.1049      51.2655      38.1175    -999.2500   46162.6055   68816.6328      10.8202       0.0629    -999.2500    -999.2500       2.7064    -999.2500    -999.2500
   1935.7852      10.2700    -999.2500       0.0810      52.5740      35.9930    -999.2500   46461.4375   68121.7734      19.3390       0.0680    -999.2500    -999.2500       2.6850    -999.2500    -999.2500
   1935.9376      10.2549    -999.2500       0.0709      54.4803      33.9577    -999.2500   45917.8164   66690.2578      35.2551       0.0684    -999.2500    -999.2500       2.6719    -999.2500    -999.2500
   1936.0900      10.2400    -999.2500       0.0610      56.3720      31.9380    -999.2500   45378.3633   65269.7305      51.0490       0.0655    -999.2500    -999.2500       2.6590    -999.2500    -999.2500
   1936.2424      10.2274    -999.2500       0.1012      55.6167      37.9958    -999.2500   42128.8711   59580.4922      84.2200       0.0556    -999.2500    -999.2500       2.6494    -999.2500    -999.2500
   1936.3948      10.2150    -999.2500       0.1410      54.8700      43.9840    -999.2500   38916.6953   53956.5859     117.0100       0.0474    -999.2500    -999.2500       2.6400    -999.2500    -999.2500
   1936.5471      10.3388    -999.2500       0.1948      51.5154      43.0423    -999.2500   40267.6562   55116.2734     479.1320       0.0524    -999.2500    -999.2500       2.6330    -999.2500    -999.2500
   1936.6996      10.4610    -999.2500       0.2480      48.1910      42.1090    -999.2500   41606.4766   56265.5430     838.0000       0.0627    -999.2500    -999.2500       2.6260    -999.2500    -999.2500
   1936.8519      10.5395    -999.2500       0.2711      52.4824      40.1376    -999.2500   42628.9336   58673.8320     449.0416       0.0786    -999.2500    -999.2500       2.5732    -999.2500    -999.2500
   1937.0044      10.6170    -999.2500       0.2940      56.7460      38.1790    -999.2500   43644.7734   61066.5234      62.6020       0.0969    -999.2500    -999.2500       2.5210    -999.2500    -999.2500
   1937.1567      10.5662    -999.2500       0.2568      63.4688      37.0583    -999.2500   45793.3477   63193.6992      37.2067       0.1184    -999.2500    -999.2500       2.4390    -999.2500    -999.2500
   1937.3092      10.5160    -999.2500       0.2200      70.1650      35.9420    -999.2500   47933.4023   65312.4453      11.9120       0.1383    -999.2500    -999.2500       2.3580    -999.2500    -999.2500
   1937.4615      10.7872    -999.2500       0.1450      67.9237      34.1435    -999.2500   47058.2031   64935.7461       9.7706       0.1497    -999.2500    -999.2500       2.3816    -999.2500    -999.2500
   1937.6140      11.0550    -999.2500       0.0710      65.7000      32.3590    -999.2500   46189.8672   64562.0000       7.6460       0.1520    -999.2500    -999.2500       2.4050    -999.2500    -999.2500
   1937.7664      10.7582    -999.2500       0.0313      62.1800      32.4561    -999.2500   42595.6719   58901.6680      11.1570       0.1305    -999.2500    -999.2500       2.4805    -999.2500    -999.2500
   1937.9188      10.4650    -999.2500      -0.0080      58.7010      32.5520    -999.2500   39043.3828   53307.3281      14.6270       0.1024    -999.2500    -999.2500       2.5550    -999.2500    -999.2500
   1938.0712      10.1385    -999.2500      -0.0010      56.2357      34.0875    -999.2500   39115.4648   53580.3359      17.2570       0.0741    -999.2500    -999.2500       2.6119    -999.2500    -999.2500
   1938.2236       9.8160    -999.2500       0.0060      53.7930      35.6090    -999.2500   39186.8867   53850.8438      19.8630       0.0512    -999.2500    -999.2500       2.6680    -999.2500    -999.2500
   1938.3760       9.8381    -999.2500       0.0045      52.2303      34.5650    -999.2500   40574.6367   54986.5195     128.5559       0.0477    -999.2500    -999.2500       2.6655    -999.2500    -999.2500
   1938.5283       9.8600    -999.2500       0.0030      50.6780      33.5280    -999.2500   41953.1602   56114.6406     236.5260       0.0492    -999.2500    -999.2500       2.6630    -999.2500    -999.2500
   1938.6808       9.9420    -999.2500       0.0030      51.0312      32.8331    -999.2500   41546.8711   55714.2812     214.3396       0.0495    -999.2500    -999.2500       2.6469    -999.2500    -999.2500
   1938.8331      10.0230    -999.2500       0.0030      51.3830      32.1410    -999.2500   41142.2617   55315.5742     192.2450       0.0488    -999.2500    -999.2500       2.6310    -999.2500    -999.2500
   1938.9856       9.9098    -999.2500       0.0110      51.9794      33.6380    -999.2500   39103.2070   52534.4805     204.7893       0.0460    -999.2500    -999.2500       2.6240    -999.2500    -999.2500
   1939.1379       9.7980    -999.2500       0.0190      52.5710      35.1230    -999.2500   37080.4961   49775.6836     217.2330       0.0436    -999.2500    -999.2500       2.6170    -999.2500    -999.2500
   1939.2904       9.7110    -999.2500       0.0306      51.6988      38.5015    -999.2500   27225.8301   36946.7031     302.5877       0.0447    -999.2500    -999.2500       2.6587    -999.2500    -999.2500
   1939.4427       9.6250    -999.2500       0.0420      50.8370      41.8400    -999.2500   17487.6953   24269.4219     386.9330       0.0458    -999.2500    -999.2500       2.7000    -999.2500    -999.2500
   1939.5952       9.6899    -999.2500       0.0470      51.3298      43.5218    -999.2500    9225.4307   12593.8994     614.1730       0.0440    -999.2500    -999.2500       2.7201    -999.2500    -999.2500
   1939.7476       9.7540    -999.2500       0.0520      51.8180      45.1880    -999.2500    1040.2440    1027.2970     839.2930       0.0410    -999.2500    -999.2500       2.7400    -999.2500    -999.2500
   1939.9000       9.7364    -999.2500       0.0334      52.0207      40.5994    -999.2500    1137.2286    1160.1194    1001.3656       0.0369    -999.2500    -999.2500       2.7199    -999.2500    -999.2500
   1940.0524       9.7190    -999.2500       0.0150      52.2220      36.0420    -999.2500    1233.5520    1292.0360    1162.3330       0.0326    -999.2500    -999.2500       2.7000    -999.2500    -999.2500
   1940.2048       9.6531    -999.2500       0.0075      52.4128      31.6854    -999.2500    6931.7871    8958.5947     855.3693       0.0285    -999.2500    -999.2500       2.7080    -999.2500    -999.2500
   1940.3572       9.5880    -999.2500       0.0000      52.6030      27.3440    -999.2500   12610.0244   16598.2480     549.4830       0.0243    -999.2500    -999.2500       2.7160    -999.2500    -999.2500
   1940.5095       9.6106    -999.2500       0.0146      52.2873      30.5965    -999.2500   28205.3320   36869.0664     390.3303       0.0196    -999.2500    -999.2500       2.7583    -999.2500    -999.2500
   1940.6620       9.6330    -999.2500       0.0290      51.9740      33.8250    -999.2500   43685.3750   56990.0586     232.3540       0.0154    -999.2500    -999.2500       2.8000    -999.2500    -999.2500
