#------------------------------------------------------------------------------
#
#   Created by  : [OpenWorks] Log Export Utility (LEXP)
#   Created on  : 2016-05-23 11:56:24
#   Project     : CANT971
#   User        : R5K
#   Interpreter : PEP
#
#------------------------------------------------------------------------------
~VERSION INFORMATION
VERS. 2.0 : CWLS Log ASCII Standard - version 2.0
WRAP.  NO : One line per depth step
~WELL INFORMATION
#MNEMONIC   .UNIT                                           VALUE :DESCRIPTION
#------------------------------------------------------------------------------
STRT        .M                                           741.4294 :START DEPTH
STOP        .M                                          2768.5020 :STOP DEPTH
STEP        .M                                             0.1524 :STEP
NULL        .                                           -999.2500 :NULL VALUE
COMP        .                                             UNKNOWN :COMPANY
WELL        .                                                 470 :WELL
FLD         .                                             UNKNOWN :FIELD
LOC         .                                             UNKNOWN :LOCATION
CNTY        .                                             UNKNOWN :COUNTY
STAT        .                                             UNKNOWN :STATE
CTRY        .                                             UNKNOWN :COUNTRY
SRVC        .                                             UNKNOWN :SERVICE COMPANY
DATE        .                                             UNKNOWN :LOG DATE
UWI         .                                                 470 :UNIQUE WELL ID
XCOORD      .                                       598706.890000 :SURFACE X
YCOORD      .                                      2143306.000000 :SURFACE Y
LAT         .                                           19.382628 :LATITUDE
LON         .                                          -92.060044 :LONGITUDE
ELEV        .M                                             0.0000 :SURFACE ELEV
ELEV_TYPE   .                                                  NA :ELEV TYPE
~CURVE INFORMATION
#MNEMONIC.UNIT        API CODE       : CURVE DESCRIPTION
#------------------------------------------------------------------------------
DEPTH    .M                          : Measured Depth
CALI     .inches      UNKNOWN        : CALI:litodensidad:rC:NONE:v0 (auto-composite)
CGR      .API         UNKNOWN        : CGR:PETROWORKS:rC:NONE:v1 
DRHO     .g/cm3       UNKNOWN        : DRHO:litodensidad:rC:NONE:v0 (auto-composite)
DT       .us/ft       UNKNOWN        : DT:PETROWORKS:rC:NONE:v1 
GR       .API         UNKNOWN        : GR:PETROWORKS:rC:NONE:v8 
ILD      .ohm.m       UNKNOWN        : ILD:PETROWORKS:rC:NONE:v1 
ILM      .ohm.m       UNKNOWN        : ILM:PETROWORKS:rC:NONE:v1 
LLD      .ohm.m       UNKNOWN        : LLD:resistivos:rC:NONE:v0 (auto-composite)
LLS      .ohm.m       UNKNOWN        : LLS:resistivos:rC:NONE:v0 (auto-composite)
MSFL     .ohm.m       UNKNOWN        : MSFL:resistivos:rC:NONE:v0 (auto-composite)
NPHI     .v/v_decimal UNKNOWN        : NPHI:PETROWORKS:rC:NONE:v1 
PEF      .UNKNOWN     UNKNOWN        : PEF:litodensidad:rC:NONE:v0 (auto-composite)
POTA     .wtpercent   UNKNOWN        : POTA:PETROWORKS:rC:NONE:v1 
RHOB     .g/cm3       UNKNOWN        : RHOB:litodensidad:rC:NONE:v0 (auto-composite)
THOR     .ppm         UNKNOWN        : THOR:PETROWORKS:rC:NONE:v1 
URAN     .ppm         UNKNOWN        : URAN:PETROWORKS:rC:NONE:v1 
~A     DEPTH         CALI          CGR         DRHO           DT           GR          ILD          ILM          LLD          LLS         MSFL         NPHI          PEF         POTA         RHOB         THOR         URAN
# ...
   2359.7651    -999.2500      13.4547    -999.2500    -999.2500      27.4512      42.8706      55.2355    -999.2500    -999.2500    -999.2500       0.0364    -999.2500       0.0038    -999.2500       1.5598       2.0230
   2359.9175    -999.2500      15.3700    -999.2500    -999.2500      21.5606      44.0519      59.2928    -999.2500    -999.2500    -999.2500       0.0388    -999.2500       0.0042    -999.2500       1.8498       2.1670
   2360.0698    -999.2500       8.0328    -999.2500    -999.2500      16.1577      44.8610      61.4198    -999.2500    -999.2500    -999.2500       0.0355    -999.2500       0.0028    -999.2500       0.7033       1.6729
   2360.2222    -999.2500       5.0523    -999.2500    -999.2500      11.1217      47.1827      60.6180    -999.2500    -999.2500    -999.2500       0.0277    -999.2500      -0.0003    -999.2500       1.3026       1.3164
   2360.3748    -999.2500       5.1202    -999.2500    -999.2500       9.4988      45.6888      65.0658    -999.2500    -999.2500    -999.2500       0.0223    -999.2500      -0.0003    -999.2500       1.3183       1.3814
   2360.5271    -999.2500       9.8538    -999.2500    -999.2500       9.5878      44.6402      64.0943    -999.2500    -999.2500    -999.2500       0.0216    -999.2500       0.0019    -999.2500       1.5143       1.9413
   2360.6794    -999.2500      16.4866    -999.2500    -999.2500       9.0044      49.0182      64.0884    -999.2500    -999.2500    -999.2500       0.0225    -999.2500       0.0041    -999.2500       2.1527       1.9958
   2360.8318    -999.2500      14.4576    -999.2500    -999.2500      10.2492      48.2690      61.9420    -999.2500    -999.2500    -999.2500       0.0256    -999.2500       0.0036    -999.2500       1.8803       1.6868
   2360.9841    -999.2500       6.0345    -999.2500    -999.2500       8.7886      49.6858      62.0909    -999.2500    -999.2500    -999.2500       0.0247    -999.2500       0.0014    -999.2500       0.8310       1.9249
   2361.1367    -999.2500       4.4156    -999.2500    -999.2500       9.7455      51.9797      59.7560    -999.2500    -999.2500    -999.2500       0.0214    -999.2500       0.0022    -999.2500       0.1007       1.5361
   2361.2891    -999.2500       2.7992    -999.2500    -999.2500      12.0669      59.9291      57.2228    -999.2500    -999.2500    -999.2500       0.0201    -999.2500       0.0018    -999.2500      -0.0879       1.0451
   2361.4414    -999.2500       1.6439    -999.2500    -999.2500      13.9716      60.8328      56.0859    -999.2500    -999.2500    -999.2500       0.0191    -999.2500       0.0016    -999.2500      -0.2940       0.8295
   2361.5938    -999.2500       2.3338    -999.2500    -999.2500      16.4983      54.3536      52.5520    -999.2500    -999.2500    -999.2500       0.0212    -999.2500       0.0015    -999.2500      -0.0794       0.8977
   2361.7463    -999.2500       2.2870    -999.2500    -999.2500      15.9600      57.9878      48.1472    -999.2500    -999.2500    -999.2500       0.0207    -999.2500       0.0011    -999.2500       0.0637       0.6416
   2361.8987    -999.2500       5.1830    -999.2500    -999.2500      17.2547      60.5815      45.3271    -999.2500    -999.2500    -999.2500       0.0243    -999.2500       0.0021    -999.2500       0.3188       0.6458
   2362.0510    -999.2500       3.6599    -999.2500    -999.2500      18.9828      61.5157      43.5037    -999.2500    -999.2500    -999.2500       0.0252    -999.2500       0.0013    -999.2500       0.2943       0.5773
   2362.2034    -999.2500       3.1465    -999.2500    -999.2500      21.6812      53.2969      40.6947    -999.2500    -999.2500    -999.2500       0.0294    -999.2500       0.0013    -999.2500       0.1948       0.6224
   2362.3560    -999.2500       0.6927    -999.2500    -999.2500      22.8437      59.7898      36.5682    -999.2500    -999.2500    -999.2500       0.0318    -999.2500      -0.0005    -999.2500       0.3629       1.2430
   2362.5083    -999.2500       1.1418    -999.2500    -999.2500      26.2338      60.2983      34.7869    -999.2500    -999.2500    -999.2500       0.0375    -999.2500      -0.0005    -999.2500       0.4880       1.2778
   2362.6606    -999.2500       5.1129    -999.2500    -999.2500      33.2465      55.7077      32.5504    -999.2500    -999.2500    -999.2500       0.0453    -999.2500       0.0007    -999.2500       0.8909       1.3026
   2362.8130    -999.2500       4.6040    -999.2500    -999.2500      31.3700      65.7568      30.8249    -999.2500    -999.2500    -999.2500       0.0581    -999.2500       0.0008    -999.2500       0.7553       1.2692
   2362.9653    -999.2500       5.8479    -999.2500    -999.2500      29.0456      66.7557      29.3632    -999.2500    -999.2500    -999.2500       0.0722    -999.2500       0.0017    -999.2500       0.6590       1.2749
   2363.1179    -999.2500       6.8160    -999.2500    -999.2500      27.5499      81.7238      34.7324    -999.2500    -999.2500    -999.2500       0.0810    -999.2500       0.0021    -999.2500       0.7260       1.3599
   2363.2703    -999.2500       8.6145    -999.2500    -999.2500      25.7046      68.8575      40.9147    -999.2500    -999.2500    -999.2500       0.0790    -999.2500       0.0030    -999.2500       0.7742       1.4605
   2363.4226    -999.2500       9.5656    -999.2500    -999.2500      21.1339      62.2488      42.4530    -999.2500    -999.2500    -999.2500       0.0628    -999.2500       0.0037    -999.2500       0.6962       1.4841
   2363.5750    -999.2500      11.6113    -999.2500    -999.2500      16.5544      60.4664      43.4210    -999.2500    -999.2500    -999.2500       0.0493    -999.2500       0.0042    -999.2500       0.9728       1.6343
   2363.7275    -999.2500      16.9488    -999.2500    -999.2500      14.2452      73.3376      44.3891    -999.2500    -999.2500    -999.2500       0.0492    -999.2500       0.0059    -999.2500       1.4917       1.8216
   2363.8799    -999.2500      15.9174    -999.2500    -999.2500      15.0348      61.5799      46.3201    -999.2500    -999.2500    -999.2500       0.0627    -999.2500       0.0055    -999.2500       1.4111       1.7271
   2364.0322    -999.2500      14.3267    -999.2500    -999.2500      15.0191      91.4291      47.4311    -999.2500    -999.2500    -999.2500       0.0837    -999.2500       0.0050    -999.2500       1.2615       1.6451
   2364.1846    -999.2500      13.2146    -999.2500    -999.2500      12.5130      67.7160      51.1992    -999.2500    -999.2500    -999.2500       0.1137    -999.2500       0.0042    -999.2500       1.3214       1.6022
   2364.3372    -999.2500      12.2550    -999.2500    -999.2500      13.7014      67.7687      52.4982    -999.2500    -999.2500    -999.2500       0.1412    -999.2500       0.0038    -999.2500       1.2820       1.5032
   2364.4895    -999.2500      10.5932    -999.2500    -999.2500      15.0513      75.4118      54.3109    -999.2500    -999.2500    -999.2500       0.1567    -999.2500       0.0033    -999.2500       1.1091       1.1781
   2364.6418    -999.2500       8.6446    -999.2500    -999.2500      14.1983      54.2580      55.6623    -999.2500    -999.2500    -999.2500       0.1425    -999.2500       0.0032    -999.2500       0.6949       0.8841
   2364.7942    -999.2500       6.9531    -999.2500    -999.2500      15.0501      58.0632      54.8919    -999.2500    -999.2500    -999.2500       0.1108    -999.2500       0.0022    -999.2500       0.6990       0.8150
   2364.9465    -999.2500       7.9309    -999.2500    -999.2500      19.4079      58.6477      58.6283    -999.2500    -999.2500    -999.2500       0.0800    -999.2500       0.0026    -999.2500       0.7436       0.7940
   2365.0991    -999.2500       8.0753    -999.2500    -999.2500      19.9525      49.4413      61.0278    -999.2500    -999.2500    -999.2500       0.0603    -999.2500       0.0026    -999.2500       0.8097       0.7761
   2365.2515    -999.2500       5.6558    -999.2500    -999.2500      23.8912      50.4525      61.9982    -999.2500    -999.2500    -999.2500       0.0522    -999.2500       0.0017    -999.2500       0.6242       0.7664
