#------------------------------------------------------------------------------
#
#   Created by  : [OpenWorks] Log Export Utility (LEXP)
#   Created on  : 2016-05-23 11:56:31
#   Project     : CANT971
#   User        : R5K
#   Interpreter : PEP
#
#------------------------------------------------------------------------------
~VERSION INFORMATION
VERS. 2.0 : CWLS Log ASCII Standard - version 2.0
WRAP.  NO : One line per depth step
~WELL INFORMATION
#MNEMONIC   .UNIT                                           VALUE :DESCRIPTION
#------------------------------------------------------------------------------
STRT        .M                                          1639.8856 :START DEPTH
STOP        .M                                          2789.8960 :STOP DEPTH
STEP        .M                                             0.1524 :STEP
NULL        .                                           -999.2500 :NULL VALUE
COMP        .                                             UNKNOWN :COMPANY
WELL        .                                                 477 :WELL
FLD         .                                             UNKNOWN :FIELD
LOC         .                                             UNKNOWN :LOCATION
CNTY        .                                             UNKNOWN :COUNTY
STAT        .                                             UNKNOWN :STATE
CTRY        .                                             UNKNOWN :COUNTRY
SRVC        .                                             UNKNOWN :SERVICE COMPANY
DATE        .                                             UNKNOWN :LOG DATE
UWI         .                                                 477 :UNIQUE WELL ID
XCOORD      .                                       598704.070000 :SURFACE X
YCOORD      .                                      2143268.860000 :SURFACE Y
LAT         .                                           19.382293 :LATITUDE
LON         .                                          -92.060073 :LONGITUDE
ELEV        .M                                             0.0000 :SURFACE ELEV
ELEV_TYPE   .                                                  KB :ELEV TYPE
~CURVE INFORMATION
#MNEMONIC.UNIT        API CODE       : CURVE DESCRIPTION
#------------------------------------------------------------------------------
DEPTH    .M                          : Measured Depth
CALI     .inches      UNKNOWN        : CALI:litodensidad:rC:NONE:v0 (auto-composite)
CGR      .API         UNKNOWN        : CGR:Espectrometria:rC:NONE:v0 (auto-composite)
DRHO     .g/cm3       UNKNOWN        : DRHO:litodensidad:rC:NONE:v0 (auto-composite)
DT       .us/ft       UNKNOWN        : DT:Sonico:rC:NONE:v0 (auto-composite)
GR       .API         UNKNOWN        : GR:Espectrometria:rC:NONE:v0 (auto-composite)
GR-LWD   .API         UNKNOWN        : GR-LWD:resistivos-LWD:rC:NONE:v0 (auto-composite)
LLD      .ohm.m       UNKNOWN        : LLD:resistivos:rC:NONE:v0 (auto-composite)
LLD-LWD  .ohm.m       UNKNOWN        : LLD-LWD:resistivos-LWD:rC:NONE:v0 (auto-composite)
LLS      .ohm.m       UNKNOWN        : LLS:resistivos:rC:NONE:v0 (auto-composite)
LLS-LWD  .ohm.m       UNKNOWN        : LLS-LWD:resistivos-LWD:rC:NONE:v0 (auto-composite)
MSFL     .ohm.m       UNKNOWN        : MSFL:resistivos:rC:NONE:v0 (auto-composite)
MSFL-LWD .ohm.m       UNKNOWN        : MSFL-LWD:resistivos-LWD:rC:NONE:v0 (auto-composite)
NPHI     .UNKNOWN     UNKNOWN        : NPHI:porosidad:rC:NONE:v0 (auto-composite)
PEF      .UNKNOWN     UNKNOWN        : PEF:litodensidad:rC:NONE:v0 (auto-composite)
POTA     .wtpercent   UNKNOWN        : POTA:PETROWORKS:rC:NONE:v1 
RHOB     .g/cm3       UNKNOWN        : RHOB:litodensidad:rC:NONE:v0 (auto-composite)
THOR     .ppm         UNKNOWN        : THOR:Espectrometria:rC:NONE:v0 (auto-composite)
URAN     .ppm         UNKNOWN        : URAN:Espectrometria:rC:NONE:v0 (auto-composite)
~A     DEPTH         CALI          CGR         DRHO           DT           GR       GR-LWD          LLD      LLD-LWD          LLS      LLS-LWD         MSFL     MSFL-LWD         NPHI          PEF         POTA         RHOB         THOR         URAN
# ...
   2776.4849       8.7375      23.1922       0.0979    -999.2500      39.2644    -999.2500      34.3813    -999.2500      33.8294    -999.2500       0.7540    -999.2500       0.0575       3.3727       0.0106       2.7811       2.3915       1.7894
   2776.6372       8.7213      23.1922       0.0450    -999.2500      39.2645    -999.2500      34.3909    -999.2500      33.8223    -999.2500       0.7282    -999.2500       0.0574       3.3494       0.0106       2.7414       2.3915       1.7894
   2776.7896       8.6966      23.1815       0.0149    -999.2500      39.2390    -999.2500      34.3930    -999.2500      33.8225    -999.2500       0.7087    -999.2500       0.0570       3.3606       0.0105       2.7146       2.3901       1.7877
   2776.9421       8.8849      23.2622       0.0210    -999.2500      39.4314    -999.2500      34.3910    -999.2500      33.8095    -999.2500       0.7063    -999.2500       0.0565       3.3999       0.0106       2.7151       2.4007       1.8002
   2777.0945       8.8098      23.2621       0.0406    -999.2500      39.4313    -999.2500      36.9086    -999.2500      35.3388    -999.2500       0.7001    -999.2500       0.0563       3.4250       0.0106       2.7269       2.4007       1.8002
   2777.2468       8.8271      23.2621       0.0509    -999.2500      39.4313    -999.2500      33.8446    -999.2500      34.4689    -999.2500       0.6371    -999.2500       0.0564       3.4227       0.0106       2.7324       2.4007       1.8002
   2777.3992       8.8315      23.2621       0.0461    -999.2500      39.4313    -999.2500      28.0187    -999.2500      32.3727    -999.2500       0.5067    -999.2500       0.0562       3.4002       0.0106       2.7313       2.4007       1.8002
   2777.5515       8.9486      23.2733       0.0338    -999.2500      39.4581    -999.2500       9.8601    -999.2500      13.6832    -999.2500       0.4030    -999.2500       0.0552       3.3909       0.0106       2.7382       2.4022       1.8019
   2777.7041       9.1235      23.2802       0.0327    -999.2500      39.4749    -999.2500       0.2500    -999.2500       0.0068    -999.2500       0.3622    -999.2500       0.0542       3.3914       0.0106       2.7615       2.4031       1.8030
   2777.8564       9.0827      23.2804       0.0498    -999.2500      39.4749    -999.2500       0.2500    -999.2500       0.0064    -999.2500       0.3846    -999.2500       0.0543       3.3977       0.0106       2.7834       2.4031       1.8030
   2778.0088       8.9287      23.2804       0.0673    -999.2500      39.4749    -999.2500       0.8019    -999.2500       1.2348    -999.2500       0.3882    -999.2500       0.0550       3.3913       0.0106       2.7924       2.4031       1.8030
   2778.1611       8.9634      23.2804       0.0653    -999.2500      39.4749    -999.2500      14.0289    -999.2500      20.7968    -999.2500       0.3796    -999.2500       0.0550       3.3682       0.0106       2.7812       2.4031       1.8030
   2778.3137       9.0209      23.2804       0.0500    -999.2500      39.4749    -999.2500      25.8713    -999.2500      29.1093    -999.2500       0.3752    -999.2500       0.0548       3.3510       0.0106       2.7715       2.4031       1.8030
   2778.4661       9.0248      23.2803       0.0365    -999.2500      39.4748    -999.2500      31.1876    -999.2500      31.4441    -999.2500       0.3791    -999.2500       0.0547       3.3688       0.0106       2.7717       2.4031       1.8030
   2778.6184       9.0006      23.2802       0.0375    -999.2500      39.4749    -999.2500      33.9010    -999.2500      32.4804    -999.2500       0.3813    -999.2500       0.0548       3.4152       0.0106       2.7827       2.4031       1.8030
   2778.7708       8.9844      23.2803       0.0431    -999.2500      39.4748    -999.2500      33.8932    -999.2500      32.4578    -999.2500       0.3609    -999.2500       0.0553       3.4482       0.0106       2.7889       2.4031       1.8030
   2778.9233       8.8296      23.2158       0.0422    -999.2500      39.3221    -999.2500      33.8930    -999.2500      32.4571    -999.2500       0.3395    -999.2500       0.0564       3.4506       0.0106       2.7797       2.3947       1.7932
   2779.0757       8.7005      22.9713       0.0360    -999.2500      38.7422    -999.2500      33.8930    -999.2500      32.4571    -999.2500       0.3179    -999.2500       0.0574       3.4442       0.0105       2.7663       2.3627       1.7558
   2779.2280       8.6926      22.9712       0.0321    -999.2500      38.7422    -999.2500      33.8930    -999.2500      32.4571    -999.2500       0.3038    -999.2500       0.0577       3.4539       0.0105       2.7593       2.3627       1.7558
   2779.3804       8.6881      22.9712       0.0330    -999.2500      38.7421    -999.2500      33.8930    -999.2500      32.4571    -999.2500       0.2948    -999.2500       0.0578       3.4565       0.0105       2.7647       2.3626       1.7558
   2779.5327       8.6754      22.9713       0.0326    -999.2500      38.7422    -999.2500      33.8930    -999.2500      32.4571    -999.2500       0.2962    -999.2500       0.0579       3.3805       0.0105       2.7723       2.3627       1.7558
   2779.6853       8.6652      22.9711       0.0207    -999.2500      38.7422    -999.2500      33.8930    -999.2500      32.4571    -999.2500       0.2972    -999.2500       0.0580       3.1582       0.0105       2.7733       2.3626       1.7559
   2779.8376       8.6565      22.9713       0.0018    -999.2500      38.7422    -999.2500      33.8930    -999.2500      32.4571    -999.2500       0.2977    -999.2500       0.0581       2.8976       0.0105       2.7650       2.3627       1.7558
   2779.9900       8.6484      22.9712      -0.0065    -999.2500      38.7422    -999.2500      33.8930    -999.2500      32.4571    -999.2500       0.2982    -999.2500       0.0582       2.8291       0.0105       2.7540       2.3626       1.7558
   2780.1423       8.6421      22.9713       0.0074    -999.2500      38.7422    -999.2500      33.8930    -999.2500      32.4571    -999.2500       0.2982    -999.2500       0.0582       3.0432       0.0105       2.7570       2.3627       1.7558
   2780.2949       8.6431      22.9713       0.0267    -999.2500      38.7422    -999.2500      33.8930    -999.2500      32.4571    -999.2500       0.2977    -999.2500       0.0583       3.3065       0.0105       2.7659       2.3627       1.7558
   2780.4473       8.6392      22.9713       0.0349    -999.2500      38.7422    -999.2500      33.8930    -999.2500      32.4571    -999.2500       0.2968    -999.2500       0.0584       3.4306       0.0105       2.7716       2.3627       1.7558
   2780.5996       8.6388      22.9712       0.0352    -999.2500      38.7421    -999.2500      33.8930    -999.2500      32.4571    -999.2500       0.2959    -999.2500       0.0613       3.4631       0.0105       2.7719       2.3627       1.7558
   2780.7520       7.3527      22.4214       0.0324    -999.2500      37.4899    -999.2500      33.8930    -999.2500      32.4571    -999.2500       0.2952    -999.2500       0.0655       3.4763       0.0103       2.7683       2.2919       1.6777
   2780.9045       8.5000      23.0645       0.0272    -999.2500      38.9618    -999.2500      33.8930    -999.2500      32.4571    -999.2500       0.2949    -999.2500       0.0644       3.4713       0.0105       2.7634       2.3748       1.7699
   2781.0569       8.5000      23.0646       0.0203    -999.2500      38.9618    -999.2500      33.8930    -999.2500      32.4571    -999.2500       0.2952    -999.2500       0.0608       3.4535       0.0105       2.7583       2.3748       1.7699
   2781.2092       8.5000      23.0645       0.0160    -999.2500      38.9618    -999.2500      33.8930    -999.2500      32.4571    -999.2500       0.2957    -999.2500       0.0597       3.4396       0.0105       2.7579       2.3748       1.7699
   2781.3616       8.5000      23.0645       0.0145    -999.2500      38.9618    -999.2500      33.8930    -999.2500      32.4571    -999.2500       0.2960    -999.2500       0.0597       3.4356       0.0105       2.7591       2.3748       1.7699
