#------------------------------------------------------------------------------
#
#   Created by  : [OpenWorks] Log Export Utility (LEXP)
#   Created on  : 2016-05-23 11:57:02
#   Project     : CANT971
#   User        : R5K
#   Interpreter : PEP
#
#------------------------------------------------------------------------------
~VERSION INFORMATION
VERS. 2.0 : CWLS Log ASCII Standard - version 2.0
WRAP.  NO : One line per depth step
~WELL INFORMATION
#MNEMONIC   .UNIT                                           VALUE :DESCRIPTION
#------------------------------------------------------------------------------
STRT        .M                                           493.3184 :START DEPTH
STOP        .M                                          2467.0508 :STOP DEPTH
STEP        .M                                             0.1524 :STEP
NULL        .                                           -999.2500 :NULL VALUE
COMP        .                                   PEMEX EXPL & PROD :COMPANY
WELL        .                                                  63 :WELL
FLD         .                                           CANTARELL :FIELD
LOC         .                                             UNKNOWN :LOCATION
CNTY        .                                      CD. DEL CARMEN :COUNTY
STAT        .                                            CAMPECHE :STATE
CTRY        .                                              MEXICO :COUNTRY
SRVC        .                                             UNKNOWN :SERVICE COMPANY
DATE        .                                             UNKNOWN :LOG DATE
UWI         .                                          3060000615 :UNIQUE WELL ID
XCOORD      .                                       601716.240000 :SURFACE X
YCOORD      .                                      2142344.800000 :SURFACE Y
LAT         .                                           19.373792 :LATITUDE
LON         .                                          -92.031441 :LONGITUDE
ELEV        .M                                            24.0000 :SURFACE ELEV
ELEV_TYPE   .                                                  KB :ELEV TYPE
~CURVE INFORMATION
#MNEMONIC.UNIT        API CODE       : CURVE DESCRIPTION
#------------------------------------------------------------------------------
DEPTH    .M                          : Measured Depth
CALI     .inches      UNKNOWN        : CALI:Import:rC:NONE:v0 (auto-composite)
DRHO     .g/cm3       UNKNOWN        : DRHO:Import:rC:NONE:v0 (auto-composite)
DT       .us/ft       UNKNOWN        : DT:Import:rC:NONE:v0 (auto-composite)
GR       .API         UNKNOWN        : GR:Import:rC:NONE:v0 (auto-composite)
ILD      .ohm.m       UNKNOWN        : ILD:Import:rC:NONE:v0 (auto-composite)
ILM      .ohm.m       UNKNOWN        : ILM:Import:rC:NONE:v0 (auto-composite)
LLD      .ohm.m       UNKNOWN        : LLD:Import:rC:NONE:v0 (auto-composite)
LLS      .ohm.m       UNKNOWN        : LLS:Import:rC:NONE:v0 (auto-composite)
MSFL     .ohm.m       UNKNOWN        : MSFL:Import:rC:NONE:v0 (auto-composite)
NPHI     .v/v_decimal UNKNOWN        : NPHI:Import:rC:NONE:v0 (auto-composite)
PEF      .b/elec      UNKNOWN        : PEF:Import:rC:NONE:v0 (auto-composite)
RHOB     .g/cm3       UNKNOWN        : RHOB:Import:rC:NONE:v0 (auto-composite)
~A     DEPTH         CALI         DRHO           DT           GR          ILD          ILM          LLD          LLS         MSFL         NPHI          PEF         RHOB
# ...
   2109.9775       6.0080       0.0405      56.4331      21.5093    -999.2500    -999.2500    1011.9968     304.9190     228.1986       0.0461       3.6580       2.8015
   2110.1299       6.0080       0.0380      56.2500      20.5470    -999.2500    -999.2500    1010.4170     289.9400      91.5000       0.0424       3.6640       2.8000
   2110.2825       6.0080       0.0355      55.9472      19.7161    -999.2500    -999.2500    1025.3616     287.2320      79.9050       0.0433       3.7175       2.7920
   2110.4348       6.0080       0.0330      55.6440      18.8830    -999.2500    -999.2500    1040.3230     284.5210      68.2970       0.0442       3.7710       2.7840
   2110.5872       6.0080       0.0330      55.3640      20.2675    -999.2500    -999.2500    1119.5780     311.3887     246.4432       0.0430       3.5846       2.7735
   2110.7395       6.0080       0.0330      55.0840      21.6560    -999.2500    -999.2500    1198.9320     338.2900     424.8120       0.0416       3.3980       2.7630
   2110.8918       6.0080       0.0335      54.5419      21.1218    -999.2500    -999.2500    1240.0358     350.4646     380.6314       0.0397       3.3620       2.7695
   2111.0444       6.0080       0.0340      54.0000      20.5860    -999.2500    -999.2500    1281.1960     362.6560     336.3900       0.0378       3.3260       2.7760
   2111.1968       6.0080       0.0400      54.3250      21.2999    -999.2500    -999.2500    1270.3746     351.2241     320.1472       0.0369       3.4149       2.7835
   2111.3491       6.0080       0.0460      54.6500      22.0160    -999.2500    -999.2500    1259.5370     339.7750     303.8800       0.0360       3.5040       2.7910
   2111.5015       6.0080       0.0530      53.8250      21.0086    -999.2500    -999.2500    1244.4303     336.0331     185.5363       0.0346       3.6169       2.7985
   2111.6541       6.0080       0.0600      53.0000      19.9980    -999.2500    -999.2500    1229.2990     332.2850      67.0000       0.0335       3.7300       2.8060
   2111.8064       6.0100       0.0540      53.2500      18.3103    -999.2500    -999.2500    1381.7764     352.6766     119.3606       0.0394       3.9068       2.7885
   2111.9587       6.0120       0.0480      53.5000      16.6170    -999.2500    -999.2500    1534.5210     373.1040     171.8130       0.0453       4.0840       2.7710
   2112.1111       6.0120       0.0480      53.4595      16.7044    -999.2500    -999.2500    1722.3824     397.5455     128.8863       0.0453       4.0745       2.7715
   2112.2637       6.0120       0.0480      53.4190      16.7920    -999.2500    -999.2500    1910.5970     422.0330      85.8790       0.0450       4.0650       2.7720
   2112.4160       6.0100       0.0555      52.5597      18.6362    -999.2500    -999.2500    2156.5996     485.6977      53.7956       0.0408       3.8590       2.7795
   2112.5684       6.0080       0.0630      51.7000      20.4840    -999.2500    -999.2500    2402.7009     549.4900      21.6480       0.0365       3.6530       2.7870
   2112.7207       6.0080       0.0665      51.2656      21.0539    -999.2500    -999.2500    2799.0117     618.4915      20.5127       0.0340       3.5155       2.7950
   2112.8730       6.0080       0.0700      50.8310      21.6250    -999.2500    -999.2500    3195.5310     687.6400      19.3750       0.0317       3.3780       2.8030
   2113.0256       6.0360       0.0600      50.6501      20.9927    -999.2500    -999.2500    3801.0427     743.6102      53.7898       0.0310       3.2630       2.7990
   2113.1780       6.0640       0.0500      50.4690      20.3590    -999.2500    -999.2500    4406.9492     799.6170      88.2270       0.0302       3.1480       2.7950
   2113.3303       6.0755       0.0405      50.0757      21.0347    -999.2500    -999.2500    4711.4775     917.4867    1043.7422       0.0279       3.0890       2.8015
   2113.4827       6.0870       0.0310      49.6820      21.7120    -999.2500    -999.2500    5016.2422    1035.4480    2000.0000       0.0256       3.0300       2.8080
   2113.6353       6.1000       0.0265      48.5915      21.9807    -999.2500    -999.2500    3843.2021     948.2294    1007.2180       0.0241       3.1654       2.8175
   2113.7876       6.1130       0.0220      47.5000      22.2500    -999.2500    -999.2500    2669.1021     860.9320      13.5390       0.0228       3.3010       2.8270
   2113.9399       6.1305       0.0330      49.2241      19.7573    -999.2500    -999.2500    5945.6064     690.4152      14.1462       0.0245       3.2245       2.8325
   2114.0923       6.1480       0.0440      50.9500      17.2580    -999.2500    -999.2500    9225.4805     519.7230      14.7540       0.0263       3.1480       2.8380
   2114.2449       6.1595       0.0525      50.9180      17.2925    -999.2500    -999.2500    7981.6484     463.7713      13.8600       0.0263       3.2345       2.8355
   2114.3972       6.1710       0.0610      50.8860      17.3270    -999.2500    -999.2500    6736.3799     407.7550      12.9650       0.0262       3.3210       2.8330
   2114.5496       6.1870       0.0700      50.6930      17.5342    -999.2500    -999.2500    3874.3860     328.0760      16.3593       0.0259       3.6048       2.8175
   2114.7019       6.2030       0.0790      50.5000      17.7420    -999.2500    -999.2500    1008.7290     248.2950      19.7580       0.0255       3.8890       2.8020
   2114.8542       6.2695       0.1255      51.0496      19.6711    -999.2500    -999.2500     911.8212     213.4395      22.1038       0.0256       3.9664       2.7585
   2115.0068       6.3360       0.1720      51.5990      21.6060    -999.2500    -999.2500     814.7770     178.5350      24.4530       0.0259       4.0440       2.7150
   2115.1592       6.3650       0.2384      53.3496      21.7872    -999.2500    -999.2500     647.9417     153.6945      24.2911       0.0374       3.7967       2.7510
   2115.3115       6.3940       0.3050      55.1000      21.9690    -999.2500    -999.2500     480.8510     128.8160      24.1290       0.0492       3.5490       2.7870
   2115.4639       6.5149       0.3125      53.9500      20.2957    -999.2500    -999.2500     436.6826     118.9727      23.7613       0.0652       3.7383       2.8330
   2115.6165       6.6360       0.3200      52.8000      18.6170    -999.2500    -999.2500     392.4410     109.1130      23.3930       0.0809       3.9280       2.8790
   2115.7688       6.6580       0.2670      53.4654      19.2235    -999.2500    -999.2500     363.9264      98.9106      21.5691       0.0792       3.8880       2.8490
   2115.9211       6.6800       0.2140      54.1310      19.8320    -999.2500    -999.2500     335.3610      88.6900      19.7420       0.0773       3.8480       2.8190
   2116.0735       6.5801       0.1690      54.5544      24.5480    -999.2500    -999.2500     352.2064      93.7137      32.8505       0.0828       3.5498       2.7785
   2116.2261       6.4800       0.1240      54.9780      29.2730    -999.2500    -999.2500     369.0840      98.7470      45.9840       0.0880       3.2510       2.7380
   2116.3784       6.3980       0.1345      55.6993      29.0372    -999.2500    -999.2500     442.1172     114.2622      45.5964       0.0740       3.5114       2.7645
   2116.5308       6.3160       0.1450      56.4210      28.8010    -999.2500    -999.2500     515.1820     129.8090      45.2080       0.0600       3.7720       2.7910
   2116.6831       6.3170       0.1435      57.1918      26.8092    -999.2500    -999.2500     494.1554     122.7346      42.2572       0.0603       3.7595       2.7900
   2116.8354       6.3180       0.1420      57.9630      24.8130    -999.2500    -999.2500     473.1170     115.6450      39.3000       0.0611       3.7470       2.7890
   2116.9880       6.3340       0.1325      58.4473      24.9339    -999.2500    -999.2500     473.4234     115.7355      28.8801       0.0718       3.5661       2.7835
   2117.1404       6.3500       0.1230      58.9320      25.0550    -999.2500    -999.2500     473.7300     115.8260      18.4530       0.0826       3.3850       2.7780
