#------------------------------------------------------------------------------
#
#   Created by  : [OpenWorks] Log Export Utility (LEXP)
#   Created on  : 2016-05-23 11:53:49
#   Project     : CANT971
#   User        : R5K
#   Interpreter : PEP
#
#------------------------------------------------------------------------------
~VERSION INFORMATION
VERS. 2.0 : CWLS Log ASCII Standard - version 2.0
WRAP.  NO : One line per depth step
~WELL INFORMATION
#MNEMONIC   .UNIT                                           VALUE :DESCRIPTION
#------------------------------------------------------------------------------
STRT        .M                                           293.9797 :START DEPTH
STOP        .M                                          2713.7869 :STOP DEPTH
STEP        .M                                             0.1524 :STEP
NULL        .                                           -999.2500 :NULL VALUE
COMP        .                                   PEMEX EXPL & PROD :COMPANY
WELL        .                                                  28 :WELL
FLD         .                                           CANTARELL :FIELD
LOC         .                                             UNKNOWN :LOCATION
CNTY        .                                      CD. DEL CARMEN :COUNTY
STAT        .                                            CAMPECHE :STATE
CTRY        .                                              MEXICO :COUNTRY
SRVC        .                                             UNKNOWN :SERVICE COMPANY
DATE        .                                             UNKNOWN :LOG DATE
UWI         .                                          3060000156 :UNIQUE WELL ID
XCOORD      .                                       598450.720000 :SURFACE X
YCOORD      .                                      2145024.710000 :SURFACE Y
LAT         .                                           19.398172 :LATITUDE
LON         .                                          -92.062394 :LONGITUDE
ELEV        .M                                            26.5400 :SURFACE ELEV
ELEV_TYPE   .                                                  KB :ELEV TYPE
~CURVE INFORMATION
#MNEMONIC.UNIT        API CODE       : CURVE DESCRIPTION
#------------------------------------------------------------------------------
DEPTH    .M                          : Measured Depth
CALI     .inches      UNKNOWN        : CALI:Import:rC:NONE:v0 (auto-composite)
DRHO     .g/cm3       UNKNOWN        : DRHO:Import:rC:NONE:v0 (auto-composite)
DT       .us/ft       UNKNOWN        : DT:Import:rC:NONE:v0 (auto-composite)
GR       .API         UNKNOWN        : GR:Import:rC:NONE:v0 (auto-composite)
ILD      .ohm.m       UNKNOWN        : ILD:Import:rC:NONE:v0 (auto-composite)
LLD      .ohm.m       UNKNOWN        : LLD:Import:rC:NONE:v0 (auto-composite)
LLS      .ohm.m       UNKNOWN        : LLS:Import:rC:NONE:v0 (auto-composite)
MSFL     .ohm.m       UNKNOWN        : MSFL:Import:rC:NONE:v0 (auto-composite)
NPHI     .v/v_decimal UNKNOWN        : NPHI:Import:rC:NONE:v0 (auto-composite)
PEF      .b/elec      UNKNOWN        : PEF:Import:rC:NONE:v0 (auto-composite)
RHOB     .g/cm3       UNKNOWN        : RHOB:Import:rC:NONE:v0 (auto-composite)
~A     DEPTH         CALI         DRHO           DT           GR          ILD          LLD          LLS         MSFL         NPHI          PEF         RHOB
# ...
   2322.7285       6.3425       0.0190       0.0000      25.7570    -999.2500      84.8430      78.5997      84.1054       0.2365       3.1285       2.4285
   2322.8809       6.3560       0.0230       0.0000      29.1600    -999.2500      71.2200      70.0130      44.4540       0.2155       2.9930       2.4210
   2323.0332       6.3821       0.0140       0.0000      32.5420    -999.2500      69.1823      68.2993      39.7216       0.1900       3.0889       2.4516
   2323.1858       6.4080       0.0050       0.0000      38.9234    -999.2500      67.1570      66.5960      35.0180       0.1688       3.1840       2.4820
   2323.3381       6.3529       0.0010       0.0000      45.2660    -999.2500      76.0314      74.9202      44.7805       0.1655       3.3963       2.5146
   2323.4905       6.2980      -0.0030       0.0000      52.2543    -999.2500      84.8530      83.1950      54.4850       0.1657       3.6070       2.5470
   2323.6428       6.3095      -0.0025       0.0000      59.2010    -999.2500      87.2565      86.0247      46.8854       0.1585       3.6216       2.5616
   2323.7952       6.3210      -0.0020       0.0000      62.8115    -999.2500      89.6460      88.8380      39.3300       0.1502       3.6360       2.5760
   2323.9478       6.3300      -0.0060       0.0000      66.4010    -999.2500      78.5561      78.3854      42.4644       0.1455       3.5567       2.5675
   2324.1001       6.3390      -0.0100       0.0000      56.9842    -999.2500      67.5470      68.0090      45.5760       0.1436       3.4780       2.5590
   2324.2524       6.3530      -0.0010       0.0000      47.6210    -999.2500      56.4332      56.9203      52.6779       0.1465       3.3229       2.5490
   2324.4048       6.3670       0.0080       0.0000      41.3926    -999.2500      45.3990      45.9110      59.7290       0.1507       3.1690       2.5390
   2324.5574       6.4171       0.0115       0.0000      35.1990    -999.2500      44.0176      44.4524      54.7444       0.1540       3.2227       2.5310
   2324.7097       6.4670       0.0150       0.0000      30.8231    -999.2500      42.6460      43.0040      49.7950       0.1566       3.2760       2.5230
   2324.8621       6.3893       0.0245       0.0000      26.4710    -999.2500      64.7113      63.2399      60.4423       0.1580       3.3688       2.5476
   2325.0144       6.3120       0.0340       0.0000      28.3124    -999.2500      86.6240      83.3360      71.0160       0.1578       3.4610       2.5720
   2325.1670       6.3205       0.0200       0.0000      30.1440    -999.2500     102.4071      97.7354      66.6441       0.1535       3.3697       2.5625
   2325.3193       6.3290       0.0060       0.0000      34.1053    -999.2500     118.0830     112.0370      62.3020       0.1486       3.2790       2.5530
   2325.4717       6.3440       0.0100       0.0000      38.0460    -999.2500     129.7163     121.3937      87.7779       0.1455       3.2258       2.5691
   2325.6240       6.3590       0.0140       0.0000      38.8190    -999.2500     141.2720     130.6880     113.0840       0.1422       3.1730       2.5850
   2325.7764       6.3966       0.0055       0.0000      39.5880    -999.2500     128.4546     118.4234     143.0255       0.1365       3.1108       2.6106
   2325.9290       6.4340      -0.0030       0.0000      33.2212    -999.2500     115.7210     106.2390     172.7710       0.1324       3.0490       2.6360
   2326.0813       6.4210      -0.0065       0.0000      26.8960    -999.2500     152.0460     136.7604     121.2929       0.1360       3.2085       2.6526
   2326.2336       6.4080      -0.0100       0.0000      23.3617    -999.2500     188.1380     167.0860      70.1450       0.1418       3.3670       2.6690
   2326.3860       6.4085      -0.0115       0.0000      19.8500    -999.2500     283.0181     253.0209     155.0306       0.1470       3.4773       2.6334
   2326.5386       6.4090      -0.0130       0.0000      23.7949    -999.2500     377.3010     338.4150     239.3820       0.1505       3.5870       2.5980
   2326.6909       6.3875      -0.0080       0.0000      27.7150    -999.2500     344.1834     309.7231     202.1763       0.1490       3.5017       2.6035
   2326.8433       6.3660      -0.0030       0.0000      26.9772    -999.2500     311.2700     281.2080     165.2000       0.1447       3.4170       2.6090
   2326.9956       6.3640       0.0050       0.0000      26.2440    -999.2500     225.9141     204.5955     329.0356       0.1360       3.3768       2.6150
   2327.1482       6.3620       0.0130       0.0000      24.6000    -999.2500     141.0740     128.4460     491.8810       0.1291       3.3370       2.6210
   2327.3005       6.3946       0.0250       0.0000      22.9660    -999.2500     119.0990     108.7959     275.4796       0.1325       3.1814       2.6059
   2327.4529       6.4270       0.0370       0.0000      24.9684    -999.2500      97.2540      89.2620      60.3580       0.1413       3.0270       2.5910
   2327.6052       6.3814       0.0460       0.0000      26.9590    -999.2500      95.3018      87.6238      93.1555       0.1580       3.0877       2.5810
   2327.7576       6.3360       0.0550       0.0000      25.8759    -999.2500      93.3610      85.9950     125.7630       0.1713       3.1480       2.5710
   2327.9102       6.3811       0.0309       0.0000      24.7990    -999.2500     104.2465      95.3068     127.1545       0.1655       3.1084       2.5404
   2328.0625       6.4260       0.0070       0.0000      27.2810    -999.2500     115.0530     104.5510     128.5360       0.1554       3.0690       2.5100
   2328.2148       6.4716       0.0055       0.0000      29.7490    -999.2500     100.2201      92.9225     123.1337       0.1500       3.1648       2.5296
   2328.3672       6.5170       0.0040       0.0000      27.2466    -999.2500      85.4930      81.3770     117.7700       0.1479       3.2600       2.5490
   2328.5198       6.4558       0.0040       0.0000      24.7580    -999.2500      73.7840      72.3323      96.3429       0.1525       3.2224       2.5259
   2328.6721       6.3950       0.0040       0.0000      26.8030    -999.2500      62.1570      63.3510      75.0660       0.1582       3.1850       2.5030
   2328.8245       6.3930       0.0030       0.0000      28.8370    -999.2500      64.3194      66.1441      94.5826       0.1610       3.0611       2.4925
   2328.9768       6.3910       0.0020       0.0000      28.9513    -999.2500      66.4670      68.9180     113.9650       0.1634       2.9380       2.4820
   2329.1294       6.4050       0.0040       0.0000      29.0650    -999.2500      65.9563      69.3033      71.3208       0.1670       3.1251       2.5206
   2329.2817       6.4190       0.0060       0.0000      29.8542    -999.2500      65.4490      69.6860      28.9650       0.1709       3.3110       2.5590
   2329.4341       6.4085       0.0035       0.0000      30.6380    -999.2500      53.6750      57.3466      44.2256       0.1745       3.2709       2.5751
   2329.5864       6.3980       0.0010       0.0000      28.5069    -999.2500      41.9790      45.0890      59.3850       0.1759       3.2310       2.5910
   2329.7388       6.4516       0.0025       0.0000      26.3900    -999.2500      37.8335      40.5402      63.9453       0.1700       3.1001       2.5895
   2329.8914       6.5050       0.0040       0.0000      24.0143    -999.2500      33.7150      36.0210      68.4760       0.1618       2.9700       2.5880
   2330.0437       6.4333       0.0020       0.0000      21.6540    -999.2500      35.1014      37.2178      35.8529       0.1530       3.0829       2.5965
   2330.1960       6.3620       0.0000       0.0000      14.3407    -999.2500      36.4790      38.4070       3.4380       0.1444       3.1950       2.6050
   2330.3484       6.3861      -0.0060       0.0000       7.0740    -999.2500      70.4077      72.8122      47.8767       0.1370       3.2727       2.6085
   2330.5010       6.4100      -0.0120       0.0000       6.3467    -999.2500     104.1240     107.0020      92.0370       0.1307       3.3500       2.6120
