#------------------------------------------------------------------------------
#
#   Created by  : [OpenWorks] Log Export Utility (LEXP)
#   Created on  : 2016-05-23 11:56:16
#   Project     : CANT971
#   User        : R5K
#   Interpreter : PEP
#
#------------------------------------------------------------------------------
~VERSION INFORMATION
VERS. 2.0 : CWLS Log ASCII Standard - version 2.0
WRAP.  NO : One line per depth step
~WELL INFORMATION
#MNEMONIC   .UNIT                                           VALUE :DESCRIPTION
#------------------------------------------------------------------------------
STRT        .M                                           785.0543 :START DEPTH
STOP        .M                                          3464.0940 :STOP DEPTH
STEP        .M                                             0.1524 :STEP
NULL        .                                           -999.2500 :NULL VALUE
COMP        .                                   PEMEX EXPL & PROD :COMPANY
WELL        .                                                448D :WELL
FLD         .                                           CANTARELL :FIELD
LOC         .                                             UNKNOWN :LOCATION
CNTY        .                                      CD. DEL CARMEN :COUNTY
STAT        .                                            CAMPECHE :STATE
CTRY        .                                              MEXICO :COUNTRY
SRVC        .                                             UNKNOWN :SERVICE COMPANY
DATE        .                                             UNKNOWN :LOG DATE
UWI         .                                          3060000822 :UNIQUE WELL ID
XCOORD      .                                       598710.240000 :SURFACE X
YCOORD      .                                      2143307.000000 :SURFACE Y
LAT         .                                           19.382637 :LATITUDE
LON         .                                          -92.060012 :LONGITUDE
ELEV        .M                                            28.0000 :SURFACE ELEV
ELEV_TYPE   .                                                  KB :ELEV TYPE
~CURVE INFORMATION
#MNEMONIC.UNIT        API CODE       : CURVE DESCRIPTION
#------------------------------------------------------------------------------
DEPTH    .M                          : Measured Depth
CALI     .inches      UNKNOWN        : CALI:registros:rC:NONE:v0 (auto-composite)
DRHO     .g/cm3       UNKNOWN        : DRHO:registros:rC:NONE:v0 (auto-composite)
DT       .us/ft       UNKNOWN        : DT:registros:rC:NONE:v0 (auto-composite)
GR       .API         UNKNOWN        : GR:registros:rC:NONE:v0 (auto-composite)
LLD      .ohm.m       UNKNOWN        : LLD:registros:rC:NONE:v0 (auto-composite)
LLS      .ohm.m       UNKNOWN        : LLS:registros:rC:NONE:v0 (auto-composite)
MSFL     .ohm.m       UNKNOWN        : MSFL:registros:rC:NONE:v0 (auto-composite)
NPHI     .v/v_decimal UNKNOWN        : NPHI:registros:rC:NONE:v0 (auto-composite)
PEF      .b/elec      UNKNOWN        : PEF:registros:rC:NONE:v0 (auto-composite)
RHOB     .g/cm3       UNKNOWN        : RHOB:registros:rC:NONE:v0 (auto-composite)
~A     DEPTH         CALI         DRHO           DT           GR          LLD          LLS         MSFL         NPHI          PEF         RHOB
# ...
   2491.9343      12.5928      -0.7511    -999.2500    -999.2500    -999.2500    -999.2500    -999.2500       0.1433      24.3625       2.4054
   2492.0867      12.5928      -0.7527    -999.2500    -999.2500    -999.2500    -999.2500    -999.2500       0.1101      28.2966       2.3999
   2492.2390      12.5916      -0.7874    -999.2500    -999.2500    -999.2500    -999.2500    -999.2500       0.0949      23.6131       2.2766
   2492.3916      12.5897      -0.8276    -999.2500    -999.2500    -999.2500    -999.2500    -999.2500       0.1259      18.1285       2.1321
   2492.5439      12.5930      -0.8429    -999.2500    -999.2500    -999.2500    -999.2500    -999.2500       0.1710      13.5029       2.0652
   2492.6963      12.5958      -0.8300    -999.2500    -999.2500    -999.2500    -999.2500    -999.2500       0.2051      13.6363       2.1139
   2492.8486      12.6003      -0.7961    -999.2500    -999.2500    -999.2500    -999.2500    -999.2500       0.2125      18.0459       2.2371
   2493.0012      12.5944      -0.7573    -999.2500    -999.2500    -999.2500    -999.2500    -999.2500       0.1988      22.3052       2.3699
   2493.1536      12.5895      -0.7476    -999.2500    -999.2500    -999.2500    -999.2500    -999.2500       0.1820      21.7574       2.4116
   2493.3059      12.5899      -0.7595    -999.2500    -999.2500    -999.2500    -999.2500    -999.2500       0.1843      20.0802       2.3746
   2493.4583      12.5979      -0.7884    -999.2500    -999.2500    -999.2500    -999.2500    -999.2500       0.1947      19.8059       2.2870
   2493.6108      12.5924      -0.7974    -999.2500    -999.2500    -999.2500    -999.2500    -999.2500       0.2159      19.9852       2.2615
   2493.7632      12.5921      -0.7877    -999.2500    -999.2500    -999.2500    -999.2500    -999.2500       0.1991      18.7303       2.3026
   2493.9155      12.5952      -0.7696    -999.2500    -999.2500    -999.2500    -999.2500    -999.2500       0.1713      19.3761       2.3879
   2494.0679      12.5929      -0.7438    -999.2500    -999.2500    -999.2500    -999.2500    -999.2500       0.1290      19.3650       2.4758
   2494.2202      12.5839      -0.7333    -999.2500    -999.2500    -999.2500    -999.2500    -999.2500       0.1143      20.8496       2.4951
   2494.3728      12.5737      -0.7375    -999.2500    -999.2500    -999.2500    -999.2500    -999.2500       0.1320      20.1123       2.4705
   2494.5251      12.5610      -0.7425    -999.2500    -999.2500    -999.2500    -999.2500    -999.2500       0.1703      18.1703       2.4265
   2494.6775      12.5594      -0.7305    -999.2500    -999.2500    -999.2500    -999.2500    -999.2500       0.1874      17.3181       2.4471
   2494.8298      12.5580      -0.7171    -999.2500    -999.2500    -999.2500    -999.2500    -999.2500       0.1655      20.5625       2.4994
   2494.9824      12.5654      -0.7014    -999.2500    -999.2500    -999.2500    -999.2500    -999.2500       0.1209      27.0756       2.5640
   2495.1348      12.5558      -0.7044    -999.2500    -999.2500    -999.2500    -999.2500    -999.2500       0.0964      30.4091       2.5559
   2495.2871      12.5555      -0.7246    -999.2500    -999.2500    -999.2500    -999.2500    -999.2500       0.0942      28.6703       2.4979
   2495.4395      12.5590      -0.7287    -999.2500    -999.2500    -999.2500    -999.2500    -999.2500       0.0987      29.2675       2.4775
   2495.5920      12.5566      -0.7196    -999.2500    -999.2500    -999.2500    -999.2500    -999.2500       0.0977      25.8557       2.4923
   2495.7444      12.5466      -0.7037    -999.2500    -999.2500    -999.2500    -999.2500    -999.2500       0.0891      30.3937       2.5357
   2495.8967      12.5371      -0.6976    -999.2500    -999.2500    -999.2500    -999.2500    -999.2500       0.0809      22.4031       2.5690
   2496.0491      12.5417      -0.6978    -999.2500    -999.2500    -999.2500    -999.2500    -999.2500       0.0769      21.6839       2.5872
   2496.2014      12.5203      -0.6906    -999.2500    -999.2500    -999.2500    -999.2500    -999.2500       0.0739      18.0068       2.6016
   2496.3540      12.5128      -0.6985    -999.2500    -999.2500    -999.2500    -999.2500    -999.2500       0.0725      16.0434       2.5651
   2496.5063      12.5518      -0.7152    -999.2500    -999.2500    -999.2500    -999.2500    -999.2500       0.0714      17.9358       2.5059
   2496.6587      12.5573      -0.7224    -999.2500    -999.2500    -999.2500    -999.2500    -999.2500       0.0723      16.7268       2.4655
   2496.8110      12.5567      -0.7415    -999.2500    -999.2500    -999.2500    -999.2500    -999.2500       0.0770      17.0541       2.3776
   2496.9636      12.5632      -0.7606    -999.2500    -999.2500    -999.2500    -999.2500    -999.2500       0.0978      15.7955       2.3229
   2497.1160      12.5624      -0.7657    -999.2500    -999.2500    -999.2500    -999.2500    -999.2500       0.1235      16.5762       2.3189
   2497.2683      12.5572      -0.7443    -999.2500    -999.2500    -999.2500    -999.2500    -999.2500       0.1335      16.2257       2.3968
   2497.4207      12.5543      -0.7188    -999.2500    -999.2500    -999.2500    -999.2500    -999.2500       0.1233      15.4556       2.4878
   2497.5732      12.5557      -0.7066    -999.2500    -999.2500    -999.2500    -999.2500    -999.2500       0.1091      16.3256       2.5302
   2497.7256      12.5605      -0.7071    -999.2500    -999.2500    -999.2500    -999.2500    -999.2500       0.1059      20.0467       2.5358
   2497.8779      12.5609      -0.7222    -999.2500    -999.2500    -999.2500    -999.2500    -999.2500       0.1038      25.7428       2.5001
   2498.0303      12.5563      -0.7367    -999.2500    -999.2500    -999.2500    -999.2500    -999.2500       0.0970      30.7645       2.4715
   2498.1826      12.5616      -0.7408    -999.2500    -999.2500    -999.2500    -999.2500    -999.2500       0.0928      30.8177       2.4619
   2498.3352      12.5622      -0.7476    -999.2500    -999.2500    -999.2500    -999.2500    -999.2500       0.0894      24.5103       2.4391
   2498.4875      12.5586      -0.7626    -999.2500    -999.2500    -999.2500    -999.2500    -999.2500       0.0937      24.2847       2.3789
   2498.6399      12.5594      -0.7786    -999.2500    -999.2500    -999.2500    -999.2500    -999.2500       0.1019      30.0822       2.3175
   2498.7922      12.5657      -0.7866    -999.2500    -999.2500    -999.2500    -999.2500    -999.2500       0.1224      39.6111       2.2960
   2498.9448      12.5635      -0.7836    -999.2500    -999.2500    -999.2500    -999.2500    -999.2500       0.1457      34.4131       2.3260
   2499.0972      12.5664      -0.7719    -999.2500    -999.2500    -999.2500    -999.2500    -999.2500       0.1558      24.9552       2.3883
   2499.2495      12.5692      -0.7592    -999.2500    -999.2500    -999.2500    -999.2500    -999.2500       0.1540      24.3509       2.4492
   2499.4019      12.5606      -0.7515    -999.2500    -999.2500    -999.2500    -999.2500    -999.2500       0.1344      23.5462       2.4740
   2499.5542      12.5611      -0.7549    -999.2500    -999.2500    -999.2500    -999.2500    -999.2500       0.1237      25.7074       2.4643
   2499.7068      12.5652      -0.7605    -999.2500    -999.2500    -999.2500    -999.2500    -999.2500       0.1224      23.4914       2.4503
   2499.8591      12.5653      -0.7593    -999.2500    -999.2500    -999.2500    -999.2500    -999.2500       0.1378      21.7788       2.4458
   2500.0115      12.5669      -0.7602    -999.2500    -999.2500    -999.2500    -999.2500    -999.2500       0.1465      22.2490       2.4407
   2500.1638      12.5659      -0.7688    -999.2500    -999.2500    -999.2500    -999.2500    -999.2500       0.1459      24.5101       2.4206
   2500.3164      12.5739      -0.7608    -999.2500    -999.2500    -999.2500    -999.2500    -999.2500       0.1477      31.6054       2.4304
