#------------------------------------------------------------------------------
#
#   Created by  : [OpenWorks] Log Export Utility (LEXP)
#   Created on  : 2016-05-23 11:50:37
#   Project     : CANT971
#   User        : R5K
#   Interpreter : PEP
#
#------------------------------------------------------------------------------
~VERSION INFORMATION
VERS. 2.0 : CWLS Log ASCII Standard - version 2.0
WRAP.  NO : One line per depth step
~WELL INFORMATION
#MNEMONIC   .UNIT                                           VALUE :DESCRIPTION
#------------------------------------------------------------------------------
STRT        .M                                           690.6770 :START DEPTH
STOP        .M                                          3400.6538 :STOP DEPTH
STEP        .M                                             0.1524 :STEP
NULL        .                                           -999.2500 :NULL VALUE
COMP        .                                   PEMEX EXPL & PROD :COMPANY
WELL        .                                                1024 :WELL
FLD         .                                           CANTARELL :FIELD
LOC         .                                             UNKNOWN :LOCATION
CNTY        .                                      CD. DEL CARMEN :COUNTY
STAT        .                                            CAMPECHE :STATE
CTRY        .                                              MEXICO :COUNTRY
SRVC        .                                             UNKNOWN :SERVICE COMPANY
DATE        .                                             UNKNOWN :LOG DATE
UWI         .                                          3060000490 :UNIQUE WELL ID
XCOORD      .                                       596162.640000 :SURFACE X
YCOORD      .                                      2150611.280000 :SURFACE Y
LAT         .                                           19.448767 :LATITUDE
LON         .                                          -92.083900 :LONGITUDE
ELEV        .M                                            30.0000 :SURFACE ELEV
ELEV_TYPE   .                                                  KB :ELEV TYPE
~CURVE INFORMATION
#MNEMONIC.UNIT        API CODE       : CURVE DESCRIPTION
#------------------------------------------------------------------------------
DEPTH    .M                          : Measured Depth
CALI     .inches      UNKNOWN        : CALI:registros:rC:NONE:v0 (auto-composite)
DRHO     .g/cm3       UNKNOWN        : DRHO:registros:rC:NONE:v0 (auto-composite)
DT       .us/ft       UNKNOWN        : DT:registros:rC:NONE:v0 (auto-composite)
GR       .API         UNKNOWN        : GR:registros:rC:NONE:v0 (auto-composite)
ILD      .ohm.m       UNKNOWN        : ILD:registros:rC:NONE:v0 (auto-composite)
ILM      .ohm.m       UNKNOWN        : ILM:registros:rC:NONE:v0 (auto-composite)
LLD      .ohm.m       UNKNOWN        : LLD:registros:rC:NONE:v0 (auto-composite)
LLS      .ohm.m       UNKNOWN        : LLS:registros:rC:NONE:v0 (auto-composite)
MSFL     .ohm.m       UNKNOWN        : MSFL:registros:rC:NONE:v0 (auto-composite)
NPHI     .v/v_decimal UNKNOWN        : NPHI:registros:rC:NONE:v0 (auto-composite)
PEF      .b/elec      UNKNOWN        : PEF:registros:rC:NONE:v0 (auto-composite)
RHOB     .g/cm3       UNKNOWN        : RHOB:registros:rC:NONE:v0 (auto-composite)
~A     DEPTH         CALI         DRHO           DT           GR          ILD          ILM          LLD          LLS         MSFL         NPHI          PEF         RHOB
# ...
   3294.8882       8.4860      -0.0170      67.5260      41.1860    -999.2500    -999.2500    1083.6510     467.1800     327.7290       0.0800       3.7240       2.5810
   3295.0405       8.4590      -0.0105      66.6849      40.9719    -999.2500    -999.2500    1073.3705     462.5614     297.0951       0.0708       3.7180       2.6519
   3295.1931       8.4320      -0.0040      65.8420      40.7590    -999.2500    -999.2500    1063.0670     457.9400     266.3930       0.0630       3.7120       2.7230
   3295.3455       8.4330       0.0005      65.9069      38.5061    -999.2500    -999.2500     973.1537     419.4169     279.8387       0.0619       3.5487       2.7230
   3295.4978       8.4340       0.0050      65.9720      36.2660    -999.2500    -999.2500     883.0290     380.8650     293.3160       0.0631       3.3850       2.7230
   3295.6501       8.4425       0.0065      70.8075      36.5530    -999.2500    -999.2500     714.4271     314.3625     290.8431       0.0668       3.3855       2.7190
   3295.8025       8.4510       0.0080      75.6550      36.8380    -999.2500    -999.2500     545.4070     247.8020     288.3640       0.0715       3.3860       2.7150
   3295.9551       8.4760       0.0110      75.4632      38.7477    -999.2500    -999.2500     446.0988     210.6746     268.2382       0.0779       3.3900       2.7035
   3296.1074       8.5010       0.0140      75.2710      40.6440    -999.2500    -999.2500     346.5320     173.5100     248.0600       0.0848       3.3940       2.6920
   3296.2598       8.5310       0.0300      73.0475      41.7769    -999.2500    -999.2500     309.5400     163.3836     208.6728       0.0921       3.4090       2.6750
   3296.4121       8.5610       0.0460      70.8180      42.9020    -999.2500    -999.2500     272.4470     153.2620     169.1780       0.0994       3.4240       2.6580
   3296.5647       8.7123       0.0450      72.0827      44.5952    -999.2500    -999.2500     273.1315     154.0846     126.2424       0.1059       3.4784       2.6031
   3296.7170       8.8640       0.0440      73.3510      46.2770    -999.2500    -999.2500     273.8180     154.9070      83.2530       0.1123       3.5330       2.5480
   3296.8694       8.8590       0.0380      88.8209      52.8257    -999.2500    -999.2500     280.5170     161.6973      58.8673       0.1193       3.5245       2.4911
   3297.0217       8.8540       0.0320     104.3370      59.3310    -999.2500    -999.2500     287.2360     168.4860      34.4480       0.1269       3.5160       2.4340
   3297.1743       8.8161       0.0220     103.7639      81.1773    -999.2500    -999.2500     332.6450     194.7443      36.5829       0.1365       3.4476       2.4405
   3297.3267       8.7780       0.0120     103.1890     102.8820    -999.2500    -999.2500     378.1950     221.0000      38.7210       0.1448       3.3790       2.4470
   3297.4790       8.7101       0.0040      99.2584     101.3511    -999.2500    -999.2500     352.3793     204.1487      58.5009       0.1452       3.2567       2.4919
   3297.6313       8.6420      -0.0040      95.3150      99.8300    -999.2500    -999.2500     326.4800     187.2970      78.3130       0.1426       3.1340       2.5370
   3297.7837       8.5821      -0.0075      91.0941      89.4832    -999.2500    -999.2500     326.9946     187.5425      87.6503       0.1351       3.1635       2.5765
   3297.9363       8.5220      -0.0110      86.8590      79.2010    -999.2500    -999.2500     327.5110     187.7880      97.0040       0.1276       3.1930       2.6160
   3298.0886       8.5230      -0.0125      83.9795      68.9652    -999.2500    -999.2500     337.3373     193.7672      99.4387       0.1244       3.1151       2.6375
   3298.2410       8.5240      -0.0140      81.0900      58.7920    -999.2500    -999.2500     347.1980     199.7480     101.8780       0.1221       3.0370       2.6590
   3298.3933       8.5665      -0.0160      79.0480      53.2168    -999.2500    -999.2500     396.4356     234.0871     134.4913       0.1189       3.0435       2.6585
   3298.5459       8.6090      -0.0180      77.0020      47.6750    -999.2500    -999.2500     445.7720     268.4400     167.1700       0.1145       3.0500       2.6580
   3298.6982       8.5995      -0.0180      77.2387      43.6858    -999.2500    -999.2500     479.6434     298.8590     160.9426       0.1069       3.0984       2.6460
   3298.8506       8.5900      -0.0180      77.4760      39.7200    -999.2500    -999.2500     513.5870     329.2940     154.7020       0.0986       3.1470       2.6340
   3299.0029       8.5341      -0.0160      79.4178      39.7812    -999.2500    -999.2500     527.6416     343.4174     155.9041       0.0913       3.2219       2.6350
   3299.1555       8.4780      -0.0140      81.3640      39.8420    -999.2500    -999.2500     541.7280     357.5500     157.1090       0.0857       3.2970       2.6360
   3299.3079       8.4460      -0.0050      85.1150      39.5306    -999.2500    -999.2500     557.3559     366.7134     169.5507       0.0858       3.4368       2.6565
   3299.4602       8.4140       0.0040      88.8750      39.2210    -999.2500    -999.2500     573.0210     375.8840     182.0220       0.0903       3.5770       2.6770
   3299.6125       8.4140       0.0035      90.4216      34.7627    -999.2500    -999.2500     847.2847     423.5034     181.5081       0.1062       3.5740       2.6750
   3299.7649       8.4140       0.0030      91.9720      30.3360    -999.2500    -999.2500    1122.2371     471.1660     180.9930       0.1219       3.5710       2.6730
   3299.9175       8.4180      -0.0025      96.8111      30.3832    -999.2500    -999.2500    1121.2908     598.2849     186.9382       0.1250       3.5495       2.6480
   3300.0698       8.4220      -0.0080     101.6630      30.4300    -999.2500    -999.2500    1120.3420     725.5350     192.8990       0.1248       3.5280       2.6230
   3300.2222       8.4150      -0.0075     101.3250      31.1048    -999.2500    -999.2500    1086.8068     714.0299     236.2281       0.1239       3.4856       2.6245
   3300.3745       8.4080      -0.0070     100.9860      31.7750    -999.2500    -999.2500    1053.1790     702.5300     279.6770       0.1224       3.4430       2.6260
   3300.5271       8.4335      -0.0015      98.4022      34.1986    -999.2500    -999.2500     906.1047     592.6219     265.3617       0.1193       3.3372       2.6340
   3300.6794       8.4590       0.0040      95.8110      36.6060    -999.2500    -999.2500     758.6060     482.7490     251.0280       0.1153       3.2310       2.6420
   3300.8318       8.4585       0.0040      88.5914      37.6956    -999.2500    -999.2500     651.4056     484.2376     288.2493       0.1094       3.2355       2.6565
   3300.9841       8.4580       0.0040      81.3500      38.7780    -999.2500    -999.2500     543.8820     485.7260     325.5230       0.1027       3.2400       2.6710
   3301.1367       8.4515       0.0035      82.8681      41.4933    -999.2500    -999.2500     557.1652     506.6093     304.1504       0.0943       3.2754       2.6805
   3301.2891       8.4450       0.0030      84.3910      44.1910    -999.2500    -999.2500     570.4900     527.4910     282.7450       0.0851       3.3110       2.6900
   3301.4414       8.4145       0.0020      83.8224      44.0932    -999.2500    -999.2500     738.2959     692.9319     285.0191       0.0745       3.4218       2.7010
   3301.5938       8.3840       0.0010      83.2520      43.9960    -999.2500    -999.2500     906.6500     858.3820     287.2970       0.0655       3.5330       2.7120
   3301.7461       8.3900       0.0015      79.1395      42.9673    -999.2500    -999.2500     903.2123     855.9398     312.1688       0.0642       3.5260       2.7270
   3301.8987       8.3960       0.0020      75.0130      41.9450    -999.2500    -999.2500     899.7630     853.4970     337.0850       0.0657       3.5190       2.7420
   3302.0510       8.3940       0.0060      65.5327      38.9053    -999.2500    -999.2500     869.6350     828.6519     333.2711       0.0696       3.4770       2.7405
