#------------------------------------------------------------------------------
#
#   Created by  : [OpenWorks] Log Export Utility (LEXP)
#   Created on  : 2016-05-23 11:56:14
#   Project     : CANT971
#   User        : R5K
#   Interpreter : PEP
#
#------------------------------------------------------------------------------
~VERSION INFORMATION
VERS. 2.0 : CWLS Log ASCII Standard - version 2.0
WRAP.  NO : One line per depth step
~WELL INFORMATION
#MNEMONIC   .UNIT                                           VALUE :DESCRIPTION
#------------------------------------------------------------------------------
STRT        .M                                          2395.2905 :START DEPTH
STOP        .M                                          2859.1960 :STOP DEPTH
STEP        .M                                             0.1524 :STEP
NULL        .                                           -999.2500 :NULL VALUE
COMP        .                                             UNKNOWN :COMPANY
WELL        .                                               446-V :WELL
FLD         .                                             UNKNOWN :FIELD
LOC         .                                             UNKNOWN :LOCATION
CNTY        .                                             UNKNOWN :COUNTY
STAT        .                                             UNKNOWN :STATE
CTRY        .                                             UNKNOWN :COUNTRY
SRVC        .                                             UNKNOWN :SERVICE COMPANY
DATE        .                                             UNKNOWN :LOG DATE
UWI         .                                               446-V :UNIQUE WELL ID
XCOORD      .                                       596708.730000 :SURFACE X
YCOORD      .                                      2143311.960000 :SURFACE Y
LAT         .                                           19.382780 :LATITUDE
LON         .                                          -92.079070 :LONGITUDE
ELEV        .M                                             0.0000 :SURFACE ELEV
ELEV_TYPE   .                                                  NA :ELEV TYPE
~CURVE INFORMATION
#MNEMONIC.UNIT        API CODE       : CURVE DESCRIPTION
#------------------------------------------------------------------------------
DEPTH    .M                          : Measured Depth
CALI     .inches      UNKNOWN        : CALI:litodensidad:rC:NONE:v0 (auto-composite)
CGR      .API         UNKNOWN        : CGR:Espectrometria:rC:NONE:v0 (auto-composite)
DRHO     .g/cm3       UNKNOWN        : DRHO:litodensidad:rC:NONE:v0 (auto-composite)
DT       .us/ft       UNKNOWN        : DT:sonico:rC:NONE:v0 (auto-composite)
GR       .API         UNKNOWN        : GR:GR-Load:rC:NONE:v0 (auto-composite)
GR-LWD   .API         UNKNOWN        : GR-LWD:resistivos-LWD:rC:NONE:v0 (auto-composite)
ILD-LWD  .ohm.m       UNKNOWN        : ILD-LWD:resistivos-LWD:rC:NONE:v0 (auto-composite)
ILM-LWD  .UNKNOWN     UNKNOWN        : ILM-LWD:resistivos-LWD:rC:NONE:v0 (auto-composite)
LLD      .ohm.m       UNKNOWN        : LLD:resistivos:rC:NONE:v0 (auto-composite)
LLS      .ohm.m       UNKNOWN        : LLS:resistivos:rC:NONE:v0 (auto-composite)
MSFL     .ohm.m       UNKNOWN        : MSFL:resistivos:rC:NONE:v0 (auto-composite)
NPHI     .UNKNOWN     UNKNOWN        : NPHI:porosidad:rC:NONE:v0 (auto-composite)
PEF      .UNKNOWN     UNKNOWN        : PEF:litodensidad:rC:NONE:v0 (auto-composite)
POTA     .wtpercent   UNKNOWN        : POTA:Espectrometria:rC:NONE:v0 (auto-composite)
RHOB     .g/cm3       UNKNOWN        : RHOB:litodensidad:rC:NONE:v0 (auto-composite)
THOR     .ppm         UNKNOWN        : THOR:Espectrometria:rC:NONE:v0 (auto-composite)
URAN     .ppm         UNKNOWN        : URAN:Espectrometria:rC:NONE:v0 (auto-composite)
~A     DEPTH         CALI          CGR         DRHO           DT           GR       GR-LWD      ILD-LWD      ILM-LWD          LLD          LLS         MSFL         NPHI          PEF         POTA         RHOB         THOR         URAN
# ...
   2784.6726       8.8410      19.3339       0.0385      46.5434      29.7218      27.2074      44.5997      72.6565     280.7401     290.7328       0.8695       0.0303       3.3380       0.0080       2.7960       2.2932       1.1565
   2784.8250       8.8009      20.5817       0.0359      44.9380      29.4402      28.6697      43.9123      68.9094     250.5559     252.2533       1.0789       0.0352       3.3201       0.0089       2.7832       2.3253       0.9862
   2784.9773       8.8091      17.2630       0.0334      44.9437      28.4641      29.4571      43.1850      67.3873     211.6605     214.9723       1.1971       0.0385       3.2874       0.0083       2.7853       1.6187       1.2471
   2785.1296       8.8259      14.4406       0.0350      45.5866      27.4698      29.7202      42.2813      66.3573     194.7753     200.3883       1.3458       0.0391       3.2669       0.0073       2.8015       1.1834       1.4506
   2785.2822       8.9097      14.0768       0.0400      47.3350      26.7838      29.4078      41.2595      66.0609     171.4147     182.3445       1.3835       0.0386       3.2625       0.0068       2.8233       1.2964       1.4147
   2785.4346       8.9385      17.9252       0.0442      47.9652      27.9692      28.2110      40.0895      67.6912     150.0485     159.8886       1.2910       0.0397       3.2957       0.0075       2.8337       2.1222       1.1182
   2785.5869       8.9513      25.4190       0.0508      48.8070      30.2352      26.4312      39.3002      70.2622     128.2756     135.6164       0.9176       0.0427       3.3555       0.0101       2.8393       3.2198       0.5362
   2785.7393       8.9594      30.2988       0.0613      49.4086      32.4481      24.7973      39.9048      72.2288     115.5984     118.8703       0.7861       0.0463       3.4167       0.0122       2.8429       3.7738       0.2393
   2785.8918       8.9832      33.5000       0.0723      50.1731      34.6062      23.0713      40.3957      74.0526     108.9368     110.4611       0.8713       0.0465       3.4671       0.0140       2.8444       3.9405       0.1232
   2786.0442       8.9938      33.5056       0.0748      51.2544      34.6112      21.1511      40.5858      74.8010     110.5038     112.8254       0.9878       0.0454       3.4671       0.0143       2.8419       3.8201       0.1231
   2786.1965       8.9941      30.5075       0.0703      52.6880      33.8750      20.3323      40.6086      75.4038     116.6169     118.7255       1.4028       0.0445       3.4209       0.0138       2.8327       3.1720       0.3750
   2786.3489       8.9848      27.8298       0.0667      54.0813      32.5453      19.9526      40.5009      75.8945     124.2806     126.7740       1.5708       0.0470       3.3903       0.0127       2.8301       2.8690       0.5250
   2786.5012       9.0703      22.4353       0.0648      53.9808      28.3833      19.2290      40.1250      75.1620     133.5718     134.5643       1.7766       0.0470       3.3820       0.0102       2.8305       2.3267       0.6622
   2786.6538       9.1718      21.2366       0.0665      52.2417      26.0081      18.6094      39.4817      74.7144     138.9966     140.2926       1.4143       0.0455       3.4038       0.0098       2.8336       2.1416       0.5312
   2786.8062       9.2646      17.6213       0.0677      50.0697      23.1807      18.0630      38.7236      73.0256     143.3837     145.5047       0.7276       0.0449       3.4353       0.0087       2.8339       1.5421       0.6189
   2786.9585       9.1472      17.5785       0.0650      49.9542      22.5487      17.2171      37.9093      71.1092     140.9010     142.6368       0.6040       0.0459       3.4253       0.0086       2.8323       1.5610       0.5533
   2787.1108       8.9577      13.2479       0.0537      49.8855      21.5938      17.3408      37.3533      69.5257     129.2138     133.7912       1.0279       0.0442       3.3530       0.0070       2.8253       0.9658       0.9292
   2787.2634       8.9126      10.6491       0.0463      50.1361      21.4138      18.0241      36.5624      66.6426     116.2247     119.8910       1.0984       0.0408       3.3166       0.0061       2.8179       0.5952       1.1984
   2787.4158       8.9162       7.2104       0.0427      50.2974      21.4276      19.0523      35.7573      63.4759     100.4396     102.1333       1.0517       0.0412       3.3363       0.0045       2.8037       0.2567       1.5828
   2787.5681       8.9135       7.6516       0.0442      50.0043      21.9744      20.1847      34.8460      59.7928      95.2420      94.9040       1.2436       0.0409       3.3823       0.0039       2.7923       0.6105       1.5946
   2787.7205       8.9224      10.4550       0.0432      49.4436      21.7979      20.0868      33.9125      56.8239      91.3188      90.2448       1.3218       0.0407       3.4187       0.0049       2.7776       1.0254       1.2629
   2787.8730       8.9289      13.4327       0.0387      48.0427      21.2572      19.9597      32.6855      53.4194      90.0623      89.7132       1.1576       0.0439       3.4282       0.0057       2.7665       1.5330       0.8711
   2788.0254       8.9441      15.0748       0.0368      47.5488      21.1037      19.4406      30.6330      47.9662      91.8897      90.6845       0.9269       0.0427       3.4332       0.0055       2.7702       2.0951       0.6712
   2788.1777       8.9574      13.3921       0.0383      46.6807      20.9276      18.3908      28.0149      41.5356      96.1380      93.1037       1.0573       0.0375       3.4637       0.0046       2.7851       1.9902       0.8389
   2788.3301       8.9554      10.0577       0.0409      46.2870      22.2287      17.3530      25.1602      34.1470     105.2702     101.7792       1.1079       0.0351       3.4889       0.0044       2.7974       1.1147       1.3550
   2788.4824       8.9548      10.0909       0.0463      46.3449      24.1421      16.3601      23.5547      30.5453     113.8915     115.7224       1.1495       0.0367       3.4929       0.0052       2.8116       0.8155       1.5644
   2788.6350       8.9723      13.9779       0.0568      47.0113      24.0473      15.7144      22.7066      28.8938     106.1111     110.4905       1.2221       0.0396       3.4668       0.0063       2.8284       1.4475       1.1211
   2788.7874       8.9887      16.6818       0.0708      48.2444      22.0077      16.1804      22.5394      28.1326      89.6384      96.3618       1.3583       0.0416       3.4232       0.0075       2.8491       1.7497       0.5930
   2788.9397       8.9924      15.9744       0.0869      48.5885      19.2940      16.7362      23.2272      28.6577      69.4016      73.7268       1.1263       0.0411       3.3769       0.0078       2.8537       1.4388       0.3696
   2789.0920       8.9685      12.7110       0.1282      49.4497      17.1135      16.4229      23.9279      29.0472      51.4006      53.9517       0.8298       0.0449       3.3566       0.0070       2.8518       0.8177       0.4901
   2789.2446       8.9158       9.6165       0.1934      50.3279      16.9899      16.1150      24.8444      29.4842      44.8174      46.9910       0.7960       0.0454       3.4208       0.0060       2.8651       0.3652       0.8209
   2789.3970       8.8460       9.6829       0.2897      51.3544      17.8815      16.3731      25.3679      29.3107      41.5817      43.2234       0.5976       0.0463       3.6426       0.0061       2.9203       0.3200       0.9128
   2789.5493       8.8494      11.1946       0.2781      52.2223      18.9941      17.1593      25.4638      28.6003      46.3840      50.6630       0.5483       0.0475       3.7507       0.0070       2.9307       0.3991       0.8684
   2789.7017       8.8788      11.8902       0.1736      53.1261      19.9722      18.9570      25.2140      27.7430      54.1498      64.8444       0.9583       0.0535       3.6874       0.0074       2.8859       0.4310       0.8998
   2789.8542       8.8748      10.5641       0.1273      55.3168      19.8147      21.1326      25.1440      27.5170      49.4450      61.8832       1.2738       0.0595       3.5399       0.0066       2.8254       0.3608       1.0299
