#------------------------------------------------------------------------------
#
#   Created by  : [OpenWorks] Log Export Utility (LEXP)
#   Created on  : 2015-10-01 09:50:16
#   Project     : CANT971
#   User        : R5K
#   Interpreter : PEP
#
#------------------------------------------------------------------------------
~VERSION INFORMATION
VERS. 2.0 : CWLS Log ASCII Standard - version 2.0
WRAP.  NO : One line per depth step
~WELL INFORMATION
#MNEMONIC   .UNIT                                           VALUE :DESCRIPTION
#------------------------------------------------------------------------------
STRT        .M                                           352.7300 :START DEPTH
STOP        .M                                          2346.8840 :STOP DEPTH
STEP        .M                                             0.1524 :STEP
NULL        .                                           -999.2500 :NULL VALUE
COMP        .                                   PEMEX EXPL & PROD :COMPANY
WELL        .                                        CANTARELL-64 :WELL
FLD         .                                           CANTARELL :FIELD
LOC         .                                             UNKNOWN :LOCATION
CNTY        .                                      CD. DEL CARMEN :COUNTY
STAT        .                                            CAMPECHE :STATE
CTRY        .                                              MEXICO :COUNTRY
SRVC        .                                             UNKNOWN :SERVICE COMPANY
DATE        .                                             UNKNOWN :LOG DATE
UWI         .                                          3060000172 :UNIQUE WELL ID
XCOORD      .                                       599695.280000 :SURFACE X
YCOORD      .                                      2143036.290000 :SURFACE Y
LAT         .                                           19.380142 :LATITUDE
LON         .                                          -92.050647 :LONGITUDE
ELEV        .M                                            26.7400 :SURFACE ELEV
ELEV_TYPE   .                                                  KB :ELEV TYPE
~CURVE INFORMATION
#MNEMONIC.UNIT        API CODE       : CURVE DESCRIPTION
#------------------------------------------------------------------------------
DEPTH    .M                          : Measured Depth
CALI     .inches      UNKNOWN        : CALI:UNKNOWN:rC:NONE:v0 (auto-composite)
DRHO     .g/cm3       UNKNOWN        : DRHO:UNKNOWN:rC:NONE:v0 (auto-composite)
DT       .us/ft       UNKNOWN        : DT:DT:rC:NONE:v0 (auto-composite)
GR       .API         UNKNOWN        : GR:GR-Load:rC:NONE:v0 (auto-composite)
ILD      .ohm.m       UNKNOWN        : ILD:ILD-Load:rC:NONE:v0 (auto-composite)
LLD      .ohm.m       UNKNOWN        : LLD:UNKNOWN:rC:NONE:v0 (auto-composite)
LLS      .ohm.m       UNKNOWN        : LLS:UNKNOWN:rC:NONE:v0 (auto-composite)
MSFL     .ohm.m       UNKNOWN        : MSFL:UNKNOWN:rC:NONE:v0 (auto-composite)
NPHI     .v/v_decimal UNKNOWN        : NPHI:NPHI:rC:NONE:v0 (auto-composite)
PEF      .b/elec      UNKNOWN        : PEF:UNKNOWN:rC:NONE:v0 (auto-composite)
RHOB     .g/cm3       UNKNOWN        : RHOB:RHOB-Load:rC:NONE:v0 (auto-composite)
~A     DEPTH        CALI         DRHO           DT           GR          ILD          LLD          LLS         MSFL         NPHI          PEF         RHOB
# ...
   2001.0885      6.3697       0.0170      48.5713      41.8513    -999.2500     375.0482     260.3713     120.7628       3.0958       3.5109       2.7953 
   2001.2408      6.3672       0.0074      48.3613      41.3553    -999.2500     333.6184     234.5718     114.9692       3.0618       4.0023       2.8038 
   2001.3932      6.3584      -0.0009      48.8195      41.5874    -999.2500     286.9496     204.4381     107.4290       3.0846       4.5135       2.8015 
   2001.5457      6.3003      -0.0004      49.9370      42.5379    -999.2500     199.2746     140.3807      86.2177       3.1631       5.1795       2.7885 
   2001.6980      6.2476       0.0000      51.6783      42.2654    -999.2500     121.8559      83.9500      64.0902       3.5092       5.6830       2.7566 
   2001.8505      6.2361       0.0000      54.0352      40.7859    -999.2500     121.0752      84.5090      35.1164       4.1177       4.9710       2.7061 
   2002.0028      6.2258       0.0003      54.8892      39.0737    -999.2500     137.4126      97.2120      10.5003       4.6542       4.3127       2.6689 
   2002.1553      6.2243       0.0028      54.2597      37.1318    -999.2500     275.1564     196.0435      16.7908       5.1202       4.0349       2.6449 
   2002.3076      6.2165       0.0051      53.2285      35.1808    -999.2500     412.5417     295.7888      23.9399       5.2516       3.7678       2.6458 
   2002.4601      6.1664       0.0056      51.8005      33.2209    -999.2500     547.5088     401.6980      36.8811       5.0546       3.5729       2.6713 
   2002.6124      6.1272       0.0059      50.6782      31.4212    -999.2500     689.1360     499.8966      53.6506       4.8048       3.3862       2.6968 
   2002.7649      6.1582       0.0054      49.8577      29.7797    -999.2500     873.8566     548.2045      95.1902       4.5033       3.2533       2.7223 
   2002.9172      6.2017       0.0051      49.6165      29.0711    -999.2500    1074.0656     591.6921     164.7635       4.1986       3.1489       2.7393 
   2003.0697      6.3215       0.0056      49.9475      29.2841    -999.2500    1369.8890     605.4221     407.3975       3.8906       3.2201       2.7478 
   2003.2220      6.4184       0.0059      50.0388      28.5978    -999.2500    1612.0873     616.5976     582.0862       3.5864       3.2985       2.7450 
   2003.3744      6.3798       0.0054      49.8932      27.0229    -999.2500    1535.8977     612.6060     353.3657       3.2859       3.4198       2.7310 
   2003.5269      6.3427       0.0084      49.9225      27.1797    -999.2500    1429.1313     599.9194     155.4072       3.0797       3.5268       2.7243 
   2003.6792      6.3141       0.0309      50.1240      29.0481    -999.2500    1148.6788     537.8419     132.1873       2.9662       3.5524       2.7248 
   2003.8317      6.2915       0.0485      50.1331      31.6485    -999.2500     907.5526     484.9430     112.1589       2.9746       3.5535       2.7466 
   2003.9840      6.3010       0.0390      49.9526      34.9724    -999.2500     880.4303     481.9925     109.4981       3.1026       3.4217       2.7896 
   2004.1365      6.3084       0.0295      49.8101      38.0515    -999.2500     882.0594     487.6021     115.4651       3.1635       3.3236       2.8085 
   2004.2888      6.3049       0.0199      49.7051      40.8885    -999.2500    1034.6565     538.1587     166.7347       3.1585       3.4023       2.8035 
   2004.4413      6.3066       0.0114      49.7029      42.0525    -999.2500    1181.1725     589.4706     292.8889       3.1742       3.4839       2.7970 
   2004.5936      6.3347       0.0079      49.8018      41.5671    -999.2500    1297.0317     644.5905     796.5671       3.2102       3.5796       2.7890 
   2004.7461      6.3577       0.0049      50.0949      40.5038    -999.2500    1365.6071     677.3343    1159.1387       3.2563       3.6732       2.7807 
   2004.8984      6.3557       0.0044      50.5794      38.8709    -999.2500    1205.0627     601.6528     837.9610       3.3123       3.7564       2.7722 
   2005.0508      6.3527       0.0044      51.0319      36.7738    -999.2500    1018.8378     513.8977     536.6891       3.5940       3.8405       2.7625 
   2005.2032      6.3452       0.0069      51.4529      34.2189    -999.2500     712.2238     369.5425     328.7342       4.0970       3.9288       2.7515 
   2005.3556      6.3394       0.0100      52.1492      31.7991    -999.2500     434.8250     239.2028     149.4305       4.6558       3.9687       2.7410 
   2005.5081      6.3414       0.0155      53.1172      29.5127    -999.2500     289.3038     172.1287      99.4595       5.2693       3.7908       2.7310 
   2005.6604      6.3399       0.0207      54.1000      27.0509    -999.2500     196.0719     135.7145      85.3653       5.8343       3.6210       2.7195 
   2005.8129      6.3234       0.0248      55.0975      24.4160    -999.2500     331.5264     233.3913     228.1782       6.3518       3.4866       2.7065 
   2005.9652      6.3034       0.0268      55.5057      20.9143    -999.2500     489.2322     340.4277     373.3808       6.5492       3.3713       2.7013 
   2006.1177      6.2688       0.0208      55.3322      16.5569    -999.2500     740.7950     486.9439     528.6632       6.4327       3.3362       2.7038 
   2006.2700      6.2410       0.0148      54.9597      14.8468    -999.2500     927.2488     592.6276     608.0081       6.1673       3.2897       2.7078 
   2006.4225      6.2410       0.0088      54.3907      15.7508    -999.2500     848.6218     532.0690     378.1861       5.7558       3.1970       2.7133 
   2006.5748      6.2524       0.0038      53.8703      19.2092    -999.2500     775.7127     475.9235     187.7929       5.4011       3.1404       2.7205 
   2006.7273      6.3091       0.0028      53.3978      25.1905    -999.2500     725.4017     437.2192     153.2311       5.1021       3.2267       2.7295 
   2006.8796      6.3581       0.0028      52.8788      30.9289    -999.2500     680.3833     405.9006     128.1384       4.8639       3.2777       2.7433 
   2007.0320      6.3776       0.0068      52.3138      36.4272    -999.2500     655.5815     402.7945     139.2166       4.6854       3.1945       2.7618 
   2007.1844      6.3933       0.0096      51.9009      38.8130    -999.2500     639.8467     402.8564     149.2316       4.5640       3.1455       2.7672 
   2007.3368      6.3948       0.0076      51.6383      38.1230    -999.2500     657.6094     414.6223     155.3186       4.4985       3.2232       2.7597 
   2007.4893      6.3880       0.0059      51.4561      37.4486    -999.2500     672.8242     423.1632     153.1366       4.4493       3.2973       2.7532 
   2007.6416      6.3514       0.0054      51.3531      36.7896    -999.2500     678.8864     420.1198     121.2512       4.4163       3.3585       2.7477 
   2007.7941      6.3324       0.0057      51.1703      36.1837    -999.2500     683.1546     416.9988      97.2016       4.3735       3.4354       2.7437 
   2007.9464      6.3745       0.0087      50.9088      35.6302    -999.2500     681.1827     413.6079     100.4059       4.3210       3.5673       2.7412 
   2008.0989      6.4178       0.0117      50.5927      35.4392    -999.2500     699.4583     417.0835     242.9051       4.2207       3.6695       2.7423 
   2008.2512      6.4649       0.0147      50.2227      35.6068    -999.2500     785.9619     443.6971     854.7838       4.0737       3.6715       2.7468 
   2008.4037      6.4826       0.0171      49.8895      36.4936    -999.2500     926.9136     481.8282    1198.1229       3.9093       3.6479       2.7508 
   2008.5560      6.4039       0.0176      49.5925      38.0896    -999.2500    1246.5071     557.7477     660.3958       3.7278       3.5406       2.7543 
   2008.7085      6.3544       0.0172      49.1543      41.7977    -999.2500    1487.0901     616.0609     247.2762       3.6711       3.5072       2.7583 
   2008.8608      6.3980       0.0137      48.5768      47.5890    -999.2500    1476.2849     618.3558     230.6212       3.7366       3.7087       2.7628 
