#------------------------------------------------------------------------------
#
#   Created by  : [OpenWorks] Log Export Utility (LEXP)
#   Created on  : 2016-05-23 11:55:55
#   Project     : CANT971
#   User        : R5K
#   Interpreter : PEP
#
#------------------------------------------------------------------------------
~VERSION INFORMATION
VERS. 2.0 : CWLS Log ASCII Standard - version 2.0
WRAP.  NO : One line per depth step
~WELL INFORMATION
#MNEMONIC   .UNIT                                           VALUE :DESCRIPTION
#------------------------------------------------------------------------------
STRT        .M                                          1803.5016 :START DEPTH
STOP        .M                                          3154.9849 :STOP DEPTH
STEP        .M                                             0.1524 :STEP
NULL        .                                           -999.2500 :NULL VALUE
COMP        .                                             UNKNOWN :COMPANY
WELL        .                                             418D-ST :WELL
FLD         .                                             UNKNOWN :FIELD
LOC         .                                             UNKNOWN :LOCATION
CNTY        .                                             UNKNOWN :COUNTY
STAT        .                                             UNKNOWN :STATE
CTRY        .                                             UNKNOWN :COUNTRY
SRVC        .                                             UNKNOWN :SERVICE COMPANY
DATE        .                                             UNKNOWN :LOG DATE
UWI         .                                             418D-ST :UNIQUE WELL ID
XCOORD      .                                       597130.010000 :SURFACE X
YCOORD      .                                      2144879.410000 :SURFACE Y
LAT         .                                           19.396924 :LATITUDE
LON         .                                          -92.074978 :LONGITUDE
ELEV        .M                                             0.0000 :SURFACE ELEV
ELEV_TYPE   .                                                  NA :ELEV TYPE
~CURVE INFORMATION
#MNEMONIC.UNIT        API CODE       : CURVE DESCRIPTION
#------------------------------------------------------------------------------
DEPTH    .M                          : Measured Depth
CALI     .inches      UNKNOWN        : CALI:PETROWORKS:rC:NONE:v1 
CGR      .API         UNKNOWN        : CGR:PETROWORKS:rC:NONE:v1 
DRHO     .g/cm3       UNKNOWN        : DRHO:PETROWORKS:rC:NONE:v1 
DT       .us/ft       UNKNOWN        : DT:PETROWORKS:rC:NONE:v1 
GR       .API         UNKNOWN        : GR:PETROWORKS:rC:NONE:v3 
ILD      .ohm.m       UNKNOWN        : ILD:registros:rC:NONE:v0 (auto-composite)
ILM      .ohm.m       UNKNOWN        : ILM:registros:rC:NONE:v0 (auto-composite)
LLD      .ohm.m       UNKNOWN        : LLD:PETROWORKS:rC:NONE:v2 
LLS      .ohm.m       UNKNOWN        : LLS:PETROWORKS:rC:NONE:v2 
MSFL     .ohm.m       UNKNOWN        : MSFL:PETROWORKS:rC:NONE:v1 
NPHI     .v/v_decimal UNKNOWN        : NPHI:PETROWORKS:rC:NONE:v1 
PEF      .b/elec      UNKNOWN        : PEF:PETROWORKS:rC:NONE:v1 
POTA     .wtpercent   UNKNOWN        : POTA:PETROWORKS:rC:NONE:v1 
RHOB     .g/cm3       UNKNOWN        : RHOB:PETROWORKS:rC:NONE:v1 
THOR     .ppm         UNKNOWN        : THOR:PETROWORKS:rC:NONE:v1 
URAN     .ppm         UNKNOWN        : URAN:PETROWORKS:rC:NONE:v1 
~A     DEPTH         CALI          CGR         DRHO           DT           GR          ILD          ILM          LLD          LLS         MSFL         NPHI          PEF         POTA         RHOB         THOR         URAN
# ...
   2779.0139      13.4766       7.9015      -0.0015      50.8000      24.9924    -999.2500    -999.2500     157.1112     107.2123     519.0000       0.0209       3.7930       0.0019       2.7813       1.5160       2.3801
   2779.1665      13.4766       7.3139      -0.0033      50.6000      25.0555    -999.2500    -999.2500     128.0816      91.6475     146.7500       0.0313       3.9863       0.0015       2.7786       1.4917       2.4707
   2779.3188      13.7344       8.1378      -0.0003      51.2000      26.9341    -999.2500    -999.2500     117.2023      85.5383     177.1250       0.0321       3.9668       0.0020       2.7702       1.5329       2.6176
   2779.4712      13.7969       7.6783      -0.0046      51.4000      26.3418    -999.2500    -999.2500     116.2658      84.8972     243.0000       0.0285       3.8809       0.0021       2.7532       1.3518       2.5991
   2779.6235      13.8203       7.2658      -0.0048      50.7000      26.1002    -999.2500    -999.2500     121.8307      87.0191     254.3750       0.0244       3.8965       0.0020       2.7421       1.2818       2.6229
   2779.7759      13.7813       5.9309      -0.0016      52.2000      24.8281    -999.2500    -999.2500     140.9619      97.6272     228.8750       0.0228       3.7988       0.0012       2.7583       1.2239       2.6316
   2779.9285      13.6328       8.5765       0.0015      52.3000      28.7696    -999.2500    -999.2500     141.2497      99.1319     138.0000       0.0222       3.8828       0.0021       2.7736       1.6017       2.8121
   2780.0808      13.6328       9.3107       0.0026      52.2000      29.3632    -999.2500    -999.2500     147.0924     102.9009     220.5000       0.0226       3.7988       0.0026       2.7838       1.6273       2.7925
   2780.2332      13.5078      17.1649       0.0021      52.1000      35.5533    -999.2500    -999.2500     144.9512      99.9586     414.7500       0.0260       3.8691       0.0054       2.7684       2.7236       2.5607
   2780.3855      13.7500      19.3353       0.0021      52.1000      38.6405    -999.2500    -999.2500     127.0417      91.0629     104.5625       0.0278       3.9590       0.0061       2.7677       3.0461       2.6884
   2780.5381      13.7813      18.5323       0.0046      51.8000      37.0325    -999.2500    -999.2500     125.7363      90.0325     107.1250       0.0308       3.9395       0.0058       2.7645       2.9482       2.5763
   2780.6904      14.0000      19.0883       0.0109      51.6000      37.6833    -999.2500    -999.2500     109.0082      79.5013     111.5000       0.0306       3.7246       0.0061       2.7737       2.9592       2.5895
   2780.8428      14.0859      20.7447       0.0141      53.1000      39.8491    -999.2500    -999.2500     100.5006      72.8208     190.5000       0.0378       3.6172       0.0070       2.7749       3.0494       2.6605
   2780.9951      14.0859      18.2878       0.0239      53.0000      36.1630    -999.2500    -999.2500      90.2839      66.6937      99.5625       0.0469       3.5742       0.0062       2.7942       2.6670       2.4893
   2781.1477      14.0859      17.8377       0.0280      53.6000      34.8309    -999.2500    -999.2500      75.0190      56.3493     116.3750       0.0508       3.8086       0.0064       2.8033       2.4889       2.3665
   2781.3000      13.9609      16.0942       0.0344      55.1000      31.9217    -999.2500    -999.2500      67.2583      50.1007     122.2500       0.0534       3.8496       0.0060       2.8154       2.1471       2.2041
   2781.4524      14.1172      15.6235       0.0222      54.7000      31.1635    -999.2500    -999.2500      68.5517      50.3552      91.8125       0.0581       3.9766       0.0059       2.7854       2.0346       2.1641
   2781.6047      13.9453      17.5782       0.0096      54.8000      36.6119    -999.2500    -999.2500      67.6723      49.8017     104.1250       0.0644       3.8691       0.0062       2.7493       2.4804       2.6506
   2781.7571      13.7813      17.2697       0.0028      57.3000      36.9741    -999.2500    -999.2500      64.3204      47.2951      79.9375       0.0633       3.7695       0.0060       2.7233       2.4639       2.7440
   2781.9097      14.0391      17.4264      -0.0011      57.5000      37.8160    -999.2500    -999.2500      60.2261      44.8749      70.3750       0.0535       3.6270       0.0060       2.7210       2.5318       2.8394
   2782.0620      14.0859      18.3432      -0.0015      57.6000      39.8164    -999.2500    -999.2500      55.7542      41.7005      55.6250       0.0519       3.6328       0.0063       2.7365       2.6721       2.9904
   2782.2144      14.2344      20.5511      -0.0001      58.0000      47.4826    -999.2500    -999.2500      55.1359      42.0354      83.5625       0.0535       3.6621       0.0080       2.7373       2.5650       3.7505
   2782.3667      14.2500      22.5662       0.0036      56.9000      50.7023    -999.2500    -999.2500      52.7215      41.0314      97.9375       0.0616       3.7480       0.0089       2.7496       2.7808       3.9182
   2782.5193      14.0859      22.2020       0.0037      56.7000      50.0165    -999.2500    -999.2500      44.3268      34.9597      73.3125       0.0720       3.7148       0.0089       2.7481       2.6634       3.8734
   2782.6716      14.0234      27.4304       0.0075      57.2000      57.8961    -999.2500    -999.2500      41.1576      32.1933      47.2188       0.0822       3.7422       0.0112       2.7516       3.1986       4.2426
   2782.8240      13.8359      26.0849       0.0090      58.4000      55.7531    -999.2500    -999.2500      37.1559      29.1632      33.4375       0.0876       3.8574       0.0107       2.7421       3.0297       4.1316
   2782.9763      13.9141      25.2398       0.0058      59.8000      53.9823    -999.2500    -999.2500      31.7714      25.6089      56.3750       0.0884       3.7793       0.0104       2.7313       2.9253       4.0027
   2783.1289      14.0859      25.3246       0.0036      60.3000      53.6722    -999.2500    -999.2500      29.3337      23.8396      64.7500       0.0852       3.6016       0.0104       2.7342       2.9434       3.9477
   2783.2812      14.1328      25.2369       0.0058      59.0000      53.1990    -999.2500    -999.2500      30.0138      23.9689      47.2500       0.0840       3.5371       0.0103       2.7422       2.9475       3.8940
   2783.4336      14.2422      27.2030       0.0075      59.7000      55.8998    -999.2500    -999.2500      32.6268      25.6862      50.5000       0.0884       3.8105       0.0111       2.7400       3.1705       3.9963
   2783.5859      14.2031      27.1331       0.0028      58.4000      55.3409    -999.2500    -999.2500      33.8773      26.6747      44.8438       0.1015       3.9805       0.0112       2.7144       3.1391       3.9282
   2783.7383      14.0391      27.0738       0.0019      58.6000      55.2396    -999.2500    -999.2500      33.2072      26.1321      53.3438       0.1059       3.9082       0.0111       2.6835       3.1674       3.9224
   2783.8909      13.9375      25.3190       0.0034      60.2000      52.3467    -999.2500    -999.2500      33.4062      26.0994      23.9531       0.1030       3.7168       0.0103       2.6784       2.9792       3.7639
   2784.0432      13.8906      23.5615       0.0022      61.5000      49.6411    -999.2500    -999.2500      33.0133      25.5545      46.3438       0.0902       3.7285       0.0095       2.7018       2.8126       3.6318
   2784.1956      13.8203      24.6618       0.0002      59.4000      51.1544    -999.2500    -999.2500      33.9474      26.3164      32.2188       0.0797       3.7344       0.0097       2.7347       3.0584       3.6893
   2784.3479      13.9531      20.3954      -0.0002      58.2000      45.2421    -999.2500    -999.2500      38.2518      29.0380      61.3750       0.0638       3.7734       0.0073       2.7611       2.8191       3.4601
   2784.5005      14.1484      18.2149      -0.0047      56.6000      42.2116    -999.2500    -999.2500      41.2247      30.8704     111.7500       0.0531       3.7754       0.0063       2.7645       2.6283       3.3418
