#------------------------------------------------------------------------------
#
#   Created by  : [OpenWorks] Log Export Utility (LEXP)
#   Created on  : 2016-05-23 11:55:51
#   Project     : CANT971
#   User        : R5K
#   Interpreter : PEP
#
#------------------------------------------------------------------------------
~VERSION INFORMATION
VERS. 2.0 : CWLS Log ASCII Standard - version 2.0
WRAP.  NO : One line per depth step
~WELL INFORMATION
#MNEMONIC   .UNIT                                           VALUE :DESCRIPTION
#------------------------------------------------------------------------------
STRT        .M                                           490.1183 :START DEPTH
STOP        .M                                          2794.5586 :STOP DEPTH
STEP        .M                                             0.1524 :STEP
NULL        .                                           -999.2500 :NULL VALUE
COMP        .                                   PEMEX EXPL & PROD :COMPANY
WELL        .                                                  41 :WELL
FLD         .                                           CANTARELL :FIELD
LOC         .                                             UNKNOWN :LOCATION
CNTY        .                                      CD. DEL CARMEN :COUNTY
STAT        .                                            CAMPECHE :STATE
CTRY        .                                              MEXICO :COUNTRY
SRVC        .                                             UNKNOWN :SERVICE COMPANY
DATE        .                                             UNKNOWN :LOG DATE
UWI         .                                          3060000463 :UNIQUE WELL ID
XCOORD      .                                       601713.000000 :SURFACE X
YCOORD      .                                      2142348.040000 :SURFACE Y
LAT         .                                           19.373822 :LATITUDE
LON         .                                          -92.031472 :LONGITUDE
ELEV        .M                                            24.0000 :SURFACE ELEV
ELEV_TYPE   .                                                  KB :ELEV TYPE
~CURVE INFORMATION
#MNEMONIC.UNIT        API CODE       : CURVE DESCRIPTION
#------------------------------------------------------------------------------
DEPTH    .M                          : Measured Depth
CALI     .inches      UNKNOWN        : CALI:Import:rC:NONE:v0 (auto-composite)
DRHO     .g/cm3       UNKNOWN        : DRHO:Import:rC:NONE:v0 (auto-composite)
DT       .us/ft       UNKNOWN        : DT:Import:rC:NONE:v0 (auto-composite)
GR       .API         UNKNOWN        : GR:Import:rC:NONE:v0 (auto-composite)
ILD      .ohm.m       UNKNOWN        : ILD:Import:rC:NONE:v0 (auto-composite)
LLD      .ohm.m       UNKNOWN        : LLD:Import:rC:NONE:v0 (auto-composite)
LLS      .ohm.m       UNKNOWN        : LLS:Import:rC:NONE:v0 (auto-composite)
NPHI     .v/v_decimal UNKNOWN        : NPHI:Import:rC:NONE:v0 (auto-composite)
PEF      .b/elec      UNKNOWN        : PEF:Import:rC:NONE:v0 (auto-composite)
RHOB     .g/cm3       UNKNOWN        : RHOB:Import:rC:NONE:v0 (auto-composite)
~A     DEPTH         CALI         DRHO           DT           GR          ILD          LLD          LLS         NPHI          PEF         RHOB
# ...
   1992.1727       8.9150       0.0130    -999.2500      59.6970    -999.2500       3.0200       2.9510       0.2953       3.5800       2.5210
   1992.3251       8.9485       0.0095    -999.2500      62.1982    -999.2500       2.8230       2.8235       0.2926       3.4965       2.5280
   1992.4775       8.9820       0.0060    -999.2500      64.6980    -999.2500       2.6260       2.6960       0.2864       3.4130       2.5350
   1992.6299       8.9485       0.0060    -999.2500      67.5392    -999.2500       2.5330       2.6590       0.2772       3.3440       2.5515
   1992.7822       8.9150       0.0060    -999.2500      70.3770    -999.2500       2.4400       2.6220       0.2674       3.2750       2.5680
   1992.9347       8.8685       0.0075    -999.2500      71.4121    -999.2500       2.5375       2.6890       0.2587       3.3345       2.5825
   1993.0870       8.8220       0.0090    -999.2500      72.4460    -999.2500       2.6350       2.7560       0.2511       3.3940       2.5970
   1993.2395       8.8010       0.0130    -999.2500      70.0799    -999.2500       2.8079       2.8790       0.2471       3.5140       2.5935
   1993.3918       8.7800       0.0170    -999.2500      67.7160    -999.2500       2.9810       3.0020       0.2449       3.6340       2.5900
   1993.5443       8.7835       0.0190    -999.2500      64.3961    -999.2500       3.1564       3.1135       0.2466       3.7015       2.5915
   1993.6967       8.7870       0.0210    -999.2500      61.0790    -999.2500       3.3320       3.2250       0.2487       3.7690       2.5930
   1993.8491       8.8115       0.0230    -999.2500      58.4246    -999.2500       3.4105       3.3744       0.2485       3.7365       2.5990
   1994.0015       8.8360       0.0250    -999.2500      55.7720    -999.2500       3.4890       3.5240       0.2472       3.7040       2.6050
   1994.1539       8.7965       0.0295    -999.2500      58.5048    -999.2500       3.6769       3.9343       0.2428       3.6580       2.6075
   1994.3063       8.7570       0.0340    -999.2500      61.2360    -999.2500       3.8650       4.3450       0.2378       3.6120       2.6100
   1994.4587       8.6520       0.0390    -999.2500      67.2089    -999.2500       4.5139       5.1860       0.2336       3.6365       2.6140
   1994.6111       8.5470       0.0440    -999.2500      73.1790    -999.2500       5.1630       6.0280       0.2308       3.6610       2.6180
   1994.7634       8.4590       0.0500    -999.2500      77.6832    -999.2500       6.8283       7.1842       0.2337       3.6395       2.6150
   1994.9159       8.3710       0.0560    -999.2500      82.1860    -999.2500       8.4930       8.3410       0.2355       3.6180       2.6120
   1995.0682       8.3195       0.0525    -999.2500      84.2272    -999.2500      11.6363      10.3287       0.2271       3.5950       2.6010
   1995.2207       8.2680       0.0490    -999.2500      86.2680    -999.2500      14.7790      12.3160       0.2151       3.5720       2.5900
   1995.3730       8.2070       0.0390    -999.2500      84.5004    -999.2500      18.8402      15.3026       0.1978       3.5330       2.5935
   1995.5255       8.1460       0.0290    -999.2500      82.7330    -999.2500      22.9010      18.2890       0.1801       3.4940       2.5970
   1995.6779       8.0545       0.0315    -999.2500      78.1496    -999.2500      28.6309      21.7534       0.1654       3.4095       2.6090
   1995.8303       7.9630       0.0340    -999.2500      73.5660    -999.2500      34.3610      25.2180       0.1530       3.3250       2.6210
   1995.9827       8.0025       0.0365    -999.2500      67.5425    -999.2500      39.4696      27.7348       0.1465       3.2725       2.6355
   1996.1351       8.0420       0.0390    -999.2500      61.5180    -999.2500      44.5790      30.2520       0.1413       3.2200       2.6500
   1996.2875       8.1640       0.0400    -999.2500      56.0841    -999.2500      47.4181      32.3617       0.1351       3.2785       2.6590
   1996.4399       8.2860       0.0410    -999.2500      50.6530    -999.2500      50.2580      34.4720       0.1279       3.3370       2.6680
   1996.5923       8.2550       0.0650    -999.2500      50.7916    -999.2500      54.0892      39.3105       0.1175       3.4575       2.6790
   1996.7446       8.2240       0.0890    -999.2500      50.9300    -999.2500      57.9220      44.1510       0.1083       3.5780       2.6900
   1996.8971       8.1540       0.1155    -999.2500      50.3107    -999.2500      66.6416      53.4129       0.1073       3.7150       2.7030
   1997.0494       8.0840       0.1420    -999.2500      49.6920    -999.2500      75.3660      62.6800       0.1091       3.8520       2.7160
   1997.2019       8.0420       0.1390    -999.2500      47.6701    -999.2500      87.9602      71.3711       0.1137       3.9725       2.7120
   1997.3542       8.0000       0.1360    -999.2500      45.6500    -999.2500     100.5630      80.0680       0.1190       4.0930       2.7080
   1997.5067       8.0005       0.1265    -999.2500      43.0425    -999.2500     110.2041      88.8715       0.1236       4.0495       2.7010
   1997.6591       8.0010       0.1170    -999.2500      40.4370    -999.2500     119.8530      97.6820       0.1280       4.0060       2.6940
   1997.8115       8.0975       0.1070    -999.2500      45.6653    -999.2500     103.0848      93.1536       0.1321       3.8746       2.6895
   1997.9639       8.1940       0.0970    -999.2500      50.8900    -999.2500      86.3010      88.6210       0.1360       3.7430       2.6850
   1998.1163       8.3404       0.0885    -999.2500      64.9063    -999.2500      64.8753      70.8964       0.1395       3.6820       2.6685
   1998.2687       8.4870       0.0800    -999.2500      78.9150    -999.2500      43.4270      53.1530       0.1434       3.6210       2.6520
   1998.4211       8.5935       0.0860    -999.2500      98.2016    -999.2500      32.8730      40.0133       0.1495       3.7020       2.6260
   1998.5735       8.7000       0.0920    -999.2500     117.4800    -999.2500      22.3150      26.8580       0.1567       3.7830       2.6000
   1998.7258       8.7360       0.0955    -999.2500     115.1602    -999.2500      18.6355      22.0067       0.1658       3.8870       2.5850
   1998.8783       8.7720       0.0990    -999.2500     112.8410    -999.2500      14.9570      17.1530       0.1753       3.9910       2.5700
   1999.0306       8.7760       0.1040    -999.2500     102.3841    -999.2500      13.3034      15.5399       0.1845       3.9390       2.5810
   1999.1831       8.7800       0.1090    -999.2500      91.9290    -999.2500      11.6500      13.9270       0.1910       3.8870       2.5920
   1999.3354       8.7800       0.1235    -999.2500      79.2997    -999.2500      10.8165      12.7940       0.1872       3.8335       2.6055
   1999.4879       8.7800       0.1380    -999.2500      66.6710    -999.2500       9.9830      11.6610       0.1830       3.7800       2.6190
   1999.6403       8.7800       0.1470    -999.2500      73.9377    -999.2500      10.2085      10.8790       0.1875       3.7800       2.6295
   1999.7927       8.7800       0.1560    -999.2500      81.2050    -999.2500      10.4340      10.0970       0.1955       3.7800       2.6400
   1999.9451       8.7800       0.1530    -999.2500      78.2843    -999.2500      10.8785      10.5465       0.2075       3.7590       2.6445
   2000.0975       8.7800       0.1500    -999.2500      75.3630    -999.2500      11.3230      10.9960       0.2194       3.7380       2.6490
   2000.2499       8.7800       0.1295    -999.2500      73.1160    -999.2500      10.4916      10.7240       0.2263       3.6275       2.6495
   2000.4023       8.7800       0.1090    -999.2500      70.8700    -999.2500       9.6600      10.4520       0.2322       3.5170       2.6500
   2000.5547       8.7750       0.0915    -999.2500      72.1017    -999.2500       8.3828       9.1743       0.2391       3.5510       2.6290
