#------------------------------------------------------------------------------
#
#   Created by  : [OpenWorks] Log Export Utility (LEXP)
#   Created on  : 2016-05-23 11:55:46
#   Project     : CANT971
#   User        : R5K
#   Interpreter : PEP
#
#------------------------------------------------------------------------------
~VERSION INFORMATION
VERS. 2.0 : CWLS Log ASCII Standard - version 2.0
WRAP.  NO : One line per depth step
~WELL INFORMATION
#MNEMONIC   .UNIT                                           VALUE :DESCRIPTION
#------------------------------------------------------------------------------
STRT        .M                                           292.5192 :START DEPTH
STOP        .M                                          2727.7188 :STOP DEPTH
STEP        .M                                             0.1524 :STEP
NULL        .                                           -999.2500 :NULL VALUE
COMP        .                                   PEMEX EXPL & PROD :COMPANY
WELL        .                                                  39 :WELL
FLD         .                                           CANTARELL :FIELD
LOC         .                                             UNKNOWN :LOCATION
CNTY        .                                      CD. DEL CARMEN :COUNTY
STAT        .                                            CAMPECHE :STATE
CTRY        .                                              MEXICO :COUNTRY
SRVC        .                                             UNKNOWN :SERVICE COMPANY
DATE        .                                             UNKNOWN :LOG DATE
UWI         .                                          3060000161 :UNIQUE WELL ID
XCOORD      .                                       603360.280000 :SURFACE X
YCOORD      .                                      2145098.760000 :SURFACE Y
LAT         .                                           19.398594 :LATITUDE
LON         .                                          -92.015639 :LONGITUDE
ELEV        .M                                            27.1400 :SURFACE ELEV
ELEV_TYPE   .                                                  KB :ELEV TYPE
~CURVE INFORMATION
#MNEMONIC.UNIT        API CODE       : CURVE DESCRIPTION
#------------------------------------------------------------------------------
DEPTH    .M                          : Measured Depth
CALI     .inches      UNKNOWN        : CALI:Import:rC:NONE:v0 (auto-composite)
DRHO     .g/cm3       UNKNOWN        : DRHO:Import:rC:NONE:v0 (auto-composite)
DT       .us/ft       UNKNOWN        : DT:Import:rC:NONE:v0 (auto-composite)
GR       .API         UNKNOWN        : GR:Import:rC:NONE:v0 (auto-composite)
ILD      .ohm.m       UNKNOWN        : ILD:Import:rC:NONE:v0 (auto-composite)
LLD      .ohm.m       UNKNOWN        : LLD:Import:rC:NONE:v0 (auto-composite)
LLS      .ohm.m       UNKNOWN        : LLS:Import:rC:NONE:v0 (auto-composite)
MSFL     .ohm.m       UNKNOWN        : MSFL:Import:rC:NONE:v0 (auto-composite)
NPHI     .v/v_decimal UNKNOWN        : NPHI:Import:rC:NONE:v0 (auto-composite)
RHOB     .g/cm3       UNKNOWN        : RHOB:Import:rC:NONE:v0 (auto-composite)
~A     DEPTH         CALI         DRHO           DT           GR          ILD          LLD          LLS         MSFL         NPHI         RHOB
# ...
   2391.9817       0.0000       0.0000      40.0000      30.9016       0.2000       0.2000       0.2000       0.2000       0.4652       2.0000
   2392.1340       0.0000       0.0000      40.0000      31.2909       0.2000       0.2000       0.2000       0.2000       0.4782       2.0000
   2392.2864       0.0000       0.0000      40.0000      32.0995       0.2000       0.2000       0.2000       0.2000       0.4873       2.0000
   2392.4387       0.0000       0.0000      40.0000      32.6518       0.2000       0.2000       0.2000       0.2000       0.4996       2.0000
   2392.5913       0.0000       0.0000      40.0000      32.4298       0.2000       0.2000       0.2000       0.2000       0.5213       2.0000
   2392.7437       0.0000       0.0000      40.0000      32.0603       0.2000       0.2000       0.2000       0.2000       0.5396       2.0000
   2392.8960       0.0000       0.0000      40.0000      31.2541       0.2000       0.2000       0.2000       0.2000       0.5476       2.0000
   2393.0483       0.0000       0.0000      40.0000      30.4595       0.2000       0.2000       0.2000       0.2000       0.5513       2.0000
   2393.2007       0.0000       0.0000      40.0000      29.6994       0.2000       0.2000       0.2000       0.2000       0.5423       2.0000
   2393.3533       0.0000       0.0000      40.0000      29.1341       0.2000       0.2000       0.2000       0.2000       0.5374       2.0000
   2393.5056       0.0000       0.0000      40.0000      29.1306       0.2000       0.2000       0.2000       0.2000       0.5445       2.0000
   2393.6580       0.0000       0.0000      40.0000      29.2626       0.2000       0.2000       0.2000       0.2000       0.5526       2.0000
   2393.8103       0.0000       0.0000      40.0000      29.7745       0.2000       0.2000       0.2000       0.2000       0.5635       2.0000
   2393.9629       0.0000       0.0000      40.0000      30.3381       0.2000       0.2000       0.2000       0.2000       0.5728       2.0000
   2394.1152       0.0000       0.0000      40.0000      31.0485       0.2000       0.2000       0.2000       0.2000       0.5776       2.0000
   2394.2676       0.0000       0.0000      40.0000      31.5396       0.2000       0.2000       0.2000       0.2000       0.5834       2.0000
   2394.4199       0.0000       0.0000      40.0000      31.4253       0.2000       0.2000       0.2000       0.2000       0.5918       2.0000
   2394.5725       0.0000       0.0000      40.0000      31.2296       0.2000       0.2000       0.2000       0.2000       0.5978       2.0000
   2394.7249       0.0000       0.0000      40.0000      30.8158       0.2000       0.2000       0.2000       0.2000       0.5970       2.0000
   2394.8772       0.0000       0.0000      40.0000      30.4600       0.2000       0.2000       0.2000       0.2000       0.5940       2.0000
   2395.0295       0.0000       0.0000      40.0000      30.2604       0.2000       0.2000       0.2000       0.2000       0.5849       2.0000
   2395.1819       0.0000       0.0000      40.0000      29.6771       0.2000       0.2000       0.2000       0.2000       0.5764       2.0000
   2395.3345       0.0000       0.0000      40.0000      28.0886       0.2000       0.2000       0.2000       0.2000       0.5693       2.0000
   2395.4868       0.0000       0.0000      40.0000      26.7737       0.2000       0.2000       0.2000       0.2000       0.5615       2.0000
   2395.6392       0.0000       0.0000      40.0000      26.1846       0.2000       0.2000       0.2000       0.2000       0.5519       2.0000
   2395.7915       0.0000       0.0000      40.0000      25.9135       0.2000       0.2000       0.2000       0.2000       0.5410       2.0000
   2395.9441       0.0000       0.0000      40.0000      26.4630       0.2000       0.2000       0.2000       0.2000       0.5265       2.0000
   2396.0964       0.0000       0.0000      40.0000      26.9626       0.2000       0.2000       0.2000       0.2000       0.5128       2.0000
   2396.2488       0.0000       0.0000      40.0000      27.3370       0.2000       0.2000       0.2000       0.2000       0.5016       2.0000
   2396.4011       0.0000       0.0000      40.0000      27.5186       0.2000       0.2000       0.2000       0.2000       0.4893       2.0000
   2396.5537       0.0000       0.0000      40.0000      27.2145       0.2000       0.2000       0.2000       0.2000       0.4744       2.0000
   2396.7061       0.0000       0.0000      40.0000      26.9742       0.2000       0.2000       0.2000       0.2000       0.4566       2.0000
   2396.8584       0.0000       0.0000      40.0000      26.8914       0.2000       0.2000       0.2000       0.2000       0.4314       2.0000
   2397.0107       0.0000       0.0000      40.0000      26.8682       0.2000       0.2000       0.2000       0.2907       0.4111       2.0000
   2397.1631       0.0000       0.0000      40.0000      26.9882       0.2000       0.2000       0.2000       0.5995       0.4024       2.0000
   2397.3157       0.0000       0.0000      40.0000      27.1161       0.2000       0.2000       0.2000       0.8390       0.4107       2.0000
   2397.4680       0.0000       0.0000      40.0000      27.2635       0.2000       0.2000       0.2000       0.9107       0.4598       2.0000
   2397.6204       0.0000       0.0000      40.0000      27.5533       0.2000       0.2000       0.2000       0.9631       0.5001       2.0000
   2397.7727       0.0000       0.0000      40.0000      28.1780       0.2000       0.2000       0.2000       0.9701       0.5200       2.0000
   2397.9253       0.0000       0.0000      40.0000      28.5479       0.2000       0.2000       0.2000       0.9771       0.5337       2.0000
   2398.0776       0.0000       0.0000      40.0000      28.3337       0.2000       0.2000       0.2000       0.9841       0.5335       2.0000
   2398.2300       0.0000       0.0000      40.0000      28.3018       0.2000       0.2000       0.2000       0.9888       0.5362       2.0000
   2398.3823       0.0000       0.0000      40.0000      28.6929       0.2000       0.2000       0.2000       0.9883       0.5457       2.0000
   2398.5349       0.0000       0.0000      40.0000      29.2532       0.2000       0.2000       0.2000       0.9908       0.5547       2.0000
   2398.6873       0.0000       0.0000      40.0000      30.1958       0.2000       0.2000       0.2000       0.9998       0.5623       2.0000
   2398.8396       0.0000       0.0000      40.0000      30.8753       0.2000       0.2000       0.2000       1.0071       0.5699       2.0000
   2398.9919       0.0000       0.0000      40.0000      30.9580       0.2000       0.2000       0.2000       1.0106       0.5773       2.0000
   2399.1443       0.0000       0.0000      40.0000      30.7842       0.2000       0.2000       0.2000       1.0127       0.5852       2.0000
   2399.2969       0.0000       0.0000      40.0000      30.0431       0.2000       0.2000       0.2000       1.0117       0.5941       2.0000
   2399.4492       0.0000       0.0000      40.0000      29.4033       0.2000       0.2000       0.2000       1.0121       0.6014       2.0000
   2399.6016       0.0000       0.0000      40.0000      28.9902       0.2000       0.2000       0.2000       1.0156       0.6051       2.0000
   2399.7539       0.0000       0.0000      40.0000      28.5412       0.2000       0.2000       0.2000       1.0171       0.6053       2.0000
   2399.9065       0.0000       0.0000      40.0000      28.0143       0.2000       0.2000       0.2000       1.0140       0.5978       2.0000
   2400.0588       0.0000       0.0000      40.0000      27.8872       0.2000       0.2000       0.2000       1.0117       0.5932       2.0000
   2400.2112       0.0000       0.0000      40.0000      28.6094       0.2000       0.2000       0.2000       1.0107       0.5944       2.0000
   2400.3635       0.0000       0.0000      40.0000      29.4266       0.2000       0.2000       0.2000       1.0100       0.5964       2.0000
