#------------------------------------------------------------------------------
#
#   Created by  : [OpenWorks] Log Export Utility (LEXP)
#   Created on  : 2016-05-23 11:55:37
#   Project     : CANT971
#   User        : R5K
#   Interpreter : PEP
#
#------------------------------------------------------------------------------
~VERSION INFORMATION
VERS. 2.0 : CWLS Log ASCII Standard - version 2.0
WRAP.  NO : One line per depth step
~WELL INFORMATION
#MNEMONIC   .UNIT                                           VALUE :DESCRIPTION
#------------------------------------------------------------------------------
STRT        .M                                           299.0628 :START DEPTH
STOP        .M                                          2570.8896 :STOP DEPTH
STEP        .M                                             0.1524 :STEP
NULL        .                                           -999.2500 :NULL VALUE
COMP        .                                   PEMEX EXPL & PROD :COMPANY
WELL        .                                                  31 :WELL
FLD         .                                           CANTARELL :FIELD
LOC         .                                             UNKNOWN :LOCATION
CNTY        .                                      CD. DEL CARMEN :COUNTY
STAT        .                                            CAMPECHE :STATE
CTRY        .                                              MEXICO :COUNTRY
SRVC        .                                             UNKNOWN :SERVICE COMPANY
DATE        .                                             UNKNOWN :LOG DATE
UWI         .                                          3060000157 :UNIQUE WELL ID
XCOORD      .                                       599727.810000 :SURFACE X
YCOORD      .                                      2147216.930000 :SURFACE Y
LAT         .                                           19.417919 :LATITUDE
LON         .                                          -92.050118 :LONGITUDE
ELEV        .M                                            27.8000 :SURFACE ELEV
ELEV_TYPE   .                                                  KB :ELEV TYPE
~CURVE INFORMATION
#MNEMONIC.UNIT        API CODE       : CURVE DESCRIPTION
#------------------------------------------------------------------------------
DEPTH    .M                          : Measured Depth
CALI     .inches      UNKNOWN        : CALI:Import:rC:NONE:v0 (auto-composite)
DRHO     .g/cm3       UNKNOWN        : DRHO:Import:rC:NONE:v0 (auto-composite)
DT       .us/ft       UNKNOWN        : DT:Import:rC:NONE:v0 (auto-composite)
GR       .API         UNKNOWN        : GR:Import:rC:NONE:v0 (auto-composite)
ILD      .ohm.m       UNKNOWN        : ILD:Import:rC:NONE:v0 (auto-composite)
LLD      .ohm.m       UNKNOWN        : LLD:Import:rC:NONE:v0 (auto-composite)
LLS      .ohm.m       UNKNOWN        : LLS:Import:rC:NONE:v0 (auto-composite)
MSFL     .ohm.m       UNKNOWN        : MSFL:Import:rC:NONE:v0 (auto-composite)
NPHI     .v/v_decimal UNKNOWN        : NPHI:Import:rC:NONE:v0 (auto-composite)
RHOB     .g/cm3       UNKNOWN        : RHOB:Import:rC:NONE:v0 (auto-composite)
~A     DEPTH         CALI         DRHO           DT           GR          ILD          LLD          LLS         MSFL         NPHI         RHOB
# ...
   1929.1332    -999.2500    -999.2500      70.9290      47.7374    -999.2500    1861.3101    1094.7531    -999.2500       0.1267       2.5820
   1929.2856    -999.2500    -999.2500      70.9290      46.2617    -999.2500    1861.3101    1094.7531    -999.2500       0.1284       2.5820
   1929.4380    -999.2500    -999.2500      70.5271      45.9963    -999.2500    1968.3395    1156.0121    -999.2500       0.1287       2.5851
   1929.5905    -999.2500    -999.2500      69.5429      47.4726    -999.2500    2229.3770    1304.8373    -999.2500       0.1270       2.5926
   1929.7428    -999.2500    -999.2500      69.0434      47.9731    -999.2500    2579.2786    1479.6814    -999.2500       0.1246       2.6114
   1929.8953    -999.2500    -999.2500      69.2392      47.0876    -999.2500    3055.4023    1691.3608    -999.2500       0.1213       2.6465
   1930.0476    -999.2500    -999.2500      69.3540      46.5700    -999.2500    3333.6980    1814.7490    -999.2500       0.1141       2.6670
   1930.2000    -999.2500    -999.2500      69.3540      46.5700    -999.2500    3333.6980    1814.7490    -999.2500       0.1017       2.6670
   1930.3524    -999.2500    -999.2500      68.6368      46.5805    -999.2500    3280.1555    1779.8773    -999.2500       0.0997       2.6586
   1930.5048    -999.2500    -999.2500      66.9138      46.6055    -999.2500    3152.0137    1696.7386    -999.2500       0.1119       2.6386
   1930.6572    -999.2500    -999.2500      66.0969      46.8006    -999.2500    2911.5903    1555.7880    -999.2500       0.1142       2.6287
   1930.8096    -999.2500    -999.2500      66.5386      47.2296    -999.2500    2516.7322    1335.5826    -999.2500       0.1025       2.6327
   1930.9620    -999.2500    -999.2500      66.7940      47.4770    -999.2500    1963.9204    1042.7469    -999.2500       0.0956       2.6350
   1931.1144    -999.2500    -999.2500      66.7940      47.4770    -999.2500    1195.9298     651.6148    -999.2500       0.0954       2.6350
   1931.2668    -999.2500    -999.2500      66.6978      48.2932    -999.2500    1081.8739     594.7133    -999.2500       0.0933       2.6307
   1931.4192    -999.2500    -999.2500      66.4711      50.2107    -999.2500    1850.1725     985.8455    -999.2500       0.0886       2.6207
   1931.5717    -999.2500    -999.2500      65.9353      51.9216    -999.2500    1983.1559    1055.8568    -999.2500       0.0859       2.6150
   1931.7240    -999.2500    -999.2500      64.9838      53.3573    -999.2500    1269.8412     699.5021    -999.2500       0.0859       2.6150
   1931.8765    -999.2500    -999.2500      64.0454      54.7839    -999.2500     836.0417     485.0880    -999.2500       0.0863       2.6238
   1932.0288    -999.2500    -999.2500      63.1243      56.1986    -999.2500     771.0437     456.7364    -999.2500       0.0872       2.6444
   1932.1812    -999.2500    -999.2500      61.9129      57.5308    -999.2500     683.6073     416.6479    -999.2500       0.0908       2.6558
   1932.3336    -999.2500    -999.2500      60.3195      58.7552    -999.2500     566.8459     361.3202    -999.2500       0.0977       2.6553
   1932.4860    -999.2500    -999.2500      59.4554      60.4495    -999.2500     459.7400     308.9314    -999.2500       0.1016       2.6362
   1932.6384    -999.2500    -999.2500      59.5415      62.7502    -999.2500     365.0928     260.3226    -999.2500       0.1014       2.5932
   1932.7908    -999.2500    -999.2500      61.6806      74.0191    -999.2500     272.5519     206.0408    -999.2500       0.1015       2.5701
   1932.9432    -999.2500    -999.2500      66.4607      96.7502    -999.2500     182.7033     144.5553    -999.2500       0.1018       2.5726
   1933.0956    -999.2500    -999.2500      69.1295     109.4436    -999.2500     110.2726      92.5048    -999.2500       0.1041       2.5678
   1933.2480    -999.2500    -999.2500      69.1080     109.4291    -999.2500      59.8935      52.3218    -999.2500       0.1091       2.5538
   1933.4004    -999.2500    -999.2500      69.0960     109.4210    -999.2500      31.9050      30.0300    -999.2500       0.1232       2.5460
   1933.5529    -999.2500    -999.2500      69.0960     109.4210    -999.2500      31.9050      30.0300    -999.2500       0.1477       2.5460
   1933.7052    -999.2500    -999.2500      68.8954     103.2406    -999.2500      34.7009      32.7071    -999.2500       0.1504       2.5502
   1933.8577    -999.2500    -999.2500      68.4449      89.4074    -999.2500      40.9587      38.6776    -999.2500       0.1261       2.5598
   1934.0100    -999.2500    -999.2500      67.2388      75.7867    -999.2500      71.1740      66.1507    -999.2500       0.1175       2.5760
   1934.1624    -999.2500    -999.2500      65.1000      62.4267    -999.2500     130.6796     119.8280    -999.2500       0.1287       2.6005
   1934.3148    -999.2500    -999.2500      63.9250      55.1090    -999.2500     163.2730     149.1430    -999.2500       0.1353       2.6357
   1934.4672    -999.2500    -999.2500      63.9250      55.1090    -999.2500     163.2730     149.1430    -999.2500       0.1349       2.6838
   1934.6196    -999.2500    -999.2500      64.0701      50.2125    -999.2500    1054.2217     771.5631    -999.2500       0.1191       2.6882
   1934.7720    -999.2500    -999.2500      64.3905      39.4416    -999.2500    3014.0552    2135.9023    -999.2500       0.0855       2.6401
   1934.9244    -999.2500    -999.2500      64.9777      33.6271    -999.2500    8661.7588    4940.7847    -999.2500       0.0671       2.6275
   1935.0768    -999.2500    -999.2500      65.8842      33.6842    -999.2500   18678.1895    9446.6660    -999.2500       0.0673       2.6570
   1935.2292    -999.2500    -999.2500      66.3750      33.7150    -999.2500   24086.2051   11872.2383    -999.2500       0.0671       2.6730
   1935.3816    -999.2500    -999.2500      66.3750      33.7150    -999.2500   24086.2051   11872.2383    -999.2500       0.0656       2.6730
   1935.5341    -999.2500    -999.2500      65.8714      37.1926    -999.2500   22839.4062   11315.3525    -999.2500       0.0654       2.6894
   1935.6864    -999.2500    -999.2500      64.7786      44.7129    -999.2500   20143.1953   10115.2393    -999.2500       0.0670       2.7250
   1935.8387    -999.2500    -999.2500      62.4640      48.6796    -999.2500   18730.6445    9488.0488    -999.2500       0.0683       2.7435
   1935.9912    -999.2500    -999.2500      58.7331      48.5669    -999.2500   18791.6348    9516.4150    -999.2500       0.0691       2.7425
   1936.1436    -999.2500    -999.2500      56.7497      47.8048    -999.2500   19270.2441    9741.7568    -999.2500       0.0689       2.7383
   1936.2960    -999.2500    -999.2500      56.7662      46.3040    -999.2500   20223.7578   10189.6592    -999.2500       0.0677       2.7302
   1936.4484    -999.2500    -999.2500      56.9969      41.8256    -999.2500   27153.5996   13117.9834    -999.2500       0.0669       2.7157
   1936.6008    -999.2500    -999.2500      57.4705      33.9928    -999.2500   40816.0195   18822.6953    -999.2500       0.0670       2.6936
   1936.7532    -999.2500    -999.2500      57.6974      29.8836    -999.2500   47588.3086   21627.7031    -999.2500       0.0684       2.6822
   1936.9056    -999.2500    -999.2500      57.6473      29.9167    -999.2500   46695.8086   21217.3379    -999.2500       0.0711       2.6827
   1937.0580    -999.2500    -999.2500      57.0841      30.1648    -999.2500   42123.4258   19136.6562    -999.2500       0.0722       2.6832
   1937.2104    -999.2500    -999.2500      55.9518      30.6498    -999.2500   33495.6641   15226.9990    -999.2500       0.0718       2.6837
   1937.3628    -999.2500    -999.2500      55.3900      31.7783    -999.2500   24679.1914   11310.6484    -999.2500       0.0717       2.6900
   1937.5153    -999.2500    -999.2500      55.4551      33.6092    -999.2500   15656.7012    7387.0361    -999.2500       0.0719       2.7025
