#------------------------------------------------------------------------------
#
#   Created by  : [OpenWorks] Log Export Utility (LEXP)
#   Created on  : 2016-05-23 11:56:31
#   Project     : CANT971
#   User        : R5K
#   Interpreter : PEP
#
#------------------------------------------------------------------------------
~VERSION INFORMATION
VERS. 2.0 : CWLS Log ASCII Standard - version 2.0
WRAP.  NO : One line per depth step
~WELL INFORMATION
#MNEMONIC   .UNIT                                           VALUE :DESCRIPTION
#------------------------------------------------------------------------------
STRT        .M                                          1639.8856 :START DEPTH
STOP        .M                                          2789.8960 :STOP DEPTH
STEP        .M                                             0.1524 :STEP
NULL        .                                           -999.2500 :NULL VALUE
COMP        .                                             UNKNOWN :COMPANY
WELL        .                                                 477 :WELL
FLD         .                                             UNKNOWN :FIELD
LOC         .                                             UNKNOWN :LOCATION
CNTY        .                                             UNKNOWN :COUNTY
STAT        .                                             UNKNOWN :STATE
CTRY        .                                             UNKNOWN :COUNTRY
SRVC        .                                             UNKNOWN :SERVICE COMPANY
DATE        .                                             UNKNOWN :LOG DATE
UWI         .                                                 477 :UNIQUE WELL ID
XCOORD      .                                       598704.070000 :SURFACE X
YCOORD      .                                      2143268.860000 :SURFACE Y
LAT         .                                           19.382293 :LATITUDE
LON         .                                          -92.060073 :LONGITUDE
ELEV        .M                                             0.0000 :SURFACE ELEV
ELEV_TYPE   .                                                  KB :ELEV TYPE
~CURVE INFORMATION
#MNEMONIC.UNIT        API CODE       : CURVE DESCRIPTION
#------------------------------------------------------------------------------
DEPTH    .M                          : Measured Depth
CALI     .inches      UNKNOWN        : CALI:litodensidad:rC:NONE:v0 (auto-composite)
CGR      .API         UNKNOWN        : CGR:Espectrometria:rC:NONE:v0 (auto-composite)
DRHO     .g/cm3       UNKNOWN        : DRHO:litodensidad:rC:NONE:v0 (auto-composite)
DT       .us/ft       UNKNOWN        : DT:Sonico:rC:NONE:v0 (auto-composite)
GR       .API         UNKNOWN        : GR:Espectrometria:rC:NONE:v0 (auto-composite)
GR-LWD   .API         UNKNOWN        : GR-LWD:resistivos-LWD:rC:NONE:v0 (auto-composite)
LLD      .ohm.m       UNKNOWN        : LLD:resistivos:rC:NONE:v0 (auto-composite)
LLD-LWD  .ohm.m       UNKNOWN        : LLD-LWD:resistivos-LWD:rC:NONE:v0 (auto-composite)
LLS      .ohm.m       UNKNOWN        : LLS:resistivos:rC:NONE:v0 (auto-composite)
LLS-LWD  .ohm.m       UNKNOWN        : LLS-LWD:resistivos-LWD:rC:NONE:v0 (auto-composite)
MSFL     .ohm.m       UNKNOWN        : MSFL:resistivos:rC:NONE:v0 (auto-composite)
MSFL-LWD .ohm.m       UNKNOWN        : MSFL-LWD:resistivos-LWD:rC:NONE:v0 (auto-composite)
NPHI     .UNKNOWN     UNKNOWN        : NPHI:porosidad:rC:NONE:v0 (auto-composite)
PEF      .UNKNOWN     UNKNOWN        : PEF:litodensidad:rC:NONE:v0 (auto-composite)
POTA     .wtpercent   UNKNOWN        : POTA:PETROWORKS:rC:NONE:v1 
RHOB     .g/cm3       UNKNOWN        : RHOB:litodensidad:rC:NONE:v0 (auto-composite)
THOR     .ppm         UNKNOWN        : THOR:Espectrometria:rC:NONE:v0 (auto-composite)
URAN     .ppm         UNKNOWN        : URAN:Espectrometria:rC:NONE:v0 (auto-composite)
~A     DEPTH         CALI          CGR         DRHO           DT           GR       GR-LWD          LLD      LLD-LWD          LLS      LLS-LWD         MSFL     MSFL-LWD         NPHI          PEF         POTA         RHOB         THOR         URAN
# ...
   2600.4629       8.8730       4.9038      -0.0171      63.5246      19.9815    -999.2500      84.9857    -999.2500      62.5833    -999.2500     115.0463    -999.2500       0.0366       3.4101       0.0025       2.7555       0.3810       1.6787
   2600.6152       8.8778       4.0767      -0.0144      63.4577      19.8901    -999.2500      77.5429    -999.2500      57.2390    -999.2500     107.3188    -999.2500       0.0351       3.3885       0.0025       2.7536       0.1724       1.7606
   2600.7676       8.8321       4.8360      -0.0097      65.3989      19.9772    -999.2500      70.6503    -999.2500      51.8886    -999.2500     131.7326    -999.2500       0.0332       3.3906       0.0034       2.7532       0.0397       1.6857
   2600.9199       8.7371       6.2911      -0.0093      68.0015      19.4209    -999.2500      65.8794    -999.2500      48.2293    -999.2500     108.7494    -999.2500       0.0313       3.3975       0.0044       2.7484       0.0284       1.4618
   2601.0725       8.7908       6.4893      -0.0147      70.0502      19.7377    -999.2500      64.4667    -999.2500      47.9631    -999.2500      72.5323    -999.2500       0.0315       3.3926       0.0045       2.7289       0.0473       1.4750
   2601.2249       8.8921       7.5311      -0.0137      73.1425      19.9221    -999.2500      64.9001    -999.2500      49.0918    -999.2500      72.7143    -999.2500       0.0355       3.3860       0.0049       2.7022       0.1861       1.3795
   2601.3772       8.9132       9.1242       0.0027      77.1828      20.1118    -999.2500      64.3060    -999.2500      49.4465    -999.2500      88.0276    -999.2500       0.0432       3.3819       0.0056       2.6815       0.3643       1.2233
   2601.5295       8.9258      10.5272       0.0268      79.7497      20.1854    -999.2500      59.5695    -999.2500      45.6836    -999.2500     181.3899    -999.2500       0.0551       3.3677       0.0061       2.6760       0.5754       1.0753
   2601.6821       8.8107       9.8947       0.0353      80.8288      20.6620    -999.2500      51.7241    -999.2500      38.9272    -999.2500     395.3664    -999.2500       0.0657       3.3531       0.0058       2.6644       0.5056       1.1988
   2601.8345       8.7324       7.8408       0.0250      81.3843      20.6946    -999.2500      44.2889    -999.2500      32.4632    -999.2500     477.8935    -999.2500       0.0636       3.3757       0.0050       2.6372       0.2419       1.4311
   2601.9868       8.8207       6.8903       0.0058      81.4439      20.6693    -999.2500      38.9996    -999.2500      27.3469    -999.2500     218.8728    -999.2500       0.0544       3.4206       0.0047       2.6078       0.0783       1.5341
   2602.1392       8.9843       6.8217      -0.0081      80.7145      20.3049    -999.2500      37.2775    -999.2500      26.1293    -999.2500      76.5317    -999.2500       0.0478       3.4535       0.0047       2.6228       0.0722       1.5012
   2602.2915       8.9961       7.4174      -0.0183      79.5020      19.9653    -999.2500      37.9042    -999.2500      26.3456    -999.2500      20.2220    -999.2500       0.0415       3.4488       0.0051       2.6646       0.0663       1.3970
   2602.4441       9.0313       7.7947      -0.0142      77.0482      19.3725    -999.2500      39.8578    -999.2500      27.2415    -999.2500       7.1909    -999.2500       0.0342       3.4240       0.0053       2.7195       0.1192       1.2890
   2602.5964       8.9606       9.1953      -0.0031      73.5753      19.4678    -999.2500      41.7261    -999.2500      28.8494    -999.2500       3.2470    -999.2500       0.0295       3.3898       0.0057       2.7639       0.3570       1.1437
   2602.7488       8.9072       9.3018       0.0031      71.3696      20.1554    -999.2500      40.7414    -999.2500      27.6836    -999.2500       0.6738    -999.2500       0.0294       3.3587       0.0053       2.7806       0.5243       1.2084
   2602.9011       8.9534       8.0730       0.0021      70.0972      21.1766    -999.2500      38.4405    -999.2500      25.6825    -999.2500       2.7932    -999.2500       0.0305       3.3364       0.0046       2.7811       0.4755       1.4589
   2603.0537       9.1645       5.6677      -0.0013      68.4073      22.0113    -999.2500      35.8843    -999.2500      23.2772    -999.2500      12.3087    -999.2500       0.0296       3.3256       0.0033       2.7759       0.3173       1.8196
   2603.2061       9.2623       4.7673      -0.0031      66.9593      22.7552    -999.2500      34.4204    -999.2500      21.7697    -999.2500      54.3285    -999.2500       0.0281       3.3092       0.0028       2.7796       0.2393       2.0027
   2603.3584       9.2698       5.2481      -0.0077      66.5857      23.6236    -999.2500      34.4304    -999.2500      21.8099    -999.2500      60.9490    -999.2500       0.0279       3.2765       0.0030       2.7868       0.2993       2.0458
   2603.5107       9.1227       6.4149      -0.0120      67.2409      24.7961    -999.2500      35.1946    -999.2500      22.5526    -999.2500      90.5293    -999.2500       0.0288       3.2596       0.0035       2.7894       0.4245       2.0464
   2603.6633       9.0113       5.9063      -0.0122      68.5136      25.6311    -999.2500      38.3118    -999.2500      24.7132    -999.2500      82.5587    -999.2500       0.0300       3.2863       0.0034       2.7918       0.3249       2.1960
   2603.8157       8.9898       4.9061      -0.0066      69.2158      25.9560    -999.2500      42.6242    -999.2500      27.3235    -999.2500      71.4908    -999.2500       0.0319       3.3416       0.0031       2.7965       0.1709       2.3436
   2603.9680       9.0803       4.1799      -0.0008      68.8207      25.4587    -999.2500      47.5978    -999.2500      30.0102    -999.2500      54.3883    -999.2500       0.0343       3.3866       0.0028       2.8028       0.0764       2.3690
   2604.1204       9.1313       5.4185       0.0013      68.7645      25.3880    -999.2500      50.0894    -999.2500      31.2436    -999.2500      65.1553    -999.2500       0.0364       3.4033       0.0036       2.8037       0.0963       2.2233
   2604.2727       9.1361       8.6016      -0.0012      70.3623      26.1277    -999.2500      50.0064    -999.2500      31.2389    -999.2500      57.1506    -999.2500       0.0376       3.3855       0.0050       2.7983       0.4488       1.9512
   2604.4253       9.0507      10.4743      -0.0056      72.9844      27.1559    -999.2500      48.9038    -999.2500      30.4045    -999.2500      34.6258    -999.2500       0.0393       3.3534       0.0052       2.7825       0.8886       1.8572
   2604.5776       8.9209       9.9006      -0.0144      75.8892      28.5712    -999.2500      47.6700    -999.2500      29.0432    -999.2500      25.1769    -999.2500       0.0417       3.3373       0.0047       2.7549       0.9496       2.0787
   2604.7300       8.9140       8.0484      -0.0222      78.8901      29.4636    -999.2500      46.9361    -999.2500      27.9919    -999.2500      28.9348    -999.2500       0.0437       3.3536       0.0039       2.7290       0.7532       2.3842
   2604.8823       8.9943       7.3390      -0.0285      80.2351      29.9549    -999.2500      47.2083    -999.2500      27.6182    -999.2500      41.0537    -999.2500       0.0454       3.3766       0.0036       2.7180       0.6463       2.5179
   2605.0349       9.0088       9.0212      -0.0260      76.2105      30.9781    -999.2500      48.3913    -999.2500      28.3058    -999.2500      61.1258    -999.2500       0.0469       3.3807       0.0037       2.7306       1.0913       2.4445
   2605.1873       8.9354       8.9731      -0.0189      69.4775      31.9513    -999.2500      49.1062    -999.2500      28.7073    -999.2500      65.7579    -999.2500       0.0492       3.3742       0.0039       2.7580       0.9826       2.5583
   2605.3396       8.8365       8.1369      -0.0068      67.1209      32.8077    -999.2500      50.5378    -999.2500      29.8172    -999.2500      74.9780    -999.2500       0.0524       3.3673       0.0048       2.7851       0.4224       2.7467
