#------------------------------------------------------------------------------
#
#   Created by  : [OpenWorks] Log Export Utility (LEXP)
#   Created on  : 2016-05-12 17:01:25
#   Project     : CANT971
#   User        : R5K
#   Interpreter : PEP
#
#------------------------------------------------------------------------------
~VERSION INFORMATION
VERS. 2.0 : CWLS Log ASCII Standard - version 2.0
WRAP.  NO : One line per depth step
~WELL INFORMATION
#MNEMONIC   .UNIT                                           VALUE :DESCRIPTION
#------------------------------------------------------------------------------
STRT        .M                                           310.6675 :START DEPTH
STOP        .M                                          2665.7046 :STOP DEPTH
STEP        .M                                             0.1524 :STEP
NULL        .                                           -999.2500 :NULL VALUE
COMP        .                                   PEMEX EXPL & PROD :COMPANY
WELL        .                                                 77A :WELL
FLD         .                                           CANTARELL :FIELD
LOC         .                                             UNKNOWN :LOCATION
CNTY        .                                      CD. DEL CARMEN :COUNTY
STAT        .                                            CAMPECHE :STATE
CTRY        .                                              MEXICO :COUNTRY
SRVC        .                                             UNKNOWN :SERVICE COMPANY
DATE        .                                             UNKNOWN :LOG DATE
UWI         .                                          3060000181 :UNIQUE WELL ID
XCOORD      .                                       602151.310000 :SURFACE X
YCOORD      .                                      2147165.430000 :SURFACE Y
LAT         .                                           19.417331 :LATITUDE
LON         .                                          -92.027040 :LONGITUDE
ELEV        .M                                            28.1700 :SURFACE ELEV
ELEV_TYPE   .                                                  KB :ELEV TYPE
~CURVE INFORMATION
#MNEMONIC.UNIT        API CODE       : CURVE DESCRIPTION
#------------------------------------------------------------------------------
DEPTH    .M                          : Measured Depth
CALI     .inches      UNKNOWN        : CALI:UNKNOWN:rC:NONE:v0 (auto-composite)
DRHO     .UNKNOWN     UNKNOWN        : DRHO:PETROWORKS:rC:NONE:v1 
DT       .us/ft       UNKNOWN        : DT:DT:rC:NONE:v0 (auto-composite)
GR       .API         UNKNOWN        : GR:UNKNOWN:rC:NONE:v0 (auto-composite)
ILD      .UNKNOWN     UNKNOWN        : ILD:UNKNOWN:rC:NONE:v0 (auto-composite)
LLD      .ohm.m       UNKNOWN        : LLD:UNKNOWN:rC:NONE:v0 (auto-composite)
LLS      .ohm.m       UNKNOWN        : LLS:UNKNOWN:rC:NONE:v0 (auto-composite)
MSFL     .ohm.m       UNKNOWN        : MSFL:UNKNOWN:rC:NONE:v0 (auto-composite)
NPHI     .v/v_decimal UNKNOWN        : NPHI:PETROWORKS:rC:NONE:v1 
RHOB     .UNKNOWN     UNKNOWN        : RHOB:PETROWORKS:rC:NONE:v1 
SP       .UNKNOWN     UNKNOWN        : SP:UNKNOWN:rC:NONE:v0 (auto-composite)
~A     DEPTH         CALI         DRHO           DT           GR          ILD          LLD          LLS         MSFL         NPHI         RHOB           SP
# ...
    381.9907      22.8560       0.0069     128.9786      42.2597       1.6898    -999.2500    -999.2500    -999.2500       0.3940       1.4049      91.9847
    382.1431      22.8560       0.0071     124.9633      40.3528       1.5730    -999.2500    -999.2500    -999.2500       0.4205       1.3992      92.8475
    382.2955      22.8560       0.0082     123.1284      38.5497       1.4597    -999.2500    -999.2500    -999.2500       0.4336       1.3970      93.6735
    382.4479      22.8560       0.0096     123.4559      38.0157       1.3890    -999.2500    -999.2500    -999.2500       0.4333       1.3988      94.0505
    382.6003      22.8560       0.0108     126.1483      37.6628       1.3225    -999.2500    -999.2500    -999.2500       0.4310       1.4010      94.3883
    382.7527      22.8560       0.0115     131.1867      39.3662       1.3045    -999.2500    -999.2500    -999.2500       0.4266       1.4009      94.2805
    382.9051      22.8560       0.0119     133.6162      41.1571       1.2887    -999.2500    -999.2500    -999.2500       0.4249       1.4002      94.0985
    383.0575      22.8560       0.0120     133.4572      43.8773       1.2973    -999.2500    -999.2500    -999.2500       0.4258       1.4000      93.1284
    383.2099      22.8560       0.0113     132.7323      46.1399       1.3059    -999.2500    -999.2500    -999.2500       0.4380       1.3994      92.0943
    383.3623      22.8560       0.0093     131.4457      43.8520       1.3154    -999.2500    -999.2500    -999.2500       0.4615       1.3978      90.4230
    383.5147      22.8560       0.0078     129.3210      41.6378       1.3299    -999.2500    -999.2500    -999.2500       0.4707       1.3964      88.7986
    383.6671      22.8560       0.0081     126.3651      40.1127       1.3905    -999.2500    -999.2500    -999.2500       0.4656       1.3960      87.6129
    383.8195      22.8560       0.0094     123.8587      38.6834       1.4499    -999.2500    -999.2500    -999.2500       0.4537       1.3971      86.5590
    383.9719      22.8560       0.0112     121.7983      38.0984       1.4975    -999.2500    -999.2500    -999.2500       0.4350       1.3999      86.6668
    384.1243      22.8560       0.0115     118.8800      37.5515       1.5356    -999.2500    -999.2500    -999.2500       0.4153       1.4012      86.8899
    384.2767      22.8560       0.0091     115.1102      37.3229       1.4945    -999.2500    -999.2500    -999.2500       0.3946       1.3991      88.0756
    384.4291      22.8560       0.0065     113.8625      37.2542       1.4494    -999.2500    -999.2500    -999.2500       0.3868       1.3965      89.3037
    384.5815      22.8560       0.0054     115.1165      38.4489       1.3732    -999.2500    -999.2500    -999.2500       0.3921       1.3954      90.8674
    384.7339      22.8560       0.0051     118.5276      39.4551       1.2970    -999.2500    -999.2500    -999.2500       0.4049       1.3949      92.3358
    384.8863      22.8560       0.0050     124.0790      39.0486       1.2208    -999.2500    -999.2500    -999.2500       0.4252       1.3944      93.0902
    385.0387      22.8560       0.0052     129.8765      38.5733       1.1448    -999.2500    -999.2500    -999.2500       0.4422       1.3943      93.7652
    385.1911      22.8560       0.0056     135.9184      37.6072       1.0701    -999.2500    -999.2500    -999.2500       0.4562       1.3946      93.8730
    385.3435      22.8560       0.0059     140.1206      36.8953       0.9999    -999.2500    -999.2500    -999.2500       0.4655       1.3949      93.9532
    385.4959      22.8560       0.0060     142.4980      37.9119       0.9598    -999.2500    -999.2500    -999.2500       0.4704       1.3950      93.8454
    385.6483      22.8560       0.0050     144.6546      38.9320       0.9236    -999.2500    -999.2500    -999.2500       0.4840       1.3942      93.7448
    385.8007      22.8560       0.0026     146.5920      39.9743       0.9131    -999.2500    -999.2500    -999.2500       0.5064       1.3922      93.6912
    385.9531      22.8560       0.0009     150.2623      41.1223       0.9031    -999.2500    -999.2500    -999.2500       0.5175       1.3903      93.6524
    386.1055      22.8560       0.0011     155.6522      42.9275       0.8966    -999.2500    -999.2500    -999.2500       0.5173       1.3894      93.7061
    386.2579      22.8560       0.0025     158.1309      44.7509       0.8907    -999.2500    -999.2500    -999.2500       0.5159       1.3901      93.7753
    386.4103      22.8560       0.0043     157.7224      46.6831       0.8887    -999.2500    -999.2500    -999.2500       0.5133       1.3924      93.9372
    386.5627      22.8560       0.0058     156.4746      48.3232       0.8901    -999.2500    -999.2500    -999.2500       0.5063       1.3946      94.1071
    386.7151      22.8560       0.0066     154.3942      48.2976       0.9112    -999.2500    -999.2500    -999.2500       0.4949       1.3956      94.3227
    386.8675      22.8560       0.0067     153.6406      48.2957       0.9398    -999.2500    -999.2500    -999.2500       0.4905       1.3961      94.5050
    387.0199      22.8560       0.0064     154.2036      48.4230       1.0094    -999.2500    -999.2500    -999.2500       0.4931       1.3966      94.5050
    387.1723      22.8560       0.0073     153.6556      48.1566       1.0801    -999.2500    -999.2500    -999.2500       0.4936       1.3971      94.4706
    387.3247      22.8560       0.0101     152.0057      45.8176       1.1558    -999.2500    -999.2500    -999.2500       0.4919       1.3976      94.2550
    387.4771      22.8560       0.0149     140.7794      43.1937       1.2203    -999.2500    -999.2500    -999.2500       0.4841       1.4014      94.1105
    387.6295      22.8560       0.0218     120.0535      39.1263       1.2283    -999.2500    -999.2500    -999.2500       0.4704       1.4103      94.3261
    387.7819      22.8560       0.0269     110.4560      35.7034       1.2355    -999.2500    -999.2500    -999.2500       0.4650       1.4179      94.6242
    387.9343      22.8560       0.0286     111.9005      35.4237       1.2385    -999.2500    -999.2500    -999.2500       0.4680       1.4213      95.3250
    388.0867      22.8560       0.0276     116.6273      35.6832       1.2325    -999.2500    -999.2500    -999.2500       0.4741       1.4257      95.8841
    388.2391      22.8560       0.0243     124.6119      38.4797       1.1838    -999.2500    -999.2500    -999.2500       0.4833       1.4336      95.7763
    388.3915      22.8560       0.0215     134.5795      40.9271       1.1285    -999.2500    -999.2500    -999.2500       0.4913       1.4342      95.7075
    388.5439      22.8560       0.0204     146.5141      41.7913       1.0428    -999.2500    -999.2500    -999.2500       0.4981       1.4227      95.8152
    388.6963      22.8560       0.0190     152.2319      42.4006       0.9650    -999.2500    -999.2500    -999.2500       0.5103       1.4116      95.8729
    388.8487      22.8560       0.0164     151.7814      41.8922       0.9219    -999.2500    -999.2500    -999.2500       0.5280       1.4070      95.7110
    389.0011      22.8560       0.0145     151.9013      41.3401       0.8862    -999.2500    -999.2500    -999.2500       0.5410       1.4049      95.5800
    389.1535      22.8560       0.0140     152.5874      40.6027       0.8822    -999.2500    -999.2500    -999.2500       0.5494       1.4032      95.5800
    389.3059      22.8560       0.0140     154.0478      40.2296       0.8786    -999.2500    -999.2500    -999.2500       0.5522       1.4026      95.5906
    389.4583      22.8560       0.0140     156.2762      41.3486       0.8766    -999.2500    -999.2500    -999.2500       0.5495       1.4032      95.6448
    389.6107      22.8560       0.0122     157.0344      42.4111       0.8734    -999.2500    -999.2500    -999.2500       0.5408       1.4021      95.6445
    389.7631      22.8560       0.0080     156.3339      43.2498       0.8654    -999.2500    -999.2500    -999.2500       0.5262       1.3980      95.4290
