#------------------------------------------------------------------------------
#
#   Created by  : [OpenWorks] Log Export Utility (LEXP)
#   Created on  : 2016-05-23 11:56:20
#   Project     : CANT971
#   User        : R5K
#   Interpreter : PEP
#
#------------------------------------------------------------------------------
~VERSION INFORMATION
VERS. 2.0 : CWLS Log ASCII Standard - version 2.0
WRAP.  NO : One line per depth step
~WELL INFORMATION
#MNEMONIC   .UNIT                                           VALUE :DESCRIPTION
#------------------------------------------------------------------------------
STRT        .M                                          1446.1469 :START DEPTH
STOP        .M                                          3739.7668 :STOP DEPTH
STEP        .M                                             0.1524 :STEP
NULL        .                                           -999.2500 :NULL VALUE
COMP        .                                             UNKNOWN :COMPANY
WELL        .                                               468-V :WELL
FLD         .                                             UNKNOWN :FIELD
LOC         .                                             UNKNOWN :LOCATION
CNTY        .                                             UNKNOWN :COUNTY
STAT        .                                             UNKNOWN :STATE
CTRY        .                                             UNKNOWN :COUNTRY
SRVC        .                                             UNKNOWN :SERVICE COMPANY
DATE        .                                             UNKNOWN :LOG DATE
UWI         .                                               468-V :UNIQUE WELL ID
XCOORD      .                                       598699.140000 :SURFACE X
YCOORD      .                                      2143301.650000 :SURFACE Y
LAT         .                                           19.382589 :LATITUDE
LON         .                                          -92.060118 :LONGITUDE
ELEV        .M                                             0.0000 :SURFACE ELEV
ELEV_TYPE   .                                                  NA :ELEV TYPE
~CURVE INFORMATION
#MNEMONIC.UNIT        API CODE       : CURVE DESCRIPTION
#------------------------------------------------------------------------------
DEPTH    .M                          : Measured Depth
CALI     .inches      UNKNOWN        : CALI:PETROWORKS:rC:NONE:v1 
DRHO     .g/cm3       UNKNOWN        : DRHO:PETROWORKS:rC:NONE:v1 
DT       .us/ft       UNKNOWN        : DT:sonico:rC:NONE:v0 (auto-composite)
GR       .API         UNKNOWN        : GR:PETROWORKS:rC:NONE:v1 
GR-LWD   .API         UNKNOWN        : GR-LWD:PETROWORKS:rC:NONE:v3 
ILD-LWD  .ohm.m       UNKNOWN        : ILD-LWD:PETROWORKS:rC:NONE:v3 
ILM-LWD  .UNKNOWN     UNKNOWN        : ILM-LWD:PETROWORKS:rC:NONE:v3 
NPHI     .v/v_decimal UNKNOWN        : NPHI:PETROWORKS:rC:NONE:v1 
PEF      .b/elec      UNKNOWN        : PEF:PETROWORKS:rC:NONE:v1 
RHOB     .g/cm3       UNKNOWN        : RHOB:PETROWORKS:rC:NONE:v1 
~A     DEPTH         CALI         DRHO           DT           GR       GR-LWD      ILD-LWD      ILM-LWD         NPHI          PEF         RHOB
# ...
   2845.7883       8.3030      -0.0177    -999.2500      33.4073      23.2639      61.4105      69.8254       0.0348       3.2700       2.7988
   2845.9409       8.3073      -0.0175    -999.2500      35.1288      22.9068      61.6918      72.0923       0.0368       3.2573       2.7928
   2846.0933       8.3234      -0.0147    -999.2500      35.9733      22.6798      61.6707      72.5575       0.0384       3.2456       2.8005
   2846.2456       8.3294      -0.0142    -999.2500      35.1577      22.3498      61.2674      71.4885       0.0397       3.2636       2.8058
   2846.3979       8.3168      -0.0153    -999.2500      33.0887      22.0800      60.5100      69.7300       0.0404       3.2836       2.7979
   2846.5505       8.3147      -0.0143    -999.2500      32.4858      22.2865      59.5561      67.6168       0.0404       3.2895       2.7870
   2846.7029       8.3386      -0.0126    -999.2500      32.6214      22.5996      58.2799      65.2438       0.0398       3.2643       2.7773
   2846.8552       8.3585      -0.0138    -999.2500      31.4475      23.0250      56.7338      63.2063       0.0390       3.2420       2.7745
   2847.0076       8.3446      -0.0139    -999.2500      28.6757      23.2761      55.3979      61.1697       0.0385       3.2570       2.7724
   2847.1602       8.3417      -0.0107    -999.2500      27.6598      23.5900      53.9464      58.7816       0.0378       3.2718       2.7793
   2847.3125       8.3574      -0.0061    -999.2500      30.1567      23.6186      52.1573      56.0291       0.0385       3.2501       2.8043
   2847.4648       8.3590      -0.0049    -999.2500      33.3522      23.8992      50.2638      52.9753       0.0437       3.2469       2.8157
   2847.6172       8.3480      -0.0073    -999.2500      34.0441      23.8513      48.1906      49.8290       0.0563       3.2826       2.7837
   2847.7695       8.3560      -0.0062    -999.2500      33.2201      23.8239      45.4249      45.8373       0.0631       3.2812       2.7314
   2847.9221       8.3534       0.0029    -999.2500      34.6933      24.3555      42.6824      42.3315       0.0719       3.2427       2.6632
   2848.0745       8.3328       0.0022    -999.2500      35.6405      24.3056      40.0641      39.6264       0.0742       3.2191       2.6662
   2848.2268       8.2750      -0.0071    -999.2500      34.9452      23.9276      38.5749      38.1753       0.0656       3.1896       2.7006
   2848.3792       8.2884      -0.0177    -999.2500      33.1970      23.8317      37.9738      37.4858       0.0540       3.1681       2.7454
   2848.5317       8.3158      -0.0185    -999.2500      32.2036      23.2612      37.1871      36.6633       0.0503       3.1540       2.7642
   2848.6841       8.3279      -0.0161    -999.2500      30.2393      23.3812      36.1360      35.4034       0.0518       3.1263       2.7790
   2848.8364       8.3336      -0.0148    -999.2500      29.4558      23.4792      35.6922      34.8931       0.0530       3.1399       2.7767
   2848.9888       8.3668      -0.0139    -999.2500      31.4162      23.9654      34.6902      33.9280       0.0537       3.1846       2.7635
   2849.1414       8.3630      -0.0118    -999.2500      33.7978      23.7893      33.7759      33.3293       0.0565       3.2097       2.7585
   2849.2937       8.3546      -0.0082    -999.2500      35.2023      23.3388      33.1320      33.1689       0.0587       3.2313       2.7620
   2849.4460       8.3657      -0.0048    -999.2500      37.9892      23.3992      32.9916      33.1284       0.0565       3.2516       2.7636
   2849.5984       8.3741      -0.0042    -999.2500      38.9542      23.1100      32.9400      33.1800       0.0535       3.2504       2.7629
   2849.7507       8.3736      -0.0080    -999.2500      35.6339      23.5012      32.7047      33.0951       0.0513       3.2245       2.7699
   2849.9033       8.3663      -0.0142    -999.2500      32.7570      23.6687      32.5013      32.9646       0.0483       3.1928       2.7827
   2850.0557       8.3697      -0.0155    -999.2500      35.0058      23.8306      32.0772      32.6651       0.0488       3.1999       2.7857
   2850.2080       8.3447      -0.0151    -999.2500      37.6200      24.6399      31.5760      32.2193       0.0508       3.2439       2.7956
   2850.3604       8.3249      -0.0145    -999.2500      37.0309      25.0949      31.0327      31.7309       0.0528       3.2772       2.7955
   2850.5129       8.3028      -0.0161    -999.2500      33.6497      25.6775      30.6511      31.4301       0.0554       3.2786       2.7770
   2850.6653       8.3156      -0.0172    -999.2500      31.5219      26.5771      30.0783      30.9575       0.0561       3.2524       2.7680
   2850.8176       8.3389      -0.0178    -999.2500      33.8127      27.4934      29.6907      30.6548       0.0558       3.2257       2.7607
   2850.9700       8.3418      -0.0174    -999.2500      36.3575      28.5884      29.0747      30.1538       0.0549       3.2123       2.7550
   2851.1226       8.3431      -0.0135    -999.2500      40.7179      28.7623      28.5971      29.7358       0.0545       3.2114       2.7587
   2851.2749       8.3575      -0.0104    -999.2500      41.4342      28.8299      27.9706      29.0631       0.0534       3.2364       2.7701
   2851.4272       8.3664      -0.0083    -999.2500      40.0114      29.1254      27.4649      28.4211       0.0520       3.2520       2.7734
   2851.5796       8.3720      -0.0070    -999.2500      39.9046      29.2993      26.3290      26.8415       0.0485       3.2270       2.7733
   2851.7319       8.3629      -0.0059    -999.2500      41.1078      29.4035      24.7189      24.5744       0.0475       3.1762       2.7914
   2851.8845       8.3649      -0.0059    -999.2500      38.7857      31.6856      23.6086      22.9851       0.0460       3.1259       2.8107
   2852.0369       8.3882      -0.0093    -999.2500      37.0610      33.3089      22.6850      21.3994       0.0461       3.1116       2.8040
   2852.1892       8.3949      -0.0129    -999.2500      38.9484      34.9274      21.2590      19.3175       0.0486       3.1198       2.7842
   2852.3416       8.3896      -0.0148    -999.2500      41.9593      34.8100      20.8358      18.6467       0.0535       3.1586       2.7693
   2852.4941       8.3786      -0.0169    -999.2500      44.6482      34.4150      20.3232      17.8163       0.0587       3.1988       2.7655
   2852.6465       8.3645      -0.0170    -999.2500      44.9784      33.1422      19.8997      17.3217       0.0602       3.2130       2.7543
   2852.7988       8.3548      -0.0144    -999.2500      47.1353      31.7800      19.5500      17.0400       0.0618       3.2145       2.7443
   2852.9512       8.3717      -0.0119    -999.2500      48.8831      29.9551      19.2312      16.9379       0.0614       3.1833       2.7605
   2853.1038       8.3997      -0.0119    -999.2500      46.0234      29.5641      18.8115      16.7711       0.0608       3.1004       2.7817
   2853.2561       8.3916      -0.0116    -999.2500      42.9860      33.1740      18.9397      16.8000       0.0598       3.0680       2.7776
   2853.4084       8.4064      -0.0121    -999.2500      40.1284      35.5754      18.4499      16.7555       0.0617       3.0412       2.7657
   2853.5608       8.4074      -0.0168    -999.2500      41.8635      38.8606      17.3984      16.4964       0.0675       3.0201       2.7541
   2853.7131       8.4028      -0.0175    -999.2500      49.3993      42.6650      16.5916      16.3507       0.0839       3.0262       2.7340
   2853.8657       8.3907      -0.0098    -999.2500      54.5607      47.2965      15.6858      16.3163       0.1033       3.0723       2.6970
   2854.0181       8.4144       0.0223    -999.2500      68.8435      52.0537      15.1740      16.6124       0.1301       3.1021       2.5322
   2854.1704       8.4456       0.0609    -999.2500      75.0614      55.3795      15.1316      17.1744       0.1403       3.0745       2.4493
