#------------------------------------------------------------------------------
#
#   Created by  : [OpenWorks] Log Export Utility (LEXP)
#   Created on  : 2016-05-23 11:55:55
#   Project     : CANT971
#   User        : R5K
#   Interpreter : PEP
#
#------------------------------------------------------------------------------
~VERSION INFORMATION
VERS. 2.0 : CWLS Log ASCII Standard - version 2.0
WRAP.  NO : One line per depth step
~WELL INFORMATION
#MNEMONIC   .UNIT                                           VALUE :DESCRIPTION
#------------------------------------------------------------------------------
STRT        .M                                          2870.4541 :START DEPTH
STOP        .M                                          3966.9722 :STOP DEPTH
STEP        .M                                             0.1524 :STEP
NULL        .                                           -999.2500 :NULL VALUE
COMP        .                                             UNKNOWN :COMPANY
WELL        .                                            418D-ST1 :WELL
FLD         .                                             UNKNOWN :FIELD
LOC         .                                             UNKNOWN :LOCATION
CNTY        .                                             UNKNOWN :COUNTY
STAT        .                                             UNKNOWN :STATE
CTRY        .                                             UNKNOWN :COUNTRY
SRVC        .                                             UNKNOWN :SERVICE COMPANY
DATE        .                                             UNKNOWN :LOG DATE
UWI         .                                            418D-ST1 :UNIQUE WELL ID
XCOORD      .                                       597130.010000 :SURFACE X
YCOORD      .                                      2144879.410000 :SURFACE Y
LAT         .                                           19.396924 :LATITUDE
LON         .                                          -92.074978 :LONGITUDE
ELEV        .M                                             0.0000 :SURFACE ELEV
ELEV_TYPE   .                                                  NA :ELEV TYPE
~CURVE INFORMATION
#MNEMONIC.UNIT        API CODE       : CURVE DESCRIPTION
#------------------------------------------------------------------------------
DEPTH    .M                          : Measured Depth
CALI     .inches      UNKNOWN        : CALI:litodensidad:rC:NONE:v0 (auto-composite)
CGR      .API         UNKNOWN        : CGR:litodensidad:rC:NONE:v0 (auto-composite)
DRHO     .g/cm3       UNKNOWN        : DRHO:litodensidad:rC:NONE:v0 (auto-composite)
DT       .us/ft       UNKNOWN        : DT:DT-Load:rC:NONE:v0 (auto-composite)
GR       .API         UNKNOWN        : GR:litodensidad:rC:NONE:v0 (auto-composite)
LLD      .ohm.m       UNKNOWN        : LLD:PETROWORKS:rC:NONE:v1 
LLS      .ohm.m       UNKNOWN        : LLS:PETROWORKS:rC:NONE:v1 
MSFL     .ohm.m       UNKNOWN        : MSFL:resistivos:rC:NONE:v0 (auto-composite)
NPHI     .v/v_decimal UNKNOWN        : NPHI:litodensidad:rC:NONE:v0 (auto-composite)
PEF      .UNKNOWN     UNKNOWN        : PEF:litodensidad:rC:NONE:v0 (auto-composite)
POTA     .UNKNOWN     UNKNOWN        : POTA:litodensidad:rC:NONE:v0 (auto-composite)
RHOB     .g/cm3       UNKNOWN        : RHOB:litodensidad:rC:NONE:v0 (auto-composite)
THOR     .ppm         UNKNOWN        : THOR:litodensidad:rC:NONE:v0 (auto-composite)
URAN     .ppm         UNKNOWN        : URAN:litodensidad:rC:NONE:v0 (auto-composite)
~A     DEPTH         CALI          CGR         DRHO           DT           GR          LLD          LLS         MSFL         NPHI          PEF         POTA         RHOB         THOR         URAN
# ...
   3772.9668      17.4219      29.5922       0.0026    -999.2500      31.4297      24.4940      20.5515    -999.2500       0.1029       4.9531       0.0086       2.7007       4.2797       0.2362
   3773.1194      17.6563      30.1672       0.0015    -999.2500      32.7222      24.5131      20.3581    -999.2500       0.1031       4.6211       0.0082       2.7189       4.6061       0.3284
   3773.2717      17.7188      30.7329       0.0024    -999.2500      33.5724      24.5321      20.1648    -999.2500       0.1036       4.5820       0.0081       2.7336       4.8352       0.3649
   3773.4241      18.0938      31.1122       0.0017    -999.2500      33.9585      24.5512      19.9714    -999.2500       0.1014       4.5781       0.0079       2.7488       4.9898       0.3658
   3773.5764      18.3281      32.7475      -0.0009    -999.2500      36.4429      25.3588      20.1260    -999.2500       0.0905       4.7344       0.0082       2.7493       5.3060       0.4749
   3773.7290      18.3594      31.1791      -0.0049    -999.2500      33.5267      26.5882      20.4666    -999.2500       0.0773       4.7383       0.0077       2.7537       5.1208       0.3017
   3773.8813      18.2500      30.8046      -0.0072    -999.2500      32.0058      27.8176      20.8073    -999.2500       0.0813       4.8359       0.0075       2.7595       5.0860       0.1544
   3774.0337      18.2656      32.4657      -0.0075    -999.2500      34.1614      28.3273      20.7908    -999.2500       0.0948       4.6797       0.0081       2.7770       5.2753       0.2179
   3774.1860      18.6875      32.9866      -0.0061    -999.2500      35.3980      26.1898      19.4608    -999.2500       0.1081       4.8086       0.0077       2.7931       5.5856       0.3099
   3774.3386      18.7188      34.8765      -0.0062    -999.2500      40.8831      24.0522      18.1308    -999.2500       0.1211       4.6680       0.0075       2.8036       6.1711       0.7720
   3774.4910      18.8906      36.9033      -0.0090    -999.2500      45.2311      21.9146      16.8008    -999.2500       0.1311       4.9531       0.0073       2.8005       6.8085       1.0703
   3774.6433      19.1406      41.0770      -0.0061    -999.2500      52.3384      19.1108      14.9602    -999.2500       0.1324       4.7734       0.0094       2.7827       7.0507       1.4474
   3774.7957      19.2969      50.9171      -0.0077    -999.2500      63.4539      16.1145      12.9722    -999.2500       0.1279       4.6367       0.0139       2.7292       7.7911       1.6113
   3774.9480      19.0313      56.3504      -0.0112    -999.2500      71.0669      13.1183      10.9842    -999.2500       0.1157       4.2070       0.0150       2.6705       8.7559       1.8914
   3775.1006      18.0313      69.7742      -0.0092    -999.2500      88.6001      11.1112       9.6609    -999.2500       0.1080       3.8320       0.0195       2.6377      10.4391       2.4196
   3775.2529      18.1875      69.9516      -0.0057    -999.2500      88.2970      11.0552       9.6484    -999.2500       0.0883       3.4785       0.0199       2.6197      10.3234       2.3578
   3775.4053      18.4219      68.6066      -0.0056    -999.2500      85.5025      10.9991       9.6359    -999.2500       0.0774       3.2695       0.0200       2.5954       9.9083       2.1715
   3775.5576      18.5781      74.6855      -0.0058    -999.2500      91.5514      10.9431       9.6234    -999.2500       0.0683       3.2246       0.0240       2.5607       9.8511       2.1677
   3775.7102      18.6094      75.8023      -0.0049    -999.2500      92.8452      10.0487       8.8040    -999.2500       0.0645       3.2285       0.0248       2.5258       9.8155       2.1904
   3775.8625      18.7969      81.6256      -0.0006    -999.2500     100.0499       9.0597       7.8936    -999.2500       0.0588       3.1953       0.0278       2.5000      10.0770       2.3680
   3776.0149      18.5781      87.4793       0.0069    -999.2500     107.2473       8.0708       6.9832    -999.2500       0.0568       3.2813       0.0307       2.4931      10.4438       2.5406
   3776.1672      18.5156      96.4396       0.0139    -999.2500     119.0514       7.4776       6.4364    -999.2500       0.0559       3.4531       0.0334       2.5161      11.7121       2.9061
   3776.3196      18.5313      95.5042       0.0263    -999.2500     117.9020       7.3477       6.3152    -999.2500       0.0563       3.7051       0.0327       2.5465      11.7238       2.8786
   3776.4722      18.9375      95.6108       0.0383    -999.2500     118.1591       7.2178       6.1939    -999.2500       0.0502       3.8438       0.0326       2.5902      11.8229       2.8980
   3776.6245      19.4063      95.5620       0.0395    -999.2500     118.3088       7.0867       6.0723    -999.2500       0.0368       3.7559       0.0323       2.6127      11.9222       2.9235
   3776.7769      19.8125      95.7811       0.0423    -999.2500     118.7570       6.9029       5.9361    -999.2500       0.0250       3.8047       0.0323       2.6349      11.9784       2.9529
   3776.9292      20.2813      96.6882       0.0386    -999.2500     119.7558       6.7192       5.7999    -999.2500       0.0219       3.6641       0.0326       2.6275      12.1045       2.9647
   3777.0818      20.7500      95.6349       0.0378    -999.2500     117.9626       6.5354       5.6637    -999.2500       0.0263       3.6504       0.0322       2.6026      12.0093       2.8696
   3777.2341      19.9688      93.8656       0.0303    -999.2500     115.0763       6.6269       5.6223    -999.2500       0.0407       3.3750       0.0316       2.5934      11.7884       2.7261
   3777.3865      14.7266      94.3477       0.0345    -999.2500     115.0984       6.9148       5.6485    -999.2500       0.0691       3.4297       0.0317       2.5805      11.8385       2.6669
   3777.5388      14.6797      97.4641       0.0346    -999.2500     118.7863       7.2027       5.6746    -999.2500       0.0778       3.4609       0.0328       2.5878      12.2340       2.7404
   3777.6914      15.1484      96.9145       0.0332    -999.2500     117.3189       7.4406       5.6971    -999.2500       0.0810       3.7246       0.0324       2.5817      12.2547       2.6224
   3777.8438      15.6328      94.9389       0.0299    -999.2500     113.5771       7.3860       5.6982    -999.2500       0.0825       3.8145       0.0313       2.6068      12.1742       2.3954
   3777.9961      15.3906      95.6038       0.0504    -999.2500     114.3917       7.3314       5.6992    -999.2500       0.0833       3.9668       0.0313       2.6319      12.3780       2.4147
   3778.1484      14.7578      94.6068       0.0385    -999.2500     112.0968       7.2768       5.7002    -999.2500       0.0817       4.0430       0.0308       2.6062      12.3061       2.2479
   3778.3008      15.3984      92.4825       0.0302    -999.2500     108.0617       7.0627       5.5741    -999.2500       0.0756       3.9941       0.0301       2.5555      12.0540       2.0023
   3778.4534      16.2969      94.0763       0.0445    -999.2500     110.2834       6.7827       5.3955    -999.2500       0.0782       3.9063       0.0302       2.5095      12.4082       2.0830
   3778.6057      16.5000      93.2330       0.0547    -999.2500     108.3968       6.5028       5.2169    -999.2500       0.0839       4.4023       0.0295       2.4745      12.5110       1.9489
   3778.7581      16.5156      92.9946       0.0439    -999.2500     108.2350       6.3484       5.1033    -999.2500       0.0995       5.0859       0.0291       2.4281      12.5930       1.9587
   3778.9104      17.0313      92.4823       0.0500    -999.2500     106.8825       6.5361       5.1671    -999.2500       0.1236       5.5977       0.0290       2.4304      12.4964       1.8508
   3779.0630      18.1250      95.6750       0.0515    -999.2500     111.3604       6.7239       5.2309    -999.2500       0.1480       4.8164       0.0300       2.4719      12.9312       2.0159
   3779.2153      19.1563      90.6954       0.0348    -999.2500     103.9375       6.9116       5.2947    -999.2500       0.1374       3.8359       0.0286       2.5296      12.1832       1.7019
