#------------------------------------------------------------------------------
#
#   Created by  : [OpenWorks] Log Export Utility (LEXP)
#   Created on  : 2016-05-23 11:55:55
#   Project     : CANT971
#   User        : R5K
#   Interpreter : PEP
#
#------------------------------------------------------------------------------
~VERSION INFORMATION
VERS. 2.0 : CWLS Log ASCII Standard - version 2.0
WRAP.  NO : One line per depth step
~WELL INFORMATION
#MNEMONIC   .UNIT                                           VALUE :DESCRIPTION
#------------------------------------------------------------------------------
STRT        .M                                          2870.4541 :START DEPTH
STOP        .M                                          3966.9722 :STOP DEPTH
STEP        .M                                             0.1524 :STEP
NULL        .                                           -999.2500 :NULL VALUE
COMP        .                                             UNKNOWN :COMPANY
WELL        .                                            418D-ST1 :WELL
FLD         .                                             UNKNOWN :FIELD
LOC         .                                             UNKNOWN :LOCATION
CNTY        .                                             UNKNOWN :COUNTY
STAT        .                                             UNKNOWN :STATE
CTRY        .                                             UNKNOWN :COUNTRY
SRVC        .                                             UNKNOWN :SERVICE COMPANY
DATE        .                                             UNKNOWN :LOG DATE
UWI         .                                            418D-ST1 :UNIQUE WELL ID
XCOORD      .                                       597130.010000 :SURFACE X
YCOORD      .                                      2144879.410000 :SURFACE Y
LAT         .                                           19.396924 :LATITUDE
LON         .                                          -92.074978 :LONGITUDE
ELEV        .M                                             0.0000 :SURFACE ELEV
ELEV_TYPE   .                                                  NA :ELEV TYPE
~CURVE INFORMATION
#MNEMONIC.UNIT        API CODE       : CURVE DESCRIPTION
#------------------------------------------------------------------------------
DEPTH    .M                          : Measured Depth
CALI     .inches      UNKNOWN        : CALI:litodensidad:rC:NONE:v0 (auto-composite)
CGR      .API         UNKNOWN        : CGR:litodensidad:rC:NONE:v0 (auto-composite)
DRHO     .g/cm3       UNKNOWN        : DRHO:litodensidad:rC:NONE:v0 (auto-composite)
DT       .us/ft       UNKNOWN        : DT:DT-Load:rC:NONE:v0 (auto-composite)
GR       .API         UNKNOWN        : GR:litodensidad:rC:NONE:v0 (auto-composite)
LLD      .ohm.m       UNKNOWN        : LLD:PETROWORKS:rC:NONE:v1 
LLS      .ohm.m       UNKNOWN        : LLS:PETROWORKS:rC:NONE:v1 
MSFL     .ohm.m       UNKNOWN        : MSFL:resistivos:rC:NONE:v0 (auto-composite)
NPHI     .v/v_decimal UNKNOWN        : NPHI:litodensidad:rC:NONE:v0 (auto-composite)
PEF      .UNKNOWN     UNKNOWN        : PEF:litodensidad:rC:NONE:v0 (auto-composite)
POTA     .UNKNOWN     UNKNOWN        : POTA:litodensidad:rC:NONE:v0 (auto-composite)
RHOB     .g/cm3       UNKNOWN        : RHOB:litodensidad:rC:NONE:v0 (auto-composite)
THOR     .ppm         UNKNOWN        : THOR:litodensidad:rC:NONE:v0 (auto-composite)
URAN     .ppm         UNKNOWN        : URAN:litodensidad:rC:NONE:v0 (auto-composite)
~A     DEPTH         CALI          CGR         DRHO           DT           GR          LLD          LLS         MSFL         NPHI          PEF         POTA         RHOB         THOR         URAN
# ...
   3638.5500      13.3438      74.4471       0.0860    -999.2500      91.5758       7.6182       5.2269       1.4072       0.1186       4.2734       0.0232       2.5237      10.1130       2.2014
   3638.7024      13.3438      75.7678       0.0816    -999.2500      93.6603       8.1563       5.4805       1.4072       0.1149       4.3047       0.0237       2.5377      10.2671       2.2996
   3638.8550      13.3438      75.3138       0.0746    -999.2500      92.9183       8.5267       5.7232       1.4072       0.1192       3.4766       0.0236       2.5581      10.2120       2.2626
   3639.0073      13.1875      70.6986       0.0384    -999.2500      87.0368       8.5052       5.9406       1.4072       0.1146       2.9609       0.0219       2.5575       9.6957       2.0998
   3639.1597      12.9375      70.5621       0.0098    -999.2500      87.2907       8.4837       6.1580       1.4072       0.1131       2.7637       0.0219       2.5491       9.6523       2.1500
   3639.3120      12.7344      70.5100      -0.0005    -999.2500      88.3297       8.4622       6.3755       1.4072       0.0982       2.6543       0.0219       2.5451       9.6250       2.2902
   3639.4646      12.6719      72.3922      -0.0002    -999.2500      92.0593       8.6561       6.4652       1.4072       0.0883       2.5645       0.0225       2.5376       9.8778       2.5277
   3639.6169      12.6953      65.1933       0.0020    -999.2500      83.8103       8.8846       6.5345       1.4053       0.0854       2.5645       0.0201       2.5409       8.9567       2.3927
   3639.7693      13.1016      65.3547       0.0042    -999.2500      84.1593       9.1131       6.6038       1.4072       0.0870       2.7168       0.0201       2.5416       9.0030       2.4168
   3639.9216      13.2578      66.2788       0.0051    -999.2500      85.3743       9.1661       6.6344       1.4063       0.0875       2.7930       0.0203       2.5440       9.1735       2.4542
   3640.0742      13.5703      66.8601       0.0054    -999.2500      86.1930       8.9808       6.6123       1.4072       0.0856       2.9746       0.0204       2.5430       9.3018       2.4847
   3640.2266      13.3203      66.0912       0.0040    -999.2500      85.3764       8.7955       6.5903       1.4072       0.0818       2.9395       0.0201       2.5510       9.1864       2.4786
   3640.3789      12.9922      69.8768       0.0010    -999.2500      90.8415       8.6102       6.5683       1.4063       0.0813       3.0449       0.0217       2.5497       9.5261       2.6945
   3640.5312      12.6719      68.2875       0.0042    -999.2500      88.4465       8.5761       6.6779       1.4063       0.0845       3.0273       0.0213       2.5578       9.2746       2.5909
   3640.6836      12.6797      63.8128       0.0047    -999.2500      82.4318       8.5441       6.7892       1.4063       0.0911       3.0273       0.0198       2.5506       8.7253       2.3930
   3640.8362      12.7422      67.2894       0.0050    -999.2500      87.8388       8.5121       6.9006       1.4063       0.1020       3.0117       0.0211       2.5524       9.1043       2.6411
   3640.9885      12.9844      66.3058       0.0088    -999.2500      86.6168       8.4546       7.0748       1.4063       0.1022       3.0605       0.0211       2.5533       8.8517       2.6104
   3641.1409      13.3516      66.6774       0.0137    -999.2500      87.3626       8.3760       7.3012       1.4014       0.1009       3.2363       0.0212       2.5533       8.8771       2.6585
   3641.2932      13.5156      64.7563       0.0247    -999.2500      84.5886       8.2974       7.5275       1.3857       0.0966       3.5938       0.0203       2.5468       8.7767       2.5489
   3641.4458      13.4844      65.6810       0.0308    -999.2500      86.8648       8.4196       7.8607       1.3857       0.1011       3.8945       0.0203       2.5503       8.9986       2.7226
   3641.5981      13.1563      65.3944       0.0321    -999.2500      87.5670      10.1838       9.0683       1.3857       0.1019       3.8711       0.0203       2.5654       8.9538       2.8497
   3641.7505      12.8516      66.4592       0.0289    -999.2500      89.4555      11.9481      10.2759       1.3857       0.0946       3.4180       0.0206       2.5933       9.0726       2.9556
   3641.9028      12.6719      66.3221       0.0208    -999.2500      90.0499      13.7123      11.4836       1.3857       0.0784       3.1367       0.0204       2.6047       9.1419       3.0496
   3642.0554      12.6719      65.9431       0.0059    -999.2500      90.9620      16.6689      13.8419       1.3877       0.0653       3.0781       0.0202       2.6006       9.1306       3.2155
   3642.2078      12.7266      63.2509      -0.0000    -999.2500      87.2319      20.2097      16.7641       1.3867       0.0572       3.1777       0.0191       2.5954       8.8723       3.0821
   3642.3601      13.0078      46.6534      -0.0022    -999.2500      63.4093      23.7506      19.6863       1.3877       0.0484       3.2461       0.0148       2.5927       6.2398       2.1535
   3642.5125      13.1797      41.8889      -0.0049    -999.2500      57.8905      26.9764      21.7775       1.3867       0.0413       3.2988       0.0136       2.5873       5.4558       2.0566
   3642.6648      13.2734      39.5531      -0.0081    -999.2500      54.3920      29.1578      21.1130       1.3867       0.0347       3.3359       0.0128       2.5877       5.1625       1.9071
   3642.8174      13.4688      38.0764      -0.0080    -999.2500      52.0906      31.3391      20.4486       1.3857       0.0348       3.9199       0.0120       2.6043       5.1300       1.8012
   3642.9697      13.3516      33.6736      -0.0051    -999.2500      46.5805      33.5205      19.7842       0.9434       0.0316       4.5664       0.0091       2.6483       5.1789       1.6588
   3643.1221      12.5078      32.5677      -0.0006    -999.2500      45.4341      29.6073      17.1542       0.9146       0.0280       5.4961       0.0087       2.7101       5.0676       1.6536
   3643.2744      13.2578      32.8058       0.0046    -999.2500      45.9576      24.1117      14.0139       0.9146       0.0198       5.4883       0.0083       2.7700       5.2759       1.6903
   3643.4270      15.3672      28.8860       0.0067    -999.2500      40.7555      18.6161      10.8736       0.9146       0.0129       5.7422       0.0066       2.8007       4.9431       1.5255
   3643.5793      19.0313      24.4898       0.0034    -999.2500      34.8526      14.9125       8.6747       0.9146       0.0061       5.6367       0.0052       2.8021       4.3881       1.3319
   3643.7317      21.4063      27.8348      -0.0005    -999.2500      39.7906      14.4503       8.1783       0.9146       0.0021       5.5859       0.0068       2.7955       4.5999       1.5366
   3643.8840      22.7031      23.0650      -0.0008    -999.2500      34.4047      13.9881       7.6820       0.9146      -0.0002       5.4492       0.0055       2.8002       3.8554       1.4574
   3644.0366      24.7969      23.7208      -0.0027    -999.2500      35.4291      13.5259       7.1856       0.9146      -0.0032       5.6016       0.0058       2.7991       3.8949       1.5048
   3644.1890      23.2656      24.6165      -0.0003    -999.2500      36.8694      13.7106       7.0563       0.9146      -0.0011       5.6602       0.0061       2.8082       4.0116       1.5748
   3644.3413      21.7813      24.4969      -0.0015    -999.2500      36.7440      13.9543       6.9604       0.9146       0.0010       5.8008       0.0064       2.8057       3.8702       1.5740
   3644.4937      19.9688      22.2412       0.0007    -999.2500      33.4481      14.1979       6.8646       0.9146       0.0026       5.9844       0.0059       2.8180       3.4845       1.4403
   3644.6460      21.4375      24.1913       0.0008    -999.2500      36.1356      14.3644       6.7549       0.9146      -0.0010       6.0781       0.0068       2.8138       3.5886       1.5351
   3644.7986      23.8594      24.2607       0.0058    -999.2500      36.0470      14.4468       6.6301       0.9146      -0.0045       5.9414       0.0072       2.8120       3.4697       1.5148
