#------------------------------------------------------------------------------
#
#   Created by  : [OpenWorks] Log Export Utility (LEXP)
#   Created on  : 2016-05-23 11:57:11
#   Project     : CANT971
#   User        : R5K
#   Interpreter : PEP
#
#------------------------------------------------------------------------------
~VERSION INFORMATION
VERS. 2.0 : CWLS Log ASCII Standard - version 2.0
WRAP.  NO : One line per depth step
~WELL INFORMATION
#MNEMONIC   .UNIT                                           VALUE :DESCRIPTION
#------------------------------------------------------------------------------
STRT        .M                                           319.2782 :START DEPTH
STOP        .M                                          2532.8882 :STOP DEPTH
STEP        .M                                             0.1524 :STEP
NULL        .                                           -999.2500 :NULL VALUE
COMP        .                                   PEMEX EXPL & PROD :COMPANY
WELL        .                                                 73A :WELL
FLD         .                                           CANTARELL :FIELD
LOC         .                                             UNKNOWN :LOCATION
CNTY        .                                      CD. DEL CARMEN :COUNTY
STAT        .                                            CAMPECHE :STATE
CTRY        .                                              MEXICO :COUNTRY
SRVC        .                                             UNKNOWN :SERVICE COMPANY
DATE        .                                             UNKNOWN :LOG DATE
UWI         .                                          3060000177 :UNIQUE WELL ID
XCOORD      .                                       599722.890000 :SURFACE X
YCOORD      .                                      2147218.550000 :SURFACE Y
LAT         .                                           19.417934 :LATITUDE
LON         .                                          -92.050165 :LONGITUDE
ELEV        .M                                            27.8000 :SURFACE ELEV
ELEV_TYPE   .                                                  KB :ELEV TYPE
~CURVE INFORMATION
#MNEMONIC.UNIT        API CODE       : CURVE DESCRIPTION
#------------------------------------------------------------------------------
DEPTH    .M                          : Measured Depth
CALI     .inches      UNKNOWN        : CALI:registros:rC:NONE:v0 (auto-composite)
DRHO     .g/cm3       UNKNOWN        : DRHO:registros:rC:NONE:v0 (auto-composite)
DT       .UNKNOWN     UNKNOWN        : DT:registros:rC:NONE:v0 (auto-composite)
GR       .API         UNKNOWN        : GR:registros:rC:NONE:v0 (auto-composite)
ILD      .ohm.m       UNKNOWN        : ILD:registros:rC:NONE:v0 (auto-composite)
LLD      .ohm.m       UNKNOWN        : LLD:registros:rC:NONE:v0 (auto-composite)
LLS      .ohm.m       UNKNOWN        : LLS:registros:rC:NONE:v0 (auto-composite)
MSFL     .ohm.m       UNKNOWN        : MSFL:registros:rC:NONE:v0 (auto-composite)
RHOB     .g/cm3       UNKNOWN        : RHOB:registros:rC:NONE:v0 (auto-composite)
~A     DEPTH         CALI         DRHO           DT           GR          ILD          LLD          LLS         MSFL         RHOB
# ...
   2057.8574       6.5770    -999.2500     109.1498      18.8620    -999.2500     231.5360      54.2735      53.8555       2.6900
   2058.0098       6.5940    -999.2500      97.8120      18.9000    -999.2500     212.9280      50.7460      66.3000       2.6900
   2058.1621       6.6200    -999.2500      87.2435      18.6463    -999.2500     190.8540      46.0338      60.0176       2.6750
   2058.3147       6.6460    -999.2500      76.7000      18.3920    -999.2500     168.6550      41.2950      53.7400       2.6600
   2058.4670       6.6570    -999.2500      81.2891      17.8152    -999.2500     156.6702      36.7317      37.9720       2.6600
   2058.6194       6.6680    -999.2500      85.8680      17.2370    -999.2500     144.6160      32.1420      22.2140       2.6600
   2058.7717       6.6775    -999.2500      97.6610      16.5739    -999.2500     123.7517      29.6907      16.2055       2.6685
   2058.9243       6.6870    -999.2500     109.4290      15.9090    -999.2500     102.7640      27.2250      10.2000       2.6770
   2059.0767       6.7334    -999.2500     120.5691      15.0865    -999.2500      80.2534      24.4828      10.6131       2.6885
   2059.2290       6.7800    -999.2500     131.6870      14.2630    -999.2500      57.6070      21.7240      11.0260       2.7000
   2059.3813       6.7575    -999.2500     135.5801      13.0953    -999.2500      44.6435      18.5887      15.6066       2.7050
   2059.5337       6.7350    -999.2500     139.4660      11.9260    -999.2500      31.6000      15.4340      20.1860       2.7100
   2059.6863       6.7025    -999.2500     139.7332      10.5755    -999.2500      31.6000      13.4233      26.2483       2.7015
   2059.8386       6.6700    -999.2500     140.0000       9.2230    -999.2500      31.6000      11.4000      32.3000       2.6930
   2059.9910       6.6700    -999.2500     139.1438       8.0225    -999.2500      33.1356      11.6791      24.6999       2.6815
   2060.1433       6.6700    -999.2500     138.2890       6.8200    -999.2500      34.6810      11.9600      17.1120       2.6700
   2060.2959       6.6700    -999.2500     131.1157       7.2052    -999.2500      39.5391      13.1805      12.3775       2.6400
   2060.4482       6.6700    -999.2500     123.9530       7.5910    -999.2500      44.4290      14.4090       7.6500       2.6100
   2060.6006       6.6700    -999.2500     112.5057       8.2399    -999.2500      48.0400      16.0022      16.4310       2.6200
   2060.7529       6.6700    -999.2500     101.0740       8.8900    -999.2500      51.6750      17.6060      25.2000       2.6300
   2060.9055       6.6700    -999.2500      90.8787       8.6382    -999.2500      53.5212      18.9484      23.4489       2.6270
   2061.0579       6.6700    -999.2500      80.6960       8.3860    -999.2500      55.3800      20.3000      21.7000       2.6240
   2061.2102       6.6151    -999.2500      73.9943       8.0833    -999.2500      67.6844      22.4012      24.4015       2.6070
   2061.3625       6.5600    -999.2500      67.3000       7.7800    -999.2500      80.0740      24.5170      27.1000       2.5900
   2061.5149       6.5655    -999.2500      73.0779       7.8519    -999.2500     108.9353      27.2987      22.3977       2.5985
   2061.6675       6.5710    -999.2500      78.8500       7.9240    -999.2500     138.0000      30.1000      17.7000       2.6070
   2061.8198       6.6154    -999.2500      85.3830       8.3615    -999.2500     133.2954      29.7239      24.1813       2.6160
   2061.9722       6.6600    -999.2500      91.9000       8.8000    -999.2500     128.5570      29.3450      30.6570       2.6250
   2062.1245       6.7199    -999.2500      85.6417       9.4512    -999.2500     118.2872      27.8268      43.1331       2.6275
   2062.2771       6.7800    -999.2500      79.3980      10.1040    -999.2500     107.9590      26.3000      55.6000       2.6300
   2062.4294       6.7510    -999.2500      67.9363      11.0762    -999.2500     100.4015      26.5004      52.3400       2.6250
   2062.5818       6.7220    -999.2500      56.5000      12.0510    -999.2500      92.8000      26.7020      49.0820       2.6200
   2062.7341       6.6960    -999.2500      58.0331      13.2938    -999.2500      94.4775      27.7683      42.3894       2.6285
   2062.8867       6.6700    -999.2500      59.5630      14.5400    -999.2500      96.1650      28.8410      35.7000       2.6370
   2063.0391       6.6700    -999.2500      71.0488      15.4195    -999.2500     100.5342      30.0643      46.2519       2.6605
   2063.1914       6.6700    -999.2500      82.5120      16.3000    -999.2500     104.9300      31.2950      56.8000       2.6840
   2063.3438       6.6700    -999.2500     102.7746      15.9233    -999.2500     114.4355      32.0656      53.3716       2.7070
   2063.4961       6.6700    -999.2500     123.0000      15.5460    -999.2500     124.0000      32.8410      49.9440       2.7300
   2063.6487       6.6700    -999.2500     122.7093      14.9734    -999.2500     113.5685      33.1196      45.1679       2.7215
   2063.8010       6.6700    -999.2500     122.4190      14.4000    -999.2500     103.0710      33.4000      40.4000       2.7130
   2063.9534       6.6151    -999.2500     112.2014      14.4000    -999.2500      92.5818      31.5898      42.8019       2.6915
   2064.1057       6.5600    -999.2500     102.0000      14.4000    -999.2500      82.0250      29.7680      45.2000       2.6700
   2064.2583       6.5919    -999.2500     105.4965      14.1382    -999.2500      73.5359      27.5398      40.6037       2.6750
   2064.4106       6.6240    -999.2500     108.9880      13.8760    -999.2500      64.9910      25.2970      36.0140       2.6800
   2064.5630       6.6455    -999.2500     118.0625      13.5823    -999.2500      55.8018      23.1726      31.4360       2.6600
   2064.7153       6.6670    -999.2500     127.1250      13.2880    -999.2500      46.5510      21.0340      26.8640       2.6400
   2064.8679       6.6685    -999.2500     132.6859      12.4109    -999.2500      41.7404      19.5720      25.4867       2.6430
   2065.0203       6.6700    -999.2500     138.2400      11.5320    -999.2500      36.8970      18.1000      24.1110       2.6460
   2065.1726       6.6700    -999.2500     139.0875      10.8792    -999.2500      35.1546      18.1000      21.1039       2.6625
   2065.3250       6.6700    -999.2500     139.9340      10.2250    -999.2500      33.4000      18.1000      18.1000       2.6790
   2065.4773       6.6700    -999.2500     139.9670       9.5583    -999.2500      33.5455      18.1000      33.6574       2.6995
   2065.6299       6.6700    -999.2500     140.0000       8.8900    -999.2500      33.6920      18.1000      49.2000       2.7200
   2065.7822       6.6700    -999.2500     140.0000       8.9779    -999.2500      37.4096      18.3606      41.2477       2.7050
   2065.9346       6.6700    -999.2500     140.0000       9.0660    -999.2500      41.1540      18.6230      33.3020       2.6900
   2066.0869       6.6700    -999.2500     140.0000       9.5094    -999.2500      46.4234      19.0912      28.2492       2.6990
   2066.2395       6.6700    -999.2500     140.0000       9.9540    -999.2500      51.7230      19.5620      23.2000       2.7080
   2066.3918       6.6700    -999.2500     140.0000      11.0950    -999.2500      53.9839      20.2884      27.3947       2.7290
   2066.5442       6.6700    -999.2500     140.0000      12.2390    -999.2500      56.2580      21.0190      31.5870       2.7500
   2066.6965       6.6700    -999.2500     140.0000      13.8673    -999.2500      60.4649      22.4403      47.2971       2.7440
   2066.8489       6.6700    -999.2500     140.0000      15.5000    -999.2500      64.6970      23.8700      63.0000       2.7380
   2067.0015       6.6700    -999.2500     137.6352      15.4705    -999.2500      71.2186      25.3649      61.2837       2.6890
   2067.1538       6.6700    -999.2500     135.2750      15.4410    -999.2500      77.7800      26.8690      59.5680       2.6400
