#------------------------------------------------------------------------------
#
#   Created by  : [OpenWorks] Log Export Utility (LEXP)
#   Created on  : 2016-05-23 11:55:58
#   Project     : CANT971
#   User        : R5K
#   Interpreter : PEP
#
#------------------------------------------------------------------------------
~VERSION INFORMATION
VERS. 2.0 : CWLS Log ASCII Standard - version 2.0
WRAP.  NO : One line per depth step
~WELL INFORMATION
#MNEMONIC   .UNIT                                           VALUE :DESCRIPTION
#------------------------------------------------------------------------------
STRT        .M                                           646.6334 :START DEPTH
STOP        .M                                          2755.8494 :STOP DEPTH
STEP        .M                                             0.1524 :STEP
NULL        .                                           -999.2500 :NULL VALUE
COMP        .                                   PEMEX EXPL & PROD :COMPANY
WELL        .                                                  42 :WELL
FLD         .                                           CANTARELL :FIELD
LOC         .                                             UNKNOWN :LOCATION
CNTY        .                                      CD. DEL CARMEN :COUNTY
STAT        .                                            CAMPECHE :STATE
CTRY        .                                              MEXICO :COUNTRY
SRVC        .                                             UNKNOWN :SERVICE COMPANY
DATE        .                                             UNKNOWN :LOG DATE
UWI         .                                          3060000464 :UNIQUE WELL ID
XCOORD      .                                       599690.710000 :SURFACE X
YCOORD      .                                      2143036.470000 :SURFACE Y
LAT         .                                           19.380144 :LATITUDE
LON         .                                          -92.050691 :LONGITUDE
ELEV        .M                                            26.7400 :SURFACE ELEV
ELEV_TYPE   .                                                  KB :ELEV TYPE
~CURVE INFORMATION
#MNEMONIC.UNIT        API CODE       : CURVE DESCRIPTION
#------------------------------------------------------------------------------
DEPTH    .M                          : Measured Depth
CALI     .inches      UNKNOWN        : CALI:Import:rC:NONE:v0 (auto-composite)
DRHO     .g/cm3       UNKNOWN        : DRHO:Import:rC:NONE:v0 (auto-composite)
DT       .us/ft       UNKNOWN        : DT:Import:rC:NONE:v0 (auto-composite)
GR       .API         UNKNOWN        : GR:Import:rC:NONE:v0 (auto-composite)
ILD      .ohm.m       UNKNOWN        : ILD:Import:rC:NONE:v0 (auto-composite)
ILM      .ohm.m       UNKNOWN        : ILM:Import:rC:NONE:v0 (auto-composite)
LLD      .ohm.m       UNKNOWN        : LLD:Import:rC:NONE:v0 (auto-composite)
LLS      .ohm.m       UNKNOWN        : LLS:Import:rC:NONE:v0 (auto-composite)
MSFL     .ohm.m       UNKNOWN        : MSFL:Import:rC:NONE:v0 (auto-composite)
NPHI     .v/v_decimal UNKNOWN        : NPHI:Import:rC:NONE:v0 (auto-composite)
PEF      .b/elec      UNKNOWN        : PEF:Import:rC:NONE:v0 (auto-composite)
RHOB     .g/cm3       UNKNOWN        : RHOB:Import:rC:NONE:v0 (auto-composite)
~A     DEPTH         CALI         DRHO           DT           GR          ILD          ILM          LLD          LLS         MSFL         NPHI          PEF         RHOB
# ...
   2731.4653       8.3175      -0.0040      53.9810      15.9350    -999.2500    -999.2500     703.6800     489.6011    -999.2500       0.1025       4.6865       2.6410
   2731.6177       8.3150      -0.0040      53.9800      15.9360    -999.2500    -999.2500     508.1210     368.4880    -999.2500       0.0975       4.7140       2.6420
   2731.7703       8.3075      -0.0040      53.9785      15.9365    -999.2500    -999.2500     519.5252     373.0623    -999.2500       0.0868       4.8608       2.6450
   2731.9226       8.3000      -0.0040      53.9770      15.9370    -999.2500    -999.2500     530.9180     377.6320    -999.2500       0.0760       5.0080       2.6480
   2732.0750       8.2710      -0.0025      53.9760      15.9375    -999.2500    -999.2500     609.1819     410.7260    -999.2500       0.0656       5.1264       2.6550
   2732.2273       8.2420      -0.0010      53.9750      15.9380    -999.2500    -999.2500     687.3770     443.7910    -999.2500       0.0553       5.2450       2.6620
   2732.3799       8.2420       0.0005      53.9740      15.9385    -999.2500    -999.2500     804.6925     509.8047    -999.2500       0.0457       5.6613       2.7005
   2732.5322       8.2420       0.0020      53.9730      15.9390    -999.2500    -999.2500     921.7320     575.6630    -999.2500       0.0363       6.0780       2.7390
   2732.6846       8.2440       0.0050      53.9720      15.9395    -999.2500    -999.2500     994.7427     625.4849    -999.2500       0.0367       6.0585       2.7380
   2732.8369       8.2460       0.0080      53.9710      15.9400    -999.2500    -999.2500    1067.5909     675.1960    -999.2500       0.0375       6.0390       2.7370
   2732.9893       8.2730       0.0095      53.9700      15.9405    -999.2500    -999.2500    1318.5316     745.8713    -999.2500       0.0419       5.4368       2.7315
   2733.1418       8.3000       0.0110      53.9690      15.9410    -999.2500    -999.2500    1568.9449     816.3980    -999.2500       0.0464       4.8340       2.7260
   2733.2942       8.2965       0.0105      53.9680      15.9420    -999.2500    -999.2500    2082.0925    1039.7531    -999.2500       0.0527       4.8525       2.7190
   2733.4465       8.2930       0.0100      53.9670      15.9430    -999.2500    -999.2500    2594.2271    1262.6670    -999.2500       0.0591       4.8710       2.7120
   2733.5989       8.2745       0.0070      53.9660      15.9435    -999.2500    -999.2500    3521.7104    1561.7278    -999.2500       0.0623       5.0249       2.7040
   2733.7515       8.2560       0.0040      53.9650      15.9440    -999.2500    -999.2500    4447.4771    1860.2350    -999.2500       0.0658       5.1790       2.6960
   2733.9038       8.2180       0.0005      53.9640      15.9445    -999.2500    -999.2500    4408.6436    1825.8439    -999.2500       0.0831       5.5507       2.6845
   2734.0562       8.1800      -0.0030      53.9630      15.9450    -999.2500    -999.2500    4369.8770    1791.5120    -999.2500       0.1004       5.9230       2.6730
   2734.2085       8.1810      -0.0125      53.9620      15.9455    -999.2500    -999.2500    3980.5134    1572.2697    -999.2500       0.1004       5.8181       2.6185
   2734.3608       8.1820      -0.0220      53.9610      15.9460    -999.2500    -999.2500    3591.7729    1353.3781    -999.2500       0.1000       5.7130       2.5640
   2734.5134       8.2030      -0.0210      53.9600      15.9465    -999.2500    -999.2500    2740.8076    1044.4564    -999.2500       0.0956       5.1740       2.5730
   2734.6658       8.2240      -0.0200      53.9590      15.9470    -999.2500    -999.2500    1891.0959     735.9900    -999.2500       0.0909       4.6340       2.5820
   2734.8181       8.2195      -0.0130      53.9580      15.9480    -999.2500    -999.2500    1243.6238     608.0552    -999.2500       0.0709       4.7284       2.6559
   2734.9705       8.2150      -0.0060      53.9570      15.9490    -999.2500    -999.2500     597.0250     480.2930    -999.2500       0.0509       4.8230       2.7300
   2735.1230       8.1940      -0.0025      53.9560      15.9495    -999.2500    -999.2500     605.0654     490.3537    -999.2500       0.0508       4.7815       2.7290
   2735.2754       8.1730       0.0010      53.9550      15.9500    -999.2500    -999.2500     613.0960     500.4020    -999.2500       0.0511       4.7400       2.7280
   2735.4277       8.1755       0.0000      53.9540      15.9505    -999.2500    -999.2500     663.8373     554.9534    -999.2500       0.0543       4.7830       2.7175
   2735.5801       8.1780      -0.0010      53.9530      15.9510    -999.2500    -999.2500     714.5230     609.4450    -999.2500       0.0575       4.8260       2.7070
   2735.7327       8.1970      -0.0055      53.9520      15.9515    -999.2500    -999.2500     804.2906     695.0496    -999.2500       0.0739       5.0188       2.6630
   2735.8850       8.2160      -0.0100      53.9510      15.9520    -999.2500    -999.2500     893.9710     780.5710    -999.2500       0.0904       5.2120       2.6190
   2736.0374       8.2080      -0.0095      53.9500      15.9525    -999.2500    -999.2500    1012.1396     769.7849    -999.2500       0.0896       5.3883       2.6190
   2736.1897       8.2000      -0.0090      53.9490      15.9530    -999.2500    -999.2500    1130.2080     759.0080    -999.2500       0.0885       5.5650       2.6190
   2736.3420       8.2005      -0.0075      53.9480      15.9535    -999.2500    -999.2500    1105.2205     709.5056    -999.2500       0.0764       5.5275       2.6240
   2736.4946       8.2010      -0.0060      53.9470      15.9540    -999.2500    -999.2500    1080.2910     660.1180    -999.2500       0.0642       5.4900       2.6290
   2736.6470       8.2090      -0.0030      53.9455      15.9550    -999.2500    -999.2500     908.8173     589.5150    -999.2500       0.0641       4.9753       2.6560
   2736.7993       8.2170       0.0000      53.9440      15.9560    -999.2500    -999.2500     737.7200     519.0670    -999.2500       0.0642       4.4600       2.6830
   2736.9517       8.2545       0.0015      53.9430      15.9565    -999.2500    -999.2500     740.7521     522.2528    -999.2500       0.0715       4.4975       2.6805
   2737.1042       8.2920       0.0030      53.9420      15.9570    -999.2500    -999.2500     743.7780     525.4320    -999.2500       0.0789       4.5350       2.6780
   2737.2566       8.2895       0.0030      53.9410      15.9575    -999.2500    -999.2500     763.3605     570.1064    -999.2500       0.0786       4.9867       2.6520
   2737.4089       8.2870       0.0030      53.9400      15.9580    -999.2500    -999.2500     782.9050     614.6940    -999.2500       0.0783       5.4390       2.6260
   2737.5613       8.2695       0.0025      53.9390      15.9585    -999.2500    -999.2500     848.9756     610.9861    -999.2500       0.0744       4.9124       2.6565
   2737.7139       8.2520       0.0020      53.9380      15.9590    -999.2500    -999.2500     914.9260     607.2850    -999.2500       0.0705       4.3850       2.6870
   2737.8662       8.2165      -0.0020      53.9370      15.9595    -999.2500    -999.2500     897.6554     514.6766    -999.2500       0.0709       4.3945       2.6850
   2738.0186       8.1810      -0.0060      53.9360      15.9600    -999.2500    -999.2500     880.4140     422.2250    -999.2500       0.0712       4.4040       2.6830
   2738.1709       8.1765      -0.0150      53.9350      15.9610    -999.2500    -999.2500     803.6498     427.4766    -999.2500       0.0735       4.6158       2.6680
   2738.3232       8.1720      -0.0240      53.9340      15.9620    -999.2500    -999.2500     727.0060     432.7200    -999.2500       0.0758       4.8280       2.6530
   2738.4758       8.1720      -0.0235      53.9330      15.9630    -999.2500    -999.2500     752.3278     464.5535    -999.2500       0.0818       4.8050       2.5980
   2738.6282       8.1720      -0.0230      53.9320      15.9640    -999.2500    -999.2500     777.6130     496.3410    -999.2500       0.0878       4.7820       2.5430
