#------------------------------------------------------------------------------
#
#   Created by  : [OpenWorks] Log Export Utility (LEXP)
#   Created on  : 2016-05-23 11:57:09
#   Project     : CANT971
#   User        : R5K
#   Interpreter : PEP
#
#------------------------------------------------------------------------------
~VERSION INFORMATION
VERS. 2.0 : CWLS Log ASCII Standard - version 2.0
WRAP.  NO : One line per depth step
~WELL INFORMATION
#MNEMONIC   .UNIT                                           VALUE :DESCRIPTION
#------------------------------------------------------------------------------
STRT        .M                                           143.0270 :START DEPTH
STOP        .M                                          2096.0330 :STOP DEPTH
STEP        .M                                             0.1524 :STEP
NULL        .                                           -999.2500 :NULL VALUE
COMP        .                                   PEMEX EXPL & PROD :COMPANY
WELL        .                                                   7 :WELL
FLD         .                                           CANTARELL :FIELD
LOC         .                                             UNKNOWN :LOCATION
CNTY        .                                      CD. DEL CARMEN :COUNTY
STAT        .                                            CAMPECHE :STATE
CTRY        .                                              MEXICO :COUNTRY
SRVC        .                                             UNKNOWN :SERVICE COMPANY
DATE        .                                             UNKNOWN :LOG DATE
UWI         .                                            W-C-0007 :UNIQUE WELL ID
XCOORD      .                                       603360.340000 :SURFACE X
YCOORD      .                                      2145093.880000 :SURFACE Y
LAT         .                                           19.398550 :LATITUDE
LON         .                                          -92.015638 :LONGITUDE
ELEV        .M                                            27.1400 :SURFACE ELEV
ELEV_TYPE   .                                                  KB :ELEV TYPE
~CURVE INFORMATION
#MNEMONIC.UNIT        API CODE       : CURVE DESCRIPTION
#------------------------------------------------------------------------------
DEPTH    .M                          : Measured Depth
CAL      .inches      UNKNOWN        : CAL:UNKNOWN:rC:NONE:v0 (auto-composite)
DRHO     .g/cm3       UNKNOWN        : DRHO:UNKNOWN:rC:NONE:v0 (auto-composite)
DT       .us/ft       UNKNOWN        : DT:UNKNOWN:rC:NONE:v0 (auto-composite)
GR       .api         UNKNOWN        : GR:UNKNOWN:rC:NONE:v0 (auto-composite)
ILD      .ohmm        UNKNOWN        : ILD:UNKNOWN:rC:NONE:v0 (auto-composite)
NPHI     .v/v_decimal UNKNOWN        : NPHI:UNKNOWN:rC:NONE:v0 (auto-composite)
RHOB     .g/cm3       UNKNOWN        : RHOB:UNKNOWN:rC:NONE:v0 (auto-composite)
~A     DEPTH          CAL         DRHO           DT           GR          ILD         NPHI         RHOB
# ...
   1175.6895       0.0000       0.2500      40.0000       0.0000       0.9706      -0.1500       1.9500
   1175.8418       0.0000       0.2500      40.0000       0.0000       0.9728      -0.1500       1.9500
   1175.9941       0.0000       0.2500      40.0000       0.0000       0.9723      -0.1500       1.9500
   1176.1466       0.0000       0.2500      40.0000       0.0000       0.9697      -0.1500       1.9500
   1176.2990       0.0000       0.2500      40.0000       0.0000       0.9639      -0.1500       1.9500
   1176.4514       0.0000       0.2500      40.0000       0.0000       0.9605      -0.1500       1.9500
   1176.6038       0.0000       0.2500      40.0000       0.0000       0.9619      -0.1500       1.9500
   1176.7562       0.0000       0.2500      40.0000       0.0000       0.9651      -0.1500       1.9500
   1176.9086       0.0000       0.2500      40.0000       0.0000       0.9729      -0.1500       1.9500
   1177.0610       0.0000       0.2500      40.0000       0.0000       0.9805      -0.1500       1.9500
   1177.2134       0.0000       0.2500      40.0000       0.0000       0.9878      -0.1500       1.9500
   1177.3658       0.0000       0.2500      40.0000       0.0000       0.9943      -0.1500       1.9500
   1177.5182       0.0000       0.2500      40.0000       0.0000       0.9962      -0.1500       1.9500
   1177.6705       0.0000       0.2500      40.0000       0.0000       0.9975      -0.1500       1.9500
   1177.8230       0.0000       0.2500      40.0000       0.0000       0.9922      -0.1500       1.9500
   1177.9753       0.0000       0.2500      40.0000       0.0000       0.9867      -0.1500       1.9500
   1178.1278       0.0000       0.2500      40.0000       0.0000       0.9770      -0.1500       1.9500
   1178.2802       0.0000       0.2500      40.0000       0.0000       0.9673      -0.1500       1.9500
   1178.4326       0.0000       0.2500      40.0000       0.0000       0.9595      -0.1500       1.9500
   1178.5850       0.0000       0.2500      40.0000       0.0000       0.9517      -0.1500       1.9500
   1178.7374       0.0000       0.2500      40.0000       0.0000       0.9440      -0.1500       1.9500
   1178.8898       0.0000       0.2500      40.0000       0.0000       0.9362      -0.1500       1.9500
   1179.0422       0.0000       0.2500      40.0000       0.0000       0.9350      -0.1500       1.9500
   1179.1946       0.0000       0.2500      40.0000       0.0000       0.9350      -0.1500       1.9500
   1179.3470       0.0000       0.2500      40.0000       0.0000       0.9400      -0.1500       1.9500
   1179.4994       0.0000       0.2500      40.0000       0.0000       0.9463      -0.1500       1.9500
   1179.6517       0.0000       0.2500      40.0000       0.0000       0.9522      -0.1500       1.9500
   1179.8042       0.0000       0.2500      40.0000       0.0000       0.9581      -0.1500       1.9500
   1179.9565       0.0000       0.2500      40.0000       0.0000       0.9603      -0.1500       1.9500
   1180.1090       0.0000       0.2500      40.0000       0.0000       0.9608      -0.1500       1.9500
   1180.2614       0.0000       0.2500      40.0000       0.0000       0.9586      -0.1500       1.9500
   1180.4138       0.0000       0.2500      40.0000       0.0000       0.9548      -0.1500       1.9500
   1180.5662       0.0000       0.2500      40.0000       0.0000       0.9543      -0.1500       1.9500
   1180.7186       0.0000       0.2500      40.0000       0.0000       0.9567      -0.1500       1.9500
   1180.8710       0.0000       0.2500      40.0000       0.0000       0.9542      -0.1500       1.9500
   1181.0234       0.0000       0.2500      40.0000       0.0000       0.9465      -0.1500       1.9500
   1181.1758       0.0000       0.2500      40.0000       0.0000       0.9393      -0.1500       1.9500
   1181.3282       0.0000       0.2500      40.0000       0.0000       0.9330      -0.1500       1.9500
   1181.4806       0.0000       0.2500      40.0000       0.0000       0.9320      -0.1500       1.9500
   1181.6329       0.0000       0.2500      40.0000       0.0000       0.9403      -0.1500       1.9500
   1181.7854       0.0000       0.2500      40.0000       0.0000       0.9487      -0.1500       1.9500
   1181.9377       0.0000       0.2500      40.0000       0.0000       0.9574      -0.1500       1.9500
   1182.0902       0.0000       0.2500      40.0000       0.0000       0.9655      -0.1500       1.9500
   1182.2426       0.0000       0.2500      40.0000       0.0000       0.9718      -0.1500       1.9500
   1182.3950       0.0000       0.2500      40.0000       0.0000       0.9776      -0.1500       1.9500
   1182.5474       0.0000       0.2500      40.0000       0.0000       0.9810      -0.1500       1.9500
   1182.6998       0.0000       0.2500      40.0000       0.0000       0.9843      -0.1500       1.9500
   1182.8522       0.0000       0.2500      40.0000       0.0000       0.9867      -0.1500       1.9500
   1183.0046       0.0000       0.2500      40.0000       0.0000       0.9893      -0.1500       1.9500
   1183.1570       0.0000       0.2500      40.0000       0.0000       0.9936      -0.1500       1.9500
   1183.3094       0.0000       0.2500      40.0000       0.0000       0.9980      -0.1500       1.9500
   1183.4618       0.0000       0.2500      40.0000       0.0000       0.9936      -0.1500       1.9500
   1183.6141       0.0000       0.2500      40.0000       0.0000       0.9893      -0.1500       1.9500
   1183.7666       0.0000       0.2500      40.0000       0.0000       0.9863      -0.1500       1.9500
   1183.9189       0.0000       0.2500      40.0000       0.0000       0.9833      -0.1500       1.9500
   1184.0714       0.0000       0.2500      40.0000       0.0000       0.9881      -0.1500       1.9500
   1184.2238       0.0000       0.2500      40.0000       0.0000       0.9940      -0.1500       1.9500
   1184.3762       0.0000       0.2500      40.0000       0.0000       1.0030      -0.1500       1.9500
   1184.5286       0.0000       0.2500      40.0000       0.0000       1.0127      -0.1500       1.9500
   1184.6810       0.0000       0.2500      40.0000       0.0000       1.0124      -0.1500       1.9500
   1184.8334       0.0000       0.2500      40.0000       0.0000       1.0090      -0.1500       1.9500
   1184.9858       0.0000       0.2500      40.0000       0.0000       1.0060      -0.1500       1.9500
   1185.1382       0.0000       0.2500      40.0000       0.0000       1.0030      -0.1500       1.9500
   1185.2906       0.0000       0.2500      40.0000       0.0000       1.0014      -0.1500       1.9500
   1185.4430       0.0000       0.2500      40.0000       0.0000       1.0004      -0.1500       1.9500
   1185.5953       0.0000       0.2500      40.0000       0.0000       0.9992      -0.1500       1.9500
   1185.7478       0.0000       0.2500      40.0000       0.0000       0.9977      -0.1500       1.9500
   1185.9001       0.0000       0.2500      40.0000       0.0000       0.9975      -0.1500       1.9500
   1186.0526       0.0000       0.2500      40.0000       0.0000       0.9985      -0.1500       1.9500
   1186.2050       0.0000       0.2500      40.0000       0.0000       1.0006      -0.1500       1.9500
   1186.3574       0.0000       0.2500      40.0000       0.0000       1.0040      -0.1500       1.9500
   1186.5098       0.0000       0.2500      40.0000       0.0000       1.0070      -0.1500       1.9500
   1186.6622       0.0000       0.2500      40.0000       0.0000       1.0094      -0.1500       1.9500
   1186.8146       0.0000       0.2500      40.0000       0.0000       1.0123      -0.1500       1.9500
   1186.9670       0.0000       0.2500      40.0000       0.0000       1.0162      -0.1500       1.9500
   1187.1194       0.0000       0.2500      40.0000       0.0000       1.0212      -0.1500       1.9500
   1187.2719       0.0000       0.2500      40.0000       0.0000       1.0289      -0.1500       1.9500
