#------------------------------------------------------------------------------
#
#   Created by  : [OpenWorks] Log Export Utility (LEXP)
#   Created on  : 2016-05-23 11:50:53
#   Project     : CANT971
#   User        : R5K
#   Interpreter : PEP
#
#------------------------------------------------------------------------------
~VERSION INFORMATION
VERS. 2.0 : CWLS Log ASCII Standard - version 2.0
WRAP.  NO : One line per depth step
~WELL INFORMATION
#MNEMONIC   .UNIT                                           VALUE :DESCRIPTION
#------------------------------------------------------------------------------
STRT        .M                                           494.4622 :START DEPTH
STOP        .M                                          2707.4626 :STOP DEPTH
STEP        .M                                             0.1524 :STEP
NULL        .                                           -999.2500 :NULL VALUE
COMP        .                                   PEMEX EXPL & PROD :COMPANY
WELL        .                                                1042 :WELL
FLD         .                                           CANTARELL :FIELD
LOC         .                                             UNKNOWN :LOCATION
CNTY        .                                      CD. DEL CARMEN :COUNTY
STAT        .                                            CAMPECHE :STATE
CTRY        .                                              MEXICO :COUNTRY
SRVC        .                                             UNKNOWN :SERVICE COMPANY
DATE        .                                             UNKNOWN :LOG DATE
UWI         .                                          3060000495 :UNIQUE WELL ID
XCOORD      .                                       596162.680000 :SURFACE X
YCOORD      .                                      2150604.600000 :SURFACE Y
LAT         .                                           19.448706 :LATITUDE
LON         .                                          -92.083900 :LONGITUDE
ELEV        .M                                            30.0000 :SURFACE ELEV
ELEV_TYPE   .                                                  KB :ELEV TYPE
~CURVE INFORMATION
#MNEMONIC.UNIT        API CODE       : CURVE DESCRIPTION
#------------------------------------------------------------------------------
DEPTH    .M                          : Measured Depth
CALI     .inches      UNKNOWN        : CALI:litodensidad:rC:NONE:v0 (auto-composite)
DT       .us/ft       UNKNOWN        : DT:DT:rC:NONE:v0 (auto-composite)
GR       .API         UNKNOWN        : GR:GR-Load:rC:NONE:v0 (auto-composite)
ILD      .ohmm        UNKNOWN        : ILD:UNKNOWN:rC:NONE:v0 (auto-composite)
LLD      .ohmm        UNKNOWN        : LLD:UNKNOWN:rC:NONE:v0 (auto-composite)
LLS      .ohmm        UNKNOWN        : LLS:UNKNOWN:rC:NONE:v0 (auto-composite)
MSFL     .ohmm        UNKNOWN        : MSFL:UNKNOWN:rC:NONE:v0 (auto-composite)
NPHI     .v/v_decimal UNKNOWN        : NPHI:NPHI:rC:NONE:v0 (auto-composite)
~A     DEPTH         CALI           DT           GR          ILD          LLD          LLS         MSFL         NPHI
# ...
   2282.1143       8.9184    -999.2500      56.6538       0.2000   14130.4893   23213.4922       8.4158       0.0845
   2282.2666       8.8514    -999.2500      54.3343       0.2000   12916.5088   20396.0684       4.1369       0.0921
   2282.4189       8.7665    -999.2500      52.0738       0.2000    6891.7866   10878.5195       3.9803       0.0988
   2282.5715       8.6640    -999.2500      49.8725       0.2000     717.6584    1152.8872       3.9517       0.1045
   2282.7239       8.6283    -999.2500      47.7891       0.2000     374.5176     588.4650       4.5662       0.1713
   2282.8762       8.6588    -999.2500      45.8240       0.2000     178.2967     254.8723       5.1970       0.2990
   2283.0286       8.6868    -999.2500      43.4025       0.2000     109.1144     156.2073       7.2251       0.3344
   2283.1812       8.7123    -999.2500      40.5224       0.2000      41.4970      60.8310       9.3080       0.2783
   2283.3335       8.7182    -999.2500      37.7853       0.2000      29.6185      43.3227       7.7944       0.2132
   2283.4858       8.7047    -999.2500      35.1914       0.2000      17.4820      25.4340       6.2480       0.1389
   2283.6382       8.7048    -999.2500      35.5312       0.2000      22.3810      32.4967       5.9098       0.0872
   2283.7908       8.7183    -999.2500      38.8204       0.2000      27.3310      39.6330       5.5680       0.0578
   2283.9431       8.6994    -999.2500      41.4286       0.2000      53.7751      76.3367       7.0838       0.0385
   2284.0955       8.6484    -999.2500      43.3543       0.2000      80.2420     113.0720       8.6010       0.0290
   2284.2478       8.6263    -999.2500      45.1830       0.2000      91.1540     128.3799      11.7812       0.0251
   2284.4001       8.6328    -999.2500      46.9142       0.2000     101.9720     143.5560      14.9340       0.0267
   2284.5527       8.6488    -999.2500      47.6096       0.2000      68.9599      98.6045      17.7607       0.0323
   2284.7051       8.6743    -999.2500      47.2662       0.2000      36.5940      54.5330      20.5320       0.0419
   2284.8574       8.6516    -999.2500      48.3791       0.2000      29.6453      43.6571      11.6042       0.0487
   2285.0098       8.5811    -999.2500      50.9575       0.2000      23.0017      33.2499       2.9423       0.0526
   2285.1624       8.5154    -999.2500      53.8368       0.2000      28.1565      40.8395       2.6274       0.0577
   2285.3147       8.4544    -999.2500      57.0180       0.2000      33.4476      48.6201       2.3291       0.0639
   2285.4670       8.4240    -999.2500      58.1193       0.2000      44.3511      64.2654       2.7113       0.0773
   2285.6194       8.4240    -999.2500      57.1398       0.2000      55.4009      80.1653       3.1634       0.0976
   2285.7717       8.4155    -999.2500      53.6231       0.2000      71.5953     105.0121       6.0700       0.1181
   2285.9243       8.3985    -999.2500      47.5594       0.2000      87.2523     129.0435       8.8446       0.1387
   2286.0767       8.3847    -999.2500      42.9702       0.2000      87.2624     129.3288       7.7776       0.1448
   2286.2290       8.3742    -999.2500      39.8571       0.2000      88.1777     130.8872       6.7276       0.1362
   2286.3813       8.3637    -999.2500      39.3418       0.2000     111.5520     164.0306       6.0989       0.1304
   2286.5339       8.3532    -999.2500      41.4361       0.2000     134.7289     196.8954       5.6408       0.1272
   2286.6863       8.3367    -999.2500      41.4457       0.2000     153.6469     223.7483       8.8642       0.1240
   2286.8386       8.3142    -999.2500      39.3676       0.2000     173.4150     251.6824      12.1744       0.1207
   2286.9910       8.3058    -999.2500      36.4028       0.2000     209.3934     300.2285      17.1392       0.1100
   2287.1436       8.3113    -999.2500      32.5469       0.2000     243.2820     346.2185      42.5053       0.0920
   2287.2959       8.3150    -999.2500      31.1300       0.2000     240.3990     347.2323     426.8277       0.1050
   2287.4482       8.3170    -999.2500      32.1571       0.2000     234.7690     343.8633     772.8341       0.1491
   2287.6006       8.3223    -999.2500      32.2208       0.2000     185.5796     270.9953     511.2665       0.1991
   2287.7529       8.3308    -999.2500      31.3160       0.2000     137.4084     199.6869     258.4321       0.2552
   2287.9055       8.3385    -999.2500      30.0606       0.2000     103.9161     150.8620     131.4962       0.2572
   2288.0579       8.3455    -999.2500      28.4538       0.2000      71.4223     103.5114      13.2920       0.2053
   2288.2102       8.3513    -999.2500      29.7241       0.2000      52.1107      75.6231      10.3659       0.1601
   2288.3625       8.3558    -999.2500      33.8886       0.2000      33.6308      48.9326       7.5698       0.1215
   2288.5151       8.3696    -999.2500      37.8167       0.2000      25.2687      36.8150       6.3565       0.0864
   2288.6675       8.3925    -999.2500      41.5076       0.2000      17.4255      25.4372       5.1205       0.0547
   2288.8198       8.4469    -999.2500      41.8616       0.2000      15.4316      22.3973       3.6296       0.0411
   2288.9722       8.5324    -999.2500      38.8570       0.2000      13.8482      19.9742       2.2759       0.0455
   2289.1248       8.6581    -999.2500      37.4591       0.2000      16.6589      24.1548       2.3912       0.0532
   2289.2771       8.8235    -999.2500      37.6737       0.2000      20.4503      29.7841       2.4381       0.0641
   2289.4294       8.9052    -999.2500      37.8514       0.2000      34.0385      49.8868       1.8018       0.0756
   2289.5818       8.9037    -999.2500      37.9924       0.2000      50.7033      74.8360       1.2319       0.0875
   2289.7341       8.9025    -999.2500      44.9656       0.2000      96.1638     145.1459       1.2825       0.1132
   2289.8867       8.9015    -999.2500      58.7987       0.2000     447.2594     726.3433       3.5408       0.1526
   2290.0391       8.9226    -999.2500      65.1441       0.2000    3486.9841    5801.7456      25.2189       0.2212
   2290.1914       8.9656    -999.2500      63.9936       0.2000    7259.3110   12954.1074      50.6046       0.3190
   2290.3438       9.0164    -999.2500      57.2083       0.2000   17106.4902   37328.9492     106.7353       0.3488
   2290.4963       9.0749    -999.2500      44.7627       0.2000   25348.8105   58285.9453     150.4377       0.3113
   2290.6487       9.0372    -999.2500      35.9796       0.2000   20810.3516   52023.9258      95.1645       0.2631
   2290.8010       8.9042    -999.2500      30.8648       0.2000   16029.9141   44486.9375      43.8120       0.2043
   2290.9534       8.8631    -999.2500      26.0314       0.2000    9425.0830   27337.3984      22.0191       0.1613
   2291.1060       8.9131    -999.2500      21.4807       0.2000    3415.8135   11546.0537       2.9320       0.1339
   2291.2583       8.9589    -999.2500      19.8129       0.2000    1666.8431    5470.4434       3.2013       0.1154
   2291.4106       9.0003    -999.2500      21.0338       0.2000     133.9176     163.6312       3.3340       0.1057
   2291.5630       8.9741    -999.2500      23.4644       0.2000      70.2682      85.2579       2.5383       0.1185
   2291.7153       8.8805    -999.2500      27.1112       0.2000      15.6470      18.0972       1.8197       0.1537
   2291.8679       8.7622    -999.2500      27.1705       0.2000      19.5057      23.5643       1.6006       0.1627
   2292.0203       8.6192    -999.2500      23.6331       0.2000      23.0423      28.6970       1.7683       0.1456
   2292.1726       8.5073    -999.2500      22.0595       0.2000      24.5884      31.7625       4.3263       0.1317
   2292.3250       8.4263    -999.2500      22.4616       0.2000      25.7390      34.2485       6.6203       0.1209
   2292.4775       8.3642    -999.2500      24.1141       0.2000      24.5241      33.2678       7.3348       0.1133
