#------------------------------------------------------------------------------
#
#   Created by  : [OpenWorks] Log Export Utility (LEXP)
#   Created on  : 2016-05-12 17:01:28
#   Project     : CANT971
#   User        : R5K
#   Interpreter : PEP
#
#------------------------------------------------------------------------------
~VERSION INFORMATION
VERS. 2.0 : CWLS Log ASCII Standard - version 2.0
WRAP.  NO : One line per depth step
~WELL INFORMATION
#MNEMONIC   .UNIT                                           VALUE :DESCRIPTION
#------------------------------------------------------------------------------
STRT        .M                                           350.5962 :START DEPTH
STOP        .M                                          2218.5630 :STOP DEPTH
STEP        .M                                             0.1524 :STEP
NULL        .                                           -999.2500 :NULL VALUE
COMP        .                                   PEMEX EXPL & PROD :COMPANY
WELL        .                                                  79 :WELL
FLD         .                                           CANTARELL :FIELD
LOC         .                                             UNKNOWN :LOCATION
CNTY        .                                      CD. DEL CARMEN :COUNTY
STAT        .                                            CAMPECHE :STATE
CTRY        .                                              MEXICO :COUNTRY
SRVC        .                                             UNKNOWN :SERVICE COMPANY
DATE        .                                             UNKNOWN :LOG DATE
UWI         .                                          3060000183 :UNIQUE WELL ID
XCOORD      .                                       602154.470000 :SURFACE X
YCOORD      .                                      2147172.410000 :SURFACE Y
LAT         .                                           19.417394 :LATITUDE
LON         .                                          -92.027010 :LONGITUDE
ELEV        .M                                            28.1700 :SURFACE ELEV
ELEV_TYPE   .                                                  KB :ELEV TYPE
~CURVE INFORMATION
#MNEMONIC.UNIT        API CODE       : CURVE DESCRIPTION
#------------------------------------------------------------------------------
DEPTH    .M                          : Measured Depth
CALI     .inches      UNKNOWN        : CALI:CALI-Load:rC:NONE:v0 (auto-composite)
DT       .us/ft       UNKNOWN        : DT:DT:rC:NONE:v0 (auto-composite)
GR       .UNKNOWN     UNKNOWN        : GR:GR-Load:rC:NONE:v0 (auto-composite)
ILD      .UNKNOWN     UNKNOWN        : ILD:ILD-Load:rC:NONE:v0 (auto-composite)
LLD      .UNKNOWN     UNKNOWN        : LLD:LLD-Load:rC:NONE:v0 (auto-composite)
LLS      .UNKNOWN     UNKNOWN        : LLS:LLS-Load:rC:NONE:v0 (auto-composite)
MSFL     .UNKNOWN     UNKNOWN        : MSFL:MSFL-Load:rC:NONE:v0 (auto-composite)
NPHI     .v/v_decimal UNKNOWN        : NPHI:NPHI:rC:NONE:v0 (auto-composite)
RG       .API         UNKNOWN        : RG:UNKNOWN:rC:NONE:v0 (auto-composite)
RHOB     .UNKNOWN     UNKNOWN        : RHOB:RHOB-Load:rC:NONE:v0 (auto-composite)
SP       .UNKNOWN     UNKNOWN        : SP:SP-Load:rC:NONE:v0 (auto-composite)
~A     DEPTH         CALI           DT           GR          ILD          LLD          LLS         MSFL         NPHI           RG         RHOB           SP
# ...
   1420.4442      13.1714    -999.2500      68.7166       0.8317    -999.2500    -999.2500    -999.2500       0.4220    -999.2500       2.1630      28.2362
   1420.5966      12.9904    -999.2500      69.4971       0.8352    -999.2500    -999.2500    -999.2500       0.4211    -999.2500       2.1710      28.1807
   1420.7490      12.9563    -999.2500      69.5405       0.8397    -999.2500    -999.2500    -999.2500       0.4196    -999.2500       2.1778      28.1252
   1420.9014      13.0688    -999.2500      68.8480       0.8452    -999.2500    -999.2500    -999.2500       0.4174    -999.2500       2.1833      28.0697
   1421.0538      13.0937    -999.2500      68.0680       0.8517    -999.2500    -999.2500    -999.2500       0.4134    -999.2500       2.1810      28.0142
   1421.2062      13.0312    -999.2500      67.2005       0.8592    -999.2500    -999.2500    -999.2500       0.4074    -999.2500       2.1710      27.9587
   1421.3586      13.0313    -999.2500      66.5571       0.8670    -999.2500    -999.2500    -999.2500       0.4092    -999.2500       2.1680      27.9032
   1421.5110      13.0938    -999.2500      66.1376       0.8750    -999.2500    -999.2500    -999.2500       0.4187    -999.2500       2.1720      27.8477
   1421.6635      13.1062    -999.2500      65.7624       0.8830    -999.2500    -999.2500    -999.2500       0.4222    -999.2500       2.1760      27.7922
   1421.8158      13.0687    -999.2500      65.4312       0.8910    -999.2500    -999.2500    -999.2500       0.4196    -999.2500       2.1800      27.7367
   1421.9681      13.0813    -999.2500      64.9877       0.8992    -999.2500    -999.2500    -999.2500       0.4171    -999.2500       2.1848      27.6814
   1422.1206      13.1438    -999.2500      64.4322       0.9077    -999.2500    -999.2500    -999.2500       0.4149    -999.2500       2.1903      27.6265
   1422.2729      13.1562    -999.2500      63.7265       0.9147    -999.2500    -999.2500    -999.2500       0.4120    -999.2500       2.1963      27.5712
   1422.4254      13.1187    -999.2500      62.8710       0.9202    -999.2500    -999.2500    -999.2500       0.4085    -999.2500       2.2028      27.5157
   1422.5778      13.1250    -999.2500      62.8374       0.9242    -999.2500    -999.2500    -999.2500       0.4040    -999.2500       2.2148      27.4602
   1422.7302      13.1750    -999.2500      63.6229       0.9267    -999.2500    -999.2500    -999.2500       0.3987    -999.2500       2.2323      27.4047
   1422.8826      13.1624    -999.2500      64.5345       0.9300    -999.2500    -999.2500    -999.2500       0.4004    -999.2500       2.2387      27.3492
   1423.0350      13.0874    -999.2500      65.5720       0.9340    -999.2500    -999.2500    -999.2500       0.4092    -999.2500       2.2342      27.2937
   1423.1874      13.0688    -999.2500      65.3647       0.9390    -999.2500    -999.2500    -999.2500       0.4191    -999.2500       2.2292      27.2382
   1423.3398      13.1063    -999.2500      63.9163       0.9450    -999.2500    -999.2500    -999.2500       0.4301    -999.2500       2.2237      27.1827
   1423.4922      13.1408    -999.2500      63.3182       0.9520    -999.2500    -999.2500    -999.2500       0.4381    -999.2500       2.2155      27.1099
   1423.6445      13.1723    -999.2500      63.5681       0.9600    -999.2500    -999.2500    -999.2500       0.4431    -999.2500       2.2045      27.0199
   1423.7970      13.2050    -999.2500      63.6555       0.9692    -999.2500    -999.2500    -999.2500       0.4382    -999.2500       2.1970      26.9402
   1423.9493      13.2390    -999.2500      63.5805       0.9797    -999.2500    -999.2500    -999.2500       0.4234    -999.2500       2.1930      26.8707
   1424.1018      13.2608    -999.2500      63.5180       0.9882    -999.2500    -999.2500    -999.2500       0.4109    -999.2500       2.1923      26.7584
   1424.2542      13.2703    -999.2500      63.4680       0.9947    -999.2500    -999.2500    -999.2500       0.4008    -999.2500       2.1948      26.6034
   1424.4066      13.2938    -999.2500      63.5804       0.9985    -999.2500    -999.2500    -999.2500       0.3960    -999.2500       2.1968      26.4559
   1424.5590      13.3313    -999.2500      63.8549       0.9995    -999.2500    -999.2500    -999.2500       0.3966    -999.2500       2.1983      26.3159
   1424.7114      13.4078    -999.2500      63.7951       0.9990    -999.2500    -999.2500    -999.2500       0.3963    -999.2500       2.2010      26.1372
   1424.8638      13.5233    -999.2500      63.4016       0.9970    -999.2500    -999.2500    -999.2500       0.3951    -999.2500       2.2050      25.9197
   1425.0162      13.6545    -999.2500      62.6647       0.9940    -999.2500    -999.2500    -999.2500       0.3968    -999.2500       2.2078      25.8110
   1425.1686      13.8015    -999.2500      61.5847       0.9900    -999.2500    -999.2500    -999.2500       0.4013    -999.2500       2.2093      25.8110
   1425.3210      13.8422    -999.2500      61.2041       0.9858    -999.2500    -999.2500    -999.2500       0.4056    -999.2500       2.2160      25.8110
   1425.4734      13.7767    -999.2500      61.5223       0.9813    -999.2500    -999.2500    -999.2500       0.4097    -999.2500       2.2280      25.8110
   1425.6257      13.6829    -999.2500      61.9686       0.9778    -999.2500    -999.2500    -999.2500       0.4067    -999.2500       2.2330      25.8110
   1425.7782      13.5609    -999.2500      62.5425       0.9753    -999.2500    -999.2500    -999.2500       0.3968    -999.2500       2.2310      25.8110
   1425.9305      13.5095    -999.2500      63.0111       0.9725    -999.2500    -999.2500    -999.2500       0.3899    -999.2500       2.2348      25.7409
   1426.0830      13.5285    -999.2500      63.3746       0.9695    -999.2500    -999.2500    -999.2500       0.3863    -999.2500       2.2443      25.6009
   1426.2354      13.6224    -999.2500      63.7654       0.9697    -999.2500    -999.2500    -999.2500       0.3858    -999.2500       2.2535      25.4140
   1426.3878      13.7909    -999.2500      64.1833       0.9732    -999.2500    -999.2500    -999.2500       0.3884    -999.2500       2.2625      25.1806
   1426.5402      13.8687    -999.2500      63.5006       0.9815    -999.2500    -999.2500    -999.2500       0.3883    -999.2500       2.2650      25.0019
   1426.6926      13.8562    -999.2500      61.7206       0.9945    -999.2500    -999.2500    -999.2500       0.3852    -999.2500       2.2610      24.8779
   1426.8450      13.8688    -999.2500      60.1039       1.0110    -999.2500    -999.2500    -999.2500       0.3798    -999.2500       2.2570      24.8160
   1426.9974      13.9063    -999.2500      58.6500       1.0310    -999.2500    -999.2500    -999.2500       0.3719    -999.2500       2.2530      24.8160
   1427.1498      13.8562    -999.2500      57.3422       1.0482    -999.2500    -999.2500    -999.2500       0.3648    -999.2500       2.2628      24.8160
   1427.3022      13.7187    -999.2500      56.1803       1.0627    -999.2500    -999.2500    -999.2500       0.3587    -999.2500       2.2863      24.8160
   1427.4546      13.6828    -999.2500      55.6658       1.0715    -999.2500    -999.2500    -999.2500       0.3470    -999.2500       2.3273      24.7692
   1427.6069      13.7483    -999.2500      55.7973       1.0745    -999.2500    -999.2500    -999.2500       0.3298    -999.2500       2.3858      24.6757
   1427.7594      13.8170    -999.2500      56.9832       1.0695    -999.2500    -999.2500    -999.2500       0.3236    -999.2500       2.4085      24.4268
   1427.9117      13.8890    -999.2500      59.2212       1.0565    -999.2500    -999.2500    -999.2500       0.3285    -999.2500       2.3955      24.0228
   1428.0642      13.8687    -999.2500      61.0597       1.0383    -999.2500    -999.2500    -999.2500       0.3381    -999.2500       2.3662      23.8210
   1428.2166      13.7562    -999.2500      62.4997       1.0148    -999.2500    -999.2500    -999.2500       0.3523    -999.2500       2.3207      23.8210
