#------------------------------------------------------------------------------
#
#   Created by  : [OpenWorks] Log Export Utility (LEXP)
#   Created on  : 2016-05-23 11:56:14
#   Project     : CANT971
#   User        : R5K
#   Interpreter : PEP
#
#------------------------------------------------------------------------------
~VERSION INFORMATION
VERS. 2.0 : CWLS Log ASCII Standard - version 2.0
WRAP.  NO : One line per depth step
~WELL INFORMATION
#MNEMONIC   .UNIT                                           VALUE :DESCRIPTION
#------------------------------------------------------------------------------
STRT        .M                                          1862.0000 :START DEPTH
STOP        .M                                          3052.8535 :STOP DEPTH
STEP        .M                                             0.1524 :STEP
NULL        .                                           -999.2500 :NULL VALUE
COMP        .                                   PEMEX EXPL & PROD :COMPANY
WELL        .                                                446D :WELL
FLD         .                                           CANTARELL :FIELD
LOC         .                                             UNKNOWN :LOCATION
CNTY        .                                      CD. DEL CARMEN :COUNTY
STAT        .                                            CAMPECHE :STATE
CTRY        .                                              MEXICO :COUNTRY
SRVC        .                                             UNKNOWN :SERVICE COMPANY
DATE        .                                             UNKNOWN :LOG DATE
UWI         .                                            W-C-446D :UNIQUE WELL ID
XCOORD      .                                       598705.170000 :SURFACE X
YCOORD      .                                      2143305.170000 :SURFACE Y
LAT         .                                           19.382621 :LATITUDE
LON         .                                          -92.060061 :LONGITUDE
ELEV        .M                                            28.0000 :SURFACE ELEV
ELEV_TYPE   .                                                  KB :ELEV TYPE
~CURVE INFORMATION
#MNEMONIC.UNIT        API CODE       : CURVE DESCRIPTION
#------------------------------------------------------------------------------
DEPTH    .M                          : Measured Depth
CALI     .inches      UNKNOWN        : CALI:litodensidad:rC:NONE:v0 (auto-composite)
CGR      .API         UNKNOWN        : CGR:CGR-Load:rC:NONE:v0 (auto-composite)
DRHO     .g/cm3       UNKNOWN        : DRHO:litodensidad:rC:NONE:v0 (auto-composite)
DT       .us/ft       UNKNOWN        : DT:DT-Load:rC:NONE:v0 (auto-composite)
GR       .UNKNOWN     UNKNOWN        : GR:PETROWORKS:rC:NONE:v1 
LLD      .ohm.m       UNKNOWN        : LLD:PETROWORKS:rC:NONE:v1 
LLS      .UNKNOWN     UNKNOWN        : LLS:PETROWORKS:rC:NONE:v1 
MSFL     .UNKNOWN     UNKNOWN        : MSFL:PETROWORKS:rC:NONE:v1 
NPHI     .v/v_decimal UNKNOWN        : NPHI:PETROWORKS:rC:NONE:v2 
PEF      .UNKNOWN     UNKNOWN        : PEF:litodensidad:rC:NONE:v0 (auto-composite)
POTA     .UNKNOWN     UNKNOWN        : POTA:radioactividad:rC:NONE:v0 (auto-composite)
RHOB     .g/cm3       UNKNOWN        : RHOB:litodensidad:rC:NONE:v0 (auto-composite)
THOR     .ppm         UNKNOWN        : THOR:radioactividad:rC:NONE:v0 (auto-composite)
URAN     .ppm         UNKNOWN        : URAN:radioactividad:rC:NONE:v0 (auto-composite)
~A     DEPTH         CALI          CGR         DRHO           DT           GR          LLD          LLS         MSFL         NPHI          PEF         POTA         RHOB         THOR         URAN
# ...
   2662.1001       6.9754      17.7862       0.0267      71.4321      42.1698     170.0514      50.6560      73.8060       0.0856       3.3196       0.0060       2.6163       1.2311       2.4197
   2662.2524       7.0081      16.9019       0.0300      70.6849      41.6184     172.4176      49.0986       9.6428       0.0917       3.2680       0.0056       2.6332       1.2110       2.4543
   2662.4048       7.1846      15.2809       0.0419      68.4101      39.6045     230.4936      61.9809       4.0908       0.0835       3.2717       0.0049       2.7035       1.1520       2.4132
   2662.5571       7.1850      14.3196       0.0408      72.7500      37.7385     340.8595      89.4823      68.3476       0.0658       3.2278       0.0047       2.7421       1.0225       2.3248
   2662.7097       6.9020      13.3258       0.0060      64.6049      35.9255     542.6807     129.8840      90.2253       0.0645       3.1395       0.0044       2.6701       0.9653       2.2327
   2662.8621       6.9208      13.1181      -0.0012      64.4432      35.8666     656.2103     162.3564      62.6674       0.0691       3.1812       0.0038       2.6297       1.1408       2.2606
   2663.0144       6.9964      12.7394      -0.0011      63.1737      35.8445     773.0632     182.9416      98.2857       0.0713       3.2660       0.0034       2.6327       1.2172       2.2958
   2663.1667       6.8864      12.1921       0.0002      56.7937      35.5604     844.6434     204.6001      94.6501       0.0671       3.3489       0.0034       2.6645       1.1066       2.2968
   2663.3191       6.8242      13.8377      -0.0027      56.9303      38.6090     948.8329     221.4326     150.4234       0.0592       3.3380       0.0039       2.6974       1.2553       2.4972
   2663.4717       7.0245      13.4155      -0.0061      61.3942      38.8146     898.7194     206.6460     129.0965       0.0507       3.2798       0.0041       2.7134       1.1054       2.5217
   2663.6240       7.1185      12.3296      -0.0003      66.5164      37.3097     687.3433     154.6976     128.6311       0.0481       3.1653       0.0040       2.7350       0.9035       2.4851
   2663.7764       6.9452      11.1389      -0.0013      72.9814      35.1895     454.0535     106.2142     248.6901       0.0577       3.1419       0.0040       2.7170       0.6577       2.3860
   2663.9287       6.8368      11.8613      -0.0052      79.9384      35.7887     366.9367      82.3298     129.9422       0.0794       3.1162       0.0043       2.6755       0.6941       2.3907
   2664.0813       6.9796      12.1121      -0.0033      76.4170      35.7357     366.1711      81.7649      27.0743       0.0977       3.1406       0.0046       2.6621       0.6377       2.3442
   2664.2336       7.0644      12.3124       0.0009      72.3735      36.2997     386.9982      89.6423      17.4865       0.0945       3.1172       0.0047       2.6776       0.6270       2.3200
   2664.3860       6.9127      15.6369      -0.0007      67.3051      41.1430     406.2285     100.1956      46.5843       0.0766       3.1296       0.0050       2.7061       1.1587       2.5307
   2664.5383       6.7355      14.8889       0.0012      55.6853      40.6031     527.1061     129.2269      98.2231       0.0587       3.1398       0.0048       2.7187       1.1351       2.5030
   2664.6909       6.7518      15.7924       0.0015      58.9264      42.0565     835.7980     197.3677      45.8316       0.0554       3.2255       0.0046       2.7076       1.3576       2.6062
   2664.8433       6.9807      13.4169       0.0104      60.4443      39.6830    1161.8698     285.0897     127.3437       0.0534       3.1535       0.0038       2.7038       1.2321       2.5620
   2664.9956       7.0359      13.0209       0.0091      61.1860      39.4049    1499.2723     380.5427     176.4506       0.0567       3.2168       0.0036       2.6918       1.2003       2.6181
   2665.1479       6.8155      16.5297       0.0063      65.9645      47.2178    2022.6257     485.3641     161.2105       0.0702       3.1805       0.0052       2.6749       1.2753       3.0685
   2665.3003       6.8428      17.1478       0.0085      64.6789      54.5930    2335.5195     549.8284      38.4867       0.0787       3.2957       0.0047       2.6946       1.5864       3.7175
   2665.4529       6.9710      19.5225       0.0224      58.5280      60.3551    2366.1013     546.7185     101.2355       0.0740       3.3482       0.0043       2.7188       2.2270       4.1663
   2665.6052       7.0108      16.0477       0.0139      57.2880      56.6282    2305.9314     544.5677     162.2523       0.0624       3.3127       0.0032       2.7174       1.9990       4.0271
   2665.7576       6.8739      15.7494       0.0169      60.4723      49.3722    2599.8630     595.1844     155.9925       0.0557       3.3269       0.0039       2.6489       1.6281       3.3393
   2665.9099       6.9326      13.8688       0.0496      57.9536      41.8625    2498.0076     597.3160     129.7721       0.0557       3.2347       0.0035       2.6010       1.4121       2.7705
   2666.0625       6.8962      11.3184       0.0516      65.3778      36.0981    2157.1357     527.2574     107.6816       0.0708       3.2837       0.0033       2.5555       0.9736       2.4123
   2666.2148       6.8222      12.0054       0.0373      61.7056      36.4233    2038.6221     510.3013      26.9695       0.0879       3.2198       0.0033       2.5533       1.1278       2.4313
   2666.3672       6.9292      12.6925       0.0367      58.5950      37.4560    2200.5576     561.7772       9.4014       0.0976       3.2017       0.0034       2.6063       1.2308       2.4546
   2666.5195       6.9667      13.7084       0.0244      56.7580      38.3173    2475.5540     662.6704      66.5275       0.0885       3.1653       0.0034       2.6514       1.4415       2.4774
   2666.6721       6.8968      12.1982       0.0037      60.5732      35.8506    2911.8979     830.0782     231.6877       0.0736       3.0989       0.0027       2.6789       1.3973       2.3508
   2666.8245       6.7893      10.0404      -0.0010      61.9792      31.3967    3486.0674    1038.6038     214.5549       0.0636       3.0888       0.0017       2.7102       1.4001       2.0727
   2666.9768       6.7731       9.6413       0.0020      60.2345      30.4494    3492.1963    1164.2894     143.5900       0.0577       3.0210       0.0013       2.7283       1.4472       2.0649
   2667.1292       6.7941      10.0157       0.0100      58.5855      32.1692    3512.7275    1187.4191     203.5831       0.0579       3.0438       0.0016       2.7287       1.4071       2.0852
   2667.2815       6.8058      14.2201       0.0105      57.9682      42.2549    3264.4390    1109.0958     303.0160       0.0608       3.1190       0.0032       2.7144       1.6101       2.7822
   2667.4341       6.8586      23.7481       0.0089      61.2104      54.3862    2466.0168     893.8293     148.4762       0.0683       3.1835       0.0070       2.6943       2.0451       3.1931
   2667.5864       7.0404      24.0479       0.0138      60.6130      55.9801    1675.0336     662.7250     145.6728       0.0761       3.2579       0.0072       2.6928       2.0054       3.1686
   2667.7388       6.9041      21.4982       0.0160      60.4848      50.1981    1481.1176     559.2155     147.3689       0.0863       3.1682       0.0068       2.7003       1.6347       2.8353
   2667.8911       6.8661      18.3778       0.0120      61.9422      44.6524    1475.2582     551.9170     102.3695       0.0860       3.1611       0.0054       2.7086       1.6012       2.6076
   2668.0437       6.8592      19.1596       0.0105      62.6668      44.3317    1449.9984     568.0885      69.8899       0.0795       3.2488       0.0054       2.7051       1.7194       2.5789
   2668.1960       6.8636      17.3361       0.0033      61.3915      39.3632    1649.1644     627.5734     346.0782       0.0737       3.3339       0.0047       2.6797       1.6684       2.1860
   2668.3484       6.9023      18.6391      -0.0048      58.0545      40.6804    1688.3298     670.8640     190.0670       0.0715       3.3490       0.0048       2.6654       1.8889       2.2111
