#------------------------------------------------------------------------------
#
#   Created by  : [OpenWorks] Log Export Utility (LEXP)
#   Created on  : 2016-05-23 11:55:46
#   Project     : CANT971
#   User        : R5K
#   Interpreter : PEP
#
#------------------------------------------------------------------------------
~VERSION INFORMATION
VERS. 2.0 : CWLS Log ASCII Standard - version 2.0
WRAP.  NO : One line per depth step
~WELL INFORMATION
#MNEMONIC   .UNIT                                           VALUE :DESCRIPTION
#------------------------------------------------------------------------------
STRT        .M                                           325.5260 :START DEPTH
STOP        .M                                          2414.9299 :STOP DEPTH
STEP        .M                                             0.1524 :STEP
NULL        .                                           -999.2500 :NULL VALUE
COMP        .                                   PEMEX EXPL & PROD :COMPANY
WELL        .                                                   4 :WELL
FLD         .                                           CANTARELL :FIELD
LOC         .                                             UNKNOWN :LOCATION
CNTY        .                                      CD. DEL CARMEN :COUNTY
STAT        .                                            CAMPECHE :STATE
CTRY        .                                              MEXICO :COUNTRY
SRVC        .                                             UNKNOWN :SERVICE COMPANY
DATE        .                                             UNKNOWN :LOG DATE
UWI         .                                          3060000140 :UNIQUE WELL ID
XCOORD      .                                       598455.270000 :SURFACE X
YCOORD      .                                      2145027.190000 :SURFACE Y
LAT         .                                           19.398194 :LATITUDE
LON         .                                          -92.062351 :LONGITUDE
ELEV        .M                                            26.5400 :SURFACE ELEV
ELEV_TYPE   .                                                  KB :ELEV TYPE
~CURVE INFORMATION
#MNEMONIC.UNIT        API CODE       : CURVE DESCRIPTION
#------------------------------------------------------------------------------
DEPTH    .M                          : Measured Depth
CALI     .inches      UNKNOWN        : CALI:Import:rC:NONE:v0 (auto-composite)
CGR      .API         UNKNOWN        : CGR:Import:rC:NONE:v0 (auto-composite)
DRHO     .g/cm3       UNKNOWN        : DRHO:Import:rC:NONE:v0 (auto-composite)
DT       .us/ft       UNKNOWN        : DT:Import:rC:NONE:v0 (auto-composite)
GR       .API         UNKNOWN        : GR:Import:rC:NONE:v0 (auto-composite)
ILD      .ohm.m       UNKNOWN        : ILD:Import:rC:NONE:v0 (auto-composite)
LLD      .ohm.m       UNKNOWN        : LLD:Import:rC:NONE:v0 (auto-composite)
LLS      .ohm.m       UNKNOWN        : LLS:Import:rC:NONE:v0 (auto-composite)
MSFL     .ohm.m       UNKNOWN        : MSFL:Import:rC:NONE:v0 (auto-composite)
NPHI     .v/v_decimal UNKNOWN        : NPHI:Import:rC:NONE:v0 (auto-composite)
POTA     .wtpercent   UNKNOWN        : POTA:Import:rC:NONE:v0 (auto-composite)
RHOB     .g/cm3       UNKNOWN        : RHOB:Import:rC:NONE:v0 (auto-composite)
THOR     .ppm         UNKNOWN        : THOR:Import:rC:NONE:v0 (auto-composite)
URAN     .ppm         UNKNOWN        : URAN:Import:rC:NONE:v0 (auto-composite)
~A     DEPTH         CALI          CGR         DRHO           DT           GR          ILD          LLD          LLS         MSFL         NPHI         POTA         RHOB         THOR         URAN
# ...
   1951.3292      10.1110    -999.2500      -0.0050      60.8930      36.7470    -999.2500    2743.0371     694.4530     153.9030       0.0324    -999.2500       2.7180    -999.2500    -999.2500
   1951.4816      10.1886    -999.2500      -0.0015      68.1501      36.0816    -999.2500    2690.5635     686.2243     137.6024       0.0312    -999.2500       2.7255    -999.2500    -999.2500
   1951.6340      10.2660    -999.2500       0.0020      75.3750      35.4170    -999.2500    2638.2810     678.0190     121.3480       0.0321    -999.2500       2.7330    -999.2500    -999.2500
   1951.7864      10.2364    -999.2500       0.0035      85.2884      34.3764    -999.2500    2749.5051     706.3294     161.1500       0.0330    -999.2500       2.7440    -999.2500    -999.2500
   1951.9388      10.2070    -999.2500       0.0050      95.1590      33.3370    -999.2500    2860.2500     734.5630     200.8440       0.0354    -999.2500       2.7550    -999.2500    -999.2500
   1952.0912      10.1764    -999.2500       0.0070     104.7806      30.7167    -999.2500    2624.9460     690.0283     161.1947       0.0377    -999.2500       2.7535    -999.2500    -999.2500
   1952.2437      10.1460    -999.2500       0.0090     114.3620      28.0990    -999.2500    2390.6270     645.6090     121.6480       0.0430    -999.2500       2.7520    -999.2500    -999.2500
   1952.3960      10.1861    -999.2500       0.0105     122.9289      26.7434    -999.2500    2250.2158     625.8276      84.1909       0.0481    -999.2500       2.7435    -999.2500    -999.2500
   1952.5485      10.2260    -999.2500       0.0120     131.4610      25.3890    -999.2500    2110.3750     606.0950      46.8260       0.0533    -999.2500       2.7350    -999.2500    -999.2500
   1952.7008      10.2796    -999.2500       0.0070     139.0760      26.2253    -999.2500    2123.1973     600.6116      40.3389       0.0583    -999.2500       2.7210    -999.2500    -999.2500
   1952.8531      10.3330    -999.2500       0.0020     146.6610      27.0610    -999.2500    2135.9690     595.1410      33.8670       0.0569    -999.2500       2.7070    -999.2500    -999.2500
   1953.0056      10.2433    -999.2500      -0.0000     142.9810      30.9612    -999.2500    1935.2721     544.4184      38.1007       0.0555    -999.2500       2.7130    -999.2500    -999.2500
   1953.1580      10.1540    -999.2500      -0.0020     139.3150      34.8590    -999.2500    1735.3400     493.8080      42.3250       0.0476    -999.2500       2.7190    -999.2500    -999.2500
   1953.3104      10.2497    -999.2500      -0.0035     137.1080      38.1561    -999.2500    1330.8903     394.0403      48.3588       0.0399    -999.2500       2.7210    -999.2500    -999.2500
   1953.4628      10.3450    -999.2500      -0.0050     134.9110      41.4490    -999.2500     927.9310     294.4810      54.3800       0.0385    -999.2500       2.7230    -999.2500    -999.2500
   1953.6152      10.2934    -999.2500       0.0010     120.3871      40.1022    -999.2500     802.5373     269.5180      50.8470       0.0371    -999.2500       2.6950    -999.2500    -999.2500
   1953.7676      10.2420    -999.2500       0.0070     105.9380      38.7580    -999.2500     677.5900     244.6040      47.3210       0.0422    -999.2500       2.6670    -999.2500    -999.2500
   1953.9200      10.2450    -999.2500       0.0050     101.1339      38.0974    -999.2500     614.2187     228.4842      38.1621       0.0473    -999.2500       2.6840    -999.2500    -999.2500
   1954.0724      10.2480    -999.2500       0.0030      96.3540      37.4380    -999.2500     551.0650     212.3940      29.0200       0.0531    -999.2500       2.7010    -999.2500    -999.2500
   1954.2249      10.3702    -999.2500       0.0035      93.4689      36.5427    -999.2500     493.1181     191.9555      59.1763       0.0588    -999.2500       2.7005    -999.2500    -999.2500
   1954.3772      10.4920    -999.2500       0.0040      90.5980      35.6490    -999.2500     435.3630     171.5520      89.2810       0.0651    -999.2500       2.7000    -999.2500    -999.2500
   1954.5295      10.3984    -999.2500      -0.0030      83.9040      35.3302    -999.2500     478.6980     184.8769      62.9215       0.0714    -999.2500       2.6840    -999.2500    -999.2500
   1954.6820      10.3050    -999.2500      -0.0100      77.2420      35.0120    -999.2500     521.8950     198.1700      36.6250       0.0762    -999.2500       2.6680    -999.2500    -999.2500
   1954.8344      10.1503    -999.2500      -0.0140      74.1453      34.2554    -999.2500     662.0369     242.8208      53.0171       0.0811    -999.2500       2.6570    -999.2500    -999.2500
   1954.9868       9.9960    -999.2500      -0.0180      71.0630      33.5000    -999.2500     801.7500     287.3350      69.3590       0.0808    -999.2500       2.6460    -999.2500    -999.2500
   1955.1392      10.0341    -999.2500      -0.0160      74.9413      34.5947    -999.2500     914.4854     315.7707      52.8974       0.0805    -999.2500       2.6495    -999.2500    -999.2500
   1955.2916      10.0720    -999.2500      -0.0140      78.8020      35.6880    -999.2500    1026.8900     344.1230      36.4840       0.0667    -999.2500       2.6530    -999.2500    -999.2500
   1955.4440      10.2523    -999.2500      -0.0060      73.3174      34.5028    -999.2500    1108.0580     357.9814      37.3187       0.0529    -999.2500       2.6956    -999.2500    -999.2500
   1955.5964      10.4320    -999.2500       0.0020      67.8570      33.3190    -999.2500    1188.9330     371.8010      38.1510       0.0426    -999.2500       2.7380    -999.2500    -999.2500
   1955.7488      10.3188    -999.2500       0.0015      64.6922      32.7147    -999.2500    1121.2592     340.9706      52.7356       0.0323    -999.2500       2.7535    -999.2500    -999.2500
   1955.9012      10.2060    -999.2500       0.0010      61.5410      32.1110    -999.2500    1053.8750     310.2230      67.2810       0.0329    -999.2500       2.7690    -999.2500    -999.2500
   1956.0536      10.1143    -999.2500      -0.0020      61.9824      31.3907    -999.2500    1156.6976     327.6863      62.8148       0.0336    -999.2500       2.7565    -999.2500    -999.2500
   1956.2061      10.0230    -999.2500      -0.0050      62.4220      30.6710    -999.2500    1259.0930     345.1050      58.3600       0.0331    -999.2500       2.7440    -999.2500    -999.2500
   1956.3584      10.0260    -999.2500      -0.0085      67.9241      35.0273    -999.2500    1614.2075     439.1479      59.9970       0.0325    -999.2500       2.7285    -999.2500    -999.2500
   1956.5107      10.0290    -999.2500      -0.0120      73.4040      39.3800    -999.2500    1967.8910     532.9620      61.6300       0.0309    -999.2500       2.7130    -999.2500    -999.2500
   1956.6632      10.0906    -999.2500      -0.0080      83.8198      51.2972    -999.2500    2117.1375     588.9431      78.6401       0.0294    -999.2500       2.7250    -999.2500    -999.2500
   1956.8156      10.1520    -999.2500      -0.0040      94.1950      63.2060    -999.2500    2265.8010     644.7950      95.6110       0.0288    -999.2500       2.7370    -999.2500    -999.2500
   1956.9680      10.1916    -999.2500       0.0005      89.8513      62.6593    -999.2500    2321.4431     668.0479     176.1474       0.0282    -999.2500       2.7505    -999.2500    -999.2500
   1957.1204      10.2310    -999.2500       0.0050      85.5240      62.1130    -999.2500    2376.8750     691.2500     256.5080       0.0302    -999.2500       2.7640    -999.2500    -999.2500
   1957.2728      10.1759    -999.2500       0.0020      78.1671      58.5468    -999.2500    2245.3301     649.6136     250.3582       0.0322    -999.2500       2.7485    -999.2500    -999.2500
   1957.4252      10.1210    -999.2500      -0.0010      70.8430      54.9850    -999.2500    2114.2661     608.0630     244.2210       0.0373    -999.2500       2.7330    -999.2500    -999.2500
   1957.5776      10.0864    -999.2500      -0.0035      74.2537      51.1233    -999.2500    2149.3936     624.2126     187.3030       0.0424    -999.2500       2.7075    -999.2500    -999.2500
