#------------------------------------------------------------------------------
#
#   Created by  : [OpenWorks] Log Export Utility (LEXP)
#   Created on  : 2016-05-23 11:57:27
#   Project     : CANT971
#   User        : R5K
#   Interpreter : PEP
#
#------------------------------------------------------------------------------
~VERSION INFORMATION
VERS. 2.0 : CWLS Log ASCII Standard - version 2.0
WRAP.  NO : One line per depth step
~WELL INFORMATION
#MNEMONIC   .UNIT                                           VALUE :DESCRIPTION
#------------------------------------------------------------------------------
STRT        .M                                           813.0000 :START DEPTH
STOP        .M                                          2589.2219 :STOP DEPTH
STEP        .M                                             0.1524 :STEP
NULL        .                                           -999.2500 :NULL VALUE
COMP        .                                   PEMEX EXPL & PROD :COMPANY
WELL        .                                                  84 :WELL
FLD         .                                           CANTARELL :FIELD
LOC         .                                             UNKNOWN :LOCATION
CNTY        .                                      CD. DEL CARMEN :COUNTY
STAT        .                                            CAMPECHE :STATE
CTRY        .                                              MEXICO :COUNTRY
SRVC        .                                             UNKNOWN :SERVICE COMPANY
DATE        .                                             UNKNOWN :LOG DATE
UWI         .                                          3060000616 :UNIQUE WELL ID
XCOORD      .                                       601709.550000 :SURFACE X
YCOORD      .                                      2142344.590000 :SURFACE Y
LAT         .                                           19.373791 :LATITUDE
LON         .                                          -92.031505 :LONGITUDE
ELEV        .M                                            24.0000 :SURFACE ELEV
ELEV_TYPE   .                                                  KB :ELEV TYPE
~CURVE INFORMATION
#MNEMONIC.UNIT        API CODE       : CURVE DESCRIPTION
#------------------------------------------------------------------------------
DEPTH    .M                          : Measured Depth
CALI     .in          UNKNOWN        : CALI:UNKNOWN:rC:NONE:v0 (auto-composite)
DRHO     .g/cm3       UNKNOWN        : DRHO:UNKNOWN:rC:NONE:v0 (auto-composite)
DT       .us/ft       UNKNOWN        : DT:DT:rC:NONE:v0 (auto-composite)
ILD      .ohmm        UNKNOWN        : ILD:UNKNOWN:rC:NONE:v0 (auto-composite)
ILM      .ohmm        UNKNOWN        : ILM:UNKNOWN:rC:NONE:v0 (auto-composite)
LLD      .ohmm        UNKNOWN        : LLD:UNKNOWN:rC:NONE:v0 (auto-composite)
LLS      .ohmm        UNKNOWN        : LLS:UNKNOWN:rC:NONE:v0 (auto-composite)
MSFL     .ohmm        UNKNOWN        : MSFL:UNKNOWN:rC:NONE:v0 (auto-composite)
NPHI     .v/v_decimal UNKNOWN        : NPHI:NPHI:rC:NONE:v0 (auto-composite)
PEF      .b/elec      UNKNOWN        : PEF:UNKNOWN:rC:NONE:v0 (auto-composite)
RG       .UNKNOWN     UNKNOWN        : RG:UNKNOWN:rC:NONE:v0 (auto-composite)
RHOB     .g/cm3       UNKNOWN        : RHOB:UNKNOWN:rC:NONE:v0 (auto-composite)
~A     DEPTH         CALI         DRHO           DT          ILD          ILM          LLD          LLS         MSFL         NPHI          PEF           RG         RHOB
# ...
   1873.7040       0.0000      -0.1000    -999.2500       1.3381       1.4438       0.0000       0.0000       0.0000    -999.2500       0.0000      32.2320       0.0000
   1873.8564       0.0000      -0.1000    -999.2500       1.2779       1.3701       0.0000       0.0000       0.0000    -999.2500       0.0000      32.9685       0.0000
   1874.0088       0.0000      -0.1000    -999.2500       1.2275       1.3023       0.0000       0.0000       0.0000    -999.2500       0.0000      34.1418       0.0000
   1874.1613       0.0000      -0.1000    -999.2500       1.1979       1.2472       0.0000       0.0000       0.0000    -999.2500       0.0000      36.2411       0.0000
   1874.3136       0.0000      -0.1000    -999.2500       1.1742       1.2138       0.0000       0.0000       0.0000    -999.2500       0.0000      37.2782       0.0000
   1874.4659       0.0000      -0.1000    -999.2500       1.1627       1.2253       0.0000       0.0000       0.0000    -999.2500       0.0000      36.1195       0.0000
   1874.6184       0.0000      -0.1000    -999.2500       1.1709       1.2511       0.0000       0.0000       0.0000    -999.2500       0.0000      35.5874       0.0000
   1874.7708       0.0000      -0.1000    -999.2500       1.2191       1.3057       0.0000       0.0000       0.0000    -999.2500       0.0000      36.3235       0.0000
   1874.9232       0.0000      -0.1000    -999.2500       1.2773       1.3796       0.0000       0.0000       0.0000    -999.2500       0.0000      36.2642       0.0000
   1875.0756       0.0000      -0.1000    -999.2500       1.3555       1.4914       0.0000       0.0000       0.0000    -999.2500       0.0000      34.6354       0.0000
   1875.2280       0.0000      -0.1000    -999.2500       1.4099       1.5816       0.0000       0.0000       0.0000    -999.2500       0.0000      33.7438       0.0000
   1875.3804       0.0000      -0.1000    -999.2500       1.4184       1.6302       0.0000       0.0000       0.0000    -999.2500       0.0000      34.2767       0.0000
   1875.5328       0.0000      -0.1000    -999.2500       1.4082       1.6300       0.0000       0.0000       0.0000    -999.2500       0.0000      34.9020       0.0000
   1875.6852       0.0000      -0.1000    -999.2500       1.3626       1.5378       0.0000       0.0000       0.0000    -999.2500       0.0000      35.7012       0.0000
   1875.8376       0.0000      -0.1000    -999.2500       1.2956       1.4365       0.0000       0.0000       0.0000    -999.2500       0.0000      36.7539       0.0000
   1875.9900       0.0000      -0.1000    -999.2500       1.1893       1.3187       0.0000       0.0000       0.0000    -999.2500       0.0000      38.2730       0.0000
   1876.1425       0.0000      -0.1000    -999.2500       1.0752       1.2011       0.0000       0.0000       0.0000    -999.2500       0.0000      38.9648       0.0000
   1876.2948       0.0000      -0.1000    -999.2500       0.9468       1.0838       0.0000       0.0000       0.0000    -999.2500       0.0000      38.1656       0.0000
   1876.4471       0.0000      -0.1000    -999.2500       0.8461       0.9741       0.0000       0.0000       0.0000    -999.2500       0.0000      37.3778       0.0000
   1876.5996       0.0000      -0.1000    -999.2500       0.7940       0.8778       0.0000       0.0000       0.0000    -999.2500       0.0000      36.6102       0.0000
   1876.7520       0.0000      -0.1000    -999.2500       0.7645       0.8233       0.0000       0.0000       0.0000    -999.2500       0.0000      36.0097       0.0000
   1876.9044       0.0000      -0.1000    -999.2500       0.7740       0.8403       0.0000       0.0000       0.0000    -999.2500       0.0000      35.6965       0.0000
   1877.0568       0.0000      -0.1000    -999.2500       0.7910       0.8783       0.0000       0.0000       0.0000    -999.2500       0.0000      34.9510       0.0000
   1877.2092       0.0000      -0.1000    -999.2500       0.8206       0.9515       0.0000       0.0000       0.0000    -999.2500       0.0000      33.4779       0.0000
   1877.3616       0.0000      -0.1000    -999.2500       0.8722       1.0311       0.0000       0.0000       0.0000    -999.2500       0.0000      31.8954       0.0000
   1877.5140       0.0000      -0.1000    -999.2500       0.9599       1.1214       0.0000       0.0000       0.0000    -999.2500       0.0000      30.1330       0.0000
   1877.6664       0.0000      -0.1000    -999.2500       1.0125       1.1662       0.0000       0.0000       0.0000    -999.2500       0.0000      30.3002       0.0000
   1877.8188       0.0000      -0.1000    -999.2500       1.0085       1.1382       0.0000       0.0000       0.0000    -999.2500       0.0000      33.5654       0.0000
   1877.9712       0.0000      -0.1000    -999.2500       0.9859       1.0922       0.0000       0.0000       0.0000    -999.2500       0.0000      36.3535       0.0000
   1878.1237       0.0000      -0.1000    -999.2500       0.9343       1.0180       0.0000       0.0000       0.0000    -999.2500       0.0000      38.3906       0.0000
   1878.2760       0.0000      -0.1000    -999.2500       0.8840       0.9596       0.0000       0.0000       0.0000    -999.2500       0.0000      39.5695       0.0000
   1878.4283       0.0000      -0.1000    -999.2500       0.8359       0.9255       0.0000       0.0000       0.0000    -999.2500       0.0000      39.4287       0.0000
   1878.5808       0.0000      -0.1000    -999.2500       0.7938       0.9002       0.0000       0.0000       0.0000    -999.2500       0.0000      40.1001       0.0000
   1878.7332       0.0000      -0.1000    -999.2500       0.7607       0.8882       0.0000       0.0000       0.0000    -999.2500       0.0000      41.9958       0.0000
   1878.8856       0.0000      -0.1000    -999.2500       0.7515       0.8802       0.0000       0.0000       0.0000    -999.2500       0.0000      43.3594       0.0000
   1879.0380       0.0000      -0.1000    -999.2500       0.7776       0.8782       0.0000       0.0000       0.0000    -999.2500       0.0000      43.9390       0.0000
   1879.1904       0.0000      -0.1000    -999.2500       0.8035       0.8856       0.0000       0.0000       0.0000    -999.2500       0.0000      43.0740       0.0000
   1879.3428       0.0000      -0.1000    -999.2500       0.8290       0.9067       0.0000       0.0000       0.0000    -999.2500       0.0000      40.1295       0.0000
   1879.4952       0.0000      -0.1000    -999.2500       0.8706       0.9527       0.0000       0.0000       0.0000    -999.2500       0.0000      37.0742       0.0000
   1879.6476       0.0000      -0.1000    -999.2500       0.9348       1.0339       0.0000       0.0000       0.0000    -999.2500       0.0000      33.8623       0.0000
   1879.8000       0.0000      -0.1000    -999.2500       1.0160       1.1339       0.0000       0.0000       0.0000    -999.2500       0.0000      31.8157       0.0000
   1879.9524       0.0000      -0.1000    -999.2500       1.1208       1.2597       0.0000       0.0000       0.0000    -999.2500       0.0000      31.3769       0.0000
   1880.1049       0.0000      -0.1000    -999.2500       1.2403       1.3772       0.0000       0.0000       0.0000    -999.2500       0.0000      30.4083       0.0000
   1880.2572       0.0000      -0.1000    -999.2500       1.3796       1.4835       0.0000       0.0000       0.0000    -999.2500       0.0000      28.7248       0.0000
   1880.4095       0.0000      -0.1000    -999.2500       1.4879       1.5628       0.0000       0.0000       0.0000    -999.2500       0.0000      27.5366       0.0000
   1880.5620       0.0000      -0.1000    -999.2500       1.5551       1.6064       0.0000       0.0000       0.0000    -999.2500       0.0000      27.0036       0.0000
   1880.7144       0.0000      -0.1000    -999.2500       1.5906       1.6314       0.0000       0.0000       0.0000    -999.2500       0.0000      27.1639       0.0000
   1880.8668       0.0000      -0.1000    -999.2500       1.5851       1.6324       0.0000       0.0000       0.0000    -999.2500       0.0000      28.2209       0.0000
