#------------------------------------------------------------------------------
#
#   Created by  : [OpenWorks] Log Export Utility (LEXP)
#   Created on  : 2016-05-23 11:57:09
#   Project     : CANT971
#   User        : R5K
#   Interpreter : PEP
#
#------------------------------------------------------------------------------
~VERSION INFORMATION
VERS. 2.0 : CWLS Log ASCII Standard - version 2.0
WRAP.  NO : One line per depth step
~WELL INFORMATION
#MNEMONIC   .UNIT                                           VALUE :DESCRIPTION
#------------------------------------------------------------------------------
STRT        .M                                           143.0270 :START DEPTH
STOP        .M                                          2096.0330 :STOP DEPTH
STEP        .M                                             0.1524 :STEP
NULL        .                                           -999.2500 :NULL VALUE
COMP        .                                   PEMEX EXPL & PROD :COMPANY
WELL        .                                                   7 :WELL
FLD         .                                           CANTARELL :FIELD
LOC         .                                             UNKNOWN :LOCATION
CNTY        .                                      CD. DEL CARMEN :COUNTY
STAT        .                                            CAMPECHE :STATE
CTRY        .                                              MEXICO :COUNTRY
SRVC        .                                             UNKNOWN :SERVICE COMPANY
DATE        .                                             UNKNOWN :LOG DATE
UWI         .                                            W-C-0007 :UNIQUE WELL ID
XCOORD      .                                       603360.340000 :SURFACE X
YCOORD      .                                      2145093.880000 :SURFACE Y
LAT         .                                           19.398550 :LATITUDE
LON         .                                          -92.015638 :LONGITUDE
ELEV        .M                                            27.1400 :SURFACE ELEV
ELEV_TYPE   .                                                  KB :ELEV TYPE
~CURVE INFORMATION
#MNEMONIC.UNIT        API CODE       : CURVE DESCRIPTION
#------------------------------------------------------------------------------
DEPTH    .M                          : Measured Depth
CAL      .inches      UNKNOWN        : CAL:UNKNOWN:rC:NONE:v0 (auto-composite)
DRHO     .g/cm3       UNKNOWN        : DRHO:UNKNOWN:rC:NONE:v0 (auto-composite)
DT       .us/ft       UNKNOWN        : DT:UNKNOWN:rC:NONE:v0 (auto-composite)
GR       .api         UNKNOWN        : GR:UNKNOWN:rC:NONE:v0 (auto-composite)
ILD      .ohmm        UNKNOWN        : ILD:UNKNOWN:rC:NONE:v0 (auto-composite)
NPHI     .v/v_decimal UNKNOWN        : NPHI:UNKNOWN:rC:NONE:v0 (auto-composite)
RHOB     .g/cm3       UNKNOWN        : RHOB:UNKNOWN:rC:NONE:v0 (auto-composite)
~A     DEPTH          CAL         DRHO           DT           GR          ILD         NPHI         RHOB
# ...
   1950.1862       8.0925       0.2500      57.6461       0.0000      85.4329      -0.1500       1.9500
   1950.3386       8.1037       0.2500      57.9237       0.0000      84.4585      -0.1500       1.9500
   1950.4910       8.1151       0.2500      57.4762       0.0000      83.8015      -0.1500       1.9500
   1950.6434       8.1267       0.2500      56.3680       0.0000      83.4336      -0.1500       1.9500
   1950.7958       8.1476       0.2500      55.2605       0.0000      82.8458      -0.1500       1.9500
   1950.9482       8.1792       0.2500      54.1538       0.0000      82.0031      -0.1500       1.9500
   1951.1006       8.2027       0.2500      53.4510       0.0000      80.6114      -0.1500       1.9500
   1951.2531       8.2143       0.2500      53.3466       0.0000      78.4061      -0.1500       1.9500
   1951.4054       8.2228       0.2500      53.6182       0.0000      76.8655      -0.1500       1.9500
   1951.5577       8.2253       0.2500      54.6127       0.0000      76.6039      -0.1500       1.9500
   1951.7102       8.2223       0.2500      55.4456       0.0000      76.8720      -0.1500       1.9500
   1951.8625       8.2058       0.2500      55.8665       0.0000      78.4899      -0.1500       1.9500
   1952.0150       8.1915       0.2500      55.8742       0.0000      79.7965      -0.1500       1.9500
   1952.1674       8.1847       0.2500      54.4321       0.0000      80.0105      -0.1500       1.9500
   1952.3198       8.1809       0.2500      53.1368       0.0000      80.1619      -0.1500       1.9500
   1952.4722       8.1925       0.2500      52.6030       0.0000      79.9877      -0.1500       1.9500
   1952.6246       8.2081       0.2500      52.1125       0.0000      79.9729      -0.1500       1.9500
   1952.7770       8.2591       0.2500      52.0081       0.0000      81.3830      -0.1500       1.9500
   1952.9294       8.3065       0.2500      51.9019       0.0000      82.9530      -0.1500       1.9500
   1953.0818       8.2706       0.2500      51.7504       0.0000      88.3085      -0.1500       1.9500
   1953.2343       8.2347       0.2500      51.5990       0.0000      93.6639      -0.1500       1.9500
   1953.3866       8.1988       0.2500      53.4127       0.0000      99.8670      -0.1500       1.9500
   1953.5389       8.1629       0.2500      55.2657       0.0000     106.0869      -0.1500       1.9500
   1953.6914       8.1622       0.2500      57.2515       0.0000     109.5336      -0.1500       1.9500
   1953.8438       8.1647       0.2500      59.2490       0.0000     112.7373      -0.1500       1.9500
   1953.9962       8.2000       0.2500      59.6868       0.0000     117.8876      -0.1500       1.9500
   1954.1486       8.2408       0.2500      59.8693       0.0000     123.3567      -0.1500       1.9500
   1954.3010       8.2509       0.2500      59.2507       0.0000     128.9101      -0.1500       1.9500
   1954.4534       8.2534       0.2500      58.4307       0.0000     134.4847      -0.1500       1.9500
   1954.6058       8.2346       0.2500      58.7388       0.0000     136.3561      -0.1500       1.9500
   1954.7582       8.2084       0.2500      59.4470       0.0000     136.9143      -0.1500       1.9500
   1954.9106       8.2016       0.2500      60.7056       0.0000     136.5437      -0.1500       1.9500
   1955.0630       8.2041       0.2500      62.2254       0.0000     135.7321      -0.1500       1.9500
   1955.2153       8.2068       0.2500      62.2688       0.0000     134.9328      -0.1500       1.9500
   1955.3678       8.2097       0.2500      61.3994       0.0000     134.1411      -0.1500       1.9500
   1955.5201       8.2069       0.2500      59.3853       0.0000     133.3712      -0.1500       1.9500
   1955.6726       8.1997       0.2500      56.4638       0.0000     132.6186      -0.1500       1.9500
   1955.8250       8.2069       0.2500      54.1822       0.0000     131.8394      -0.1500       1.9500
   1955.9774       8.2287       0.2500      52.5483       0.0000     131.0331      -0.1500       1.9500
   1956.1298       8.2628       0.2500      51.8746       0.0000     129.3212      -0.1500       1.9500
   1956.2822       8.3128       0.2500      52.4391       0.0000     126.4413      -0.1500       1.9500
   1956.4346       8.3488       0.2500      52.9677       0.0000     122.9031      -0.1500       1.9500
   1956.5870       8.3614       0.2500      53.4369       0.0000     118.2751      -0.1500       1.9500
   1956.7394       8.3648       0.2500      53.3483       0.0000     115.4446      -0.1500       1.9500
   1956.8918       8.3483       0.2500      52.0503       0.0000     116.5111      -0.1500       1.9500
   1957.0442       8.3413       0.2500      50.6424       0.0000     118.0884      -0.1500       1.9500
   1957.1965       8.3622       0.2500      48.9144       0.0000     121.1542      -0.1500       1.9500
   1957.3490       8.3685       0.2500      47.6810       0.0000     123.6248      -0.1500       1.9500
   1957.5013       8.3146       0.2500      48.4843       0.0000     123.6442      -0.1500       1.9500
   1957.6538       8.2631       0.2500      49.4749       0.0000     123.5716      -0.1500       1.9500
   1957.8062       8.2267       0.2500      51.6622       0.0000     122.9108      -0.1500       1.9500
   1957.9586       8.1933       0.2500      53.7787       0.0000     122.2441      -0.1500       1.9500
   1958.1110       8.1967       0.2500      55.0121       0.0000     121.5058      -0.1500       1.9500
   1958.2634       8.1998       0.2500      56.2028       0.0000     120.7416      -0.1500       1.9500
   1958.4158       8.1838       0.2500      54.4262       0.0000     118.1782      -0.1500       1.9500
   1958.5682       8.1677       0.2500      52.6496       0.0000     115.6148      -0.1500       1.9500
   1958.7206       8.1962       0.2500      51.3751       0.0000     110.1956      -0.1500       1.9500
   1958.8730       8.2267       0.2500      50.1247       0.0000     104.6389      -0.1500       1.9500
   1959.0254       8.2582       0.2500      50.3239       0.0000     101.5926      -0.1500       1.9500
   1959.1777       8.2897       0.2500      50.6967       0.0000      98.8466      -0.1500       1.9500
   1959.3302       8.2889       0.2500      50.5140       0.0000     100.8415      -0.1500       1.9500
   1959.4825       8.2817       0.2500      50.2198       0.0000     103.7869      -0.1500       1.9500
   1959.6350       8.2747       0.2500      50.4415       0.0000     107.2084      -0.1500       1.9500
   1959.7874       8.2680       0.2500      50.8148       0.0000     110.7698      -0.1500       1.9500
   1959.9398       8.2681       0.2500      51.6306       0.0000     111.7041      -0.1500       1.9500
   1960.0922       8.2710       0.2500      52.6248       0.0000     111.5794      -0.1500       1.9500
   1960.2446       8.2866       0.2500      52.9027       0.0000     110.8055      -0.1500       1.9500
   1960.3970       8.3089       0.2500      52.7978       0.0000     109.6847      -0.1500       1.9500
   1960.5494       8.3252       0.2500      51.7324       0.0000     108.5573      -0.1500       1.9500
   1960.7018       8.3373       0.2500      50.0038       0.0000     107.4253      -0.1500       1.9500
   1960.8542       8.3242       0.2500      49.1388       0.0000     106.2957      -0.1500       1.9500
   1961.0066       8.2888       0.2500      49.0350       0.0000     105.1680      -0.1500       1.9500
   1961.1589       8.2574       0.2500      49.1778       0.0000     104.1190      -0.1500       1.9500
   1961.3114       8.2307       0.2500      49.5982       0.0000     103.1584      -0.1500       1.9500
   1961.4637       8.2200       0.2500      49.9797       0.0000     100.8269      -0.1500       1.9500
   1961.6162       8.2321       0.2500      50.3054       0.0000      96.5262      -0.1500       1.9500
   1961.7686       8.2374       0.2500      50.4976       0.0000      93.1310      -0.1500       1.9500
