#------------------------------------------------------------------------------
#
#   Created by  : [OpenWorks] Log Export Utility (LEXP)
#   Created on  : 2016-05-23 11:56:43
#   Project     : CANT971
#   User        : R5K
#   Interpreter : PEP
#
#------------------------------------------------------------------------------
~VERSION INFORMATION
VERS. 2.0 : CWLS Log ASCII Standard - version 2.0
WRAP.  NO : One line per depth step
~WELL INFORMATION
#MNEMONIC   .UNIT                                           VALUE :DESCRIPTION
#------------------------------------------------------------------------------
STRT        .M                                           650.2150 :START DEPTH
STOP        .M                                          2618.6135 :STOP DEPTH
STEP        .M                                             0.1524 :STEP
NULL        .                                           -999.2500 :NULL VALUE
COMP        .                                   PEMEX EXPL & PROD :COMPANY
WELL        .                                                  4D :WELL
FLD         .                                           CANTARELL :FIELD
LOC         .                                             UNKNOWN :LOCATION
CNTY        .                                      CD. DEL CARMEN :COUNTY
STAT        .                                            CAMPECHE :STATE
CTRY        .                                              MEXICO :COUNTRY
SRVC        .                                             UNKNOWN :SERVICE COMPANY
DATE        .                                             UNKNOWN :LOG DATE
UWI         .                                          3060000662 :UNIQUE WELL ID
XCOORD      .                                       598468.500000 :SURFACE X
YCOORD      .                                      2145023.700000 :SURFACE Y
LAT         .                                           19.398162 :LATITUDE
LON         .                                          -92.062225 :LONGITUDE
ELEV        .M                                            26.5400 :SURFACE ELEV
ELEV_TYPE   .                                                  KB :ELEV TYPE
~CURVE INFORMATION
#MNEMONIC.UNIT        API CODE       : CURVE DESCRIPTION
#------------------------------------------------------------------------------
DEPTH    .M                          : Measured Depth
CAL      .inches      UNKNOWN        : CAL:UNKNOWN:rC:NONE:v0 (auto-composite)
CGR      .UNKNOWN     UNKNOWN        : CGR:UNKNOWN:rC:NONE:v0 (auto-composite)
DRHO     .UNKNOWN     UNKNOWN        : DRHO:UNKNOWN:rC:NONE:v0 (auto-composite)
DT       .us/ft       UNKNOWN        : DT:DT:rC:NONE:v0 (auto-composite)
GR       .API         UNKNOWN        : GR:UNKNOWN:rC:NONE:v0 (auto-composite)
ILD      .UNKNOWN     UNKNOWN        : ILD:UNKNOWN:rC:NONE:v0 (auto-composite)
ILM      .UNKNOWN     UNKNOWN        : ILM:UNKNOWN:rC:NONE:v0 (auto-composite)
LLD      .UNKNOWN     UNKNOWN        : LLD:UNKNOWN:rC:NONE:v0 (auto-composite)
LLS      .UNKNOWN     UNKNOWN        : LLS:UNKNOWN:rC:NONE:v0 (auto-composite)
MSFL     .UNKNOWN     UNKNOWN        : MSFL:UNKNOWN:rC:NONE:v0 (auto-composite)
NPHI     .v/v_decimal UNKNOWN        : NPHI:PETROWORKS:rC:NONE:v1 
PEF      .UNKNOWN     UNKNOWN        : PEF:UNKNOWN:rC:NONE:v0 (auto-composite)
POTA     .UNKNOWN     UNKNOWN        : POTA:UNKNOWN:rC:NONE:v0 (auto-composite)
RHOB     .UNKNOWN     UNKNOWN        : RHOB:UNKNOWN:rC:NONE:v0 (auto-composite)
THOR     .UNKNOWN     UNKNOWN        : THOR:UNKNOWN:rC:NONE:v0 (auto-composite)
URAN     .UNKNOWN     UNKNOWN        : URAN:UNKNOWN:rC:NONE:v0 (auto-composite)
~A     DEPTH          CAL          CGR         DRHO           DT           GR          ILD          ILM          LLD          LLS         MSFL         NPHI          PEF         POTA         RHOB         THOR         URAN
# ...
   2511.0190       7.1517       8.0488       0.0076      55.3404      23.3009    -999.2500    -999.2500      52.9629      73.6210      75.3104    -999.2500       3.4502       0.0030       2.7526       0.8262       1.8100
   2511.1714       7.2255       7.7817       0.0072      53.4828      23.1524    -999.2500    -999.2500      72.0924      95.2305     114.2197    -999.2500       3.3063       0.0028       2.7686       0.7883       1.8363
   2511.3237       7.0594       5.8925       0.0027      55.0018      20.5805    -999.2500    -999.2500      65.8036      79.1625      54.8553    -999.2500       3.3603       0.0018       2.7310       0.7433       1.7509
   2511.4763       6.9250       4.3779      -0.0016      56.6050      18.5508    -999.2500    -999.2500      59.8923      65.1476      14.4342    -999.2500       3.3816       0.0010       2.6959       0.7147       1.6855
   2511.6287       6.9425       4.6821      -0.0051      58.6116      19.1241    -999.2500    -999.2500      55.8133      61.0996      65.9723    -999.2500       3.2462       0.0010       2.6719       0.7657       1.7175
   2511.7810       6.9512       5.0617      -0.0071      60.2923      19.8747    -999.2500    -999.2500      57.9780      61.8995     101.0379       0.1073       3.1368       0.0010       2.6586       0.8242       1.7617
   2511.9333       6.9172       5.8064      -0.0021      60.3988      21.4817    -999.2500    -999.2500      90.2950      86.1115      56.5541       0.0936       3.1533       0.0010       2.6971       0.9187       1.8646
   2512.0859       6.8911       5.8742       0.0017      60.0124      22.3089    -999.2500    -999.2500     120.6153     107.2122      23.5030       0.0806       3.1778       0.0007       2.7356       0.9672       1.9620
   2512.2383       6.9031       2.6530       0.0002      57.2576      19.3041    -999.2500    -999.2500     141.2339     113.3661      46.0003       0.0697       3.2402      -0.0013       2.7741       0.7926       2.0320
   2512.3906       6.9476       0.2895      -0.0007      54.7363      17.2161    -999.2500    -999.2500     153.4207     114.5816      60.8861       0.0621       3.3422      -0.0027       2.8022       0.7048       2.1049
   2512.5430       7.1497       2.0717       0.0013      53.3438      19.4617    -999.2500    -999.2500     124.8526      91.9277      38.9821       0.0686       3.6348      -0.0007       2.7802       1.0362       2.1919
   2512.6953       7.3030       3.7025       0.0062      51.8929      21.4512    -999.2500    -999.2500     104.8224      75.6678      29.0159       0.0720       3.8666       0.0010       2.7533       1.2539       2.2486
   2512.8479       7.2215       4.5963       0.0247      50.1617      22.2232    -999.2500    -999.2500     126.3128      90.1530      77.1042       0.0693       3.8061       0.0010       2.7028       0.9193       2.1586
   2513.0002       7.1455       5.3931       0.0353      49.8631      22.9435    -999.2500    -999.2500     140.6499      99.4312     154.5712       0.0679       3.6313       0.0011       2.5953       0.6138       2.0869
   2513.1526       7.0960       5.7204       0.0078      56.4956      23.4133    -999.2500    -999.2500     120.3807      83.5183     374.1669       0.0789       2.9036       0.0016       2.2116       0.4494       2.1039
   2513.3049       7.0452       5.7241      -0.0148      61.0271      23.2963    -999.2500    -999.2500     102.7665      69.8076     515.8793       0.1038       2.3608       0.0020       1.9051       0.2881       2.0898
   2513.4575       6.9882       4.1520      -0.0138      55.4475      20.3230    -999.2500    -999.2500      98.0758      66.6954     278.5047       0.1596       2.7087       0.0020       1.9696       0.1421       1.9242
   2513.6099       6.9487       2.9410      -0.0123      51.4172      17.9787    -999.2500    -999.2500      97.3129      67.3009     100.0642       0.1985       3.0253       0.0020       2.0758       0.0476       1.7883
   2513.7622       6.9937       3.4782      -0.0083      54.8885      18.5795    -999.2500    -999.2500     115.5685      85.9073     206.9870       0.1736       3.1903       0.0020       2.3844       0.2030       1.7958
   2513.9146       7.0496       3.9762      -0.0048      58.2484      19.1221    -999.2500    -999.2500     130.0795     100.7502     270.6848       0.1439       3.3199       0.0020       2.6505       0.3426       1.8012
   2514.0671       7.1576       4.2828      -0.0038      61.0716      19.3913    -999.2500    -999.2500     126.3481      97.4646     123.8025       0.1181       3.2789       0.0020       2.7115       0.4046       1.7967
   2514.2195       7.2384       4.2227      -0.0017      62.7859      19.1336    -999.2500    -999.2500     130.7207      99.1529      18.1795       0.0951       3.2499       0.0019       2.7659       0.4089       1.7738
   2514.3718       7.1884       2.3850       0.0058      59.1256      16.3513    -999.2500    -999.2500     174.3678     124.9464     112.5133       0.0777       3.2784       0.0014       2.7884       0.1338       1.6612
   2514.5242       7.1515       1.0563       0.0117      55.8231      14.2971    -999.2500    -999.2500     217.5636     149.1082     177.0023       0.0628       3.3170       0.0011       2.8029      -0.1088       1.5748
   2514.6765       7.1775       2.1819       0.0102      54.2463      15.7530    -999.2500    -999.2500     258.5833     165.4032      97.6021       0.0558       3.4040       0.0016       2.7789      -0.1947       1.6143
   2514.8291       7.1746       3.2518       0.0094      53.2945      17.1125    -999.2500    -999.2500     294.2963     178.3139      48.3200       0.0536       3.4963       0.0021       2.7599      -0.2241       1.6487
   2514.9814       7.0332       4.0521       0.0119      55.3742      18.0050    -999.2500    -999.2500     304.2675     174.8092     145.1307       0.0606       3.6143       0.0026       2.7654       0.0210       1.6587
   2515.1338       6.9177       4.6099       0.0137      56.8798      18.5512    -999.2500    -999.2500     316.9153     175.0396     348.5770       0.0680       3.6565       0.0028       2.7723       0.2418       1.6678
   2515.2861       6.9277       3.9977       0.0122      55.6143      17.4816    -999.2500    -999.2500     342.4792     193.2943    1066.5934       0.0680       3.3334       0.0018       2.7858       0.3458       1.6723
   2515.4387       6.9459       3.6240       0.0119      54.3598      16.7274    -999.2500    -999.2500     359.6407     205.9134    1525.1436       0.0676       3.0730       0.0011       2.7981       0.4323       1.6611
   2515.5911       7.0034       4.4082       0.0169      53.1578      17.4711    -999.2500    -999.2500     336.0085     191.4781     723.9949       0.0662       3.1135       0.0016       2.8046       0.4338       1.5741
   2515.7434       7.0653       5.2104       0.0209      52.5647      18.3246    -999.2500    -999.2500     318.6295     180.5321     226.5625       0.0643       3.1803       0.0021       2.8039       0.4462       1.5161
   2515.8958       7.1489       6.0990       0.0204      54.9120      19.7025    -999.2500    -999.2500     331.4525     186.4383    1196.0088       0.0609       3.3744       0.0026       2.7684       0.5117       1.5980
   2516.0483       7.1849       6.9054       0.0208      56.5320      21.2891    -999.2500    -999.2500     347.2429     195.2678    1833.0422       0.0591       3.5468       0.0029       2.7352       0.6087       1.7103
   2516.2007       6.9930       7.3121       0.0253      54.6568      23.8785    -999.2500    -999.2500     377.4525     218.1434     854.7911       0.0615       3.6153       0.0024       2.7132       0.8588       1.9699
   2516.3530       6.8374       7.6902       0.0305      52.9554      26.0961    -999.2500    -999.2500     415.6872     244.7827     211.7657       0.0650       3.6597       0.0020       2.6983       1.0490       2.1887
   2516.5054       6.8574       7.9306       0.0395      52.0940      26.5166    -999.2500    -999.2500     492.7149     289.6152    1189.2335       0.0698       3.5876       0.0020       2.7179       0.9501       2.2102
