#------------------------------------------------------------------------------
#
#   Created by  : [OpenWorks] Log Export Utility (LEXP)
#   Created on  : 2016-05-23 11:52:48
#   Project     : CANT971
#   User        : R5K
#   Interpreter : PEP
#
#------------------------------------------------------------------------------
~VERSION INFORMATION
VERS. 2.0 : CWLS Log ASCII Standard - version 2.0
WRAP.  NO : One line per depth step
~WELL INFORMATION
#MNEMONIC   .UNIT                                           VALUE :DESCRIPTION
#------------------------------------------------------------------------------
STRT        .M                                           688.5826 :START DEPTH
STOP        .M                                          3180.0178 :STOP DEPTH
STEP        .M                                             0.1524 :STEP
NULL        .                                           -999.2500 :NULL VALUE
COMP        .                                   PEMEX EXPL & PROD :COMPANY
WELL        .                                               2092D :WELL
FLD         .                                           CANTARELL :FIELD
LOC         .                                             UNKNOWN :LOCATION
CNTY        .                                      CD. DEL CARMEN :COUNTY
STAT        .                                            CAMPECHE :STATE
CTRY        .                                              MEXICO :COUNTRY
SRVC        .                                             UNKNOWN :SERVICE COMPANY
DATE        .                                             UNKNOWN :LOG DATE
UWI         .                                          3060000657 :UNIQUE WELL ID
XCOORD      .                                       601715.500000 :SURFACE X
YCOORD      .                                      2142373.650000 :SURFACE Y
LAT         .                                           19.374053 :LATITUDE
LON         .                                          -92.031447 :LONGITUDE
ELEV        .M                                            30.0000 :SURFACE ELEV
ELEV_TYPEF  .b/elec                                            KB :ELEV TYPE
~CURVE INFORMATION
#MNEMONIC.UNIT        API CODE       : CURVE DESCRIPTION
#------------------------------------------------------------------------------
DEPTH    .M                          : Measured Depth
CALI     .in          UNKNOWN        : CALI:UNKNOWN:rC:NONE:v0 (auto-composite)
CGR      .API         UNKNOWN        : CGR:UNKNOWN:rC:NONE:v0 (auto-composite)
DRHO     .g/cm3       UNKNOWN        : DRHO:UNKNOWN:rC:NONE:v0 (auto-composite)
DT       .us/ft       UNKNOWN        : DT:DT:rC:NONE:v0 (auto-composite)
GR       .API         UNKNOWN        : GR:UNKNOWN:rC:NONE:v0 (auto-composite)
ILD      .ohmm        UNKNOWN        : ILD:UNKNOWN:rC:NONE:v0 (auto-composite)
ILM      .ohmm        UNKNOWN        : ILM:UNKNOWN:rC:NONE:v0 (auto-composite)
LLD      .ohmm        UNKNOWN        : LLD:UNKNOWN:rC:NONE:v0 (auto-composite)
LLS      .ohmm        UNKNOWN        : LLS:UNKNOWN:rC:NONE:v0 (auto-composite)
MSFL     .ohmm        UNKNOWN        : MSFL:UNKNOWN:rC:NONE:v0 (auto-composite)
NPHI     .v/v_decimal UNKNOWN        : NPHI:PETROWORKS:rC:NONE:v1 
PEF      .b/elec      UNKNOWN        : PEF:UNKNOWN:rC:NONE:v0 (auto-composite)
POTA     .wtpercent   UNKNOWN        : POTA:UNKNOWN:rC:NONE:v0 (auto-composite)
RHOB     .g/cm3       UNKNOWN        : RHOB:UNKNOWN:rC:NONE:v0 (auto-composite)
SFLU     .ohmm       UNKNOWN        : SFLU:induccion:rC:NONE:v0 (auto-composite)
THOR     .ppm         UNKNOWN        : THOR:UNKNOWN:rC:NONE:v0 (auto-composite)
URAN     .ppm         UNKNOWN        : URAN:UNKNOWN:rC:NONE:v0 (auto-composite)
~A     DEPTH         CALI          CGR         DRHO           DT           GR          ILD          ILM          LLD          LLS         MSFL         NPHI          PEF         POTA         RHOB         SFLU         THOR         URAN
# ...
   2464.8047       9.2926       7.6963       0.0055      73.6415      17.5532    -999.2500    -999.2500     652.0179     266.8831     137.1292       0.1627       3.4848       0.0030       2.3412    -999.2500       0.9864       1.1361
   2464.9570       9.1956       6.1919       0.0175      80.1982      16.7006    -999.2500    -999.2500     748.9591     292.4001     251.0210       0.1321       3.4618       0.0021       2.3881    -999.2500       0.9189       1.0627
   2465.1094       9.1189       5.4465       0.0274      77.7686      15.7103    -999.2500    -999.2500     698.4029     268.8492     265.7069       0.0956       3.5006       0.0016       2.4879    -999.2500       0.9895       1.0983
   2465.2617       9.0507       5.0188       0.0364      71.5857      14.6624    -999.2500    -999.2500     586.0995     224.7570     238.8620       0.0582       3.5653       0.0013       2.6097    -999.2500       1.1178       1.1795
   2465.4141       9.0306       5.3115       0.0383      64.7870      14.8468    -999.2500    -999.2500     637.3500     236.1914     196.9053       0.0409       3.5365       0.0014       2.6730    -999.2500       1.1089       1.1019
   2465.5667       9.0301       5.8978       0.0373      57.9559      15.5335    -999.2500    -999.2500     755.2587     270.2564     148.7896       0.0349       3.4695       0.0016       2.7125    -999.2500       1.0440       0.9596
   2465.7190       9.0307       6.6344       0.0437      54.6921      17.0460    -999.2500    -999.2500    1073.8599     335.7043     157.5786       0.0369       3.4762       0.0021       2.7095    -999.2500       1.0091       1.0546
   2465.8713       9.0317       7.4331       0.0532      53.4182      18.8992    -999.2500    -999.2500    1475.2395     414.0964     189.8386       0.0432       3.5132       0.0026       2.6890    -999.2500       0.9866       1.2475
   2466.0237       9.0331       6.4439       0.0468      54.3293      18.1644    -999.2500    -999.2500    1650.3434     444.6829     270.5861       0.0498       3.5014       0.0023       2.6643    -999.2500       0.8436       1.3298
   2466.1763       9.0346       4.7141       0.0338      56.0956      16.3577    -999.2500    -999.2500    1731.7262     455.4687     371.4166       0.0558       3.4694       0.0016       2.6378    -999.2500       0.6507       1.3663
   2466.3286       9.0364       4.4845       0.0378      57.5103      15.6322    -999.2500    -999.2500    1575.0753     418.7296     377.0736       0.0571       3.4416       0.0016       2.6438    -999.2500       0.5795       1.2898
   2466.4810       9.0384       4.8788       0.0488      58.6872      15.3563    -999.2500    -999.2500    1319.4218     362.2240     343.1463       0.0551       3.4157       0.0019       2.6633    -999.2500       0.5590       1.1664
   2466.6333       9.0386       4.2030       0.0439      58.2615      14.7082    -999.2500    -999.2500    1426.0925     374.7520     299.5770       0.0590       3.3893       0.0018       2.6527    -999.2500       0.3890       1.1646
   2466.7859       9.0381       3.0803       0.0323      57.4143      13.9046    -999.2500    -999.2500    1684.0890     416.1120     251.9807       0.0646       3.3627       0.0016       2.6297    -999.2500       0.1566       1.2137
   2466.9382       9.0373       3.2471       0.0265      58.1561      12.4022    -999.2500    -999.2500    2692.3552     527.3468     282.3319       0.0642       3.3139       0.0016       2.6067    -999.2500       0.1159       1.0802
   2467.0906       9.0363       3.9423       0.0230      60.0004      10.6135    -999.2500    -999.2500    4008.0625     667.2144     344.6240       0.0598       3.2559       0.0018       2.5837    -999.2500       0.1539       0.8718
   2467.2429       9.0349       3.5438       0.0280      60.9562       8.7844    -999.2500    -999.2500    5196.3047     753.7975     526.4697       0.0521       3.2567       0.0015       2.5943    -999.2500       0.2518       0.6772
   2467.3953       9.0334       2.6951       0.0365      61.3837       6.9387    -999.2500    -999.2500    6332.0962     818.4547     757.5109       0.0436       3.2817       0.0010       2.6188    -999.2500       0.3742       0.4882
   2467.5479       9.0323       2.1933       0.0422      60.2404       6.2714    -999.2500    -999.2500    6726.5479     838.8911     739.3370       0.0393       3.2547       0.0007       2.6355    -999.2500       0.4489       0.4485
   2467.7002       9.0313       1.8347       0.0467      58.1652       6.0912    -999.2500    -999.2500    6814.6665     841.0550     618.1833       0.0378       3.2063       0.0004       2.6490    -999.2500       0.5038       0.4705
   2467.8525       9.0310       2.4923       0.0455      57.2203       6.1420    -999.2500    -999.2500    5604.5796     776.8484     745.7585       0.0385       3.2494       0.0003       2.6534    -999.2500       0.7621       0.4040
   2468.0049       9.0310       3.5749       0.0420      56.8179       6.2894    -999.2500    -999.2500    3851.6387     684.8887     977.3415       0.0403       3.3309       0.0001       2.6539    -999.2500       1.1055       0.3006
   2468.1575       9.0317       4.3572       0.0491      56.7538       6.8436    -999.2500    -999.2500    2664.1282     570.7110     780.2756       0.0422       3.3868       0.0002       2.6611    -999.2500       1.2939       0.2531
   2468.3098       9.0327       5.0135       0.0607      56.8211       7.5686    -999.2500    -999.2500    1714.0400     447.2041     403.2214       0.0444       3.4319       0.0005       2.6711    -999.2500       1.4172       0.2290
   2468.4622       9.0454       5.7556       0.0516      56.6336       9.1884    -999.2500    -999.2500    1246.9919     370.8422     329.5462       0.0480       3.5564       0.0009       2.6541    -999.2500       1.3842       0.3951
   2468.6145       9.0629       6.5328       0.0341      56.2892      11.1741    -999.2500    -999.2500     977.4139     313.7533     379.8945       0.0524       3.7133       0.0014       2.6261    -999.2500       1.2872       0.6390
   2468.7671       9.1077       5.6215       0.0028      57.9949      11.5265    -999.2500    -999.2500     822.3591     278.1426     346.4103       0.0597       3.6737       0.0011       2.4870    -999.2500       1.1535       0.7571
   2468.9194       9.1636       4.0169      -0.0342      61.2201      11.2084    -999.2500    -999.2500     714.3188     251.3491     278.5110       0.0682       3.5533       0.0006       2.3022    -999.2500       1.0047       0.8235
   2469.0718       9.1874       4.1290      -0.0528      68.8169      11.6376    -999.2500    -999.2500     662.2748     240.6821     220.3911       0.0767       3.4244       0.0004       2.2268    -999.2500       1.0920       0.8190
   2469.2241       9.1979       4.9541      -0.0638      79.4708      12.3773    -999.2500    -999.2500     633.4942     236.7149     166.3340       0.0850       3.2920       0.0003       2.1968    -999.2500       1.2774       0.7850
   2469.3765       9.2052       5.8795      -0.0490      82.1423      14.5568    -999.2500    -999.2500     667.6057     247.3432     148.0350       0.0693       3.3425       0.0007       2.2917    -999.2500       1.3989       0.9183
   2469.5291       9.2113       6.8467      -0.0234      80.6573      17.3370    -999.2500    -999.2500     727.9545     264.0605     144.6536       0.0439       3.4694       0.0013       2.4386    -999.2500       1.4936       1.1213
   2469.6814       9.2354       6.7659       0.0060      73.5199      18.0490    -999.2500    -999.2500     830.4218     263.2106     183.4221       0.0263       3.5426       0.0015       2.5848    -999.2500       1.3863       1.2290
   2469.8337       9.2669       6.2597       0.0370      62.6166      17.9211    -999.2500    -999.2500     949.9946     255.2261     239.3090       0.0136       3.5941       0.0016       2.7307    -999.2500       1.1969       1.2980
   2469.9861       9.3242       5.1769       0.0386      55.9149      17.3200    -999.2500    -999.2500     959.6151     233.8679     246.9876       0.0174       3.6427       0.0011       2.7549    -999.2500       1.1033       1.3595
