#------------------------------------------------------------------------------
#
#   Created by  : [OpenWorks] Log Export Utility (LEXP)
#   Created on  : 2016-05-23 11:55:56
#   Project     : CANT971
#   User        : R5K
#   Interpreter : PEP
#
#------------------------------------------------------------------------------
~VERSION INFORMATION
VERS. 2.0 : CWLS Log ASCII Standard - version 2.0
WRAP.  NO : One line per depth step
~WELL INFORMATION
#MNEMONIC   .UNIT                                           VALUE :DESCRIPTION
#------------------------------------------------------------------------------
STRT        .M                                          3767.4790 :START DEPTH
STOP        .M                                          5548.2729 :STOP DEPTH
STEP        .M                                             0.1524 :STEP
NULL        .                                           -999.2500 :NULL VALUE
COMP        .                                             UNKNOWN :COMPANY
WELL        .                                            418D-ST2 :WELL
FLD         .                                             UNKNOWN :FIELD
LOC         .                                             UNKNOWN :LOCATION
CNTY        .                                             UNKNOWN :COUNTY
STAT        .                                             UNKNOWN :STATE
CTRY        .                                             UNKNOWN :COUNTRY
SRVC        .                                             UNKNOWN :SERVICE COMPANY
DATE        .                                             UNKNOWN :LOG DATE
UWI         .                                            418D-ST2 :UNIQUE WELL ID
XCOORD      .                                       597130.010000 :SURFACE X
YCOORD      .                                      2144879.410000 :SURFACE Y
LAT         .                                           19.396924 :LATITUDE
LON         .                                          -92.074978 :LONGITUDE
ELEV        .M                                             0.0000 :SURFACE ELEV
ELEV_TYPE   .                                                  NA :ELEV TYPE
~CURVE INFORMATION
#MNEMONIC.UNIT        API CODE       : CURVE DESCRIPTION
#------------------------------------------------------------------------------
DEPTH    .M                          : Measured Depth
CALI     .inches      UNKNOWN        : CALI:PETROWORKS:rC:NONE:v1 
CGR      .API         UNKNOWN        : CGR:PETROWORKS:rC:NONE:v2 
DRHO     .g/cm3       UNKNOWN        : DRHO:PETROWORKS:rC:NONE:v1 
DT       .us/ft       UNKNOWN        : DT:PETROWORKS:rC:NONE:v2 
GR       .API         UNKNOWN        : GR:PETROWORKS:rC:NONE:v2 
ILD      .ohm.m       UNKNOWN        : ILD:PETROWORKS:rC:NONE:v2 
ILM      .ohm.m       UNKNOWN        : ILM:PETROWORKS:rC:NONE:v2 
NPHI     .v/v_decimal UNKNOWN        : NPHI:PETROWORKS:rC:NONE:v3 
PEF      .b/elec      UNKNOWN        : PEF:PETROWORKS:rC:NONE:v1 
POTA     .wtpercent   UNKNOWN        : POTA:PETROWORKS:rC:NONE:v2 
RHOB     .UNKNOWN     UNKNOWN        : RHOB:PETROWORKS:rC:NONE:v1 
THOR     .ppm         UNKNOWN        : THOR:PETROWORKS:rC:NONE:v2 
URAN     .ppm         UNKNOWN        : URAN:PETROWORKS:rC:NONE:v2 
~A     DEPTH         CALI          CGR         DRHO           DT           GR          ILD          ILM         NPHI          PEF         POTA         RHOB         THOR         URAN
# ...
   5249.4165       6.2278      12.8292       0.0330      45.8450      25.4646   20000.0000    1018.9451       0.0189       4.9263       0.0053       2.8232       1.3353       1.7214
   5249.5688       6.2590      12.5642       0.0272      45.8115      25.2228   20000.0000     898.6442       0.0194       5.0477       0.0052       2.8102       1.3192       1.7246
   5249.7212       6.2774      12.4687       0.0197      45.7097      24.9990   20000.0000     674.8192       0.0203       5.3452       0.0051       2.7914       1.3179       1.7071
   5249.8740       6.2658      12.3161       0.0159      45.7217      24.8024   20000.0000     537.0531       0.0210       5.6521       0.0051       2.7777       1.2813       1.7011
   5250.0264       6.2387      12.0761       0.0223      45.8090      24.7503   20000.0000     470.3800       0.0212       5.7208       0.0052       2.7872       1.1401       1.7267
   5250.1787       6.2238      11.8078       0.0302      45.8451      24.7325   20000.0000     453.5397       0.0212       5.5682       0.0053       2.8054       1.0217       1.7609
   5250.3311       6.2381      11.5857       0.0331      45.9670      24.5312   20000.0000     508.2843       0.0206       5.2099       0.0051       2.8215       1.0274       1.7637
   5250.4834       6.2579      11.1663       0.0318      46.0984      24.1894   20000.0000     587.4220       0.0197       4.9664       0.0048       2.8259       1.0966       1.7743
   5250.6357       6.2823      10.8246       0.0307      46.3209      24.0056   20000.0000     777.3288       0.0190       4.9538       0.0045       2.8219       1.1385       1.7958
   5250.7881       6.2859      10.6602       0.0354      46.4408      23.9379   20000.0000     944.5845       0.0192       5.0340       0.0043       2.8205       1.1778       1.8090
   5250.9404       6.2732      10.4096       0.0423      46.4700      23.8619   14341.1367     988.5806       0.0197       5.1171       0.0041       2.8224       1.2010       1.8327
   5251.0928       6.2391      10.1675       0.0449      46.5098      23.7217    9072.2510     883.8592       0.0205       5.1429       0.0039       2.8259       1.2064       1.8466
   5251.2456       6.2056       9.9563       0.0415      46.2844      23.5809    5408.7134     629.5130       0.0206       5.0884       0.0039       2.8273       1.1528       1.8562
   5251.3979       6.2084       9.6733       0.0318      45.9538      23.3467    3347.0154     465.0044       0.0202       4.8959       0.0040       2.8246       1.0258       1.8629
   5251.5503       6.2495       9.4507       0.0257      46.0925      23.0387    1991.7152     373.4865       0.0198       4.7286       0.0040       2.8225       0.9153       1.8512
   5251.7026       6.2825       9.7453       0.0291      46.4498      22.4879    1245.2034     329.9177       0.0191       4.6834       0.0042       2.8237       0.9489       1.7360
   5251.8550       6.2803      10.4324       0.0338      46.5304      22.0327    1156.9875     320.6929       0.0186       4.6971       0.0043       2.8255       1.1006       1.5805
   5252.0073       6.2602      11.2844       0.0315      46.2155      21.7443    1552.9956     317.8433       0.0184       4.7403       0.0044       2.8219       1.3453       1.4251
   5252.1597       6.2270      11.4879       0.0261      45.9822      21.3915    2249.5378     322.5003       0.0184       4.7708       0.0042       2.8163       1.4920       1.3493
   5252.3120       6.2209      10.5852       0.0211      45.9316      21.1089    6157.7729     369.2883       0.0184       4.7821       0.0039       2.8133       1.3738       1.4338
   5252.4648       6.2293       9.7600       0.0190      46.0660      20.9609   14444.8398     438.7653       0.0189       4.7949       0.0037       2.8125       1.2155       1.5260
   5252.6172       6.2716       9.5597       0.0183      46.5177      20.9243   19131.8672     666.4598       0.0205       4.8579       0.0037       2.8079       1.1487       1.5483
   5252.7695       6.3052       9.5325       0.0166      46.8196      20.9265   19987.0879     966.6481       0.0225       4.9619       0.0037       2.7991       1.1458       1.5523
   5252.9219       6.2773       9.2100       0.0188      46.7781      20.8775   20000.0000    1282.9047       0.0245       5.1232       0.0035       2.7957       1.1496       1.5896
   5253.0742       6.2326       8.8542       0.0263      46.6103      20.7948   20000.0000    1131.1350       0.0261       5.2318       0.0033       2.8025       1.1308       1.6268
   5253.2266       6.1990       9.1721       0.0379      46.3203      20.8058   20000.0000     676.3958       0.0250       5.1520       0.0035       2.8247       1.1096       1.5850
   5253.3789       6.1898       9.6895       0.0415      46.0797      20.9757   20000.0000     473.8018       0.0225       5.0046       0.0038       2.8389       1.1038       1.5376
   5253.5312       6.2046      10.2256       0.0287      45.6936      21.4539   20000.0000     559.9178       0.0199       4.8622       0.0041       2.8359       1.1131       1.5297
   5253.6836       6.2646      10.8483       0.0144      45.4399      22.0684   20000.0000     832.5490       0.0179       4.7931       0.0045       2.8218       1.1252       1.5286
   5253.8364       6.3037      11.4508       0.0095      45.5540      22.5927   20000.0000    2868.9668       0.0171       4.7961       0.0048       2.8107       1.1563       1.5180
   5253.9888       6.2773      12.3675       0.0122      45.7780      23.2784   20000.0000    7932.7549       0.0167       4.8081       0.0052       2.8105       1.2271       1.4865
   5254.1411       6.2249      12.8760       0.0159      45.9074      23.7611   20000.0000   16649.2793       0.0165       4.8285       0.0054       2.8131       1.3000       1.4830
   5254.2935       6.1914      12.5995       0.0187      45.8809      23.8350   20000.0000   19948.9824       0.0165       4.8835       0.0053       2.8147       1.2965       1.5307
   5254.4458       6.1982      12.2702       0.0192      45.7539      23.8419   20000.0000   20000.0000       0.0164       4.9411       0.0051       2.8143       1.2528       1.5765
   5254.5981       6.2254      11.8659       0.0204      45.7377      23.7421   20000.0000   20000.0000       0.0161       4.9843       0.0050       2.8134       1.2091       1.6180
   5254.7505       6.2657      11.3998       0.0232      45.9861      23.5433   20000.0000   20000.0000       0.0157       5.0113       0.0047       2.8148       1.1853       1.6544
   5254.9028       6.2916      11.1616       0.0258      46.0210      23.2566   20000.0000   20000.0000       0.0152       5.0185       0.0046       2.8198       1.1912       1.6478
   5255.0552       6.2920      11.1728       0.0257      45.8163      23.0606   20000.0000   20000.0000       0.0151       5.0111       0.0046       2.8226       1.1892       1.6196
   5255.2080       6.2490      11.2634       0.0232      45.4891      22.9934   20000.0000   20000.0000       0.0154       4.9628       0.0047       2.8195       1.1321       1.5981
   5255.3604       6.2091      11.3566       0.0206      45.3563      22.9763   20000.0000   20000.0000       0.0158       4.9120       0.0049       2.8163       1.0794       1.5830
   5255.5127       6.2055      11.3727       0.0212      45.3941      22.9873   20000.0000   20000.0000       0.0158       4.8953       0.0049       2.8180       1.0647       1.5824
   5255.6650       6.2206      11.2312       0.0229      45.4048      22.9797   20000.0000   20000.0000       0.0159       4.8949       0.0049       2.8203       1.0349       1.6007
   5255.8174       6.2538      11.2339       0.0224      45.3024      23.0736   20000.0000   20000.0000       0.0158       4.8423       0.0050       2.8213       0.9689       1.6130
   5255.9697       6.2798      11.3771       0.0196      45.1873      23.2497   20000.0000   20000.0000       0.0157       4.7573       0.0052       2.8212       0.9332       1.6175
