#------------------------------------------------------------------------------
#
#   Created by  : [OpenWorks] Log Export Utility (LEXP)
#   Created on  : 2016-05-12 17:01:14
#   Project     : CANT971
#   User        : R5K
#   Interpreter : PEP
#
#------------------------------------------------------------------------------
~VERSION INFORMATION
VERS. 2.0 : CWLS Log ASCII Standard - version 2.0
WRAP.  NO : One line per depth step
~WELL INFORMATION
#MNEMONIC   .UNIT                                           VALUE :DESCRIPTION
#------------------------------------------------------------------------------
STRT        .M                                          1708.0991 :START DEPTH
STOP        .M                                          2834.0303 :STOP DEPTH
STEP        .M                                             0.1524 :STEP
NULL        .                                           -999.2500 :NULL VALUE
COMP        .                                             UNKNOWN :COMPANY
WELL        .                                                3016 :WELL
FLD         .                                           CANTARELL :FIELD
LOC         .                                             UNKNOWN :LOCATION
CNTY        .                                             UNKNOWN :COUNTY
STAT        .                                            CAMPECHE :STATE
CTRY        .                                              MEXICO :COUNTRY
SRVC        .                                             UNKNOWN :SERVICE COMPANY
DATE        .                                             UNKNOWN :LOG DATE
UWI         .                                                3016 :UNIQUE WELL ID
XCOORD      .                                       192548.498000 :SURFACE X
YCOORD      .                                        92151.948000 :SURFACE Y
LAT         .                                            0.832805 :LATITUDE
LON         .                                          -95.762171 :LONGITUDE
ELEV        .M                                            46.0000 :SURFACE ELEV
ELEV_TYPE   .                                                  KB :ELEV TYPE
~CURVE INFORMATION
#MNEMONIC.UNIT        API CODE       : CURVE DESCRIPTION
#------------------------------------------------------------------------------
DEPTH    .M                          : Measured Depth
CALI     .inches      UNKNOWN        : CALI:litodensidad:rC:NONE:v0 (auto-composite)
CGR      .API         UNKNOWN        : CGR:Espectrometria:rC:NONE:v0 (auto-composite)
DRHO     .g/cm3       UNKNOWN        : DRHO:litodensidad:rC:NONE:v0 (auto-composite)
DT       .us/ft       UNKNOWN        : DT:DT-Load:rC:NONE:v0 (auto-composite)
GR       .API         UNKNOWN        : GR:PETROWORKS:rC:NONE:v1 
GR-LWD   .API         UNKNOWN        : GR-LWD:PETROWORKS:rC:NONE:v1 
ILD-LWD  .ohm.m       UNKNOWN        : ILD-LWD:PETROWORKS:rC:NONE:v1 
ILM-LWD  .ohm.m       UNKNOWN        : ILM-LWD:PETROWORKS:rC:NONE:v1 
LLD      .ohm.m       UNKNOWN        : LLD:Resistivos:rC:NONE:v0 (auto-composite)
LLS      .ohm.m       UNKNOWN        : LLS:Resistivos:rC:NONE:v0 (auto-composite)
MSFL     .ohm.m       UNKNOWN        : MSFL:Resistivos:rC:NONE:v0 (auto-composite)
NPHI     .v/v_decimal UNKNOWN        : NPHI:Porosidad:rC:NONE:v0 (auto-composite)
PEF      .UNKNOWN     UNKNOWN        : PEF:litodensidad:rC:NONE:v0 (auto-composite)
POTA     .wtpercent   UNKNOWN        : POTA:Espectrometria:rC:NONE:v0 (auto-composite)
RHOB     .g/cm3       UNKNOWN        : RHOB:litodensidad:rC:NONE:v0 (auto-composite)
SP       .mV          UNKNOWN        : SP:SP-Load:rC:NONE:v0 (auto-composite)
THOR     .ppm         UNKNOWN        : THOR:Espectrometria:rC:NONE:v0 (auto-composite)
URAN     .ppm         UNKNOWN        : URAN:Espectrometria:rC:NONE:v0 (auto-composite)
~A     DEPTH         CALI          CGR         DRHO           DT           GR       GR-LWD      ILD-LWD      ILM-LWD          LLD          LLS         MSFL         NPHI          PEF         POTA         RHOB           SP         THOR         URAN
# ...
   2532.8879       9.0834      13.2420       0.0098      51.7584      35.7510    -999.2500    -999.2500    -999.2500     266.6440     251.7830     239.8737       0.0838       3.7421       0.0061       2.6718    -106.4375       0.6815       2.5533
   2533.0403       9.0690      16.1475       0.0085      52.8089      37.3259    -999.2500    -999.2500    -999.2500     285.6835     271.5707     303.6691       0.0686       3.5377       0.0069       2.7010    -106.6875       1.1024       2.3920
   2533.1926       9.0690      15.6450       0.0023      51.0599      37.1807    -999.2500    -999.2500    -999.2500     292.0043     279.2895     404.7176       0.0572       3.3980       0.0069       2.6839    -106.8125       0.9904       2.4724
   2533.3452       8.8965      16.2506      -0.0018      52.8869      37.7364    -999.2500    -999.2500    -999.2500     274.9277     266.7181     207.6605       0.0627       3.2527       0.0072       2.6558    -106.7500       0.9908       2.4034
   2533.4976       8.8318      15.4570       0.0013      53.6285      37.3656    -999.2500    -999.2500    -999.2500     244.5978     241.3150     179.1338       0.0724       3.2583       0.0066       2.6322    -106.5000       1.0614       2.5111
   2533.6499       8.8749      14.8673       0.0007      55.0555      35.7472    -999.2500    -999.2500    -999.2500     228.9031     226.2156     191.6917       0.0746       3.2794       0.0062       2.6360    -106.4375       1.1541       2.4233
   2533.8022       8.9971      14.9322       0.0040      50.9685      36.4918    -999.2500    -999.2500    -999.2500     211.8444     210.5969     217.8696       0.0730       3.4173       0.0062       2.6780    -106.0000       1.1550       2.6007
   2533.9548       8.9756      14.3009       0.0062      52.9831      36.0613    -999.2500    -999.2500    -999.2500     219.4881     216.4773     254.4374       0.0654       3.7933       0.0060       2.7128    -106.3750       1.0516       2.6452
   2534.1072       8.9971      13.4771       0.0133      51.0302      35.1679    -999.2500    -999.2500    -999.2500     242.3459     234.5984     325.0007       0.0598       3.8275       0.0057       2.7468    -105.9375       0.9558       2.7217
   2534.2595       8.9037      12.1822       0.0062      52.1543      34.0030    -999.2500    -999.2500    -999.2500     258.9532     249.5356     312.4464       0.0591       3.7394       0.0051       2.7372    -105.8750       0.9058       2.8113
   2534.4119       8.8605      11.4756       0.0078      50.3057      33.1430    -999.2500    -999.2500    -999.2500     301.4450     290.7333     240.4722       0.0577       3.5032       0.0048       2.7444    -106.8125       0.8650       2.7822
   2534.5642       8.9396      11.0754       0.0085      50.9249      32.3168    -999.2500    -999.2500    -999.2500     355.9767     342.8737     286.4474       0.0543       3.4878       0.0046       2.7566    -106.8125       0.8527       2.7863
   2534.7168       8.9468       9.1012       0.0105      50.7991      30.3789    -999.2500    -999.2500    -999.2500     389.9017     375.6374    1393.6798       0.0528       3.4790       0.0040       2.7700    -107.0625       0.5760       2.7810
   2534.8691       8.9396       8.4919       0.0091      51.2652      30.5221    -999.2500    -999.2500    -999.2500     463.8839     440.6408    1149.8376       0.0489       3.6189       0.0038       2.7818    -106.8125       0.5163       2.9041
   2535.0215       8.8749       8.7025       0.0076      50.9858      31.7673    -999.2500    -999.2500    -999.2500     553.9463     528.9504    1304.1123       0.0425       3.4501       0.0037       2.7712    -107.1250       0.6175       3.1326
   2535.1738       8.7887       9.8563       0.0100      52.5117      33.5872    -999.2500    -999.2500    -999.2500     543.7076     519.0944     566.4518       0.0361       3.3426       0.0041       2.7697    -108.6250       0.7622       3.2730
   2535.3264       8.8534      10.1725       0.0155      52.5605      35.1974    -999.2500    -999.2500    -999.2500     439.1167     429.1836    1696.1909       0.0351       3.3257       0.0044       2.7654    -109.3750       0.6791       3.4506
   2535.4788       8.8534       9.6430       0.0148      52.8127      36.7234    -999.2500    -999.2500    -999.2500     347.9421     332.6226     469.8164       0.0359       3.3441       0.0042       2.7532    -110.2500       0.6039       3.7127
   2535.6311       8.8390      10.3616       0.0123      53.1764      37.0259    -999.2500    -999.2500    -999.2500     304.9733     294.9250     190.6805       0.0426       3.4617       0.0047       2.7463    -111.6250       0.5397       3.5824
   2535.7834       8.8749       9.4907       0.0125      54.3773      36.3422    -999.2500    -999.2500    -999.2500     263.5736     254.7403     220.6543       0.0540       3.2453       0.0042       2.7360    -111.2500       0.5985       3.6209
   2535.9360       8.8318       9.1783       0.0125      54.6758      34.2305    -999.2500    -999.2500    -999.2500     243.2744     236.7918     455.9269       0.0674       3.3380       0.0041       2.7432    -111.0625       0.5661       3.3720
   2536.0884       8.9037       9.1663       0.0085      56.2354      33.6386    -999.2500    -999.2500    -999.2500     237.2270     230.9323     243.1004       0.0712       3.2055       0.0041       2.7310    -109.7500       0.5325       3.3167
   2536.2407       8.8893       9.2515       0.0073      55.0770      33.4180    -999.2500    -999.2500    -999.2500     230.8852     225.2819     238.4889       0.0670       3.3001       0.0039       2.7296    -107.8750       0.6631       3.2432
   2536.3931       8.9109       9.5704       0.0088      53.8010      35.2001    -999.2500    -999.2500    -999.2500     221.4792     219.2969     213.6442       0.0644       3.3551       0.0042       2.7248    -106.8125       0.6188       3.4317
   2536.5454       8.9181      10.4494       0.0091      53.7543      35.0816    -999.2500    -999.2500    -999.2500     213.9989     213.5493     188.4437       0.0675       3.6061       0.0047       2.7214    -107.1250       0.6059       3.1986
   2536.6980       8.8246      10.3448       0.0068      52.8226      35.1970    -999.2500    -999.2500    -999.2500     181.3045     184.0525     379.2397       0.0733       3.6530       0.0044       2.7143    -106.8750       0.7582       3.1534
   2536.8503       8.9181       9.2210       0.0039      53.5838      34.3709    -999.2500    -999.2500    -999.2500     152.5977     155.6987     215.8771       0.0762       3.5576       0.0039       2.7103    -106.8125       0.6444       3.1065
   2537.0027       8.9324       9.5073       0.0046      54.6504      33.1754    -999.2500    -999.2500    -999.2500     120.4610     125.1470     167.5842       0.0742       3.5798       0.0040       2.7150    -106.8125       0.7000       2.8769
   2537.1550       8.9468      10.5231       0.0043      54.5784      32.2552    -999.2500    -999.2500    -999.2500      96.7732      98.8024     306.0799       0.0639       3.6557       0.0043       2.7160    -106.8125       0.8521       2.5963
   2537.3076       8.9684      10.3316       0.0084      58.5544      32.8269    -999.2500    -999.2500    -999.2500      79.1889      82.3546     475.2210       0.0566       3.4964       0.0041       2.6982    -106.7500       0.9238       2.7441
   2537.4600       8.8605      11.7763       0.0126      59.5174      34.7201    -999.2500    -999.2500    -999.2500      62.6311      65.3191      52.1416       0.0666       3.2472       0.0048       2.6709    -106.6250       0.9441       2.7827
   2537.6123       8.8246      11.3113       0.0151      60.7173      35.5102    -999.2500    -999.2500    -999.2500      51.9144      55.2091      31.9982       0.0931       3.1688       0.0045       2.6434    -106.7500       0.9917       2.9679
   2537.7646       8.8102      12.1895       0.0181      60.9451      34.1122    -999.2500    -999.2500    -999.2500      45.6942      48.5322      42.6569       0.1271       3.3565       0.0047       2.6377    -106.8750       1.1501       2.6284
