#------------------------------------------------------------------------------
#
#   Created by  : [OpenWorks] Log Export Utility (LEXP)
#   Created on  : 2016-05-23 11:55:55
#   Project     : CANT971
#   User        : R5K
#   Interpreter : PEP
#
#------------------------------------------------------------------------------
~VERSION INFORMATION
VERS. 2.0 : CWLS Log ASCII Standard - version 2.0
WRAP.  NO : One line per depth step
~WELL INFORMATION
#MNEMONIC   .UNIT                                           VALUE :DESCRIPTION
#------------------------------------------------------------------------------
STRT        .M                                          1803.5016 :START DEPTH
STOP        .M                                          3154.9849 :STOP DEPTH
STEP        .M                                             0.1524 :STEP
NULL        .                                           -999.2500 :NULL VALUE
COMP        .                                             UNKNOWN :COMPANY
WELL        .                                             418D-ST :WELL
FLD         .                                             UNKNOWN :FIELD
LOC         .                                             UNKNOWN :LOCATION
CNTY        .                                             UNKNOWN :COUNTY
STAT        .                                             UNKNOWN :STATE
CTRY        .                                             UNKNOWN :COUNTRY
SRVC        .                                             UNKNOWN :SERVICE COMPANY
DATE        .                                             UNKNOWN :LOG DATE
UWI         .                                             418D-ST :UNIQUE WELL ID
XCOORD      .                                       597130.010000 :SURFACE X
YCOORD      .                                      2144879.410000 :SURFACE Y
LAT         .                                           19.396924 :LATITUDE
LON         .                                          -92.074978 :LONGITUDE
ELEV        .M                                             0.0000 :SURFACE ELEV
ELEV_TYPE   .                                                  NA :ELEV TYPE
~CURVE INFORMATION
#MNEMONIC.UNIT        API CODE       : CURVE DESCRIPTION
#------------------------------------------------------------------------------
DEPTH    .M                          : Measured Depth
CALI     .inches      UNKNOWN        : CALI:PETROWORKS:rC:NONE:v1 
CGR      .API         UNKNOWN        : CGR:PETROWORKS:rC:NONE:v1 
DRHO     .g/cm3       UNKNOWN        : DRHO:PETROWORKS:rC:NONE:v1 
DT       .us/ft       UNKNOWN        : DT:PETROWORKS:rC:NONE:v1 
GR       .API         UNKNOWN        : GR:PETROWORKS:rC:NONE:v3 
ILD      .ohm.m       UNKNOWN        : ILD:registros:rC:NONE:v0 (auto-composite)
ILM      .ohm.m       UNKNOWN        : ILM:registros:rC:NONE:v0 (auto-composite)
LLD      .ohm.m       UNKNOWN        : LLD:PETROWORKS:rC:NONE:v2 
LLS      .ohm.m       UNKNOWN        : LLS:PETROWORKS:rC:NONE:v2 
MSFL     .ohm.m       UNKNOWN        : MSFL:PETROWORKS:rC:NONE:v1 
NPHI     .v/v_decimal UNKNOWN        : NPHI:PETROWORKS:rC:NONE:v1 
PEF      .b/elec      UNKNOWN        : PEF:PETROWORKS:rC:NONE:v1 
POTA     .wtpercent   UNKNOWN        : POTA:PETROWORKS:rC:NONE:v1 
RHOB     .g/cm3       UNKNOWN        : RHOB:PETROWORKS:rC:NONE:v1 
THOR     .ppm         UNKNOWN        : THOR:PETROWORKS:rC:NONE:v1 
URAN     .ppm         UNKNOWN        : URAN:PETROWORKS:rC:NONE:v1 
~A     DEPTH         CALI          CGR         DRHO           DT           GR          ILD          ILM          LLD          LLS         MSFL         NPHI          PEF         POTA         RHOB         THOR         URAN
# ...
   3004.5659      11.6484      21.2891       0.0311      63.7000      53.3750    -999.2500    -999.2500    8103.9873      77.7283     761.0000       0.1547       3.6895       0.0037       2.4640       4.6557      16.1653
   3004.7185      11.6484      21.2408       0.0311      63.8000      54.9375    -999.2500    -999.2500   10693.6797      77.2704     890.0000       0.1547       3.6895       0.0037       2.4640       4.6488      16.1720
   3004.8708      11.6484      21.1887       0.0311      63.6000      58.0625    -999.2500    -999.2500   13079.2051      74.9374     818.0000       0.1547       3.6895       0.0036       2.4640       4.6416      16.1793
   3005.0232      11.6484      21.1326       0.0311      63.7000      53.5938    -999.2500    -999.2500   10017.0859      74.3019     688.5000       0.1547       3.6895       0.0036       2.4640       4.6342      16.1871
   3005.1755      11.6484      21.0721       0.0311      63.7000      49.0313    -999.2500    -999.2500    7234.9814      72.5397     651.5000       0.1547       3.6895       0.0036       2.4640       4.6265      16.1955
   3005.3279      11.6484      21.0068       0.0311      63.8000      43.0625    -999.2500    -999.2500    6648.4678      71.9704     300.0000       0.1547       3.6895       0.0036       2.4640       4.6186      16.2046
   3005.4805      11.6484      20.9361       0.0311      63.9000      42.1250    -999.2500    -999.2500    6384.5811      72.2533     150.0000       0.1547       3.6895       0.0035       2.4640       4.6105      16.2145
   3005.6328      11.6484      20.8595       0.0311      63.5000      42.1250    -999.2500    -999.2500    6166.5283      72.5462     123.0000       0.1547       3.6895       0.0035       2.4640       4.6022      16.2251
   3005.7852      11.6484      20.7765       0.0311      63.9000      44.6250    -999.2500    -999.2500    5364.2480      73.5342     107.8750       0.1547       3.6895       0.0035       2.4640       4.5937      16.2367
   3005.9375      11.6484      20.6866       0.0311      63.8000      50.5625    -999.2500    -999.2500    4289.8516      73.1509     110.1875       0.1547       3.6895       0.0034       2.4640       4.5852      16.2491
   3006.0901      11.6484      20.5892       0.0311      63.8000      58.2500    -999.2500    -999.2500    4664.4717      74.9829     118.6875       0.1547       3.6895       0.0034       2.4640       4.5767      16.2626
   3006.2424      11.6484      20.4831       0.0311      63.7000      63.6875    -999.2500    -999.2500    4524.8486      72.2767     121.7500       0.1547       3.6895       0.0033       2.4640       4.5683      16.2772
   3006.3948      11.6484      20.3672       0.0311      63.7000      61.0313    -999.2500    -999.2500    4648.2549      70.6344     122.9375       0.1547       3.6895       0.0033       2.4640       4.5599      16.2929
   3006.5471      11.6484      20.2393       0.0311      63.5000      56.8125    -999.2500    -999.2500    4807.0137      70.3796     123.6875       0.1547       3.6895       0.0032       2.4640       4.5516      16.3099
   3006.6997      11.6484      20.0961       0.0311      63.7000      54.5000    -999.2500    -999.2500    4700.2969      70.5239     124.1875       0.1547       3.6895       0.0031       2.4640       4.5431      16.3281
   3006.8521      11.6484      19.9303       0.0311      63.9000      51.9688    -999.2500    -999.2500    4403.4619      70.4207     125.0000       0.1547       3.6895       0.0030       2.4640       4.5338      16.3472
   3007.0044      11.6484      19.7155       0.0311      63.7000      52.7188    -999.2500    -999.2500    4503.3350      71.2231     125.1875       0.1547       3.6895       0.0029       2.4640       4.5204      16.3657
   3007.1567      11.6484      -3.6781       0.0311      63.8000      53.4688    -999.2500    -999.2500    6600.8184      73.0971    -999.2500       0.1547       3.6895      -0.0006       2.4640      -0.8120       1.3319
   3007.3091      11.6484      -3.7729       0.0311      63.8000      59.8125    -999.2500    -999.2500    3602.3833      71.5181    -999.2500       0.1547       3.6895      -0.0007       2.4640      -0.8157       1.3451
   3007.4617      11.6484      -3.8376       0.0311      63.8000      66.1875    -999.2500    -999.2500    1706.1689      69.5681    -999.2500       0.1547       3.6895      -0.0007       2.4640      -0.8210       1.3541
   3007.6140      11.6484      -3.8806       0.0311      63.9000      73.7500    -999.2500    -999.2500    1093.2258      68.1573    -999.2500       0.1547       3.6895      -0.0007       2.4640      -0.8258       1.3601
   3007.7664      11.6484      -3.9069       0.0311      63.6000      76.8125    -999.2500    -999.2500     832.2310      67.3825    -999.2500       0.1547       3.6895      -0.0007       2.4640      -0.8293       1.3637
   3007.9187      11.6484      -3.9197       0.0311      63.6000      68.6875    -999.2500    -999.2500     653.1711      66.0673    -999.2500       0.1547       3.6895      -0.0007       2.4640      -0.8311       1.3655
   3008.0713      11.6484    -999.2500       0.0311      63.8000      59.8750    -999.2500    -999.2500     637.8822      66.1058    -999.2500       0.1547       3.6895    -999.2500       2.4640    -999.2500    -999.2500
   3008.2236      11.6484    -999.2500       0.0311      63.8000      50.2188    -999.2500    -999.2500     965.4698      69.1838    -999.2500       0.1547       3.6895    -999.2500       2.4640    -999.2500    -999.2500
   3008.3760      11.6484    -999.2500       0.0311      63.9000      44.5000    -999.2500    -999.2500    2329.2749      73.5970    -999.2500       0.1547       3.6895    -999.2500       2.4640    -999.2500    -999.2500
   3008.5283      11.6484    -999.2500       0.0311      63.8000      38.3125    -999.2500    -999.2500    3674.1631      76.3818    -999.2500       0.1547       3.6895    -999.2500       2.4640    -999.2500    -999.2500
   3008.6809      11.6484    -999.2500       0.0311      61.0000      41.1875    -999.2500    -999.2500    4562.3154      77.0151    -999.2500       0.1547       3.6895    -999.2500       2.4640    -999.2500    -999.2500
   3008.8333      11.6484    -999.2500       0.0311      61.0000      51.2500    -999.2500    -999.2500    5043.8906      76.5268    -999.2500       0.1547       3.6895    -999.2500       2.4640    -999.2500    -999.2500
   3008.9856      11.6484    -999.2500       0.0311      67.0000      61.2813    -999.2500    -999.2500    7526.6143      76.1551    -999.2500       0.1547       3.6895    -999.2500       2.4640    -999.2500    -999.2500
   3009.1379      11.6484    -999.2500       0.0311      66.9000      66.2500    -999.2500    -999.2500    8187.3623      75.0356    -999.2500       0.1547       3.6895    -999.2500       2.4640    -999.2500    -999.2500
   3009.2903      11.6484    -999.2500       0.0311      67.0000      63.8438    -999.2500    -999.2500    7039.3096      75.7598    -999.2500       0.1547       3.6895    -999.2500       2.4640    -999.2500    -999.2500
   3009.4429      11.6484    -999.2500       0.0311    -999.2500      58.6875    -999.2500    -999.2500    5612.2217      76.9077    -999.2500       0.1547       3.6895    -999.2500       2.4640    -999.2500    -999.2500
   3009.5952      11.6484    -999.2500       0.0311    -999.2500      47.9063    -999.2500    -999.2500    5557.4502      77.3114    -999.2500       0.1547       3.6895    -999.2500       2.4640    -999.2500    -999.2500
   3009.7476      11.6484    -999.2500       0.0311    -999.2500      39.8750    -999.2500    -999.2500    5919.6904      77.8174    -999.2500       0.1547       3.6895    -999.2500       2.4640    -999.2500    -999.2500
   3009.8999      11.6484    -999.2500       0.0311    -999.2500      37.7188    -999.2500    -999.2500    6606.6729      78.5851    -999.2500       0.1547       3.6895    -999.2500       2.4640    -999.2500    -999.2500
   3010.0525      11.6484    -999.2500       0.0311    -999.2500      39.9375    -999.2500    -999.2500    6458.0693      78.0044    -999.2500       0.1547       3.6895    -999.2500       2.4640    -999.2500    -999.2500
