#------------------------------------------------------------------------------
#
#   Created by  : [OpenWorks] Log Export Utility (LEXP)
#   Created on  : 2016-05-23 11:56:12
#   Project     : CANT971
#   User        : R5K
#   Interpreter : PEP
#
#------------------------------------------------------------------------------
~VERSION INFORMATION
VERS. 2.0 : CWLS Log ASCII Standard - version 2.0
WRAP.  NO : One line per depth step
~WELL INFORMATION
#MNEMONIC   .UNIT                                           VALUE :DESCRIPTION
#------------------------------------------------------------------------------
STRT        .M                                           365.7604 :START DEPTH
STOP        .M                                          2883.8655 :STOP DEPTH
STEP        .M                                             0.1524 :STEP
NULL        .                                           -999.2500 :NULL VALUE
COMP        .                                   PEMEX EXPL & PROD :COMPANY
WELL        .                                                  44 :WELL
FLD         .                                           CANTARELL :FIELD
LOC         .                                             UNKNOWN :LOCATION
CNTY        .                                      CD. DEL CARMEN :COUNTY
STAT        .                                            CAMPECHE :STATE
CTRY        .                                              MEXICO :COUNTRY
SRVC        .                                             UNKNOWN :SERVICE COMPANY
DATE        .                                             UNKNOWN :LOG DATE
UWI         .                                          3060000162 :UNIQUE WELL ID
XCOORD      .                                       599695.380000 :SURFACE X
YCOORD      .                                      2143038.730000 :SURFACE Y
LAT         .                                           19.380164 :LATITUDE
LON         .                                          -92.050646 :LONGITUDE
ELEV        .M                                            26.7400 :SURFACE ELEV
ELEV_TYPE   .                                                  KB :ELEV TYPE
~CURVE INFORMATION
#MNEMONIC.UNIT        API CODE       : CURVE DESCRIPTION
#------------------------------------------------------------------------------
DEPTH    .M                          : Measured Depth
CALI     .inches      UNKNOWN        : CALI:registros:rC:NONE:v0 (auto-composite)
CGR      .API         UNKNOWN        : CGR:registros:rC:NONE:v0 (auto-composite)
DRHO     .g/cm3       UNKNOWN        : DRHO:registros:rC:NONE:v0 (auto-composite)
DT       .UNKNOWN     UNKNOWN        : DT:registros:rC:NONE:v0 (auto-composite)
GR       .API         UNKNOWN        : GR:registros:rC:NONE:v0 (auto-composite)
ILD      .ohm.m       UNKNOWN        : ILD:registros:rC:NONE:v0 (auto-composite)
LLD      .ohm.m       UNKNOWN        : LLD:registros:rC:NONE:v0 (auto-composite)
LLS      .ohm.m       UNKNOWN        : LLS:registros:rC:NONE:v0 (auto-composite)
MSFL     .ohm.m       UNKNOWN        : MSFL:registros:rC:NONE:v0 (auto-composite)
NPHI     .UNKNOWN     UNKNOWN        : NPHI:registros:rC:NONE:v0 (auto-composite)
PEF      .b/elec      UNKNOWN        : PEF:registros:rC:NONE:v0 (auto-composite)
POTA     .wtpercent   UNKNOWN        : POTA:registros:rC:NONE:v0 (auto-composite)
RHOB     .g/cm3       UNKNOWN        : RHOB:registros:rC:NONE:v0 (auto-composite)
THOR     .ppm         UNKNOWN        : THOR:registros:rC:NONE:v0 (auto-composite)
URAN     .ppm         UNKNOWN        : URAN:registros:rC:NONE:v0 (auto-composite)
~A     DEPTH         CALI          CGR         DRHO           DT           GR          ILD          LLD          LLS         MSFL         NPHI          PEF         POTA         RHOB         THOR         URAN
# ...
   2398.4717       5.7840      17.2400       0.1110      66.2270      43.9380    -999.2500     543.6950     305.5650     144.5700       0.0703       2.8550       0.0064       2.8000       1.7240       3.3150
   2398.6240       5.8167      17.4276       0.1030      66.5472      45.7695    -999.2500     527.6036     297.1494     161.6838       0.0710       2.8681       0.0066       2.7930       1.7428       3.3406
   2398.7764       5.8490      17.6140       0.0950      66.8650      47.5870    -999.2500     511.6350     288.7980     178.6670       0.0725       2.8810       0.0067       2.7860       1.7614       3.3660
   2398.9287       5.8681      17.2459       0.0794      66.8570      48.5661    -999.2500     490.2047     278.1410     162.3503       0.0748       2.9081       0.0068       2.7759       1.7246       3.5039
   2399.0811       5.8870      16.8800       0.0640      66.8490      49.5410    -999.2500     468.8670     267.5300     146.1040       0.0767       2.9350       0.0069       2.7660       1.6880       3.6410
   2399.2336       5.8473      18.0073       0.0575      66.3863      47.6269    -999.2500     483.2703     276.3732     205.3022       0.0767       2.9566       0.0075       2.7610       1.8007       3.3326
   2399.3860       5.8080      19.1280       0.0510      65.9270      45.7270    -999.2500     497.5670     285.1510     264.0620       0.0758       2.9780       0.0081       2.7560       1.9128       3.0260
   2399.5383       5.7436      19.7989       0.0636      65.4029      42.7018    -999.2500     483.8219     279.7757     229.6161       0.0741       2.9870       0.0085       2.7595       1.9799       3.2237
   2399.6907       5.6800      20.4660       0.0760      64.8850      39.7130    -999.2500     470.2420     274.4650     195.5840       0.0724       2.9960       0.0089       2.7630       2.0466       3.4200
   2399.8433       5.7036      21.3179       0.0856      64.5074      38.2642    -999.2500     455.8242     268.2464     157.7627       0.0710       2.9900       0.0086       2.7665       2.1318       3.3553
   2399.9956       5.7270      22.1650       0.0950      64.1330      36.8280    -999.2500     441.5320     262.0820     120.2710       0.0703       2.9840       0.0082       2.7700       2.2165       3.2910
   2400.1479       5.7607      21.6265       0.0915      64.3591      37.2627    -999.2500     425.6510     256.1775     125.3417       0.0712       2.9709       0.0072       2.7715       2.1626       3.2920
   2400.3003       5.7940      21.0910       0.0880      64.5840      37.6950    -999.2500     409.8560     250.3050     130.3850       0.0736       2.9580       0.0062       2.7730       2.1091       3.2930
   2400.4529       5.8186      21.0930       0.0669      65.4408      40.2042    -999.2500     382.5427     231.3353     122.2520       0.0794       2.9359       0.0072       2.7650       2.1093       3.3306
   2400.6052       5.8430      21.0950       0.0460      66.2890      42.6880    -999.2500     355.5050     212.5570     114.2010       0.0841       2.9140       0.0083       2.7570       2.1095       3.3680
   2400.7576       5.7635      21.1787       0.0545      64.9905      42.1370    -999.2500     348.2684     213.0229      98.2283       0.0816       2.8939       0.0079       2.7610       2.1179       3.3073
   2400.9099       5.6850      21.2620       0.0630      63.7110      41.5940    -999.2500     341.1380     213.4820      82.4900       0.0782       2.8740       0.0074       2.7650       2.1262       3.2470
   2401.0623       5.7474      21.8214       0.0796      65.0682      42.8632    -999.2500     355.6918     223.8505     109.3826       0.0784       2.8800       0.0077       2.7720       2.1822       3.4828
   2401.2148       5.8090      22.3780       0.0960      66.4100      44.1180    -999.2500     370.0800     234.1010     135.9690       0.0805       2.8860       0.0079       2.7790       2.2378       3.7170
   2401.3672       5.7899      23.1555       0.0693      66.1309      45.3103    -999.2500     380.3305     241.5542     126.5689       0.0852       2.8126       0.0089       2.7574       2.3155       4.0024
   2401.5195       5.7710      23.9280       0.0430      65.8540      46.4930    -999.2500     390.4980     248.9470     117.2450       0.0908       2.7400       0.0098       2.7360       2.3928       4.2860
   2401.6719       5.7102      23.0738       0.0576      66.9560      49.1440    -999.2500     392.3053     250.3981     118.2091       0.0968       2.7526       0.0095       2.7229       2.3074       4.1646
   2401.8245       5.6500      22.2250       0.0720      68.0510      51.7780    -999.2500     394.1010     251.8400     119.1670       0.1042       2.7650       0.0091       2.7100       2.2225       4.0440
   2401.9768       5.7063      21.2650       0.0715      69.5435      55.0196    -999.2500     383.9779     245.4035     113.8947       0.1157       2.8148       0.0088       2.7045       2.1265       4.1985
   2402.1292       5.7620      20.3110       0.0710      71.0290      58.2460    -999.2500     373.9020     238.9970     108.6470       0.1255       2.8640       0.0085       2.6990       2.0311       4.3520
   2402.2815       5.8093      20.7759       0.0559      69.9458      57.4203    -999.2500     348.5739     226.4821     105.2850       0.1251       2.8977       0.0082       2.7055       2.0776       4.4775
   2402.4341       5.8560      21.2380       0.0410      68.8710      56.6010    -999.2500     323.4420     214.0640     101.9490       0.1202       2.9310       0.0078       2.7120       2.1238       4.6020
   2402.5864       5.7942      21.2189       0.0450      68.3195      55.5921    -999.2500     323.7225     210.2545      88.5061       0.1091       2.9149       0.0075       2.7160       2.1219       4.6672
   2402.7388       5.7330      21.2000       0.0490      67.7740      54.5940    -999.2500     324.0000     206.4860      75.2080       0.0974       2.8990       0.0071       2.7200       2.1200       4.7320
   2402.8911       5.7687      21.0104       0.0535      67.6745      54.8045    -999.2500     365.1329     230.3190      87.1622       0.0898       2.9483       0.0069       2.7059       2.1010       4.6507
   2403.0435       5.8040      20.8220       0.0580      67.5760      55.0130    -999.2500     405.8930     253.9360      99.0080       0.0845       2.9970       0.0066       2.6920       2.0822       4.5700
   2403.1960       5.8216      20.1756       0.0525      68.3237      54.9036    -999.2500     461.5616     286.6753     142.4973       0.0837       3.0322       0.0064       2.6855       2.0175       4.4907
   2403.3484       5.8390      19.5330       0.0470      69.0660      54.7950    -999.2500     516.8210     319.1740     185.6670       0.0846       3.0670       0.0063       2.6790       1.9533       4.4120
   2403.5007       5.8355      18.6646       0.0395      68.7859      54.4739    -999.2500     583.3553     354.7959     171.5525       0.0871       3.0831       0.0060       2.6775       1.8664       4.4255
   2403.6531       5.8320      17.8010       0.0320      68.5070      54.1540    -999.2500     649.6210     390.2740     157.4950       0.0902       3.0990       0.0058       2.6760       1.7801       4.4390
   2403.8057       5.8074      16.9020       0.0260      67.5922      53.9668    -999.2500     753.2200     438.6066     150.2582       0.0943       3.0789       0.0055       2.6750       1.6901       4.3156
   2403.9580       5.7830      16.0080       0.0200      66.6840      53.7810    -999.2500     856.0810     486.5950     143.0730       0.0964       3.0590       0.0052       2.6740       1.6008       4.1930
   2404.1104       5.7136      15.1530       0.0230      66.2545      51.8406    -999.2500     965.9823     537.3634     181.9416       0.0903       2.9515       0.0049       2.6755       1.5153       4.0731
   2404.2627       5.6450      14.3040       0.0260      65.8300      49.9230    -999.2500    1074.5940     587.5360     220.3540       0.0809       2.8450       0.0045       2.6770       1.4304       3.9540
