#------------------------------------------------------------------------------
#
#   Created by  : [OpenWorks] Log Export Utility (LEXP)
#   Created on  : 2016-05-23 11:57:09
#   Project     : CANT971
#   User        : R5K
#   Interpreter : PEP
#
#------------------------------------------------------------------------------
~VERSION INFORMATION
VERS. 2.0 : CWLS Log ASCII Standard - version 2.0
WRAP.  NO : One line per depth step
~WELL INFORMATION
#MNEMONIC   .UNIT                                           VALUE :DESCRIPTION
#------------------------------------------------------------------------------
STRT        .M                                           143.0270 :START DEPTH
STOP        .M                                          2096.0330 :STOP DEPTH
STEP        .M                                             0.1524 :STEP
NULL        .                                           -999.2500 :NULL VALUE
COMP        .                                   PEMEX EXPL & PROD :COMPANY
WELL        .                                                   7 :WELL
FLD         .                                           CANTARELL :FIELD
LOC         .                                             UNKNOWN :LOCATION
CNTY        .                                      CD. DEL CARMEN :COUNTY
STAT        .                                            CAMPECHE :STATE
CTRY        .                                              MEXICO :COUNTRY
SRVC        .                                             UNKNOWN :SERVICE COMPANY
DATE        .                                             UNKNOWN :LOG DATE
UWI         .                                            W-C-0007 :UNIQUE WELL ID
XCOORD      .                                       603360.340000 :SURFACE X
YCOORD      .                                      2145093.880000 :SURFACE Y
LAT         .                                           19.398550 :LATITUDE
LON         .                                          -92.015638 :LONGITUDE
ELEV        .M                                            27.1400 :SURFACE ELEV
ELEV_TYPE   .                                                  KB :ELEV TYPE
~CURVE INFORMATION
#MNEMONIC.UNIT        API CODE       : CURVE DESCRIPTION
#------------------------------------------------------------------------------
DEPTH    .M                          : Measured Depth
CAL      .inches      UNKNOWN        : CAL:UNKNOWN:rC:NONE:v0 (auto-composite)
DRHO     .g/cm3       UNKNOWN        : DRHO:UNKNOWN:rC:NONE:v0 (auto-composite)
DT       .us/ft       UNKNOWN        : DT:UNKNOWN:rC:NONE:v0 (auto-composite)
GR       .api         UNKNOWN        : GR:UNKNOWN:rC:NONE:v0 (auto-composite)
ILD      .ohmm        UNKNOWN        : ILD:UNKNOWN:rC:NONE:v0 (auto-composite)
NPHI     .v/v_decimal UNKNOWN        : NPHI:UNKNOWN:rC:NONE:v0 (auto-composite)
RHOB     .g/cm3       UNKNOWN        : RHOB:UNKNOWN:rC:NONE:v0 (auto-composite)
~A     DEPTH          CAL         DRHO           DT           GR          ILD         NPHI         RHOB
# ...
   1821.1034       8.2752       0.2500      55.8029       0.0000     103.5649      -0.1500       1.9500
   1821.2557       8.2859       0.2500      55.7519       0.0000     102.7417      -0.1500       1.9500
   1821.4082       8.3315       0.2500      55.4130       0.0000     103.1021      -0.1500       1.9500
   1821.5605       8.4465       0.2500      54.5017       0.0000     105.8150      -0.1500       1.9500
   1821.7130       8.5408       0.2500      54.1922       0.0000     109.5275      -0.1500       1.9500
   1821.8654       8.5801       0.2500      55.4785       0.0000     115.8917      -0.1500       1.9500
   1822.0178       8.6196       0.2500      56.1421       0.0000     122.5176      -0.1500       1.9500
   1822.1702       8.6599       0.2500      54.5141       0.0000     130.1069      -0.1500       1.9500
   1822.3226       8.6928       0.2500      53.0548       0.0000     138.1311      -0.1500       1.9500
   1822.4750       8.6850       0.2500      52.5262       0.0000     148.5527      -0.1500       1.9500
   1822.6274       8.6782       0.2500      52.1269       0.0000     158.0812      -0.1500       1.9500
   1822.7798       8.6801       0.2500      52.9829       0.0000     158.9395      -0.1500       1.9500
   1822.9323       8.6824       0.2500      53.8156       0.0000     159.2560      -0.1500       1.9500
   1823.0846       8.6940       0.2500      53.9558       0.0000     143.4207      -0.1500       1.9500
   1823.2369       8.7057       0.2500      54.0961       0.0000     127.5853      -0.1500       1.9500
   1823.3894       8.7537       0.2500      53.0357       0.0000     116.4970      -0.1500       1.9500
   1823.5417       8.8027       0.2500      51.9411       0.0000     105.5439      -0.1500       1.9500
   1823.6942       8.8088       0.2500      50.9235       0.0000     103.9495      -0.1500       1.9500
   1823.8466       8.8107       0.2500      49.9133       0.0000     103.2561      -0.1500       1.9500
   1823.9990       8.8205       0.2500      51.0576       0.0000     102.8786      -0.1500       1.9500
   1824.1514       8.8317       0.2500      52.5783       0.0000     102.5563      -0.1500       1.9500
   1824.3038       8.8279       0.2500      53.4194       0.0000     102.1276      -0.1500       1.9500
   1824.4562       8.8201       0.2500      54.0810       0.0000     101.6709      -0.1500       1.9500
   1824.6086       8.8056       0.2500      54.4279       0.0000     101.7659      -0.1500       1.9500
   1824.7610       8.7886       0.2500      54.6589       0.0000     102.0639      -0.1500       1.9500
   1824.9135       8.7843       0.2500      53.9929       0.0000     103.1030      -0.1500       1.9500
   1825.0658       8.7862       0.2500      52.8866       0.0000     104.5058      -0.1500       1.9500
   1825.2181       8.7882       0.2500      51.7507       0.0000     104.7940      -0.1500       1.9500
   1825.3706       8.7901       0.2500      50.5959       0.0000     104.3692      -0.1500       1.9500
   1825.5229       8.7867       0.2500      50.1243       0.0000     105.4664      -0.1500       1.9500
   1825.6754       8.7790       0.2500      50.2122       0.0000     107.8099      -0.1500       1.9500
   1825.8278       8.7805       0.2500      50.4637       0.0000     109.6767      -0.1500       1.9500
   1825.9802       8.7916       0.2500      50.8858       0.0000     111.0464      -0.1500       1.9500
   1826.1326       8.8069       0.2500      51.1033       0.0000     109.7167      -0.1500       1.9500
   1826.2850       8.8278       0.2500      51.0479       0.0000     104.7894      -0.1500       1.9500
   1826.4374       8.8451       0.2500      51.1686       0.0000     100.6239      -0.1500       1.9500
   1826.5898       8.8563       0.2500      51.5909       0.0000      97.7639      -0.1500       1.9500
   1826.7422       8.8703       0.2500      52.2049       0.0000      95.6245      -0.1500       1.9500
   1826.8947       8.8907       0.2500      53.2485       0.0000      95.1007      -0.1500       1.9500
   1827.0470       8.9133       0.2500      54.0311       0.0000      94.6427      -0.1500       1.9500
   1827.1993       8.9429       0.2500      54.0233       0.0000      94.3836      -0.1500       1.9500
   1827.3518       8.9480       0.2500      54.0335       0.0000      94.5226      -0.1500       1.9500
   1827.5042       8.8465       0.2500      54.1213       0.0000      96.3885      -0.1500       1.9500
   1827.6566       8.7594       0.2500      54.1362       0.0000      98.4764      -0.1500       1.9500
   1827.8090       8.7706       0.2500      53.6503       0.0000     102.0878      -0.1500       1.9500
   1827.9614       8.7818       0.2500      53.1644       0.0000     105.3156      -0.1500       1.9500
   1828.1138       8.7934       0.2500      52.6787       0.0000     103.2079      -0.1500       1.9500
   1828.2662       8.8050       0.2500      52.1960       0.0000     101.1130      -0.1500       1.9500
   1828.4186       8.7596       0.2500      52.1882       0.0000      96.8245      -0.1500       1.9500
   1828.5710       8.7144       0.2500      52.1804       0.0000      92.5622      -0.1500       1.9500
   1828.7234       8.6776       0.2500      52.8504       0.0000      89.7514      -0.1500       1.9500
   1828.8757       8.6412       0.2500      53.5591       0.0000      87.0234      -0.1500       1.9500
   1829.0282       8.6718       0.2500      52.4910       0.0000      83.5550      -0.1500       1.9500
   1829.1805       8.7111       0.2500      51.1940       0.0000      79.9911      -0.1500       1.9500
   1829.3330       8.7272       0.2500      51.9869       0.0000      77.9417      -0.1500       1.9500
   1829.4854       8.7384       0.2500      53.2208       0.0000      76.2119      -0.1500       1.9500
   1829.6378       8.7280       0.2500      54.8935       0.0000      75.6190      -0.1500       1.9500
   1829.7902       8.7110       0.2500      56.7011       0.0000      75.3758      -0.1500       1.9500
   1829.9426       8.6940       0.2500      58.2060       0.0000      75.8848      -0.1500       1.9500
   1830.0950       8.6770       0.2500      59.5841       0.0000      76.7090      -0.1500       1.9500
   1830.2474       8.6479       0.2500      59.3300       0.0000      77.4692      -0.1500       1.9500
   1830.3998       8.6120       0.2500      58.1757       0.0000      78.1941      -0.1500       1.9500
   1830.5522       8.6092       0.2500      56.9931       0.0000      77.3901      -0.1500       1.9500
   1830.7046       8.6301       0.2500      55.7902       0.0000      75.4951      -0.1500       1.9500
   1830.8569       8.6260       0.2500      55.4131       0.0000      73.0264      -0.1500       1.9500
   1831.0094       8.5993       0.2500      55.7879       0.0000      70.0353      -0.1500       1.9500
   1831.1617       8.5553       0.2500      55.7200       0.0000      67.2485      -0.1500       1.9500
   1831.3142       8.4912       0.2500      55.1395       0.0000      64.6981      -0.1500       1.9500
   1831.4666       8.4426       0.2500      54.3664       0.0000      63.4139      -0.1500       1.9500
   1831.6190       8.4169       0.2500      53.3081       0.0000      64.0039      -0.1500       1.9500
   1831.7714       8.4037       0.2500      52.4949       0.0000      66.1013      -0.1500       1.9500
   1831.9238       8.4143       0.2500      52.1527       0.0000      71.0961      -0.1500       1.9500
   1832.0762       8.4198       0.2500      51.7831       0.0000      76.0510      -0.1500       1.9500
   1832.2286       8.4120       0.2500      51.3438       0.0000      80.9041      -0.1500       1.9500
   1832.3810       8.4063       0.2500      51.0747       0.0000      85.0119      -0.1500       1.9500
   1832.5334       8.4078       0.2500      51.4022       0.0000      86.5073      -0.1500       1.9500
   1832.6858       8.4063       0.2500      51.7142       0.0000      87.3847      -0.1500       1.9500
