#------------------------------------------------------------------------------
#
#   Created by  : [OpenWorks] Log Export Utility (LEXP)
#   Created on  : 2016-05-23 11:51:18
#   Project     : CANT971
#   User        : R5K
#   Interpreter : PEP
#
#------------------------------------------------------------------------------
~VERSION INFORMATION
VERS. 2.0 : CWLS Log ASCII Standard - version 2.0
WRAP.  NO : One line per depth step
~WELL INFORMATION
#MNEMONIC   .UNIT                                           VALUE :DESCRIPTION
#------------------------------------------------------------------------------
STRT        .M                                           690.7880 :START DEPTH
STOP        .M                                          2950.1179 :STOP DEPTH
STEP        .M                                             0.1524 :STEP
NULL        .                                           -999.2500 :NULL VALUE
COMP        .                                   PEMEX EXPL & PROD :COMPANY
WELL        .                                                1066 :WELL
FLD         .                                           CANTARELL :FIELD
LOC         .                                             UNKNOWN :LOCATION
CNTY        .                                      CD. DEL CARMEN :COUNTY
STAT        .                                            CAMPECHE :STATE
CTRY        .                                              MEXICO :COUNTRY
SRVC        .                                             UNKNOWN :SERVICE COMPANY
DATE        .                                             UNKNOWN :LOG DATE
UWI         .                                          3060000505 :UNIQUE WELL ID
XCOORD      .                                       596157.670000 :SURFACE X
YCOORD      .                                      2150605.920000 :SURFACE Y
LAT         .                                           19.448718 :LATITUDE
LON         .                                          -92.083948 :LONGITUDE
ELEV        .M                                            30.0000 :SURFACE ELEV
ELEV_TYPE   .                                                  KB :ELEV TYPE
~CURVE INFORMATION
#MNEMONIC.UNIT        API CODE       : CURVE DESCRIPTION
#------------------------------------------------------------------------------
DEPTH    .M                          : Measured Depth
CALI     .inches      UNKNOWN        : CALI:litodensidad:rC:NONE:v0 (auto-composite)
DRHO     .g/cm3       UNKNOWN        : DRHO:litodensidad:rC:NONE:v0 (auto-composite)
DT       .us/ft       UNKNOWN        : DT:DT:rC:NONE:v0 (auto-composite)
GR       .API         UNKNOWN        : GR:UNKNOWN:rC:NONE:v0 (auto-composite)
ILD      .ohmm        UNKNOWN        : ILD:UNKNOWN:rC:NONE:v0 (auto-composite)
ILM      .ohmm        UNKNOWN        : ILM:UNKNOWN:rC:NONE:v0 (auto-composite)
LLD      .ohmm        UNKNOWN        : LLD:UNKNOWN:rC:NONE:v0 (auto-composite)
LLS      .ohmm        UNKNOWN        : LLS:UNKNOWN:rC:NONE:v0 (auto-composite)
MSFL     .ohmm        UNKNOWN        : MSFL:UNKNOWN:rC:NONE:v0 (auto-composite)
NPHI     .v/v_decimal UNKNOWN        : NPHI:PETROWORKS:rC:NONE:v2 
PEF      .b/elec      UNKNOWN        : PEF:litodensidad:rC:NONE:v0 (auto-composite)
RHOB     .g/cm3       UNKNOWN        : RHOB:litodensidad:rC:NONE:v0 (auto-composite)
~A     DEPTH         CALI         DRHO           DT           GR          ILD          ILM          LLD          LLS         MSFL         NPHI          PEF         RHOB
# ...
   2036.7848    -999.2500    -999.2500    -999.2500      33.7142       1.1264       1.0971       0.2000       0.2000       0.2000      -0.1500    -999.2500    -999.2500
   2036.9373    -999.2500    -999.2500    -999.2500      35.3762       1.0936       1.0734       0.2000       0.2000       0.2000      -0.1500    -999.2500    -999.2500
   2037.0896    -999.2500    -999.2500    -999.2500      36.9015       1.0561       1.0505       0.2000       0.2000       0.2000      -0.1500    -999.2500    -999.2500
   2037.2421    -999.2500    -999.2500    -999.2500      40.1239       1.0294       1.0250       0.2000       0.2000       0.2000      -0.1500    -999.2500    -999.2500
   2037.3944    -999.2500    -999.2500    -999.2500      44.1605       1.0079       0.9985       0.2000       0.2000       0.2000      -0.1500    -999.2500    -999.2500
   2037.5469    -999.2500    -999.2500    -999.2500      46.9538       0.9996       0.9849       0.2000       0.2000       0.2000      -0.1500    -999.2500    -999.2500
   2037.6992    -999.2500    -999.2500    -999.2500      49.1655       0.9976       0.9774       0.2000       0.2000       0.2000      -0.1500    -999.2500    -999.2500
   2037.8517    -999.2500    -999.2500    -999.2500      51.4627       0.9943       0.9801       0.2000       0.2000       0.2000      -0.1500    -999.2500    -999.2500
   2038.0040    -999.2500    -999.2500    -999.2500      53.8001       0.9903       0.9876       0.2000       0.2000       0.2000      -0.1500    -999.2500    -999.2500
   2038.1564    -999.2500    -999.2500    -999.2500      54.8565       0.9856       0.9883       0.2000       0.2000       0.2000      -0.1500    -999.2500    -999.2500
   2038.3088    -999.2500    -999.2500    -999.2500      55.3243       0.9806       0.9858       0.2000       0.2000       0.2000      -0.1500    -999.2500    -999.2500
   2038.4612    -999.2500    -999.2500    -999.2500      53.3858       0.9811       0.9826       0.2000       0.2000       0.2000      -0.1500    -999.2500    -999.2500
   2038.6136    -999.2500    -999.2500    -999.2500      50.3698       0.9841       0.9791       0.2000       0.2000       0.2000      -0.1500    -999.2500    -999.2500
   2038.7660    -999.2500    -999.2500    -999.2500      49.9727       0.9871       0.9804       0.2000       0.2000       0.2000      -0.1500    -999.2500    -999.2500
   2038.9185    -999.2500    -999.2500    -999.2500      50.7574       0.9901       0.9839       0.2000       0.2000       0.2000      -0.1500    -999.2500    -999.2500
   2039.0708    -999.2500    -999.2500    -999.2500      52.5686       0.9913       0.9874       0.2000       0.2000       0.2000      -0.1500    -999.2500    -999.2500
   2039.2233    -999.2500    -999.2500    -999.2500      54.8313       0.9918       0.9909       0.2000       0.2000       0.2000      -0.1500    -999.2500    -999.2500
   2039.3756    -999.2500    -999.2500    -999.2500      54.8655       0.9965       0.9948       0.2000       0.2000       0.2000      -0.1500    -999.2500    -999.2500
   2039.5281    -999.2500    -999.2500    -999.2500      53.9124       1.0030       0.9988       0.2000       0.2000       0.2000      -0.1500    -999.2500    -999.2500
   2039.6804    -999.2500    -999.2500    -999.2500      51.7117       1.0130       1.0059       0.2000       0.2000       0.2000      -0.1500    -999.2500    -999.2500
   2039.8329    -999.2500    -999.2500    -999.2500      48.9725       1.0245       1.0144       0.2000       0.2000       0.2000      -0.1500    -999.2500    -999.2500
   2039.9852    -999.2500    -999.2500    -999.2500      47.7909       1.0311       1.0247       0.2000       0.2000       0.2000      -0.1500    -999.2500    -999.2500
   2040.1376    -999.2500    -999.2500    -999.2500      47.2870       1.0357       1.0357       0.2000       0.2000       0.2000      -0.1500    -999.2500    -999.2500
   2040.2900    -999.2500    -999.2500    -999.2500      46.0940       1.0405       1.0390       0.2000       0.2000       0.2000      -0.1500    -999.2500    -999.2500
   2040.4424    -999.2500    -999.2500    -999.2500      44.6089       1.0455       1.0390       0.2000       0.2000       0.2000      -0.1500    -999.2500    -999.2500
   2040.5948    -999.2500    -999.2500    -999.2500      43.9044       1.0544       1.0482       0.2000       0.2000       0.2000      -0.1500    -999.2500    -999.2500
   2040.7472    -999.2500    -999.2500    -999.2500      43.5230       1.0649       1.0612       0.2000       0.2000       0.2000      -0.1500    -999.2500    -999.2500
   2040.8997    -999.2500    -999.2500    -999.2500      43.9347       1.0722       1.0721       0.2000       0.2000       0.2000      -0.1500    -999.2500    -999.2500
   2041.0520    -999.2500    -999.2500    -999.2500      44.6763       1.0783       1.0821       0.2000       0.2000       0.2000      -0.1500    -999.2500    -999.2500
   2041.2045    -999.2500    -999.2500    -999.2500      45.2872       1.0836       1.0868       0.2000       0.2000       0.2000      -0.1500    -999.2500    -999.2500
   2041.3568    -999.2500    -999.2500    -999.2500      45.8452       1.0886       1.0893       0.2000       0.2000       0.2000      -0.1500    -999.2500    -999.2500
   2041.5093    -999.2500    -999.2500    -999.2500      48.2701       1.0982       1.0953       0.2000       0.2000       0.2000      -0.1500    -999.2500    -999.2500
   2041.6616    -999.2500    -999.2500    -999.2500      51.4569       1.1097       1.1029       0.2000       0.2000       0.2000      -0.1500    -999.2500    -999.2500
   2041.8140    -999.2500    -999.2500    -999.2500      53.4731       1.1155       1.1100       0.2000       0.2000       0.2000      -0.1500    -999.2500    -999.2500
   2041.9664    -999.2500    -999.2500    -999.2500      55.0243       1.1190       1.1170       0.2000       0.2000       0.2000      -0.1500    -999.2500    -999.2500
   2042.1188    -999.2500    -999.2500    -999.2500      54.5348       1.1146       1.1165       0.2000       0.2000       0.2000      -0.1500    -999.2500    -999.2500
   2042.2712    -999.2500    -999.2500    -999.2500      53.2534       1.1071       1.1130       0.2000       0.2000       0.2000      -0.1500    -999.2500    -999.2500
   2042.4236    -999.2500    -999.2500    -999.2500      52.2016       1.0963       1.1023       0.2000       0.2000       0.2000      -0.1500    -999.2500    -999.2500
   2042.5760    -999.2500    -999.2500    -999.2500      51.2393       1.0843       1.0887       0.2000       0.2000       0.2000      -0.1500    -999.2500    -999.2500
   2042.7284    -999.2500    -999.2500    -999.2500      49.7454       1.0679       1.0734       0.2000       0.2000       0.2000      -0.1500    -999.2500    -999.2500
   2042.8809    -999.2500    -999.2500    -999.2500      48.0492       1.0499       1.0573       0.2000       0.2000       0.2000      -0.1500    -999.2500    -999.2500
   2043.0332    -999.2500    -999.2500    -999.2500      47.1123       1.0330       1.0384       0.2000       0.2000       0.2000      -0.1500    -999.2500    -999.2500
   2043.1857    -999.2500    -999.2500    -999.2500      46.4563       1.0165       1.0184       0.2000       0.2000       0.2000      -0.1500    -999.2500    -999.2500
   2043.3380    -999.2500    -999.2500    -999.2500      46.2462       1.0127       1.0079       0.2000       0.2000       0.2000      -0.1500    -999.2500    -999.2500
   2043.4905    -999.2500    -999.2500    -999.2500      46.2026       1.0137       1.0009       0.2000       0.2000       0.2000      -0.1500    -999.2500    -999.2500
   2043.6428    -999.2500    -999.2500    -999.2500      47.7690       1.0235       1.0184       0.2000       0.2000       0.2000      -0.1500    -999.2500    -999.2500
   2043.7952    -999.2500    -999.2500    -999.2500      49.9197       1.0365       1.0449       0.2000       0.2000       0.2000      -0.1500    -999.2500    -999.2500
   2043.9476    -999.2500    -999.2500    -999.2500      49.7032       1.0539       1.0715       0.2000       0.2000       0.2000      -0.1500    -999.2500    -999.2500
