#------------------------------------------------------------------------------
#
#   Created by  : [OpenWorks] Log Export Utility (LEXP)
#   Created on  : 2016-05-23 11:57:04
#   Project     : CANT971
#   User        : R5K
#   Interpreter : PEP
#
#------------------------------------------------------------------------------
~VERSION INFORMATION
VERS. 2.0 : CWLS Log ASCII Standard - version 2.0
WRAP.  NO : One line per depth step
~WELL INFORMATION
#MNEMONIC   .UNIT                                           VALUE :DESCRIPTION
#------------------------------------------------------------------------------
STRT        .M                                           125.9451 :START DEPTH
STOP        .M                                          3005.5432 :STOP DEPTH
STEP        .M                                             0.1524 :STEP
NULL        .                                           -999.2500 :NULL VALUE
COMP        .                                   PEMEX EXPL & PROD :COMPANY
WELL        .                                                 66A :WELL
FLD         .                                           CANTARELL :FIELD
LOC         .                                             UNKNOWN :LOCATION
CNTY        .                                      CD. DEL CARMEN :COUNTY
STAT        .                                            CAMPECHE :STATE
CTRY        .                                              MEXICO :COUNTRY
SRVC        .                                             UNKNOWN :SERVICE COMPANY
DATE        .                                             UNKNOWN :LOG DATE
UWI         .                                          3060000173 :UNIQUE WELL ID
XCOORD      .                                       599692.990000 :SURFACE X
YCOORD      .                                      2143036.380000 :SURFACE Y
LAT         .                                           19.380143 :LATITUDE
LON         .                                          -92.050669 :LONGITUDE
ELEV        .M                                            26.7400 :SURFACE ELEV
ELEV_TYPE   .                                                  KB :ELEV TYPE
~CURVE INFORMATION
#MNEMONIC.UNIT        API CODE       : CURVE DESCRIPTION
#------------------------------------------------------------------------------
DEPTH    .M                          : Measured Depth
CALI     .UNKNOWN     UNKNOWN        : CALI:UNKNOWN:rC:NONE:v0 (auto-composite)
DT       .us/ft       UNKNOWN        : DT:DT:rC:NONE:v0 (auto-composite)
GR       .API         UNKNOWN        : GR:UNKNOWN:rC:NONE:v0 (auto-composite)
GR-ENT   .API         UNKNOWN        : GR-ENT:porosidad-entubado:rC:NONE:v0 (auto-composite)
GR-LWD   .UNKNOWN     UNKNOWN        : GR-LWD:GR-LWD:rC:NONE:v0 (auto-composite)
ILD      .UNKNOWN     UNKNOWN        : ILD:UNKNOWN:rC:NONE:v0 (auto-composite)
LLD      .UNKNOWN     UNKNOWN        : LLD:UNKNOWN:rC:NONE:v0 (auto-composite)
LLD-LWD  .UNKNOWN     UNKNOWN        : LLD-LWD:LLD-LWD:rC:NONE:v0 (auto-composite)
LLS      .UNKNOWN     UNKNOWN        : LLS:UNKNOWN:rC:NONE:v0 (auto-composite)
LLS-LWD  .UNKNOWN     UNKNOWN        : LLS-LWD:LLS-LWD:rC:NONE:v0 (auto-composite)
MSFL     .UNKNOWN     UNKNOWN        : MSFL:UNKNOWN:rC:NONE:v0 (auto-composite)
MSFL-LWD .UNKNOWN     UNKNOWN        : MSFL-LWD:MSFL-LWD:rC:NONE:v0 (auto-composite)
NPHI     .v/v_decimal UNKNOWN        : NPHI:PETROWORKS:rC:NONE:v1 
NPHI-ENT .UNKNOWN     UNKNOWN        : NPHI-ENT:porosidad-entubado:rC:NONE:v0 (auto-composite)
RHOB     .g/cm3       UNKNOWN        : RHOB:UNKNOWN:rC:NONE:v0 (auto-composite)
~A     DEPTH         CALI           DT           GR       GR-ENT       GR-LWD          ILD          LLD      LLD-LWD          LLS      LLS-LWD         MSFL     MSFL-LWD         NPHI     NPHI-ENT         RHOB
# ...
   2360.7388       5.9229      50.4739      43.4304      26.6628      48.7197    -999.2500     124.8631      80.4574      76.9570      60.1575      65.7530      46.3432       0.0674       0.0681       2.7581
   2360.8911       5.9394      50.0491      41.7001      26.7039      45.0533    -999.2500     143.2124      88.0390      92.0308      71.6308      73.0894      56.7201       0.0630       0.0593       2.7531
   2361.0435       5.9502      50.0404      41.1316      27.7560      40.2378    -999.2500     157.1460      90.9550      99.5826      74.5435      68.1131      59.6762       0.0584       0.0513       2.7519
   2361.1958       5.9532      50.6216      42.1886      29.3829      34.8828    -999.2500     164.9007      92.8907      96.6089      74.1193      45.9077      59.2453       0.0537       0.0464       2.7426
   2361.3484       5.9550      51.6337      43.7409      31.1169      36.2768    -999.2500     155.4724      75.0979      86.9017      48.3024      31.1154      40.5259       0.0530       0.0445       2.7375
   2361.5007       5.9550      53.2548      45.9886      31.8573      43.3400    -999.2500     121.9143      62.7200      67.7388      39.2600      26.7333      35.8500       0.0565       0.0510       2.7331
   2361.6531       5.9550      54.4198      46.4606      31.6386      46.9134    -999.2500      94.8806      56.1767      53.1849      38.8657      27.6984      33.4544       0.0609       0.0586       2.7236
   2361.8054       5.9550      54.9421      44.4135      30.4051      45.0560    -999.2500      77.1028      52.4004      45.1694      40.0446      36.2492      34.8792       0.0658       0.0649       2.7172
   2361.9580       5.9550      55.0174      41.5644      28.7970      35.8964    -999.2500      74.6438      52.6992      45.8311      43.5643      51.7478      40.7714       0.0674       0.0681       2.7307
   2362.1104       5.9550      54.4607      37.5737      27.3005      31.5543    -999.2500      93.9939      52.1261      58.8464      46.8130      77.1378      44.3000       0.0653       0.0681       2.7387
   2362.2627       5.9621      53.9332      36.0484      26.4249      31.3473    -999.2500     136.8050      57.5451      84.6598      48.8192      86.5737      44.3000       0.0625       0.0669       2.7623
   2362.4150       5.9791      53.4469      38.0460      26.7861      31.6966    -999.2500     213.1366      53.1462     128.7585      43.7674      73.2146      38.6562       0.0592       0.0639       2.7661
   2362.5674       5.9913      53.4335      40.6616      27.6728      25.6953    -999.2500     236.1736      46.0352     141.9461      38.1609      59.1561      32.9445       0.0585       0.0622       2.7598
   2362.7200       5.9968      54.0893      44.1403      29.2846      28.4899    -999.2500     184.7845      40.5281     111.9661      36.8658      44.1206      31.7757       0.0612       0.0631       2.7210
   2362.8723       5.9965      55.0506      46.8230      31.6945      34.2673    -999.2500     139.6674      40.6528      86.0581      39.1961      32.2654      34.6465       0.0658       0.0651       2.7123
   2363.0247       5.9880      56.4430      48.3829      33.3079      36.1057    -999.2500     103.3985      40.1806      65.8948      38.7536      24.8965      34.4410       0.0727       0.0728       2.7077
   2363.1770       5.9726      57.1743      49.4704      33.9658      37.0962    -999.2500      78.5674      38.8215      51.9852      36.2815      19.1182      32.2230       0.0800       0.0788       2.6864
   2363.3296       5.9476      56.9697      49.8892      34.9088      34.3817    -999.2500      69.9297      38.0973      46.9294      34.6786      15.5918      31.8890       0.0877       0.0830       2.6733
   2363.4819       5.9330      56.9489      51.0614      35.4428      29.0522    -999.2500      63.8399      43.9774      42.8328      35.9250      13.5498      35.8938       0.0935       0.0947       2.6589
   2363.6343       5.9330      57.1873      53.3042      36.3384      22.7931    -999.2500      61.3705      47.4109      40.0992      36.0488      13.6173      35.7334       0.0971       0.1022       2.6537
   2363.7866       5.9363      57.1012      55.3834      37.4026      29.1544    -999.2500      56.2388      47.8806      36.5072      34.6057      17.2191      32.1986       0.1009       0.1050       2.6612
   2363.9392       5.9443      56.5555      57.2280      38.3807      37.1470    -999.2500      47.2860      39.8463      31.6834      28.2031      25.8942      23.7820       0.1054       0.1061       2.6840
   2364.0916       5.9573      56.4011      59.2963      39.7811      45.7739    -999.2500      45.0231      33.8997      31.0754      25.4762      35.8403      20.3913       0.1066       0.1042       2.6922
   2364.2439       5.9773      56.7995      61.6782      41.8664      38.8891    -999.2500      52.1455      31.4000      36.3821      26.0322      47.5698      20.7970       0.1043       0.1057       2.7211
   2364.3962       5.9913      57.2850      63.9583      43.2686      36.0418    -999.2500      79.9054      31.3229      57.1075      28.5874      57.8560      23.4135       0.1052       0.1151       2.7064
   2364.5486       5.9968      57.8943      66.0949      43.1760      35.0668    -999.2500     136.7214      30.9319      99.5412      33.6614      66.1105      29.6891       0.1111       0.1253       2.7019
   2364.7012       6.0000      59.0043      66.2247      42.1502      28.8600    -999.2500     208.3083      35.5000     153.2960      43.0800      86.0811      39.5900       0.1116       0.1214       2.6841
   2364.8535       6.0000      60.8220      63.5190      41.3485      28.1168    -999.2500     300.7659      38.7179     223.0470      45.6948     122.6061      43.1324       0.1058       0.0950       2.6856
   2365.0059       6.0000      60.7091      64.1177      42.0459      28.6112    -999.2500     337.1732      37.9315     247.2412      38.5857     127.5484      37.0771       0.0956       0.0739       2.6889
   2365.1582       6.0000      57.8586      69.4329      45.9949      25.5067    -999.2500     293.5756      36.7489     206.4084      34.7065      87.4103      31.3485       0.0805       0.0708       2.7020
   2365.3108       6.0000      56.2617      74.7683      51.1473      29.3358    -999.2500     228.3789      37.0694     156.6198      31.5772      73.0386      28.0770       0.0756       0.0769       2.7105
   2365.4631       6.0000      56.4373      80.1327      54.4929      34.6673    -999.2500     132.2419      35.4033      94.0022      27.7310      95.5771      24.6456       0.0856       0.0933       2.7150
   2365.6155       6.0000      57.9037      81.2759      55.8238      39.2060    -999.2500      78.8116      31.4000      60.1104      21.6831     159.4946      19.4375       0.0952       0.1049       2.7140
   2365.7678       6.0000      61.1892      76.5089      54.5587      39.6700    -999.2500      85.1759      31.4000      66.4382      20.1483     281.3474      18.7802       0.1038       0.1037       2.7059
   2365.9204       6.0000      62.7778      73.0195      52.7145      40.7390    -999.2500     126.6994      33.7672     100.9522      20.2743     342.8021      18.0881       0.1076       0.1000       2.7010
   2366.0728       6.0000      61.9660      71.3251      52.0498      43.2616    -999.2500     217.6253      35.7100     175.0709      21.8011     319.3909      18.2724       0.1035       0.1007       2.6995
   2366.2251       6.0000      60.9881      69.8063      52.0675      43.7865    -999.2500     330.7224      35.7100     259.2932      25.5887     269.8654      20.3681       0.1040       0.1050       2.6841
   2366.3774       6.0000      59.7762      68.5369      51.9544      50.3166    -999.2500     475.2905      27.0478     357.8571      18.7561     183.2718      14.8009       0.1093       0.1149       2.6767
   2366.5298       6.0000      59.6726      67.4190      50.7978      52.9912    -999.2500     522.1420      21.1771     388.1052      15.7639     125.4883      12.9483       0.1162       0.1228       2.6732
