#------------------------------------------------------------------------------
#
#   Created by  : [OpenWorks] Log Export Utility (LEXP)
#   Created on  : 2016-05-23 11:51:27
#   Project     : CANT971
#   User        : R5K
#   Interpreter : PEP
#
#------------------------------------------------------------------------------
~VERSION INFORMATION
VERS. 2.0 : CWLS Log ASCII Standard - version 2.0
WRAP.  NO : One line per depth step
~WELL INFORMATION
#MNEMONIC   .UNIT                                           VALUE :DESCRIPTION
#------------------------------------------------------------------------------
STRT        .M                                           294.1315 :START DEPTH
STOP        .M                                          1758.8479 :STOP DEPTH
STEP        .M                                             0.1524 :STEP
NULL        .                                           -999.2500 :NULL VALUE
COMP        .                                   PEMEX EXPL & PROD :COMPANY
WELL        .                                                1084 :WELL
FLD         .                                           CANTARELL :FIELD
LOC         .                                             UNKNOWN :LOCATION
CNTY        .                                      CD. DEL CARMEN :COUNTY
STAT        .                                            CAMPECHE :STATE
CTRY        .                                              MEXICO :COUNTRY
SRVC        .                                             UNKNOWN :SERVICE COMPANY
DATE        .                                             UNKNOWN :LOG DATE
UWI         .                                          3060000213 :UNIQUE WELL ID
XCOORD      .                                       596992.320000 :SURFACE X
YCOORD      .                                      2148289.820000 :SURFACE Y
LAT         .                                           19.427749 :LATITUDE
LON         .                                          -92.076116 :LONGITUDE
ELEV        .M                                            27.5000 :SURFACE ELEV
ELEV_TYPE   .                                                  KB :ELEV TYPE
~CURVE INFORMATION
#MNEMONIC.UNIT        API CODE       : CURVE DESCRIPTION
#------------------------------------------------------------------------------
DEPTH    .M                          : Measured Depth
CALI     .in          UNKNOWN        : CALI:registros:rC:NONE:v0 (auto-composite)
DRHO     .g/cm3       UNKNOWN        : DRHO:registros:rC:NONE:v0 (auto-composite)
DT       .us/ft       UNKNOWN        : DT:registros:rC:NONE:v0 (auto-composite)
GR       .api         UNKNOWN        : GR:registros:rC:NONE:v0 (auto-composite)
ILD      .ohmm        UNKNOWN        : ILD:registros:rC:NONE:v0 (auto-composite)
NPHI     .v/v_decimal UNKNOWN        : NPHI:registros:rC:NONE:v0 (auto-composite)
RHOB     .g/cm3       UNKNOWN        : RHOB:registros:rC:NONE:v0 (auto-composite)
~A     DEPTH         CALI         DRHO           DT           GR          ILD         NPHI         RHOB
# ...
   1291.5895      17.0835       0.3000     112.1746      77.0226       2.5915    -999.2500       2.4425
   1291.7419      17.1270       0.2900     112.2790      76.8250       2.5540    -999.2500       2.4300
   1291.8943      17.2869       0.2900     112.7346      76.1622       2.5280    -999.2500       2.4300
   1292.0468      17.4470       0.2900     113.1890      75.4990       2.5020    -999.2500       2.4300
   1292.1991      17.6229       0.2915     113.9239      75.1621       2.4845    -999.2500       2.4300
   1292.3514      17.7990       0.2930     114.6570      74.8250       2.4670    -999.2500       2.4300
   1292.5039      18.0944       0.2965     115.7697      74.5521       2.4330    -999.2500       2.4300
   1292.6562      18.3900       0.3000     116.8790      74.2790       2.3990    -999.2500       2.4300
   1292.8087      18.3415       0.3000     118.1719      73.4260       2.3410    -999.2500       2.4325
   1292.9611      18.2930       0.3000     119.4600      72.5720       2.2830    -999.2500       2.4350
   1293.1135      18.1146       0.3050     121.1781      71.9014       2.2335    -999.2500       2.4475
   1293.2659      17.9360       0.3100     122.8900      71.2300       2.1840    -999.2500       2.4600
   1293.4183      17.7945       0.3085     122.8770      71.2665       2.1335    -999.2500       2.4550
   1293.5707      17.6530       0.3070     122.8640      71.3030       2.0830    -999.2500       2.4500
   1293.7231      17.3565       0.3020     122.5410      71.6642       2.0360    -999.2500       2.4250
   1293.8755      17.0600       0.2970     122.2190      72.0260       1.9890    -999.2500       2.4000
   1294.0280      17.0990       0.2895     119.2046      73.0612       1.9445    -999.2500       2.4015
   1294.1803      17.1380       0.2820     116.2000      74.0980       1.9000    -999.2500       2.4030
   1294.3326      17.3555       0.2660     119.2547      75.2450       1.9040    -999.2500       2.4065
   1294.4851      17.5730       0.2500     122.3000      76.3940       1.9080    -999.2500       2.4100
   1294.6375      17.8865       0.2515     122.0767      79.7939       1.9240    -999.2500       2.4050
   1294.7899      18.2000       0.2530     121.8540      83.2000       1.9400    -999.2500       2.4000
   1294.9423      18.2715       0.2565     119.3184      83.1975       1.9385    -999.2500       2.4025
   1295.0947      18.3430       0.2600     116.7900      83.1950       1.9370    -999.2500       2.4050
   1295.2471      18.3970       0.2615     116.8821      82.8723       1.9280    -999.2500       2.4140
   1295.3995      18.4510       0.2630     116.9740      82.5490       1.9190    -999.2500       2.4230
   1295.5519      18.4905       0.2680     118.3588      81.5181       1.8975    -999.2500       2.4365
   1295.7043      18.5300       0.2730     119.7400      80.4850       1.8760    -999.2500       2.4500
   1295.8567      18.4600       0.2765     119.5703      80.0104       1.8555    -999.2500       2.4475
   1296.0092      18.3900       0.2800     119.4010      79.5350       1.8350    -999.2500       2.4450
   1296.1615      18.4300       0.2700     118.6346      79.4126       1.8175    -999.2500       2.4325
   1296.3138      18.4700       0.2600     117.8700      79.2900       1.8000    -999.2500       2.4200
   1296.4663      18.4385       0.2600     118.5110      79.3650       1.8025    -999.2500       2.4200
   1296.6187      18.4070       0.2600     119.1500      79.4400       1.8050    -999.2500       2.4200
   1296.7711      18.2436       0.2600     118.6090      80.2825       1.8180    -999.2500       2.4200
   1296.9235      18.0800       0.2600     118.0700      81.1260       1.8310    -999.2500       2.4200
   1297.0759      18.1260       0.2600     118.3665      84.0012       1.8535    -999.2500       2.4300
   1297.2283      18.1720       0.2600     118.6620      86.8800       1.8760    -999.2500       2.4400
   1297.3807      18.3709       0.2615     120.0634      86.7591       1.9080    -999.2500       2.4350
   1297.5331      18.5700       0.2630     121.4600      86.6380       1.9400    -999.2500       2.4300
   1297.6855      18.4600       0.2690     121.1455      86.2298       1.9375    -999.2500       2.4300
   1297.8379      18.3500       0.2750     120.8320      85.8210       1.9350    -999.2500       2.4300
   1297.9904      18.3635       0.2825     118.4171      85.4408       1.9205    -999.2500       2.4285
   1298.1427      18.3770       0.2900     116.0100      85.0600       1.9060    -999.2500       2.4270
   1298.2950      18.4935       0.2800     116.2268      85.9293       1.8840    -999.2500       2.4185
   1298.4475      18.6100       0.2700     116.4430      86.8000       1.8620    -999.2500       2.4100
   1298.5999      18.6075       0.2700     119.1305      86.7985       1.8470    -999.2500       2.4115
   1298.7523      18.6050       0.2700     121.8100      86.7970       1.8320    -999.2500       2.4130
   1298.9047      18.5775       0.2685     121.7584      86.6017       1.8195    -999.2500       2.4165
   1299.0571      18.5500       0.2670     121.7070      86.4060       1.8070    -999.2500       2.4200
   1299.2095      18.5500       0.2585     121.2629      85.7727       1.7980    -999.2500       2.4200
   1299.3619      18.5500       0.2500     120.8200      85.1380       1.7890    -999.2500       2.4200
   1299.5143      18.5600       0.2525     121.4608      84.4593       1.7680    -999.2500       2.4215
   1299.6667      18.5700       0.2550     122.1000      83.7790       1.7470    -999.2500       2.4230
   1299.8191      18.5675       0.2640     121.9058      80.5420       1.7230    -999.2500       2.4265
   1299.9716      18.5650       0.2730     121.7120      77.3000       1.6990    -999.2500       2.4300
   1300.1239      18.5175       0.2815     120.9681      77.3345       1.6765    -999.2500       2.4285
   1300.2762      18.4700       0.2900     120.2260      77.3690       1.6540    -999.2500       2.4270
   1300.4287      18.4700       0.2885     119.0963      77.5444       1.6240    -999.2500       2.4195
   1300.5811      18.4700       0.2870     117.9700      77.7200       1.5940    -999.2500       2.4120
   1300.7335      18.4395       0.2785     118.2079      78.0023       1.5645    -999.2500       2.3860
   1300.8859      18.4090       0.2700     118.4450      78.2850       1.5350    -999.2500       2.3600
   1301.0383      18.2295       0.2700     119.7107      78.8032       1.4975    -999.2500       2.3625
   1301.1907      18.0500       0.2700     120.9720      79.3220       1.4600    -999.2500       2.3650
   1301.3431      18.0500       0.2700     124.8376      80.2938       1.4600    -999.2500       2.3765
   1301.4955      18.0500       0.2700     128.6900      81.2670       1.4600    -999.2500       2.3880
   1301.6479      18.0500       0.2700     128.5838      82.7524       1.4615    -999.2500       2.4005
   1301.8003      18.0500       0.2700     128.4780      84.2400       1.4630    -999.2500       2.4130
   1301.9528      18.0445       0.2730     127.7003      84.0751       1.4690    -999.2500       2.4180
   1302.1051      18.0390       0.2760     126.9250      83.9100       1.4750    -999.2500       2.4230
   1302.2574      17.9295       0.2930     124.6090      82.1466       1.4840    -999.2500       2.4315
   1302.4099      17.8200       0.3100     122.3000      80.3800       1.4930    -999.2500       2.4400
   1302.5623      17.8380       0.3085     122.5429      80.4170       1.5005    -999.2500       2.4350
   1302.7147      17.8560       0.3070     122.7850      80.4540       1.5080    -999.2500       2.4300
   1302.8671      17.9535       0.2985     123.5285      80.7062       1.5230    -999.2500       2.4350
   1303.0195      18.0510       0.2900     124.2700      80.9590       1.5380    -999.2500       2.4400
   1303.1719      18.3054       0.2900     124.1619      81.9584       1.5545    -999.2500       2.4375
