#------------------------------------------------------------------------------
#
#   Created by  : [OpenWorks] Log Export Utility (LEXP)
#   Created on  : 2016-05-23 11:57:04
#   Project     : CANT971
#   User        : R5K
#   Interpreter : PEP
#
#------------------------------------------------------------------------------
~VERSION INFORMATION
VERS. 2.0 : CWLS Log ASCII Standard - version 2.0
WRAP.  NO : One line per depth step
~WELL INFORMATION
#MNEMONIC   .UNIT                                           VALUE :DESCRIPTION
#------------------------------------------------------------------------------
STRT        .M                                           125.9451 :START DEPTH
STOP        .M                                          3005.5432 :STOP DEPTH
STEP        .M                                             0.1524 :STEP
NULL        .                                           -999.2500 :NULL VALUE
COMP        .                                   PEMEX EXPL & PROD :COMPANY
WELL        .                                                 66A :WELL
FLD         .                                           CANTARELL :FIELD
LOC         .                                             UNKNOWN :LOCATION
CNTY        .                                      CD. DEL CARMEN :COUNTY
STAT        .                                            CAMPECHE :STATE
CTRY        .                                              MEXICO :COUNTRY
SRVC        .                                             UNKNOWN :SERVICE COMPANY
DATE        .                                             UNKNOWN :LOG DATE
UWI         .                                          3060000173 :UNIQUE WELL ID
XCOORD      .                                       599692.990000 :SURFACE X
YCOORD      .                                      2143036.380000 :SURFACE Y
LAT         .                                           19.380143 :LATITUDE
LON         .                                          -92.050669 :LONGITUDE
ELEV        .M                                            26.7400 :SURFACE ELEV
ELEV_TYPE   .                                                  KB :ELEV TYPE
~CURVE INFORMATION
#MNEMONIC.UNIT        API CODE       : CURVE DESCRIPTION
#------------------------------------------------------------------------------
DEPTH    .M                          : Measured Depth
CALI     .UNKNOWN     UNKNOWN        : CALI:UNKNOWN:rC:NONE:v0 (auto-composite)
DT       .us/ft       UNKNOWN        : DT:DT:rC:NONE:v0 (auto-composite)
GR       .API         UNKNOWN        : GR:UNKNOWN:rC:NONE:v0 (auto-composite)
GR-ENT   .API         UNKNOWN        : GR-ENT:porosidad-entubado:rC:NONE:v0 (auto-composite)
GR-LWD   .UNKNOWN     UNKNOWN        : GR-LWD:GR-LWD:rC:NONE:v0 (auto-composite)
ILD      .UNKNOWN     UNKNOWN        : ILD:UNKNOWN:rC:NONE:v0 (auto-composite)
LLD      .UNKNOWN     UNKNOWN        : LLD:UNKNOWN:rC:NONE:v0 (auto-composite)
LLD-LWD  .UNKNOWN     UNKNOWN        : LLD-LWD:LLD-LWD:rC:NONE:v0 (auto-composite)
LLS      .UNKNOWN     UNKNOWN        : LLS:UNKNOWN:rC:NONE:v0 (auto-composite)
LLS-LWD  .UNKNOWN     UNKNOWN        : LLS-LWD:LLS-LWD:rC:NONE:v0 (auto-composite)
MSFL     .UNKNOWN     UNKNOWN        : MSFL:UNKNOWN:rC:NONE:v0 (auto-composite)
MSFL-LWD .UNKNOWN     UNKNOWN        : MSFL-LWD:MSFL-LWD:rC:NONE:v0 (auto-composite)
NPHI     .v/v_decimal UNKNOWN        : NPHI:PETROWORKS:rC:NONE:v1 
NPHI-ENT .UNKNOWN     UNKNOWN        : NPHI-ENT:porosidad-entubado:rC:NONE:v0 (auto-composite)
RHOB     .g/cm3       UNKNOWN        : RHOB:UNKNOWN:rC:NONE:v0 (auto-composite)
~A     DEPTH         CALI           DT           GR       GR-ENT       GR-LWD          ILD          LLD      LLD-LWD          LLS      LLS-LWD         MSFL     MSFL-LWD         NPHI     NPHI-ENT         RHOB
# ...
   2134.8818       8.8163      67.6717      35.6011      43.6279      37.6361    -999.2500    1813.9360      35.9145    1493.2367      21.0122      91.8419       5.0263       0.1441       0.0080       2.5498
   2135.0342       8.8193      67.9803      39.0396      49.5365      40.5043    -999.2500    1627.1338      36.6699    1302.7915      25.5886      82.5460       5.1637       0.1498       0.0077       2.5619
   2135.1868       8.8210      68.2432      43.4592      55.5595      33.4972    -999.2500    1293.9274      35.7850    1014.2802      20.9383      70.8010       4.9655       0.1538       0.0071       2.5939
   2135.3391       8.8210      68.4417      49.2834      61.2486      29.7257    -999.2500     751.1327      31.0728     585.3803      14.5828      55.5502       4.2714       0.1553       0.0070       2.6018
   2135.4915       8.8699      68.2402      54.8462      64.1013      28.6675    -999.2500     369.2294      35.6600     287.5246      16.0948      43.4278       4.5488       0.1563       0.0079       2.6007
   2135.6438       8.9869      67.4720      60.0435      65.0870      26.4948    -999.2500     212.4501      32.7183     173.0301      14.1508      35.6827       4.1452       0.1566       0.0103       2.5928
   2135.7964       9.1231      66.7176      61.9098      63.6473      26.9120    -999.2500     108.2091      29.1797      96.6896      12.7951      31.6286       3.6398       0.1551       0.0110       2.5842
   2135.9487       9.2861      65.9828      59.0988      62.1670      30.9840    -999.2500      77.7432      39.0043      73.9257      18.9522      32.7577       4.0247       0.1509       0.0099       2.5792
   2136.1011       9.3423      65.4263      56.2653      63.1945      31.5600    -999.2500      57.3151      29.7800      58.5257      14.0900      31.2963       3.4000       0.1461       0.0082       2.5836
   2136.2534       9.2499      65.1209      53.4000      65.4939      23.6619    -999.2500      51.1263      22.8478      53.5719      10.1255      26.1600       2.9910       0.1408       0.0077       2.5958
   2136.4060       9.0755      65.1711      53.0615      67.6013      20.6971    -999.2500      45.8601      20.9365      48.2068       9.1324      20.3230       2.9654       0.1414       0.0073       2.5810
   2136.5583       8.7869      65.7243      56.3201      68.1574      19.6370    -999.2500      41.9073      20.6085      42.2564       9.4794      13.4885       3.0967       0.1506       0.0083       2.5776
   2136.7107       8.6437      66.4142      57.5332      64.0769      20.2779    -999.2500      37.2531      23.2325      36.7430      11.3091      10.9773       3.2715       0.1639       0.0093       2.5598
   2136.8630       8.7026      67.2969      55.8240      58.4100      23.1092    -999.2500      31.5969      25.7021      31.8539      12.9284      14.6430       3.4690       0.1815       0.0100       2.5383
   2137.0154       8.7627      68.3838      52.2359      53.3071      21.2349    -999.2500      31.8509      21.7101      32.8629      11.3900      20.8992       3.3476       0.1955       0.0097       2.5237
   2137.1680       8.8242      69.7598      46.0240      49.1269      19.4175    -999.2500      40.3579      20.6423      42.1080      11.3691      30.7730       3.1984       0.2035       0.0096       2.5219
   2137.3203       8.8847      71.2407      41.1631      48.1135      22.5346    -999.2500      80.5087      26.3176      89.4692      14.4482      39.0791       3.4105       0.2091       0.0115       2.5211
   2137.4727       8.9436      72.8695      38.2079      47.7879      24.3154    -999.2500     165.2985      30.7663     190.6001      15.6782      45.1734       3.3736       0.2118       0.0132       2.5084
   2137.6250       8.9429      74.1808      36.0293      47.0529      21.1669    -999.2500     271.8751      25.6242     285.9587      12.3062      41.6456       2.9673       0.2237       0.0140       2.4888
   2137.7776       8.8589      75.0426      34.9503      45.5167      20.3911    -999.2500     409.2953      23.6790     373.1455      11.8179      24.4955       2.9233       0.2488       0.0135       2.4548
   2137.9299       8.5880      75.8326      34.2027      43.5640      19.5640    -999.2500     423.5403      19.2146     363.8562       9.9612      12.8882       2.7750       0.2890       0.0102       2.3354
   2138.0823       8.0567      76.5213      33.9261      42.0348      17.7998    -999.2500     262.7835      18.7188     217.4976      10.2246       9.1558       3.1273       0.3513       0.0055       2.3226
   2138.2346       7.5616      76.8952      33.2448      40.5303      20.6101    -999.2500     154.2081      18.6085     118.8689      10.7282       9.3360       3.4426       0.3819       0.0025       2.3015
   2138.3872       7.1169      76.8232      31.9828      39.5090      25.7958    -999.2500     120.5282      18.1663      88.7464      10.5698      15.1321       3.5757       0.3748       0.0010       2.3897
   2138.5396       6.7945      75.2813      31.7090      38.9151      32.4689    -999.2500     136.5000      20.6953      96.4667      11.7977      21.6869       3.9605       0.3355       0.0013       2.4268
   2138.6919       6.6424      71.6639      32.8215      39.0551      42.4648    -999.2500     222.1255      21.6501     157.2749      11.7831      29.3061       3.9025       0.2521       0.0019       2.5185
   2138.8442       6.5425      68.3923      34.9580      39.8841      53.9521    -999.2500     556.6170      21.6059     380.9643       9.5934      39.8945       3.6389       0.1798       0.0020       2.5975
   2138.9966       6.5150      65.6107      38.5359      40.7895      55.6000    -999.2500    1241.4742      28.9771     833.9657      11.1511      54.6632       3.6920       0.1205       0.0020       2.6823
   2139.1492       6.4871      63.2902      42.0423      41.2520      50.7122    -999.2500    1942.4683      39.0645    1260.7173      13.6468      72.7071       3.1265       0.0799       0.0018       2.6962
   2139.3015       6.4586      61.6209      45.4476      40.8568      41.8600    -999.2500    2666.2615      59.9600    1650.3813      14.6100      95.3787       3.0600       0.0651       0.0020       2.7082
   2139.4539       6.4244      60.0901      46.0816      39.7010      37.2776    -999.2500    2914.7817      26.0339    1777.5967       8.4502     105.1310       2.2397       0.0554       0.0029       2.7213
   2139.6062       6.3825      58.7556      42.7600      38.0517      38.9475    -999.2500    2484.9414      15.3229    1530.2170       6.0912      96.4438       2.2661       0.0514       0.0039       2.7226
   2139.7588       6.3300      57.4974      39.8024      36.5343      41.4573    -999.2500    2259.2314      21.3965    1335.1799       6.7236      93.3437       2.5118       0.0479       0.0039       2.7293
   2139.9111       6.2630      56.3469      37.3662      35.3146      50.5616    -999.2500    2325.9192      34.7884    1215.1187       9.1632      98.2468       2.5489       0.0445       0.0033       2.7460
   2140.0635       6.2240      55.7561      36.1147      33.9882      57.7346    -999.2500    2338.3291      28.3123    1137.7993       7.8154     111.7087       2.4891       0.0428       0.0041       2.7483
   2140.2158       6.2240      55.9541      36.5220      32.4704      48.1048    -999.2500    2274.7471      34.2032    1120.3203       7.5214     137.1532       2.4320       0.0434       0.0051       2.7538
   2140.3684       6.2240      55.4934      36.4026      29.9535      37.8808    -999.2500    2280.7402      59.7632    1145.8778       8.0095     167.8501       2.4379       0.0439       0.0062       2.7511
   2140.5208       6.2240      54.1014      35.5432      27.5901      32.2685    -999.2500    2384.4888     111.1300    1231.9027       7.6026     205.9266       2.4393       0.0441       0.0079       2.7515
   2140.6731       6.2240      52.8185      33.9915      25.6746      29.9489    -999.2500    2775.0071     245.1116    1472.8502       5.8995     250.9943       2.2722       0.0436       0.0080       2.7589
