#------------------------------------------------------------------------------
#
#   Created by  : [OpenWorks] Log Export Utility (LEXP)
#   Created on  : 2016-05-23 11:50:53
#   Project     : CANT971
#   User        : R5K
#   Interpreter : PEP
#
#------------------------------------------------------------------------------
~VERSION INFORMATION
VERS. 2.0 : CWLS Log ASCII Standard - version 2.0
WRAP.  NO : One line per depth step
~WELL INFORMATION
#MNEMONIC   .UNIT                                           VALUE :DESCRIPTION
#------------------------------------------------------------------------------
STRT        .M                                           494.4622 :START DEPTH
STOP        .M                                          2707.4626 :STOP DEPTH
STEP        .M                                             0.1524 :STEP
NULL        .                                           -999.2500 :NULL VALUE
COMP        .                                   PEMEX EXPL & PROD :COMPANY
WELL        .                                                1042 :WELL
FLD         .                                           CANTARELL :FIELD
LOC         .                                             UNKNOWN :LOCATION
CNTY        .                                      CD. DEL CARMEN :COUNTY
STAT        .                                            CAMPECHE :STATE
CTRY        .                                              MEXICO :COUNTRY
SRVC        .                                             UNKNOWN :SERVICE COMPANY
DATE        .                                             UNKNOWN :LOG DATE
UWI         .                                          3060000495 :UNIQUE WELL ID
XCOORD      .                                       596162.680000 :SURFACE X
YCOORD      .                                      2150604.600000 :SURFACE Y
LAT         .                                           19.448706 :LATITUDE
LON         .                                          -92.083900 :LONGITUDE
ELEV        .M                                            30.0000 :SURFACE ELEV
ELEV_TYPE   .                                                  KB :ELEV TYPE
~CURVE INFORMATION
#MNEMONIC.UNIT        API CODE       : CURVE DESCRIPTION
#------------------------------------------------------------------------------
DEPTH    .M                          : Measured Depth
CALI     .inches      UNKNOWN        : CALI:litodensidad:rC:NONE:v0 (auto-composite)
DT       .us/ft       UNKNOWN        : DT:DT:rC:NONE:v0 (auto-composite)
GR       .API         UNKNOWN        : GR:GR-Load:rC:NONE:v0 (auto-composite)
ILD      .ohmm        UNKNOWN        : ILD:UNKNOWN:rC:NONE:v0 (auto-composite)
LLD      .ohmm        UNKNOWN        : LLD:UNKNOWN:rC:NONE:v0 (auto-composite)
LLS      .ohmm        UNKNOWN        : LLS:UNKNOWN:rC:NONE:v0 (auto-composite)
MSFL     .ohmm        UNKNOWN        : MSFL:UNKNOWN:rC:NONE:v0 (auto-composite)
NPHI     .v/v_decimal UNKNOWN        : NPHI:NPHI:rC:NONE:v0 (auto-composite)
~A     DEPTH         CALI           DT           GR          ILD          LLD          LLS         MSFL         NPHI
# ...
   1987.6775    -999.2500     135.4990      30.0347    -999.2500    -999.2500    -999.2500    -999.2500       0.5419
   1987.8298    -999.2500     135.5830      30.0582    -999.2500    -999.2500    -999.2500    -999.2500       0.5144
   1987.9823    -999.2500     135.5780      29.2291    -999.2500    -999.2500    -999.2500    -999.2500       0.5010
   1988.1346    -999.2500     135.4841      27.5457    -999.2500    -999.2500    -999.2500    -999.2500       0.5017
   1988.2871    -999.2500     135.4762      26.7162    -999.2500    -999.2500    -999.2500    -999.2500       0.4945
   1988.4395    -999.2500     135.5547      26.7427    -999.2500    -999.2500    -999.2500    -999.2500       0.4796
   1988.5918    -999.2500     135.5822      27.2206    -999.2500    -999.2500    -999.2500    -999.2500       0.4629
   1988.7443    -999.2500     135.5587      28.1511    -999.2500    -999.2500    -999.2500    -999.2500       0.4443
   1988.8966    -999.2500     135.5117      27.8856    -999.2500    -999.2500    -999.2500    -999.2500       0.4264
   1989.0491    -999.2500     135.4413      26.4206    -999.2500    -999.2500    -999.2500    -999.2500       0.4091
   1989.2014    -999.2500     135.4735      25.7339    -999.2500    -999.2500    -999.2500    -999.2500       0.3982
   1989.3539    -999.2500     135.6085      25.8279    -999.2500    -999.2500    -999.2500    -999.2500       0.3938
   1989.5062    -999.2500     135.7103      27.2120    -999.2500    -999.2500    -999.2500    -999.2500       0.3963
   1989.6587    -999.2500     135.7787      29.8904    -999.2500    -999.2500    -999.2500    -999.2500       0.4056
   1989.8110    -999.2500     135.8100      31.7074    -999.2500    -999.2500    -999.2500    -999.2500       0.4092
   1989.9635    -999.2500     135.8040      32.6599    -999.2500    -999.2500    -999.2500    -999.2500       0.4071
   1990.1158    -999.2500     135.7648      34.5453    -999.2500    -999.2500    -999.2500    -999.2500       0.3983
   1990.2683    -999.2500     135.6923      37.3672    -999.2500    -999.2500    -999.2500    -999.2500       0.3828
   1990.4207    -999.2500     135.6560      37.5059    -999.2500    -999.2500    -999.2500    -999.2500       0.3690
   1990.5730    -999.2500     135.6560      34.9504    -999.2500    -999.2500    -999.2500    -999.2500       0.3569
   1990.7255    -999.2500     135.6533      34.4216    -999.2500    -999.2500    -999.2500    -999.2500       0.3875
   1990.8778    -999.2500     135.6478      35.9215    -999.2500    -999.2500    -999.2500    -999.2500       0.4606
   1991.0303    -999.2500     135.6233      36.1116    -999.2500    -999.2500    -999.2500    -999.2500       0.5151
   1991.1826    -999.2500     135.5798      34.9902    -999.2500    -999.2500    -999.2500    -999.2500       0.5511
   1991.3351    -999.2500     135.5435      33.5003    -999.2500    -999.2500    -999.2500    -999.2500       0.5483
   1991.4874    -999.2500     135.5145      31.6413    -999.2500    -999.2500    -999.2500    -999.2500       0.5068
   1991.6399    -999.2500     135.5175      31.5130    -999.2500    -999.2500    -999.2500    -999.2500       0.4690
   1991.7922    -999.2500     135.5525      33.1184    -999.2500    -999.2500    -999.2500    -999.2500       0.4351
   1991.9447    -999.2500     135.5760      33.6058    -999.2500    -999.2500    -999.2500    -999.2500       0.4135
   1992.0970    -999.2500     135.5880      32.9729    -999.2500    -999.2500    -999.2500    -999.2500       0.4041
   1992.2494    -999.2500     135.5675      33.6735    -999.2500    -999.2500    -999.2500    -999.2500       0.3834
   1992.4019    -999.2500     135.5145      35.7109    -999.2500    -999.2500    -999.2500    -999.2500       0.3513
   1992.5542    -999.2500     135.4763      38.6706    -999.2500    -999.2500    -999.2500    -999.2500       0.3462
   1992.7067    -999.2500     135.4527      42.5550    -999.2500    -999.2500    -999.2500    -999.2500       0.3682
   1992.8590    -999.2500     135.3960      43.5639    -999.2500    -999.2500    -999.2500    -999.2500       0.3946
   1993.0115    -999.2500     135.3060      41.6889    -999.2500    -999.2500    -999.2500    -999.2500       0.4255
   1993.1638    -999.2500     135.2425      40.7889    -999.2500    -999.2500    -999.2500    -999.2500       0.4351
   1993.3163    -999.2500     135.2055      40.8669    -999.2500    -999.2500    -999.2500    -999.2500       0.4236
   1993.4686    -999.2500     135.1870      39.2643    -999.2500    -999.2500    -999.2500    -999.2500       0.4051
   1993.6211    -999.2500     135.1870      35.9754    -999.2500    -999.2500    -999.2500    -999.2500       0.3798
   1993.7734    -999.2500     126.2499      35.0956    -999.2500    -999.2500    -999.2500    -999.2500       0.3713
   1993.9259    -999.2500     108.3720      36.6335    -999.2500    -999.2500    -999.2500    -999.2500       0.3797
   1994.0782    -999.2500      87.5358      38.3284    -999.2500    -999.2500    -999.2500    -999.2500       0.3833
   1994.2306    -999.2500      63.7396      40.1809    -999.2500    -999.2500    -999.2500    -999.2500       0.3822
   1994.3831    -999.2500    -999.2500      40.7504       0.2000       5.2350       6.3110     179.7590       0.3673
   1994.5354    -999.2500    -999.2500      40.0316       0.2000       5.1648       6.2819     156.3873       0.3386
   1994.6879    -999.2500    -999.2500      40.4528       0.2000       5.0950       6.2530     133.1430       0.3354
   1994.8402    -999.2500    -999.2500      42.0152       0.2000       5.5435       6.8194      84.9029       0.3574
   1994.9927    -999.2500    -999.2500      42.0870       0.2000       5.9850       7.3770      37.4180       0.3555
   1995.1450    -999.2500    -999.2500      40.6661       0.2000       8.2132       9.9745      46.8444       0.3298
   1995.2975    -999.2500    -999.2500      39.2521       0.2000      10.4805      12.5930      56.0099       0.3050
   1995.4498    -999.2500    -999.2500      37.8452       0.2000      16.5950      18.1680      54.8647       0.2811
   1995.6023    -999.2500    -999.2500      37.4489       0.2000      22.6518      23.7035      53.5488       0.2778
   1995.7546    -999.2500    -999.2500      38.0654       0.2000      26.0669      27.4298      44.3996       0.2951
   1995.9071    -999.2500    -999.2500      38.8425       0.2000      29.3786      31.0391      35.3982       0.3020
   1996.0594    -999.2500    -999.2500      39.7804       0.2000      28.8245      30.2765      31.9150       0.2985
   1996.2118    -999.2500    -999.2500      40.1092       0.2000      28.2977      29.5201      28.6640       0.2905
   1996.3643    -999.2500    -999.2500      39.8272       0.2000      28.6055      28.9553      32.5242       0.2780
   1996.5166    -999.2500    -999.2500      39.5342       0.2000      29.0827      28.5877      50.0592       0.2668
   1996.6691    -999.2500    -999.2500      39.2302       0.2000      34.0520      33.4487     430.0089       0.2570
   1996.8214    -999.2500    -999.2500      40.5291       0.2000      39.2306      38.4600     782.8116       0.2568
   1996.9739    -999.2500    -999.2500      43.4355       0.2000      49.1973      46.9074     514.9346       0.2663
   1997.1262    -999.2500    -999.2500      43.9121       0.2000      58.7948      55.0116     253.7123       0.2803
   1997.2787    -999.2500    -999.2500      41.9512       0.2000      60.9814      56.2265     126.0866       0.2989
   1997.4310    -999.2500    -999.2500      41.8345       0.2000      63.0551      57.3622       5.1685       0.3079
   1997.5835    -999.2500    -999.2500      43.5684       0.2000      63.0756      57.0604       6.0600       0.3076
   1997.7358    -999.2500    -999.2500      43.5210       0.2000      62.9523      56.6071       6.8588       0.2999
   1997.8883    -999.2500    -999.2500      41.6855       0.2000      60.4810      53.6809       6.1459       0.2848
   1998.0406    -999.2500    -999.2500      41.1714       0.2000      58.0828      50.8469       5.8492       0.2803
