#------------------------------------------------------------------------------
#
#   Created by  : [OpenWorks] Log Export Utility (LEXP)
#   Created on  : 2016-05-23 11:56:12
#   Project     : CANT971
#   User        : R5K
#   Interpreter : PEP
#
#------------------------------------------------------------------------------
~VERSION INFORMATION
VERS. 2.0 : CWLS Log ASCII Standard - version 2.0
WRAP.  NO : One line per depth step
~WELL INFORMATION
#MNEMONIC   .UNIT                                           VALUE :DESCRIPTION
#------------------------------------------------------------------------------
STRT        .M                                           365.7604 :START DEPTH
STOP        .M                                          2883.8655 :STOP DEPTH
STEP        .M                                             0.1524 :STEP
NULL        .                                           -999.2500 :NULL VALUE
COMP        .                                   PEMEX EXPL & PROD :COMPANY
WELL        .                                                  44 :WELL
FLD         .                                           CANTARELL :FIELD
LOC         .                                             UNKNOWN :LOCATION
CNTY        .                                      CD. DEL CARMEN :COUNTY
STAT        .                                            CAMPECHE :STATE
CTRY        .                                              MEXICO :COUNTRY
SRVC        .                                             UNKNOWN :SERVICE COMPANY
DATE        .                                             UNKNOWN :LOG DATE
UWI         .                                          3060000162 :UNIQUE WELL ID
XCOORD      .                                       599695.380000 :SURFACE X
YCOORD      .                                      2143038.730000 :SURFACE Y
LAT         .                                           19.380164 :LATITUDE
LON         .                                          -92.050646 :LONGITUDE
ELEV        .M                                            26.7400 :SURFACE ELEV
ELEV_TYPE   .                                                  KB :ELEV TYPE
~CURVE INFORMATION
#MNEMONIC.UNIT        API CODE       : CURVE DESCRIPTION
#------------------------------------------------------------------------------
DEPTH    .M                          : Measured Depth
CALI     .inches      UNKNOWN        : CALI:registros:rC:NONE:v0 (auto-composite)
CGR      .API         UNKNOWN        : CGR:registros:rC:NONE:v0 (auto-composite)
DRHO     .g/cm3       UNKNOWN        : DRHO:registros:rC:NONE:v0 (auto-composite)
DT       .UNKNOWN     UNKNOWN        : DT:registros:rC:NONE:v0 (auto-composite)
GR       .API         UNKNOWN        : GR:registros:rC:NONE:v0 (auto-composite)
ILD      .ohm.m       UNKNOWN        : ILD:registros:rC:NONE:v0 (auto-composite)
LLD      .ohm.m       UNKNOWN        : LLD:registros:rC:NONE:v0 (auto-composite)
LLS      .ohm.m       UNKNOWN        : LLS:registros:rC:NONE:v0 (auto-composite)
MSFL     .ohm.m       UNKNOWN        : MSFL:registros:rC:NONE:v0 (auto-composite)
NPHI     .UNKNOWN     UNKNOWN        : NPHI:registros:rC:NONE:v0 (auto-composite)
PEF      .b/elec      UNKNOWN        : PEF:registros:rC:NONE:v0 (auto-composite)
POTA     .wtpercent   UNKNOWN        : POTA:registros:rC:NONE:v0 (auto-composite)
RHOB     .g/cm3       UNKNOWN        : RHOB:registros:rC:NONE:v0 (auto-composite)
THOR     .ppm         UNKNOWN        : THOR:registros:rC:NONE:v0 (auto-composite)
URAN     .ppm         UNKNOWN        : URAN:registros:rC:NONE:v0 (auto-composite)
~A     DEPTH         CALI          CGR         DRHO           DT           GR          ILD          LLD          LLS         MSFL         NPHI          PEF         POTA         RHOB         THOR         URAN
# ...
   2119.1223       9.1788    -999.2500       0.0194      55.5861      50.1474    -999.2500   39606.2891   57988.2891      23.9977       0.0216    -999.2500    -999.2500       2.6190    -999.2500    -999.2500
   2119.2747       9.1460    -999.2500       0.0080      56.0050      48.6720    -999.2500   38528.2461   57068.3203      37.6120       0.0215    -999.2500    -999.2500       2.6160    -999.2500    -999.2500
   2119.4272       9.1621    -999.2500       0.0100      56.2732      47.4867    -999.2500   38939.5195   55825.9961      55.0136       0.0240    -999.2500    -999.2500       2.6210    -999.2500    -999.2500
   2119.5796       9.1780    -999.2500       0.0120      56.5390      46.3120    -999.2500   39347.1289   54594.7461      72.2600       0.0283    -999.2500    -999.2500       2.6260    -999.2500    -999.2500
   2119.7319       9.2127    -999.2500       0.0075      57.1352      43.4289    -999.2500   38765.5508   54653.5195      64.5027       0.0335    -999.2500    -999.2500       2.6084    -999.2500    -999.2500
   2119.8843       9.2470    -999.2500       0.0030      57.7280      40.5620    -999.2500   38187.2422   54711.9648      56.7890       0.0385    -999.2500    -999.2500       2.5910    -999.2500    -999.2500
   2120.0369       9.2782    -999.2500      -0.0071      58.1808      41.6390    -999.2500   38343.1367   55633.3828      52.5678       0.0420    -999.2500    -999.2500       2.5739    -999.2500    -999.2500
   2120.1892       9.3090    -999.2500      -0.0170      58.6290      42.7050    -999.2500   38497.4297   56545.3164      48.3900       0.0446    -999.2500    -999.2500       2.5570    -999.2500    -999.2500
   2120.3416       9.3281    -999.2500      -0.0130      59.0506      46.4141    -999.2500   39018.6445   58399.1914      41.2731       0.0469    -999.2500    -999.2500       2.5721    -999.2500    -999.2500
   2120.4939       9.3470    -999.2500      -0.0090      59.4660      50.0680    -999.2500   39532.1055   60225.4805      34.2620       0.0480    -999.2500    -999.2500       2.5870    -999.2500    -999.2500
   2120.6465       9.3586    -999.2500      -0.0015      59.6848      51.8176    -999.2500   42867.1602   62198.7070      27.3288       0.0470    -999.2500    -999.2500       2.5935    -999.2500    -999.2500
   2120.7988       9.3700    -999.2500       0.0060      59.9010      53.5470    -999.2500   46163.5742   64149.0742      20.4760       0.0471    -999.2500    -999.2500       2.6000    -999.2500    -999.2500
   2120.9512       9.3901    -999.2500       0.0085      60.7164      57.3438    -999.2500   41950.3281   62682.0078      11.6915       0.0516    -999.2500    -999.2500       2.5884    -999.2500    -999.2500
   2121.1035       9.4100    -999.2500       0.0110      61.5250      61.1090    -999.2500   37772.0508   61227.1211       2.9800       0.0576    -999.2500    -999.2500       2.5770    -999.2500    -999.2500
   2121.2559       9.3758    -999.2500       0.0100      62.1711      59.7861    -999.2500   41227.9688   63956.9531       4.1990       0.0621    -999.2500    -999.2500       2.5725    -999.2500    -999.2500
   2121.4084       9.3420    -999.2500       0.0090      62.8130      58.4720    -999.2500   44661.1211   66668.8047       5.4100       0.0648    -999.2500    -999.2500       2.5680    -999.2500    -999.2500
   2121.5608       9.3214    -999.2500       0.0025      61.5680      55.0637    -999.2500   46721.0586   68100.7578     353.9651       0.0652    -999.2500    -999.2500       2.5554    -999.2500    -999.2500
   2121.7131       9.3010    -999.2500      -0.0040      60.3290      51.6720    -999.2500   48770.9648   69525.7344     700.8230       0.0637    -999.2500    -999.2500       2.5430    -999.2500    -999.2500
   2121.8655       9.3282    -999.2500       0.0061      59.5670      53.8326    -999.2500   48691.6133   70344.8516     369.0454       0.0605    -999.2500    -999.2500       2.5772    -999.2500    -999.2500
   2122.0181       9.3550    -999.2500       0.0160      58.8110      55.9760    -999.2500   48612.8945   71157.4531      39.9040       0.0581    -999.2500    -999.2500       2.6110    -999.2500    -999.2500
   2122.1704       9.3540    -999.2500       0.0215      59.3107      61.9739    -999.2500   48566.7188   70026.9531      25.3391       0.0586    -999.2500    -999.2500       2.6055    -999.2500    -999.2500
   2122.3228       9.3530    -999.2500       0.0270      59.8050      67.9060    -999.2500   48521.0469   68908.8672      10.9340       0.0627    -999.2500    -999.2500       2.6000    -999.2500    -999.2500
   2122.4751       9.3495    -999.2500       0.0094      62.0373      67.8357    -999.2500   48153.9531   69763.5078      11.1143       0.0713    -999.2500    -999.2500       2.5769    -999.2500    -999.2500
   2122.6277       9.3460    -999.2500      -0.0080      64.2490      67.7660    -999.2500   47790.2617   70610.2344      11.2930       0.0777    -999.2500    -999.2500       2.5540    -999.2500    -999.2500
   2122.7800       9.3304    -999.2500      -0.0030      63.2598      61.1400    -999.2500   47179.3711   69882.1172      19.4393       0.0751    -999.2500    -999.2500       2.5631    -999.2500    -999.2500
   2122.9324       9.3150    -999.2500       0.0020      62.2780      54.5640    -999.2500   46573.0977   69159.5000      27.5240       0.0679    -999.2500    -999.2500       2.5720    -999.2500    -999.2500
   2123.0847       9.3039    -999.2500       0.0090      61.1246      49.4727    -999.2500   46704.2109   66653.4375      33.2246       0.0602    -999.2500    -999.2500       2.5795    -999.2500    -999.2500
   2123.2371       9.2930    -999.2500       0.0160      59.9760      44.4030    -999.2500   46834.7695   64158.0078      38.9010       0.0535    -999.2500    -999.2500       2.5870    -999.2500    -999.2500
   2123.3896       9.2814    -999.2500       0.0130      59.3677      41.1060    -999.2500   46341.5430   65985.0156      43.2135       0.0492    -999.2500    -999.2500       2.5930    -999.2500    -999.2500
   2123.5420       9.2700    -999.2500       0.0100      58.7600      37.8120    -999.2500   45848.7734   67810.3281      47.5220       0.0455    -999.2500    -999.2500       2.5990    -999.2500    -999.2500
   2123.6943       9.2786    -999.2500       0.0045      58.2771      38.7587    -999.2500   46090.0312   67575.9531      49.2503       0.0406    -999.2500    -999.2500       2.5975    -999.2500    -999.2500
   2123.8467       9.2870    -999.2500      -0.0010      57.7970      39.7000    -999.2500   46329.9375   67342.8984      50.9690       0.0353    -999.2500    -999.2500       2.5960    -999.2500    -999.2500
   2123.9993       9.3091    -999.2500       0.0030      57.3824      42.4134    -999.2500   45856.1445   67184.0547      59.3222       0.0300    -999.2500    -999.2500       2.6020    -999.2500    -999.2500
   2124.1516       9.3310    -999.2500       0.0070      56.9720      45.0990    -999.2500   45387.1953   67026.8281      67.5900       0.0281    -999.2500    -999.2500       2.6080    -999.2500    -999.2500
   2124.3040       9.3396    -999.2500       0.0191      59.2128      49.3899    -999.2500   45876.0820   68750.8438      41.0305       0.0335    -999.2500    -999.2500       2.5964    -999.2500    -999.2500
   2124.4563       9.3480    -999.2500       0.0310      61.4380      53.6510    -999.2500   46361.5820   70462.9141      14.6550       0.0446    -999.2500    -999.2500       2.5850    -999.2500    -999.2500
   2124.6089       9.3374    -999.2500       0.0245      64.4903      59.1973    -999.2500   46775.1133   70453.3203      11.0369       0.0607    -999.2500    -999.2500       2.5790    -999.2500    -999.2500
   2124.7612       9.3270    -999.2500       0.0180      67.5120      64.6880    -999.2500   47184.5039   70443.8281       7.4550       0.0744    -999.2500    -999.2500       2.5730    -999.2500    -999.2500
   2124.9136       9.3149    -999.2500       0.0095      66.4558      62.7594    -999.2500   45783.2852   67718.0469      12.7204       0.0784    -999.2500    -999.2500       2.5745    -999.2500    -999.2500
