#------------------------------------------------------------------------------
#
#   Created by  : [OpenWorks] Log Export Utility (LEXP)
#   Created on  : 2016-05-23 11:53:49
#   Project     : CANT971
#   User        : R5K
#   Interpreter : PEP
#
#------------------------------------------------------------------------------
~VERSION INFORMATION
VERS. 2.0 : CWLS Log ASCII Standard - version 2.0
WRAP.  NO : One line per depth step
~WELL INFORMATION
#MNEMONIC   .UNIT                                           VALUE :DESCRIPTION
#------------------------------------------------------------------------------
STRT        .M                                           293.9797 :START DEPTH
STOP        .M                                          2713.7869 :STOP DEPTH
STEP        .M                                             0.1524 :STEP
NULL        .                                           -999.2500 :NULL VALUE
COMP        .                                   PEMEX EXPL & PROD :COMPANY
WELL        .                                                  28 :WELL
FLD         .                                           CANTARELL :FIELD
LOC         .                                             UNKNOWN :LOCATION
CNTY        .                                      CD. DEL CARMEN :COUNTY
STAT        .                                            CAMPECHE :STATE
CTRY        .                                              MEXICO :COUNTRY
SRVC        .                                             UNKNOWN :SERVICE COMPANY
DATE        .                                             UNKNOWN :LOG DATE
UWI         .                                          3060000156 :UNIQUE WELL ID
XCOORD      .                                       598450.720000 :SURFACE X
YCOORD      .                                      2145024.710000 :SURFACE Y
LAT         .                                           19.398172 :LATITUDE
LON         .                                          -92.062394 :LONGITUDE
ELEV        .M                                            26.5400 :SURFACE ELEV
ELEV_TYPE   .                                                  KB :ELEV TYPE
~CURVE INFORMATION
#MNEMONIC.UNIT        API CODE       : CURVE DESCRIPTION
#------------------------------------------------------------------------------
DEPTH    .M                          : Measured Depth
CALI     .inches      UNKNOWN        : CALI:Import:rC:NONE:v0 (auto-composite)
DRHO     .g/cm3       UNKNOWN        : DRHO:Import:rC:NONE:v0 (auto-composite)
DT       .us/ft       UNKNOWN        : DT:Import:rC:NONE:v0 (auto-composite)
GR       .API         UNKNOWN        : GR:Import:rC:NONE:v0 (auto-composite)
ILD      .ohm.m       UNKNOWN        : ILD:Import:rC:NONE:v0 (auto-composite)
LLD      .ohm.m       UNKNOWN        : LLD:Import:rC:NONE:v0 (auto-composite)
LLS      .ohm.m       UNKNOWN        : LLS:Import:rC:NONE:v0 (auto-composite)
MSFL     .ohm.m       UNKNOWN        : MSFL:Import:rC:NONE:v0 (auto-composite)
NPHI     .v/v_decimal UNKNOWN        : NPHI:Import:rC:NONE:v0 (auto-composite)
PEF      .b/elec      UNKNOWN        : PEF:Import:rC:NONE:v0 (auto-composite)
RHOB     .g/cm3       UNKNOWN        : RHOB:Import:rC:NONE:v0 (auto-composite)
~A     DEPTH         CALI         DRHO           DT           GR          ILD          LLD          LLS         MSFL         NPHI          PEF         RHOB
# ...
    959.6629       9.1695    -999.2500    -999.2500    -999.2500    -999.2500       0.9830       1.0465       0.7156    -999.2500    -999.2500    -999.2500
    959.8152       9.1440    -999.2500    -999.2500    -999.2500    -999.2500       0.9750       1.0470       1.2270    -999.2500    -999.2500    -999.2500
    959.9677       9.1075    -999.2500    -999.2500    -999.2500    -999.2500       0.9750       1.0470       1.2129    -999.2500    -999.2500    -999.2500
    960.1201       9.0710    -999.2500    -999.2500    -999.2500    -999.2500       0.9750       1.0470       1.1990    -999.2500    -999.2500    -999.2500
    960.2725       9.0710    -999.2500    -999.2500    -999.2500    -999.2500       0.9755       1.0475       1.2005    -999.2500    -999.2500    -999.2500
    960.4249       9.0710    -999.2500    -999.2500    -999.2500    -999.2500       0.9760       1.0480       1.2020    -999.2500    -999.2500    -999.2500
    960.5773       9.0720    -999.2500    -999.2500    -999.2500    -999.2500       0.9760       1.0485       1.2291    -999.2500    -999.2500    -999.2500
    960.7297       9.0730    -999.2500    -999.2500    -999.2500    -999.2500       0.9760       1.0490       1.2560    -999.2500    -999.2500    -999.2500
    960.8821       9.0735    -999.2500    -999.2500    -999.2500    -999.2500       0.9765       1.0490       1.2450    -999.2500    -999.2500    -999.2500
    961.0345       9.0740    -999.2500    -999.2500    -749.6870    -999.2500       0.9770       1.0490       1.2340    -999.2500    -999.2500    -999.2500
    961.1869       9.0745    -999.2500    -999.2500    -749.6870    -999.2500       0.9770       1.0495       1.1989      -3.7869    -999.2500    -999.2500
    961.3393       9.0750    -999.2500    -999.2500    -361.6188    -999.2500       0.9770       1.0500       1.1640      -0.4572    -999.2500    -999.2500
    961.4917       9.0760    -999.2500    -999.2500      24.2220    -999.2500       0.9775       1.0505       1.1535       0.1134    -999.2500    -999.2500
    961.6441       9.0770    -999.2500    -999.2500      24.1704    -999.2500       0.9780       1.0510       1.1430       0.2853    -999.2500    -999.2500
    961.7964       9.0775    -999.2500    -999.2500      24.1190    -999.2500       0.9785       1.0510       1.1054       0.4296    -999.2500    -999.2500
    961.9489       9.0780    -999.2500    -999.2500      24.1556    -999.2500       0.9790       1.0510       1.0680       0.5538    -999.2500    -999.2500
    962.1013       9.0790    -999.2500    -999.2500      24.1920    -999.2500       0.9745       1.0515       1.0700       0.5674    -999.2500    -999.2500
    962.2537       9.0800    -999.2500    -999.2500      24.4247    -999.2500       0.9700       1.0520       1.0720       0.5645    -999.2500    -999.2500
    962.4061       9.0810    -999.2500    -999.2500      24.6560    -999.2500       0.9700       1.0525       1.0795       0.5532    -999.2500    -999.2500
    962.5585       9.0820    -999.2500    -999.2500      25.0978    -999.2500       0.9700       1.0530       1.0870       0.5424    -999.2500    -999.2500
    962.7109       9.0835    -999.2500    -999.2500      25.5370    -999.2500       0.9715       1.0535       1.0925       0.5423    -999.2500    -999.2500
    962.8633       9.0850    -999.2500    -999.2500      25.9668    -999.2500       0.9730       1.0540       1.0980       0.5448    -999.2500    -999.2500
    963.0157       9.0830    -999.2500    -999.2500      26.3940    -999.2500       0.9765       1.0530       1.0915       0.5559    -999.2500    -999.2500
    963.1681       9.0810    -999.2500    -999.2500      27.1567    -999.2500       0.9800       1.0520       1.0850       0.5667    -999.2500    -999.2500
    963.3205       9.0645    -999.2500    -999.2500      27.9150    -999.2500       0.9805       1.0440       1.0619       0.5677    -999.2500    -999.2500
    963.4729       9.0480    -999.2500    -999.2500      28.4671    -999.2500       0.9810       1.0360       1.0390       0.5670    -999.2500    -999.2500
    963.6253       9.0545    -999.2500    -999.2500      29.0160    -999.2500       0.9810       1.0360       1.0244       0.5636    -999.2500    -999.2500
    963.7776       9.0610    -999.2500    -999.2500      28.9538    -999.2500       0.9810       1.0360       1.0100       0.5589    -999.2500    -999.2500
    963.9301       9.0960    -999.2500    -999.2500      28.8920    -999.2500       0.9815       1.0365       0.9934       0.5475    -999.2500    -999.2500
    964.0825       9.1310    -999.2500    -999.2500      28.6564    -999.2500       0.9820       1.0370       0.9770       0.5351    -999.2500    -999.2500
    964.2349       9.1290    -999.2500    -999.2500      28.4220    -999.2500       0.9820       1.0370       0.9559       0.5213    -999.2500    -999.2500
    964.3873       9.1270    -999.2500    -999.2500      28.1733    -999.2500       0.9820       1.0370       0.9350       0.5088    -999.2500    -999.2500
    964.5397       9.1115    -999.2500    -999.2500      27.9260    -999.2500       0.9825       1.0375       0.9350       0.5073    -999.2500    -999.2500
    964.6921       9.0960    -999.2500    -999.2500      27.6030    -999.2500       0.9830       1.0380       0.9350       0.5073    -999.2500    -999.2500
    964.8445       9.0565    -999.2500    -999.2500      27.2820    -999.2500       0.9830       1.0385       0.9310       0.5071    -999.2500    -999.2500
    964.9969       9.0170    -999.2500    -999.2500      27.1200    -999.2500       0.9830       1.0390       0.9270       0.5068    -999.2500    -999.2500
    965.1493       9.0260    -999.2500    -999.2500      26.9590    -999.2500       0.9835       1.0385       0.9280       0.5057    -999.2500    -999.2500
    965.3017       9.0350    -999.2500    -999.2500      26.6110    -999.2500       0.9840       1.0380       0.9290       0.5037    -999.2500    -999.2500
    965.4541       9.0670    -999.2500    -999.2500      26.2650    -999.2500       0.9845       1.0300       0.9330       0.4961    -999.2500    -999.2500
    965.6064       9.0990    -999.2500    -999.2500      25.8052    -999.2500       0.9850       1.0220       0.9370       0.4889    -999.2500    -999.2500
    965.7589       9.0700    -999.2500    -999.2500      25.3480    -999.2500       0.9945       1.0220       0.9455       0.4894    -999.2500    -999.2500
    965.9113       9.0410    -999.2500    -999.2500      25.4949    -999.2500       1.0040       1.0220       0.9540       0.4906    -999.2500    -999.2500
    966.0637       9.0435    -999.2500    -999.2500      25.6410    -999.2500       1.0482       1.0255       0.9731       0.4899    -999.2500    -999.2500
    966.2161       9.0460    -999.2500    -999.2500      26.4769    -999.2500       1.0920       1.0290       0.9920       0.4883    -999.2500    -999.2500
    966.3685       9.0545    -999.2500    -999.2500      27.3080    -999.2500       1.1799       1.0526       1.0096       0.4811    -999.2500    -999.2500
    966.5209       9.0630    -999.2500    -999.2500      27.3075    -999.2500       1.2670       1.0760       1.0270       0.4740    -999.2500    -999.2500
    966.6733       9.0680    -999.2500    -999.2500      27.3070    -999.2500       1.3559       1.0755       1.0451       0.4741    -999.2500    -999.2500
    966.8257       9.0730    -999.2500    -999.2500      27.1069    -999.2500       1.4440       1.0750       1.0630       0.4754    -999.2500    -999.2500
    966.9781       9.0860    -999.2500    -999.2500      26.9080    -999.2500       1.4335       1.0710       1.0620       0.4802    -999.2500    -999.2500
    967.1305       9.0990    -999.2500    -999.2500      27.4977    -999.2500       1.4230       1.0670       1.0610       0.4858    -999.2500    -999.2500
    967.2829       9.1035    -999.2500    -999.2500      28.0840    -999.2500       1.3532       1.0414       1.0545       0.4947    -999.2500    -999.2500
    967.4353       9.1080    -999.2500    -999.2500      28.0344    -999.2500       1.2840       1.0160       1.0480       0.5037    -999.2500    -999.2500
