#------------------------------------------------------------------------------
#
#   Created by  : [OpenWorks] Log Export Utility (LEXP)
#   Created on  : 2016-05-23 11:51:18
#   Project     : CANT971
#   User        : R5K
#   Interpreter : PEP
#
#------------------------------------------------------------------------------
~VERSION INFORMATION
VERS. 2.0 : CWLS Log ASCII Standard - version 2.0
WRAP.  NO : One line per depth step
~WELL INFORMATION
#MNEMONIC   .UNIT                                           VALUE :DESCRIPTION
#------------------------------------------------------------------------------
STRT        .M                                           690.7880 :START DEPTH
STOP        .M                                          2950.1179 :STOP DEPTH
STEP        .M                                             0.1524 :STEP
NULL        .                                           -999.2500 :NULL VALUE
COMP        .                                   PEMEX EXPL & PROD :COMPANY
WELL        .                                                1066 :WELL
FLD         .                                           CANTARELL :FIELD
LOC         .                                             UNKNOWN :LOCATION
CNTY        .                                      CD. DEL CARMEN :COUNTY
STAT        .                                            CAMPECHE :STATE
CTRY        .                                              MEXICO :COUNTRY
SRVC        .                                             UNKNOWN :SERVICE COMPANY
DATE        .                                             UNKNOWN :LOG DATE
UWI         .                                          3060000505 :UNIQUE WELL ID
XCOORD      .                                       596157.670000 :SURFACE X
YCOORD      .                                      2150605.920000 :SURFACE Y
LAT         .                                           19.448718 :LATITUDE
LON         .                                          -92.083948 :LONGITUDE
ELEV        .M                                            30.0000 :SURFACE ELEV
ELEV_TYPE   .                                                  KB :ELEV TYPE
~CURVE INFORMATION
#MNEMONIC.UNIT        API CODE       : CURVE DESCRIPTION
#------------------------------------------------------------------------------
DEPTH    .M                          : Measured Depth
CALI     .inches      UNKNOWN        : CALI:litodensidad:rC:NONE:v0 (auto-composite)
DRHO     .g/cm3       UNKNOWN        : DRHO:litodensidad:rC:NONE:v0 (auto-composite)
DT       .us/ft       UNKNOWN        : DT:DT:rC:NONE:v0 (auto-composite)
GR       .API         UNKNOWN        : GR:UNKNOWN:rC:NONE:v0 (auto-composite)
ILD      .ohmm        UNKNOWN        : ILD:UNKNOWN:rC:NONE:v0 (auto-composite)
ILM      .ohmm        UNKNOWN        : ILM:UNKNOWN:rC:NONE:v0 (auto-composite)
LLD      .ohmm        UNKNOWN        : LLD:UNKNOWN:rC:NONE:v0 (auto-composite)
LLS      .ohmm        UNKNOWN        : LLS:UNKNOWN:rC:NONE:v0 (auto-composite)
MSFL     .ohmm        UNKNOWN        : MSFL:UNKNOWN:rC:NONE:v0 (auto-composite)
NPHI     .v/v_decimal UNKNOWN        : NPHI:PETROWORKS:rC:NONE:v2 
PEF      .b/elec      UNKNOWN        : PEF:litodensidad:rC:NONE:v0 (auto-composite)
RHOB     .g/cm3       UNKNOWN        : RHOB:litodensidad:rC:NONE:v0 (auto-composite)
~A     DEPTH         CALI         DRHO           DT           GR          ILD          ILM          LLD          LLS         MSFL         NPHI          PEF         RHOB
# ...
   1736.8616    -999.2500    -999.2500    -999.2500      48.6635       0.9915       0.9896       0.2000       0.2000       0.2000      -0.1500    -999.2500    -999.2500
   1737.0140    -999.2500    -999.2500    -999.2500      48.2432       1.0050       1.0039       0.2000       0.2000       0.2000      -0.1500    -999.2500    -999.2500
   1737.1664    -999.2500    -999.2500    -999.2500      48.4273       1.0185       1.0170       0.2000       0.2000       0.2000      -0.1500    -999.2500    -999.2500
   1737.3188    -999.2500    -999.2500    -999.2500      48.6003       1.0321       1.0299       0.2000       0.2000       0.2000      -0.1500    -999.2500    -999.2500
   1737.4712    -999.2500    -999.2500    -999.2500      48.6433       1.0461       1.0408       0.2000       0.2000       0.2000      -0.1500    -999.2500    -999.2500
   1737.6237    -999.2500    -999.2500    -999.2500      48.7488       1.0597       1.0516       0.2000       0.2000       0.2000      -0.1500    -999.2500    -999.2500
   1737.7760    -999.2500    -999.2500    -999.2500      49.6162       1.0692       1.0591       0.2000       0.2000       0.2000      -0.1500    -999.2500    -999.2500
   1737.9285    -999.2500    -999.2500    -999.2500      50.3437       1.0785       1.0665       0.2000       0.2000       0.2000      -0.1500    -999.2500    -999.2500
   1738.0808    -999.2500    -999.2500    -999.2500      49.4929       1.0850       1.0730       0.2000       0.2000       0.2000      -0.1500    -999.2500    -999.2500
   1738.2333    -999.2500    -999.2500    -999.2500      48.5923       1.0914       1.0795       0.2000       0.2000       0.2000      -0.1500    -999.2500    -999.2500
   1738.3856    -999.2500    -999.2500    -999.2500      47.1700       1.0959       1.0855       0.2000       0.2000       0.2000      -0.1500    -999.2500    -999.2500
   1738.5381    -999.2500    -999.2500    -999.2500      45.7310       1.1002       1.0913       0.2000       0.2000       0.2000      -0.1500    -999.2500    -999.2500
   1738.6904    -999.2500    -999.2500    -999.2500      44.1130       1.1022       1.0948       0.2000       0.2000       0.2000      -0.1500    -999.2500    -999.2500
   1738.8428    -999.2500    -999.2500    -999.2500      42.7009       1.1042       1.0980       0.2000       0.2000       0.2000      -0.1500    -999.2500    -999.2500
   1738.9952    -999.2500    -999.2500    -999.2500      43.3488       1.1067       1.0985       0.2000       0.2000       0.2000      -0.1500    -999.2500    -999.2500
   1739.1476    -999.2500    -999.2500    -999.2500      44.1328       1.1093       1.0993       0.2000       0.2000       0.2000      -0.1500    -999.2500    -999.2500
   1739.3000    -999.2500    -999.2500    -999.2500      46.3053       1.1128       1.1023       0.2000       0.2000       0.2000      -0.1500    -999.2500    -999.2500
   1739.4524    -999.2500    -999.2500    -999.2500      48.3579       1.1164       1.1055       0.2000       0.2000       0.2000      -0.1500    -999.2500    -999.2500
   1739.6049    -999.2500    -999.2500    -999.2500      49.2646       1.1209       1.1105       0.2000       0.2000       0.2000      -0.1500    -999.2500    -999.2500
   1739.7572    -999.2500    -999.2500    -999.2500      49.7678       1.1253       1.1154       0.2000       0.2000       0.2000      -0.1500    -999.2500    -999.2500
   1739.9097    -999.2500    -999.2500    -999.2500      46.3383       1.1283       1.1199       0.2000       0.2000       0.2000      -0.1500    -999.2500    -999.2500
   1740.0620    -999.2500    -999.2500    -999.2500      43.2593       1.1313       1.1245       0.2000       0.2000       0.2000      -0.1500    -999.2500    -999.2500
   1740.2145    -999.2500    -999.2500    -999.2500      43.3842       1.1349       1.1295       0.2000       0.2000       0.2000      -0.1500    -999.2500    -999.2500
   1740.3668    -999.2500    -999.2500    -999.2500      43.4433       1.1386       1.1345       0.2000       0.2000       0.2000      -0.1500    -999.2500    -999.2500
   1740.5192    -999.2500    -999.2500    -999.2500      42.9372       1.1446       1.1395       0.2000       0.2000       0.2000      -0.1500    -999.2500    -999.2500
   1740.6716    -999.2500    -999.2500    -999.2500      42.2608       1.1507       1.1447       0.2000       0.2000       0.2000      -0.1500    -999.2500    -999.2500
   1740.8240    -999.2500    -999.2500    -999.2500      40.0928       1.1572       1.1512       0.2000       0.2000       0.2000      -0.1500    -999.2500    -999.2500
   1740.9764    -999.2500    -999.2500    -999.2500      38.2717       1.1632       1.1576       0.2000       0.2000       0.2000      -0.1500    -999.2500    -999.2500
   1741.1288    -999.2500    -999.2500    -999.2500      39.3148       1.1652       1.1631       0.2000       0.2000       0.2000      -0.1500    -999.2500    -999.2500
   1741.2812    -999.2500    -999.2500    -999.2500      40.4024       1.1671       1.1683       0.2000       0.2000       0.2000      -0.1500    -999.2500    -999.2500
   1741.4336    -999.2500    -999.2500    -999.2500      41.8635       1.1681       1.1713       0.2000       0.2000       0.2000      -0.1500    -999.2500    -999.2500
   1741.5861    -999.2500    -999.2500    -999.2500      43.0773       1.1702       1.1743       0.2000       0.2000       0.2000      -0.1500    -999.2500    -999.2500
   1741.7384    -999.2500    -999.2500    -999.2500      42.3295       1.1813       1.1773       0.2000       0.2000       0.2000      -0.1500    -999.2500    -999.2500
   1741.8909    -999.2500    -999.2500    -999.2500      41.5882       1.1946       1.1833       0.2000       0.2000       0.2000      -0.1500    -999.2500    -999.2500
   1742.0432    -999.2500    -999.2500    -999.2500      40.8960       1.2250       1.2113       0.2000       0.2000       0.2000      -0.1500    -999.2500    -999.2500
   1742.1957    -999.2500    -999.2500    -999.2500      40.3722       1.2555       1.2440       0.2000       0.2000       0.2000      -0.1500    -999.2500    -999.2500
   1742.3480    -999.2500    -999.2500    -999.2500      41.1335       1.2861       1.3132       0.2000       0.2000       0.2000      -0.1500    -999.2500    -999.2500
   1742.5004    -999.2500    -999.2500    -999.2500      41.5077       1.3126       1.3758       0.2000       0.2000       0.2000      -0.1500    -999.2500    -999.2500
   1742.6528    -999.2500    -999.2500    -999.2500      39.0574       1.3091       1.3909       0.2000       0.2000       0.2000      -0.1500    -999.2500    -999.2500
   1742.8052    -999.2500    -999.2500    -999.2500      36.7799       1.3063       1.3969       0.2000       0.2000       0.2000      -0.1500    -999.2500    -999.2500
   1742.9576    -999.2500    -999.2500    -999.2500      35.7004       1.3083       1.3410       0.2000       0.2000       0.2000      -0.1500    -999.2500    -999.2500
   1743.1100    -999.2500    -999.2500    -999.2500      34.7717       1.3096       1.2899       0.2000       0.2000       0.2000      -0.1500    -999.2500    -999.2500
   1743.2625    -999.2500    -999.2500    -999.2500      34.8970       1.3061       1.2734       0.2000       0.2000       0.2000      -0.1500    -999.2500    -999.2500
   1743.4148    -999.2500    -999.2500    -999.2500      35.0417       1.2993       1.2580       0.2000       0.2000       0.2000      -0.1500    -999.2500    -999.2500
   1743.5673    -999.2500    -999.2500    -999.2500      35.3166       1.2708       1.2500       0.2000       0.2000       0.2000      -0.1500    -999.2500    -999.2500
   1743.7196    -999.2500    -999.2500    -999.2500      35.7398       1.2446       1.2427       0.2000       0.2000       0.2000      -0.1500    -999.2500    -999.2500
   1743.8721    -999.2500    -999.2500    -999.2500      37.1637       1.2341       1.2407       0.2000       0.2000       0.2000      -0.1500    -999.2500    -999.2500
   1744.0244    -999.2500    -999.2500    -999.2500      38.4761       1.2260       1.2388       0.2000       0.2000       0.2000      -0.1500    -999.2500    -999.2500
