#------------------------------------------------------------------------------
#
#   Created by  : [OpenWorks] Log Export Utility (LEXP)
#   Created on  : 2016-05-23 11:50:56
#   Project     : CANT971
#   User        : R5K
#   Interpreter : PEP
#
#------------------------------------------------------------------------------
~VERSION INFORMATION
VERS. 2.0 : CWLS Log ASCII Standard - version 2.0
WRAP.  NO : One line per depth step
~WELL INFORMATION
#MNEMONIC   .UNIT                                           VALUE :DESCRIPTION
#------------------------------------------------------------------------------
STRT        .M                                           679.7040 :START DEPTH
STOP        .M                                          2836.1641 :STOP DEPTH
STEP        .M                                             0.1524 :STEP
NULL        .                                           -999.2500 :NULL VALUE
COMP        .                                   PEMEX EXPL & PROD :COMPANY
WELL        .                                                1044 :WELL
FLD         .                                           CANTARELL :FIELD
LOC         .                                             UNKNOWN :LOCATION
CNTY        .                                      CD. DEL CARMEN :COUNTY
STAT        .                                            CAMPECHE :STATE
CTRY        .                                              MEXICO :COUNTRY
SRVC        .                                             UNKNOWN :SERVICE COMPANY
DATE        .                                             UNKNOWN :LOG DATE
UWI         .                                          3060000497 :UNIQUE WELL ID
XCOORD      .                                       596164.320000 :SURFACE X
YCOORD      .                                      2150609.730000 :SURFACE Y
LAT         .                                           19.448753 :LATITUDE
LON         .                                          -92.083884 :LONGITUDE
ELEV        .M                                            30.0000 :SURFACE ELEV
ELEV_TYPE   .                                                  KB :ELEV TYPE
~CURVE INFORMATION
#MNEMONIC.UNIT        API CODE       : CURVE DESCRIPTION
#------------------------------------------------------------------------------
DEPTH    .M                          : Measured Depth
CALI     .inches      UNKNOWN        : CALI:litodensidad:rC:NONE:v0 (auto-composite)
DRHO     .g/cm3       UNKNOWN        : DRHO:litodensidad:rC:NONE:v0 (auto-composite)
DT       .us/ft       UNKNOWN        : DT:DT:rC:NONE:v0 (auto-composite)
GR       .API         UNKNOWN        : GR:UNKNOWN:rC:NONE:v0 (auto-composite)
ILD      .ohm.m       UNKNOWN        : ILD:UNKNOWN:rC:NONE:v0 (auto-composite)
ILM      .ohm.m       UNKNOWN        : ILM:UNKNOWN:rC:NONE:v0 (auto-composite)
LLD      .ohm.m       UNKNOWN        : LLD:UNKNOWN:rC:NONE:v0 (auto-composite)
LLS      .ohm.m       UNKNOWN        : LLS:UNKNOWN:rC:NONE:v0 (auto-composite)
MSFL     .ohm.m       UNKNOWN        : MSFL:UNKNOWN:rC:NONE:v0 (auto-composite)
NPHI     .v/v_decimal UNKNOWN        : NPHI:NPHI:rC:NONE:v0 (auto-composite)
PEF      .b/elec      UNKNOWN        : PEF:UNKNOWN:rC:NONE:v0 (auto-composite)
RHOB     .g/cm3       UNKNOWN        : RHOB:UNKNOWN:rC:NONE:v0 (auto-composite)
~A     DEPTH         CALI         DRHO           DT           GR          ILD          ILM          LLD          LLS         MSFL         NPHI          PEF         RHOB
# ...
   2545.0801       9.1120       0.0790      71.8820     123.8440    -999.2500    -999.2500       7.6908       5.0157       8.1609       0.1349       3.0930       2.4920
   2545.2324       9.2848       0.0910      76.5110     125.4196    -999.2500    -999.2500       6.9517       4.4562       7.0167       0.1720       2.9357       2.3167
   2545.3848       9.4580       0.1030      81.1500     126.9910    -999.2500    -999.2500       6.2110       3.8955       5.8700       0.2091       2.7780       2.1410
   2545.5371       9.6648       0.0960      86.7261     128.2296    -999.2500    -999.2500       5.9315       3.6911       5.3096       0.2357       2.8429       2.0906
   2545.6897       9.8720       0.0890      92.3150     129.4650    -999.2500    -999.2500       5.6515       3.4862       4.7479       0.2623       2.9080       2.0400
   2545.8420      10.4803       0.0730      94.8844     125.8041    -999.2500    -999.2500       5.4632       3.3804       4.4792       0.2615       2.7412       1.9541
   2545.9944      11.0900       0.0570      97.4600     122.1520    -999.2500    -999.2500       5.2745       3.2743       4.2098       0.2607       2.5740       1.8680
   2546.1467      11.6788       0.0775     101.6921     121.1934    -999.2500    -999.2500       5.1746       3.2342       4.0432       0.3031       2.5251       1.8345
   2546.2991      12.2690       0.0980     105.9350     120.2370    -999.2500    -999.2500       5.0745       3.1940       3.8762       0.3457       2.4760       1.8010
   2546.4517      11.8590       0.1240     100.6770     122.8443    -999.2500    -999.2500       5.1337       3.2718       3.9297       0.3688       2.5309       1.8709
   2546.6040      11.4480       0.1500      95.4050     125.4460    -999.2500    -999.2500       5.1932       3.3498       3.9832       0.3919       2.5860       1.9410
   2546.7563      11.1494       0.1500      88.2525     125.4385    -999.2500    -999.2500       5.5357       3.6564       4.4515       0.3695       2.6215       2.0094
   2546.9087      10.8500       0.1500      81.0800     125.4310    -999.2500    -999.2500       5.8792       3.9639       4.9210       0.3471       2.6570       2.0780
   2547.0613      11.1650       0.1455      80.0250     121.6925    -999.2500    -999.2500       6.8221       4.7217       6.3204       0.3256       2.6625       2.1214
   2547.2136      11.4810       0.1410      78.9670     117.9610    -999.2500    -999.2500       7.7677       5.4817       7.7240       0.3040       2.6680       2.1650
   2547.3660      11.3377       0.1365      77.6036     111.6344    -999.2500    -999.2500       9.0233       6.4947       9.7777       0.3007       2.6495       2.2039
   2547.5183      11.1940       0.1320      76.2360     105.3190    -999.2500    -999.2500      10.2826       7.5108      11.8376       0.2974       2.6310       2.2430
   2547.6709      10.6045       0.1150      73.4437      99.0959    -999.2500    -999.2500      10.8806       8.0975      13.1220       0.2796       2.6900       2.3104
   2547.8232      10.0140       0.0980      70.6470      92.8830    -999.2500    -999.2500      11.4795       8.6851      14.4084       0.2618       2.7490       2.3780
   2547.9756       9.5604       0.0690      67.2489      95.9844    -999.2500    -999.2500      11.5985       8.9646      14.7135       0.2120       3.0517       2.5294
   2548.1279       9.1060       0.0400      63.8450      99.0810    -999.2500    -999.2500      11.7177       9.2445      15.0192       0.1621       3.3550       2.6810
   2548.2803       9.3093       0.0310      63.3924      93.1374    -999.2500    -999.2500      12.7806      10.4172      15.8910       0.1482       3.5548       2.6620
   2548.4329       9.5130       0.0220      62.9390      87.2020    -999.2500    -999.2500      13.8456      11.5921      16.7644       0.1342       3.7550       2.6430
   2548.5852       9.6314       0.0315      66.2063      74.2860    -999.2500    -999.2500      18.1705      15.7358      22.2619       0.1550       3.6226       2.5691
   2548.7375       9.7500       0.0410      69.4800      61.4070    -999.2500    -999.2500      22.5039      19.8876      27.7701       0.1759       3.4900       2.4950
   2548.8899       9.6176       0.0600      71.2587      53.5382    -999.2500    -999.2500      32.2440      29.1687      42.8778       0.1971       3.5150       2.5150
   2549.0425       9.4850       0.0790      73.0410      45.6910    -999.2500    -999.2500      42.0043      38.4691      58.0167       0.2183       3.5400       2.5350
   2549.1948       9.2837       0.0775      70.2860      44.2421    -999.2500    -999.2500      58.9081      54.6311      83.8729       0.2096       3.6709       2.5775
   2549.3472       9.0820       0.0760      67.5250      42.7970    -999.2500    -999.2500      75.8489      70.8286     109.7858       0.2009       3.8020       2.6200
   2549.4995       8.9826       0.0610      63.5107      42.2418    -999.2500    -999.2500      99.7393      93.4571     143.2933       0.1782       3.7680       2.6400
   2549.6521       8.8830       0.0460      59.4870      41.6880    -999.2500    -999.2500     123.6852     116.1381     176.8785       0.1555       3.7340       2.6600
   2549.8044       8.8875       0.0385      56.2764      39.6971    -999.2500    -999.2500     147.5505     139.2782     207.8140       0.1317       3.5947       2.6970
   2549.9568       8.8920       0.0310      53.0580      37.7110    -999.2500    -999.2500     171.4741     162.4747     238.8250       0.1078       3.4550       2.7340
   2550.1091       8.8935       0.0190      51.5764      36.9421    -999.2500    -999.2500     183.9683     176.5090     256.1557       0.0882       3.3686       2.7560
   2550.2615       8.8950       0.0070      50.0910      36.1750    -999.2500    -999.2500     196.4946     190.5793     273.5309       0.0685       3.2820       2.7780
   2550.4141       8.8595       0.0055      49.9347      38.4584    -999.2500    -999.2500     196.3375     193.7668     276.1686       0.0639       3.3869       2.7900
   2550.5664       8.8240       0.0040      49.7780      40.7370    -999.2500    -999.2500     196.1799     196.9628     278.8134       0.0593       3.4920       2.8020
   2550.7188       8.8884       0.0010      50.0192      40.6674    -999.2500    -999.2500     189.8709     194.7932     268.8344       0.0591       3.5689       2.7965
   2550.8711       8.9530      -0.0020      50.2610      40.5980    -999.2500    -999.2500     183.5441     192.6175     258.8273       0.0588       3.6460       2.7910
   2551.0237       8.9650      -0.0040      49.9774      38.5616    -999.2500    -999.2500     179.2668     191.1364     247.3209       0.0580       3.5581       2.7895
   2551.1760       8.9770      -0.0060      49.6930      36.5290    -999.2500    -999.2500     174.9768     189.6509     235.7805       0.0572       3.4700       2.7880
   2551.3284       8.9495      -0.0055      49.3186      35.0387    -999.2500    -999.2500     176.0248     191.8066     230.5490       0.0561       3.4780       2.7925
   2551.4807       8.9220      -0.0050      48.9430      33.5510    -999.2500    -999.2500     177.0760     193.9690     225.3014       0.0551       3.4860       2.7970
   2551.6333       8.9370      -0.0045      48.8356      33.9188    -999.2500    -999.2500     173.9750     191.1255     224.0822       0.0537       3.5255       2.7975
   2551.7856       8.9520      -0.0040      48.7280      34.2860    -999.2500    -999.2500     170.8690     188.2775     222.8609       0.0523       3.5650       2.7980
   2551.9380       8.9750      -0.0040      48.7545      35.8622    -999.2500    -999.2500     156.6242     173.2178     219.0787       0.0511       3.4971       2.7970
   2552.0903       8.9980      -0.0040      48.7810      37.4360    -999.2500    -999.2500     142.3550     158.1322     215.2899       0.0499       3.4290       2.7960
   2552.2427       8.9645      -0.0020      48.4593      41.7729    -999.2500    -999.2500     119.8120     133.5518     199.0476       0.0494       3.3975       2.8000
