#------------------------------------------------------------------------------
#
#   Created by  : [OpenWorks] Log Export Utility (LEXP)
#   Created on  : 2016-05-12 17:01:14
#   Project     : CANT971
#   User        : R5K
#   Interpreter : PEP
#
#------------------------------------------------------------------------------
~VERSION INFORMATION
VERS. 2.0 : CWLS Log ASCII Standard - version 2.0
WRAP.  NO : One line per depth step
~WELL INFORMATION
#MNEMONIC   .UNIT                                           VALUE :DESCRIPTION
#------------------------------------------------------------------------------
STRT        .M                                          1708.0991 :START DEPTH
STOP        .M                                          2834.0303 :STOP DEPTH
STEP        .M                                             0.1524 :STEP
NULL        .                                           -999.2500 :NULL VALUE
COMP        .                                             UNKNOWN :COMPANY
WELL        .                                                3016 :WELL
FLD         .                                           CANTARELL :FIELD
LOC         .                                             UNKNOWN :LOCATION
CNTY        .                                             UNKNOWN :COUNTY
STAT        .                                            CAMPECHE :STATE
CTRY        .                                              MEXICO :COUNTRY
SRVC        .                                             UNKNOWN :SERVICE COMPANY
DATE        .                                             UNKNOWN :LOG DATE
UWI         .                                                3016 :UNIQUE WELL ID
XCOORD      .                                       192548.498000 :SURFACE X
YCOORD      .                                        92151.948000 :SURFACE Y
LAT         .                                            0.832805 :LATITUDE
LON         .                                          -95.762171 :LONGITUDE
ELEV        .M                                            46.0000 :SURFACE ELEV
ELEV_TYPE   .                                                  KB :ELEV TYPE
~CURVE INFORMATION
#MNEMONIC.UNIT        API CODE       : CURVE DESCRIPTION
#------------------------------------------------------------------------------
DEPTH    .M                          : Measured Depth
CALI     .inches      UNKNOWN        : CALI:litodensidad:rC:NONE:v0 (auto-composite)
CGR      .API         UNKNOWN        : CGR:Espectrometria:rC:NONE:v0 (auto-composite)
DRHO     .g/cm3       UNKNOWN        : DRHO:litodensidad:rC:NONE:v0 (auto-composite)
DT       .us/ft       UNKNOWN        : DT:DT-Load:rC:NONE:v0 (auto-composite)
GR       .API         UNKNOWN        : GR:PETROWORKS:rC:NONE:v1 
GR-LWD   .API         UNKNOWN        : GR-LWD:PETROWORKS:rC:NONE:v1 
ILD-LWD  .ohm.m       UNKNOWN        : ILD-LWD:PETROWORKS:rC:NONE:v1 
ILM-LWD  .ohm.m       UNKNOWN        : ILM-LWD:PETROWORKS:rC:NONE:v1 
LLD      .ohm.m       UNKNOWN        : LLD:Resistivos:rC:NONE:v0 (auto-composite)
LLS      .ohm.m       UNKNOWN        : LLS:Resistivos:rC:NONE:v0 (auto-composite)
MSFL     .ohm.m       UNKNOWN        : MSFL:Resistivos:rC:NONE:v0 (auto-composite)
NPHI     .v/v_decimal UNKNOWN        : NPHI:Porosidad:rC:NONE:v0 (auto-composite)
PEF      .UNKNOWN     UNKNOWN        : PEF:litodensidad:rC:NONE:v0 (auto-composite)
POTA     .wtpercent   UNKNOWN        : POTA:Espectrometria:rC:NONE:v0 (auto-composite)
RHOB     .g/cm3       UNKNOWN        : RHOB:litodensidad:rC:NONE:v0 (auto-composite)
SP       .mV          UNKNOWN        : SP:SP-Load:rC:NONE:v0 (auto-composite)
THOR     .ppm         UNKNOWN        : THOR:Espectrometria:rC:NONE:v0 (auto-composite)
URAN     .ppm         UNKNOWN        : URAN:Espectrometria:rC:NONE:v0 (auto-composite)
~A     DEPTH         CALI          CGR         DRHO           DT           GR       GR-LWD      ILD-LWD      ILM-LWD          LLD          LLS         MSFL         NPHI          PEF         POTA         RHOB           SP         THOR         URAN
# ...
   2281.4280    -999.2500      32.6895    -999.2500    -999.2500      42.6718      60.4473       3.5593       3.8032    -999.2500    -999.2500    -999.2500       0.0868    -999.2500       0.0149    -999.2500    -243.5625       1.8189       1.4477
   2281.5803    -999.2500      32.9680    -999.2500    -999.2500      42.9662      60.4509       3.4854       3.7954    -999.2500    -999.2500    -999.2500       0.0763    -999.2500       0.0147    -999.2500    -243.5625       1.9894       1.4436
   2281.7327    -999.2500      32.3098    -999.2500    -999.2500      41.9974      60.7809       3.5286       3.8287    -999.2500    -999.2500    -999.2500       0.0700    -999.2500       0.0144    -999.2500    -243.5625       1.9981       1.4123
   2281.8850    -999.2500      29.7070    -999.2500    -999.2500      40.0138      62.1620       3.6184       4.0304    -999.2500    -999.2500    -999.2500       0.0668    -999.2500       0.0132    -999.2500    -243.5625       1.8529       1.4624
   2282.0376    -999.2500      32.5264    -999.2500    -999.2500      41.9619      63.2513       3.6070       3.9935    -999.2500    -999.2500    -999.2500       0.0802    -999.2500       0.0143    -999.2500    -243.5625       2.1041       1.3111
   2282.1899    -999.2500      33.7356    -999.2500    -999.2500      43.2514      64.7756       3.5952       3.9700    -999.2500    -999.2500    -999.2500       0.0899    -999.2500       0.0149    -999.2500    -243.7500       2.1170       1.3313
   2282.3423    -999.2500      33.7659    -999.2500    -999.2500      43.6957      65.2033       3.4517       3.6935    -999.2500    -999.2500    -999.2500       0.0742    -999.2500       0.0150    -999.2500    -244.9375       2.1164       1.3777
   2282.4946    -999.2500      33.1122    -999.2500    -999.2500      42.0533      66.6011       3.3343       3.5566    -999.2500    -999.2500    -999.2500       0.0503    -999.2500       0.0142    -999.2500    -245.1875       2.3423       1.2299
   2282.6472    -999.2500      34.5024    -999.2500    -999.2500      42.3413      66.8177       3.2080       3.4110    -999.2500    -999.2500    -999.2500       0.0306    -999.2500       0.0146    -999.2500    -244.1250       2.5845       1.1370
   2282.7996    -999.2500      34.6062    -999.2500    -999.2500      42.5180      67.0508       3.0734       3.2481    -999.2500    -999.2500    -999.2500       0.0327    -999.2500       0.0150    -999.2500    -243.5625       2.3777       1.0976
   2282.9519    -999.2500      36.7424    -999.2500    -999.2500      46.1491      66.4926       3.0518       3.1716    -999.2500    -999.2500    -999.2500       0.0448    -999.2500       0.0157    -999.2500    -244.7500       2.6632       1.3788
   2283.1042    -999.2500      37.1376    -999.2500    -999.2500      48.0543      66.0488       2.9437       3.0620    -999.2500    -999.2500    -999.2500       0.0615    -999.2500       0.0157    -999.2500    -246.5000       2.7380       1.5439
   2283.2568    -999.2500      37.8998    -999.2500    -999.2500      50.2809      66.1455       2.9670       3.1337    -999.2500    -999.2500    -999.2500       0.0541    -999.2500       0.0163    -999.2500    -247.2500       2.6362       1.6840
   2283.4092    -999.2500      36.7149    -999.2500    -999.2500      47.1543      65.9282       2.9970       3.2069    -999.2500    -999.2500    -999.2500       0.0355    -999.2500       0.0157    -999.2500    -248.3750       2.6129       1.4292
   2283.5615    -999.2500      34.3916    -999.2500    -999.2500      45.2653      66.2082       2.9754       3.2911    -999.2500    -999.2500    -999.2500       0.0285    -999.2500       0.0151    -999.2500    -249.6875       2.2271       1.4748
   2283.7139    -999.2500      32.7142    -999.2500    -999.2500      44.9210      67.4501       3.0521       3.3706    -999.2500    -999.2500    -999.2500       0.0440    -999.2500       0.0149    -999.2500    -250.6250       1.8010       1.6158
   2283.8662    -999.2500      33.6528    -999.2500    -999.2500      46.5722      68.9217       3.1998       3.4651    -999.2500    -999.2500    -999.2500       0.0946    -999.2500       0.0153    -999.2500    -251.5000       1.8613       1.7045
   2284.0188    -999.2500      35.5746    -999.2500    -999.2500      47.5415      70.2276       3.2624       3.4972    -999.2500    -999.2500    -999.2500       0.1594    -999.2500       0.0163    -999.2500    -253.2500       1.9403       1.5635
   2284.1711    -999.2500      34.9527    -999.2500    -999.2500      47.0874      70.5766       3.2502       3.4437    -999.2500    -999.2500    -999.2500       0.2094    -999.2500       0.0165    -999.2500    -253.5000       1.5752       1.5770
   2284.3235    -999.2500      31.7005    -999.2500    -999.2500      44.6218      71.3622       3.1348       3.2389    -999.2500    -999.2500    -999.2500       0.2262    -999.2500       0.0153    -999.2500    -254.1250       1.2757       1.6844
   2284.4758    -999.2500      30.8669    -999.2500    -999.2500      42.3544      72.9318       3.2378       3.3867    -999.2500    -999.2500    -999.2500       0.2210    -999.2500       0.0146    -999.2500    -253.8125       1.3768       1.5444
   2284.6284    -999.2500      29.1169    -999.2500    -999.2500      40.3616      75.3544       3.1352       3.2303    -999.2500    -999.2500    -999.2500       0.2141    -999.2500       0.0140    -999.2500    -254.1875       1.1837       1.4423
   2284.7808    -999.2500      31.0778    -999.2500    -999.2500      41.8829      78.6768       3.2283       3.2782    -999.2500    -999.2500    -999.2500       0.2193    -999.2500       0.0148    -999.2500    -255.0000       1.3699       1.3804
   2284.9331    -999.2500      32.9231    -999.2500    -999.2500      42.9603      80.5347       3.1912       3.2709    -999.2500    -999.2500    -999.2500       0.2217    -999.2500       0.0155    -999.2500    -257.1250       1.5131       1.3735
   2285.0854    -999.2500      31.8929    -999.2500    -999.2500      44.3396      80.0188       3.1467       3.2165    -999.2500    -999.2500    -999.2500       0.2304    -999.2500       0.0154    -999.2500    -260.3125       1.2247       1.7059
   2285.2380    -999.2500      30.9809    -999.2500    -999.2500      43.0666      77.2296       3.0327       3.1829    -999.2500    -999.2500    -999.2500       0.2220    -999.2500       0.0151    -999.2500    -262.8750       1.1140       1.6143
   2285.3904    -999.2500      30.5146    -999.2500    -999.2500      42.3110      74.8875       3.0621       3.1214    -999.2500    -999.2500    -999.2500       0.2080    -999.2500       0.0147    -999.2500    -263.0625       1.2050       1.5875
   2285.5427    -999.2500      31.4740    -999.2500    -999.2500      43.3197      74.2284       2.9411       2.9905    -999.2500    -999.2500    -999.2500       0.1703    -999.2500       0.0150    -999.2500    -262.0000       1.3300       1.6168
   2285.6951    -999.2500      31.1573    -999.2500    -999.2500      42.4061      73.9469       2.9336       2.9952    -999.2500    -999.2500    -999.2500       0.1042    -999.2500       0.0145    -999.2500    -258.0625       1.5253       1.6161
   2285.8474    -999.2500      31.2051    -999.2500    -999.2500      42.0769      74.0316       2.8447       2.8616    -999.2500    -999.2500    -999.2500       0.0443    -999.2500       0.0146    -999.2500    -258.8750       1.5222       1.5553
   2286.0000    -999.2500      31.8143    -999.2500    -999.2500      40.7661      72.6432       2.7347       2.7705    -999.2500    -999.2500    -999.2500       0.0181    -999.2500       0.0143    -999.2500    -259.6875       1.8570       1.2369
   2286.1523    -999.2500      32.1710    -999.2500    -999.2500      42.6619      71.7524       2.8259       2.8434    -999.2500    -999.2500    -999.2500       0.0113    -999.2500       0.0145    -999.2500    -262.7500       1.8702       1.4203
   2286.3047    -999.2500      33.3982    -999.2500    -999.2500      43.7093      70.6950       2.7654       2.7863    -999.2500    -999.2500    -999.2500       0.0098    -999.2500       0.0150    -999.2500    -265.6875       1.9601       1.4598
