#------------------------------------------------------------------------------
#
#   Created by  : [OpenWorks] Log Export Utility (LEXP)
#   Created on  : 2016-05-23 11:55:55
#   Project     : CANT971
#   User        : R5K
#   Interpreter : PEP
#
#------------------------------------------------------------------------------
~VERSION INFORMATION
VERS. 2.0 : CWLS Log ASCII Standard - version 2.0
WRAP.  NO : One line per depth step
~WELL INFORMATION
#MNEMONIC   .UNIT                                           VALUE :DESCRIPTION
#------------------------------------------------------------------------------
STRT        .M                                          1803.5016 :START DEPTH
STOP        .M                                          3154.9849 :STOP DEPTH
STEP        .M                                             0.1524 :STEP
NULL        .                                           -999.2500 :NULL VALUE
COMP        .                                             UNKNOWN :COMPANY
WELL        .                                             418D-ST :WELL
FLD         .                                             UNKNOWN :FIELD
LOC         .                                             UNKNOWN :LOCATION
CNTY        .                                             UNKNOWN :COUNTY
STAT        .                                             UNKNOWN :STATE
CTRY        .                                             UNKNOWN :COUNTRY
SRVC        .                                             UNKNOWN :SERVICE COMPANY
DATE        .                                             UNKNOWN :LOG DATE
UWI         .                                             418D-ST :UNIQUE WELL ID
XCOORD      .                                       597130.010000 :SURFACE X
YCOORD      .                                      2144879.410000 :SURFACE Y
LAT         .                                           19.396924 :LATITUDE
LON         .                                          -92.074978 :LONGITUDE
ELEV        .M                                             0.0000 :SURFACE ELEV
ELEV_TYPE   .                                                  NA :ELEV TYPE
~CURVE INFORMATION
#MNEMONIC.UNIT        API CODE       : CURVE DESCRIPTION
#------------------------------------------------------------------------------
DEPTH    .M                          : Measured Depth
CALI     .inches      UNKNOWN        : CALI:PETROWORKS:rC:NONE:v1 
CGR      .API         UNKNOWN        : CGR:PETROWORKS:rC:NONE:v1 
DRHO     .g/cm3       UNKNOWN        : DRHO:PETROWORKS:rC:NONE:v1 
DT       .us/ft       UNKNOWN        : DT:PETROWORKS:rC:NONE:v1 
GR       .API         UNKNOWN        : GR:PETROWORKS:rC:NONE:v3 
ILD      .ohm.m       UNKNOWN        : ILD:registros:rC:NONE:v0 (auto-composite)
ILM      .ohm.m       UNKNOWN        : ILM:registros:rC:NONE:v0 (auto-composite)
LLD      .ohm.m       UNKNOWN        : LLD:PETROWORKS:rC:NONE:v2 
LLS      .ohm.m       UNKNOWN        : LLS:PETROWORKS:rC:NONE:v2 
MSFL     .ohm.m       UNKNOWN        : MSFL:PETROWORKS:rC:NONE:v1 
NPHI     .v/v_decimal UNKNOWN        : NPHI:PETROWORKS:rC:NONE:v1 
PEF      .b/elec      UNKNOWN        : PEF:PETROWORKS:rC:NONE:v1 
POTA     .wtpercent   UNKNOWN        : POTA:PETROWORKS:rC:NONE:v1 
RHOB     .g/cm3       UNKNOWN        : RHOB:PETROWORKS:rC:NONE:v1 
THOR     .ppm         UNKNOWN        : THOR:PETROWORKS:rC:NONE:v1 
URAN     .ppm         UNKNOWN        : URAN:PETROWORKS:rC:NONE:v1 
~A     DEPTH         CALI          CGR         DRHO           DT           GR          ILD          ILM          LLD          LLS         MSFL         NPHI          PEF         POTA         RHOB         THOR         URAN
# ...
   2852.3184      12.8672      28.9412      -0.0035      64.2000      79.7631    -999.2500    -999.2500     114.2663     111.7605     220.1250       0.0789       5.2109       0.0111       2.6171       3.7112       7.0774
   2852.4707      12.8672      29.0789      -0.0012      64.3000      79.7514    -999.2500    -999.2500     132.7243     125.9861     916.0000       0.0862       4.8438       0.0113       2.6081       3.6431       7.0566
   2852.6233      12.8594      29.1380       0.0008      63.8000      79.7803    -999.2500    -999.2500     151.3717     139.1023    1615.0000       0.0722       5.0273       0.0113       2.6144       3.6565       7.0524
   2852.7756      12.8672      21.0689       0.0095      64.6000      56.3729    -999.2500    -999.2500     172.6234     154.3934     187.3750       0.0590       4.9258       0.0067       2.6433       3.2917       4.9164
   2852.9280      12.8672      22.6486       0.0099      64.8000      58.7118    -999.2500    -999.2500     181.5903     161.8902     226.0000       0.0513       5.1016       0.0072       2.6392       3.5341       5.0221
   2853.0803      12.8672      22.5701       0.0093      63.4000      58.2759    -999.2500    -999.2500     206.3392     177.0547     300.7500       0.0499       5.0781       0.0072       2.6350       3.5015       4.9724
   2853.2327      12.8672      22.1938       0.0093      63.3000      57.5889    -999.2500    -999.2500     245.4611     200.0635     160.6250       0.0369       5.2148       0.0072       2.6354       3.4162       4.9291
   2853.3853      12.8672      20.3592       0.0112      61.2000      54.7293    -999.2500    -999.2500     275.3582     215.9084    1174.0000       0.0264       5.4336       0.0067       2.6564       3.0954       4.7864
   2853.5376      12.8672      19.7101       0.0105      58.9000      53.8508    -999.2500    -999.2500     292.5487     224.9500     763.5000       0.0206       5.4219       0.0064       2.6653       3.0176       4.7544
   2853.6899      12.8672      23.2736       0.0083      59.0000      59.0964    -999.2500    -999.2500     279.2338     214.3976     852.5000       0.0225       5.3828       0.0080       2.6585       3.3761       4.9887
   2853.8423      12.8672      24.4936       0.0057      59.6000      60.7696    -999.2500    -999.2500     232.5802     187.9119    1211.0000       0.0224       5.2930       0.0084       2.6505       3.5564       5.0518
   2853.9949      12.8438      24.1592       0.0054      55.9000      60.2072    -999.2500    -999.2500     251.8435     198.5708     192.8750       0.0201       5.4648       0.0083       2.6579       3.4955       5.0200
   2854.1472      12.8672      17.0692       0.0089      59.1000      47.5878    -999.2500    -999.2500     234.3608     187.9605    1137.0000       0.0227       5.7305       0.0063       2.6697       2.3046       4.2500
   2854.2996      12.8672      18.0275       0.0073      57.6000      49.0972    -999.2500    -999.2500     214.8548     175.3225    1563.0000       0.0309       5.4492       0.0067       2.6578       2.3905       4.3268
   2854.4519      12.8672      20.2064       0.0050      58.7000      53.3566    -999.2500    -999.2500     320.2172     234.7341     440.0000       0.0431       5.5117       0.0073       2.6374       2.7600       4.6165
   2854.6045      12.8672      22.2899       0.0059      59.1000      56.6164    -999.2500    -999.2500     323.9689     246.8062     548.0000       0.0509       5.0859       0.0079       2.6463       3.1220       4.7803
   2854.7568      12.8672      24.1649       0.0067      61.2000      69.9940    -999.2500    -999.2500     218.7389     183.7339     481.2500       0.0621       5.0781       0.0087       2.6528       3.3338       6.3821
   2854.9092      12.8594      25.6774       0.0067      61.5000      72.1618    -999.2500    -999.2500     206.6240     176.8450     100.9375       0.0691       5.0273       0.0093       2.6574       3.5171       6.4734
   2855.0615      12.8672      25.7291       0.0052      63.7000      72.3154    -999.2500    -999.2500     183.3570     160.8238      96.9375       0.0587       5.4492       0.0093       2.6313       3.5169       6.4876
   2855.2139      12.8672      20.4943       0.0062      63.0000      63.5892    -999.2500    -999.2500     165.5419     147.5742     158.0000       0.0430       5.8086       0.0070       2.6270       2.9958       6.0014
   2855.3665      12.8516      16.4224       0.0078      61.9000      54.9289    -999.2500    -999.2500     202.3630     174.8559    1071.0000       0.0332       5.8672       0.0058       2.6236       2.3168       5.3624
   2855.5188      12.8672      18.3507       0.0098      60.5000      58.0443    -999.2500    -999.2500     312.7673     240.6350     301.5000       0.0412       5.5625       0.0064       2.6294       2.6372       5.5277
   2855.6711      12.8594      20.0598       0.0069      59.9000      70.1179    -999.2500    -999.2500     446.0355     313.8041     806.0000       0.0527       5.2891       0.0060       2.6175       3.3134       6.9711
   2855.8235      12.7578      25.6495       0.0049      60.7000      78.5831    -999.2500    -999.2500     436.7372     308.3676    1772.0000       0.0662       5.1875       0.0093       2.6086       3.5071       7.3715
   2855.9761      12.8047      23.4249       0.0021      63.1000      75.0464    -999.2500    -999.2500     484.4569     329.0229     647.0000       0.0634       5.4922       0.0085       2.6026       3.1856       7.1888
   2856.1284      12.7266      22.2442       0.0000      65.0000      72.9611    -999.2500    -999.2500     524.1249     362.3157     404.7500       0.0556       5.7969       0.0082       2.6070       2.9843       7.0628
   2856.2808      12.7109      20.9520      -0.0019      64.9000      71.3403    -999.2500    -999.2500     588.8734     385.9127    1362.0000       0.0444       5.9141       0.0075       2.6163       2.9298       7.0171
   2856.4331      12.7422      19.4874      -0.0021      63.2000      69.4468    -999.2500    -999.2500     721.7234     425.1243    1588.0000       0.0431       5.8516       0.0066       2.6338       2.8682       6.9573
   2856.5857      12.7266      21.3358      -0.0035      60.7000      72.2253    -999.2500    -999.2500     983.3414     492.2379    1320.0000       0.0622       5.4141       0.0072       2.6335       3.1305       7.0869
   2856.7380      12.8047      22.0064      -0.0067      61.6000      73.0822    -999.2500    -999.2500    1149.7402     504.5496    1382.0000       0.0818       5.1016       0.0076       2.6120       3.1760       7.1128
   2856.8904      12.7891      20.1560      -0.0089      64.4000      70.0248    -999.2500    -999.2500     305.5868     254.1342     697.0000       0.1068       4.9453       0.0069       2.5856       2.9159       6.9447
   2857.0427      12.7578      44.1615      -0.0081      68.2000     109.6602    -999.2500    -999.2500     155.7078     152.0956     108.5000       0.0935       5.6914       0.0147       2.5730       6.6058       9.1213
   2857.1951      12.7422      34.6619      -0.0050      69.9000      92.2101    -999.2500    -999.2500     122.7192     122.4936     132.0000       0.0746       6.4453       0.0112       2.6049       5.3178       8.0141
   2857.3477      12.8281      33.0266      -0.0006      69.0000      89.7125    -999.2500    -999.2500     126.6804     126.2965     143.6250       0.0423       6.4063       0.0107       2.6356       5.0632       7.8941
   2857.5000      12.8438      33.4550       0.0051      61.0000      90.2611    -999.2500    -999.2500     156.3791     149.5656    1686.0000       0.0509       5.6992       0.0108       2.6659       5.1307       7.9108
   2857.6523      12.8359      32.2734       0.0029      58.7000      88.2771    -999.2500    -999.2500     218.7216     191.2030    1701.0000       0.0718       5.4063       0.0105       2.6356       4.9494       7.7991
   2857.8047      12.8594      39.2847      -0.0027      59.8000     123.4367    -999.2500    -999.2500     295.1227     252.8582     698.5000       0.1007       5.3867       0.0141       2.6036       5.4358      11.7190
