#------------------------------------------------------------------------------
#
#   Created by  : [OpenWorks] Log Export Utility (LEXP)
#   Created on  : 2016-05-23 11:50:56
#   Project     : CANT971
#   User        : R5K
#   Interpreter : PEP
#
#------------------------------------------------------------------------------
~VERSION INFORMATION
VERS. 2.0 : CWLS Log ASCII Standard - version 2.0
WRAP.  NO : One line per depth step
~WELL INFORMATION
#MNEMONIC   .UNIT                                           VALUE :DESCRIPTION
#------------------------------------------------------------------------------
STRT        .M                                           679.7040 :START DEPTH
STOP        .M                                          2836.1641 :STOP DEPTH
STEP        .M                                             0.1524 :STEP
NULL        .                                           -999.2500 :NULL VALUE
COMP        .                                   PEMEX EXPL & PROD :COMPANY
WELL        .                                                1044 :WELL
FLD         .                                           CANTARELL :FIELD
LOC         .                                             UNKNOWN :LOCATION
CNTY        .                                      CD. DEL CARMEN :COUNTY
STAT        .                                            CAMPECHE :STATE
CTRY        .                                              MEXICO :COUNTRY
SRVC        .                                             UNKNOWN :SERVICE COMPANY
DATE        .                                             UNKNOWN :LOG DATE
UWI         .                                          3060000497 :UNIQUE WELL ID
XCOORD      .                                       596164.320000 :SURFACE X
YCOORD      .                                      2150609.730000 :SURFACE Y
LAT         .                                           19.448753 :LATITUDE
LON         .                                          -92.083884 :LONGITUDE
ELEV        .M                                            30.0000 :SURFACE ELEV
ELEV_TYPE   .                                                  KB :ELEV TYPE
~CURVE INFORMATION
#MNEMONIC.UNIT        API CODE       : CURVE DESCRIPTION
#------------------------------------------------------------------------------
DEPTH    .M                          : Measured Depth
CALI     .inches      UNKNOWN        : CALI:litodensidad:rC:NONE:v0 (auto-composite)
DRHO     .g/cm3       UNKNOWN        : DRHO:litodensidad:rC:NONE:v0 (auto-composite)
DT       .us/ft       UNKNOWN        : DT:DT:rC:NONE:v0 (auto-composite)
GR       .API         UNKNOWN        : GR:UNKNOWN:rC:NONE:v0 (auto-composite)
ILD      .ohm.m       UNKNOWN        : ILD:UNKNOWN:rC:NONE:v0 (auto-composite)
ILM      .ohm.m       UNKNOWN        : ILM:UNKNOWN:rC:NONE:v0 (auto-composite)
LLD      .ohm.m       UNKNOWN        : LLD:UNKNOWN:rC:NONE:v0 (auto-composite)
LLS      .ohm.m       UNKNOWN        : LLS:UNKNOWN:rC:NONE:v0 (auto-composite)
MSFL     .ohm.m       UNKNOWN        : MSFL:UNKNOWN:rC:NONE:v0 (auto-composite)
NPHI     .v/v_decimal UNKNOWN        : NPHI:NPHI:rC:NONE:v0 (auto-composite)
PEF      .b/elec      UNKNOWN        : PEF:UNKNOWN:rC:NONE:v0 (auto-composite)
RHOB     .g/cm3       UNKNOWN        : RHOB:UNKNOWN:rC:NONE:v0 (auto-composite)
~A     DEPTH         CALI         DRHO           DT           GR          ILD          ILM          LLD          LLS         MSFL         NPHI          PEF         RHOB
# ...
   2406.0911       8.5700      -0.9450      64.9790      34.2120       2.8540       2.8450       2.7735       2.6706       2.1619       0.2624       4.8050       2.3450
   2406.2437       8.5700      -0.9695      65.0294      35.4804       2.8290       2.9166       2.7382       2.6211       2.1615       0.2631       5.3228       2.3270
   2406.3960       8.5700      -0.9940      65.0800      36.7460       2.8040       2.9880       2.7028       2.5715       2.1611       0.2638       5.8420       2.3090
   2406.5483       8.5700      -1.0160      65.1654      39.6796       2.7354       2.9349       2.6901       2.5766       2.1681       0.2664       4.8798       2.2890
   2406.7007       8.5700      -1.0380      65.2510      42.6070       2.6670       2.8820       2.6773       2.5817       2.1751       0.2691       3.9150       2.2690
   2406.8533       8.5700      -1.0595      65.3808      42.4694       2.6670       2.7177       2.6857       2.6227       2.1794       0.2870       5.6256       2.2026
   2407.0056       8.5700      -1.0810      65.5110      42.3320       2.6670       2.5540       2.6941       2.6637       2.1838       0.3049       7.3410       2.1360
   2407.1580       8.5700      -1.1030      65.5075      40.9042       2.6655       2.5700       2.7191       2.7011       2.1837       0.3410       4.6744       2.0386
   2407.3103       8.5700      -1.1250      65.5040      39.4790       2.6640       2.5860       2.7442       2.7386       2.1837       0.3772       2.0000       1.9410
   2407.4629       8.5700      -1.1370      65.5240      39.5225       2.6490       2.6421       2.7714       2.7656       2.1770       0.4032       5.0388       1.9031
   2407.6152       8.5700      -1.1490      65.5440      39.5660       2.6340       2.6980       2.7986       2.7927       2.1703       0.4293       8.0870       1.8650
   2407.7676       8.5700      -1.1380      65.4606      47.3398    -999.2500    -999.2500       2.8003       2.7923       2.1630       0.4626       8.5672       1.8875
   2407.9199       8.5700      -1.1270      65.3770      55.1010    -999.2500    -999.2500       2.8021       2.7920       2.1557       0.4960       9.0490       1.9100
   2408.0723       8.5700      -1.1180      65.3825      55.5764    -999.2500    -999.2500       2.7946       2.7787       2.1526       0.5133       5.5054       1.9155
   2408.2249       8.5700      -1.1090      65.3880      56.0510    -999.2500    -999.2500       2.7871       2.7654       2.1495       0.5306       1.9500       1.9210
   2408.3772       8.5700      -1.0990      65.4549      56.3232    -999.2500    -999.2500       2.7933       2.7608       2.1498       0.5289       5.7989       1.9370
   2408.5295       8.5700      -1.0890      65.5220      56.5950    -999.2500    -999.2500       2.7996       2.7561       2.1502       0.5273       9.6610       1.9530
   2408.6819       8.5700      -1.0840      65.4456      56.9487    -999.2500    -999.2500       2.8130       2.7644       2.1517       0.5117       5.3642       1.9590
   2408.8345       8.5700      -1.0790      65.3690      57.3020    -999.2500    -999.2500       2.8264       2.7726       2.1532       0.4961       1.0520       1.9650
   2408.9868       8.5700      -1.0755      65.0711      58.7770    -999.2500    -999.2500       2.8487       2.7990       2.1544       0.4679       0.9317       1.9675
   2409.1392       8.5700      -1.0720      64.7720      60.2480    -999.2500    -999.2500       2.8711       2.8254       2.1556       0.4395       0.8110       1.9700
   2409.2915       8.5700      -1.0665      64.3480      59.6017    -999.2500    -999.2500       2.8857       2.8535       2.1581       0.4237       1.0982       1.9815
   2409.4441       8.5700      -1.0610      63.9230      58.9570    -999.2500    -999.2500       2.9004       2.8815       2.1606       0.4079       1.3860       1.9930
   2409.5964       8.5700      -1.0520      64.0189      59.4882    -999.2500    -999.2500       2.9208       2.9227       2.1753       0.3813       3.7812       2.0220
   2409.7488       8.5700      -1.0430      64.1150      60.0180    -999.2500    -999.2500       2.9412       2.9640       2.1900       0.3546       6.1820       2.0510
   2409.9011       8.5700      -1.0350      64.3996      59.9845    -999.2500    -999.2500       2.9857       3.0274       2.2586       0.3404       6.0462       2.0470
   2410.0535       8.5700      -1.0270      64.6850      59.9510    -999.2500    -999.2500       3.0302       3.0910       2.3273       0.3261       5.9100       2.0430
   2410.2061       8.5700      -1.0295      64.6540      58.7136    -999.2500    -999.2500       3.0877       3.1600       2.4620       0.3307       3.7118       2.0200
   2410.3584       8.5700      -1.0320      64.6230      57.4790    -999.2500    -999.2500       3.1453       3.2291       2.5971       0.3353       1.5080       1.9970
   2410.5107       8.5700      -1.0430      64.5032      58.5892    -999.2500    -999.2500       3.1888       3.2709       2.7317       0.3527       2.2075       1.9476
   2410.6631       8.5700      -1.0540      64.3830      59.6970    -999.2500    -999.2500       3.2323       3.3129       2.8667       0.3700       2.9090       1.8980
   2410.8157       8.5700      -1.0735      64.4194      59.4007    -999.2500    -999.2500       3.2780       3.3380       2.9759       0.3877       2.4976       1.8456
   2410.9680       8.5700      -1.0930      64.4560      59.1050    -999.2500    -999.2500       3.3239       3.3632       3.0854       0.4055       2.0850       1.7930
   2411.1204       8.5700      -1.1269      64.5608      60.8226    -999.2500    -999.2500       3.3497       3.3766       3.1203       0.4138       2.0306       1.7516
   2411.2727       8.5700      -1.1610      64.6660      62.5370    -999.2500    -999.2500       3.3755       3.3901       3.1553       0.4220       1.9760       1.7100
   2411.4253       8.5700      -1.1565      64.7349      61.8329    -999.2500    -999.2500       3.4013       3.4051       3.1561       0.4111       5.6358       1.7464
   2411.5776       8.5700      -1.1520      64.8040      61.1300    -999.2500    -999.2500       3.4273       3.4202       3.1570       0.4000       9.3070       1.7830
   2411.7300       8.5700      -1.1370      64.9538      59.1189    -999.2500    -999.2500       3.4401       3.4338       3.1602       0.3723       9.4553       1.8783
   2411.8823       8.5700      -1.1220      65.1040      57.1110    -999.2500    -999.2500       3.4530       3.4475       3.1635       0.3445       9.6040       1.9740
   2412.0347       8.5700      -1.1105      65.0421      57.5868    -999.2500    -999.2500       3.4639       3.4602       3.1664       0.3324       5.1040       2.0294
   2412.1873       8.5700      -1.0990      64.9800      58.0620    -999.2500    -999.2500       3.4749       3.4728       3.1692       0.3202       0.5890       2.0850
   2412.3396       8.5700      -1.0890      64.6456      59.0377    -999.2500    -999.2500       3.4752       3.4746       3.1651       0.3176       3.5494       2.1469
   2412.4919       8.5700      -1.0790      64.3100      60.0120    -999.2500    -999.2500       3.4755       3.4764       3.1610       0.3149       6.5200       2.2090
   2412.6443       8.5700      -1.0870      62.8486      61.1157    -999.2500    -999.2500       3.5026       3.5121       3.1570       0.3179       7.5012       2.1900
   2412.7969       8.5700      -1.0950      61.3820      62.2180    -999.2500    -999.2500       3.5299       3.5479       3.1531       0.3209       8.4860       2.1710
   2412.9492       8.5700      -1.0950      59.3154      64.9492    -999.2500    -999.2500       3.5621       3.5877       3.1446       0.3377       7.4909       2.0926
   2413.1016       8.5700      -1.0950      57.2410      67.6730    -999.2500    -999.2500       3.5945       3.6277       3.1360       0.3546       6.4920       2.0140
   2413.2539       8.5700      -1.0915      57.0872      69.3396    -999.2500    -999.2500       3.6238       3.6553       3.1325       0.3522       7.7286       2.0170
