#------------------------------------------------------------------------------
#
#   Created by  : [OpenWorks] Log Export Utility (LEXP)
#   Created on  : 2016-05-23 11:55:46
#   Project     : CANT971
#   User        : R5K
#   Interpreter : PEP
#
#------------------------------------------------------------------------------
~VERSION INFORMATION
VERS. 2.0 : CWLS Log ASCII Standard - version 2.0
WRAP.  NO : One line per depth step
~WELL INFORMATION
#MNEMONIC   .UNIT                                           VALUE :DESCRIPTION
#------------------------------------------------------------------------------
STRT        .M                                           292.5192 :START DEPTH
STOP        .M                                          2727.7188 :STOP DEPTH
STEP        .M                                             0.1524 :STEP
NULL        .                                           -999.2500 :NULL VALUE
COMP        .                                   PEMEX EXPL & PROD :COMPANY
WELL        .                                                  39 :WELL
FLD         .                                           CANTARELL :FIELD
LOC         .                                             UNKNOWN :LOCATION
CNTY        .                                      CD. DEL CARMEN :COUNTY
STAT        .                                            CAMPECHE :STATE
CTRY        .                                              MEXICO :COUNTRY
SRVC        .                                             UNKNOWN :SERVICE COMPANY
DATE        .                                             UNKNOWN :LOG DATE
UWI         .                                          3060000161 :UNIQUE WELL ID
XCOORD      .                                       603360.280000 :SURFACE X
YCOORD      .                                      2145098.760000 :SURFACE Y
LAT         .                                           19.398594 :LATITUDE
LON         .                                          -92.015639 :LONGITUDE
ELEV        .M                                            27.1400 :SURFACE ELEV
ELEV_TYPE   .                                                  KB :ELEV TYPE
~CURVE INFORMATION
#MNEMONIC.UNIT        API CODE       : CURVE DESCRIPTION
#------------------------------------------------------------------------------
DEPTH    .M                          : Measured Depth
CALI     .inches      UNKNOWN        : CALI:Import:rC:NONE:v0 (auto-composite)
DRHO     .g/cm3       UNKNOWN        : DRHO:Import:rC:NONE:v0 (auto-composite)
DT       .us/ft       UNKNOWN        : DT:Import:rC:NONE:v0 (auto-composite)
GR       .API         UNKNOWN        : GR:Import:rC:NONE:v0 (auto-composite)
ILD      .ohm.m       UNKNOWN        : ILD:Import:rC:NONE:v0 (auto-composite)
LLD      .ohm.m       UNKNOWN        : LLD:Import:rC:NONE:v0 (auto-composite)
LLS      .ohm.m       UNKNOWN        : LLS:Import:rC:NONE:v0 (auto-composite)
MSFL     .ohm.m       UNKNOWN        : MSFL:Import:rC:NONE:v0 (auto-composite)
NPHI     .v/v_decimal UNKNOWN        : NPHI:Import:rC:NONE:v0 (auto-composite)
RHOB     .g/cm3       UNKNOWN        : RHOB:Import:rC:NONE:v0 (auto-composite)
~A     DEPTH         CALI         DRHO           DT           GR          ILD          LLD          LLS         MSFL         NPHI         RHOB
# ...
   1905.5208       0.0000       0.0000      40.0000      56.2304       0.2000       0.2000       0.2000       0.2000      -0.1500       2.0000
   1905.6732       0.0000       0.0000      40.0000      56.0465       0.2000       0.2000       0.2000       0.2000      -0.1500       2.0000
   1905.8256       0.0000       0.0000      40.0000      54.9715       0.2000       0.2000       0.2000       0.2000      -0.1500       2.0000
   1905.9780       0.0000       0.0000      40.0000      53.8145       0.2000       0.2000       0.2000       0.2000      -0.1500       2.0000
   1906.1304       0.0000       0.0000      40.0000      56.2315       0.2000       0.2000       0.2000       0.2000      -0.1500       2.0000
   1906.2828       0.0000       0.0000      40.0000      58.9810       0.2000       0.2000       0.2000       0.2000      -0.1500       2.0000
   1906.4352       0.0000       0.0000      40.0000      60.1090       0.2000       0.2000       0.2000       0.2000      -0.1500       2.0000
   1906.5876       0.0000       0.0000      40.0000      61.0952       0.2000       0.2000       0.2000       0.2000      -0.1500       2.0000
   1906.7400       0.0000       0.0000      40.0000      59.7450       0.2000       0.2000       0.2000       0.2000      -0.1500       2.0000
   1906.8925       0.0000       0.0000      40.0000      58.2057       0.2000       0.2000       0.2000       0.2000      -0.1500       2.0000
   1907.0448       0.0000       0.0000      40.0000      59.1692       0.2000       0.2000       0.2000       0.2000      -0.1500       2.0000
   1907.1971       0.0000       0.0000      40.0000      60.3399       0.2000       0.2000       0.2000       0.2000      -0.1500       2.0000
   1907.3496       0.0000       0.0000      40.0000      57.7434       0.2000       0.2000       0.2000       0.2000      -0.1500       2.0000
   1907.5020       0.0000       0.0000      40.0000      54.8591       0.2000       0.2000       0.2000       0.2000      -0.1500       2.0000
   1907.6544       0.0000       0.0000      40.0000      58.0679       0.2000       0.2000       0.2000       0.2000      -0.1500       2.0000
   1907.8068       0.0000       0.0000      40.0000      61.7482       0.2000       0.2000       0.2000       0.2000      -0.1500       2.0000
   1907.9592       0.0000       0.0000      40.0000      65.6538       0.2000       0.2000       0.2000       0.2000      -0.1500       2.0000
   1908.1116       0.0000       0.0000      40.0000      69.5757       0.2000       0.2000       0.2000       0.2000      -0.1500       2.0000
   1908.2640       0.0000       0.0000      40.0000      68.0452       0.2000       0.2000       0.2000       0.2000      -0.1500       2.0000
   1908.4164       0.0000       0.0000      40.0000      66.1573       0.2000       0.2000       0.2000       0.2000      -0.1500       2.0000
   1908.5688       0.0000       0.0000      40.0000      61.4983       0.2000       0.2000       0.2000       0.2000      -0.1500       2.0000
   1908.7212       0.0000       0.0000      40.0000      56.6523       0.2000       0.2000       0.2000       0.2000      -0.1500       2.0000
   1908.8735       0.0000       0.0000      40.0000      56.3283       0.2000       0.2000       0.2000       0.2000      -0.1500       2.0000
   1909.0260       0.0000       0.0000      40.0000      56.2808       0.2000       0.2000       0.2000       0.2000      -0.1500       2.0000
   1909.1783       0.0000       0.0000      40.0000      53.9235       0.2000       0.2000       0.2000       0.2000      -0.1500       2.0000
   1909.3308       0.0000       0.0000      40.0000      51.4206       0.2000       0.2000       0.2000       0.2000      -0.1500       2.0000
   1909.4832       0.0000       0.0000      40.0000      54.5520       0.2000       0.2000       0.2000       0.2000      -0.1500       2.0000
   1909.6356       0.0000       0.0000      40.0000      58.0036       0.2000       0.2000       0.2000       0.2000      -0.1500       2.0000
   1909.7880       0.0000       0.0000      40.0000      54.9442       0.2000       0.2000       0.2000       0.2000      -0.1500       2.0000
   1909.9404       0.0000       0.0000      40.0000      51.5551       0.2000       0.2000       0.2000       0.2000      -0.1500       2.0000
   1910.0928       0.0000       0.0000      40.0000      52.2535       0.2000       0.2000       0.2000       0.2000      -0.1500       2.0000
   1910.2452       0.0000       0.0000      40.0000      53.1665       0.2000       0.2000       0.2000       0.2000      -0.1500       2.0000
   1910.3976       0.0000       0.0000      40.0000      54.8761       0.2000       0.2000       0.2000       0.2000      -0.1500       2.0000
   1910.5500       0.0000       0.0000      40.0000      56.6226       0.2000       0.2000       0.2000       0.2000      -0.1500       2.0000
   1910.7024       0.0000       0.0000      40.0000      62.7940       0.2000       0.2000       0.2000       0.2000      -0.1500       2.0000
   1910.8547       0.0000       0.0000      40.0000      69.1787       0.2000       0.2000       0.2000       0.2000      -0.1500       2.0000
   1911.0072       0.0000       0.0000      40.0000      66.9973       0.2000       0.2000       0.2000       0.2000      -0.1500       2.0000
   1911.1595       0.0000       0.0000      40.0000      64.4548       0.2000       0.2000       0.2000       0.2000      -0.1500       2.0000
   1911.3120       0.0000       0.0000      40.0000      62.1124       0.2000       0.2000       0.2000       0.2000      -0.1500       2.0000
   1911.4644       0.0000       0.0000      40.0000      59.7774       0.2000       0.2000       0.2000       0.2000      -0.1500       2.0000
   1911.6168       0.0000       0.0000      40.0000      61.4863       0.2000       0.2000       0.2000       0.2000      -0.1500       2.0000
   1911.7692       0.0000       0.0000      40.0000      63.3487       0.2000       0.2000       0.2000       0.2000      -0.1500       2.0000
   1911.9216       0.0000       0.0000      40.0000      68.2623       0.2000       0.2000       0.2000       0.2000      -0.1500       2.0000
   1912.0740       0.0000       0.0000      40.0000      73.2762       0.2000       0.2000       0.2000       0.2000      -0.1500       2.0000
   1912.2264       0.0000       0.0000      40.0000      69.3009       0.2000       0.2000       0.2000       0.2000      -0.1500       2.0000
   1912.3788       0.0000       0.0000      40.0000      65.0829       0.2000       0.2000       0.2000       0.2000      -0.1500       2.0000
   1912.5312       0.0000       0.0000      40.0000      63.5648       0.2000       0.2000       0.2000       0.2000      -0.1500       2.0000
   1912.6836       0.0000       0.0000      40.0000      62.1243       0.2000       0.2000       0.2000       0.2000      -0.1500       2.0000
   1912.8359       0.0000       0.0000      40.0000      60.9556       0.2000       0.2000       0.2000       0.2000      -0.1500       2.0000
   1912.9884       0.0000       0.0000      40.0000      59.7931       0.2000       0.2000       0.2000       0.2000      -0.1500       2.0000
   1913.1407       0.0000       0.0000      40.0000      53.4497       0.2000       0.2000       0.2000       0.2000      -0.1500       2.0000
   1913.2932       0.0000       0.0000      40.0000      46.9829       0.2000       0.2000       0.2000       0.2000      -0.1500       2.0000
   1913.4456       0.0000       0.0000      40.0000      50.9336       0.2000       0.2000       0.2000       0.2000      -0.1500       2.0000
   1913.5980       0.0000       0.0000      40.0000      55.0811       0.2000       0.2000       0.2000       0.2000      -0.1500       2.0000
   1913.7504       0.0000       0.0000      40.0000      58.6478       0.2000       0.2000       0.2000       0.2000      -0.1500       2.0000
   1913.9028       0.0000       0.0000      40.0000      62.2068       0.2000       0.2000       0.2000       0.2000      -0.1500       2.0000
