#------------------------------------------------------------------------------
#
#   Created by  : [OpenWorks] Log Export Utility (LEXP)
#   Created on  : 2016-05-12 17:01:28
#   Project     : CANT971
#   User        : R5K
#   Interpreter : PEP
#
#------------------------------------------------------------------------------
~VERSION INFORMATION
VERS. 2.0 : CWLS Log ASCII Standard - version 2.0
WRAP.  NO : One line per depth step
~WELL INFORMATION
#MNEMONIC   .UNIT                                           VALUE :DESCRIPTION
#------------------------------------------------------------------------------
STRT        .M                                           350.5962 :START DEPTH
STOP        .M                                          2218.5630 :STOP DEPTH
STEP        .M                                             0.1524 :STEP
NULL        .                                           -999.2500 :NULL VALUE
COMP        .                                   PEMEX EXPL & PROD :COMPANY
WELL        .                                                  79 :WELL
FLD         .                                           CANTARELL :FIELD
LOC         .                                             UNKNOWN :LOCATION
CNTY        .                                      CD. DEL CARMEN :COUNTY
STAT        .                                            CAMPECHE :STATE
CTRY        .                                              MEXICO :COUNTRY
SRVC        .                                             UNKNOWN :SERVICE COMPANY
DATE        .                                             UNKNOWN :LOG DATE
UWI         .                                          3060000183 :UNIQUE WELL ID
XCOORD      .                                       602154.470000 :SURFACE X
YCOORD      .                                      2147172.410000 :SURFACE Y
LAT         .                                           19.417394 :LATITUDE
LON         .                                          -92.027010 :LONGITUDE
ELEV        .M                                            28.1700 :SURFACE ELEV
ELEV_TYPE   .                                                  KB :ELEV TYPE
~CURVE INFORMATION
#MNEMONIC.UNIT        API CODE       : CURVE DESCRIPTION
#------------------------------------------------------------------------------
DEPTH    .M                          : Measured Depth
CALI     .inches      UNKNOWN        : CALI:CALI-Load:rC:NONE:v0 (auto-composite)
DT       .us/ft       UNKNOWN        : DT:DT:rC:NONE:v0 (auto-composite)
GR       .UNKNOWN     UNKNOWN        : GR:GR-Load:rC:NONE:v0 (auto-composite)
ILD      .UNKNOWN     UNKNOWN        : ILD:ILD-Load:rC:NONE:v0 (auto-composite)
LLD      .UNKNOWN     UNKNOWN        : LLD:LLD-Load:rC:NONE:v0 (auto-composite)
LLS      .UNKNOWN     UNKNOWN        : LLS:LLS-Load:rC:NONE:v0 (auto-composite)
MSFL     .UNKNOWN     UNKNOWN        : MSFL:MSFL-Load:rC:NONE:v0 (auto-composite)
NPHI     .v/v_decimal UNKNOWN        : NPHI:NPHI:rC:NONE:v0 (auto-composite)
RG       .API         UNKNOWN        : RG:UNKNOWN:rC:NONE:v0 (auto-composite)
RHOB     .UNKNOWN     UNKNOWN        : RHOB:RHOB-Load:rC:NONE:v0 (auto-composite)
SP       .UNKNOWN     UNKNOWN        : SP:SP-Load:rC:NONE:v0 (auto-composite)
~A     DEPTH         CALI           DT           GR          ILD          LLD          LLS         MSFL         NPHI           RG         RHOB           SP
# ...
   2204.9995       5.5555      59.5248      28.7647    -999.2500     249.9998     174.1845    -999.2500       0.1651      20.5892       2.4730    -999.2500
   2205.1519       5.5825      60.0570      28.1090    -999.2500     227.0344     176.0792    -999.2500       0.1643      19.3673       2.4810    -999.2500
   2205.3042       5.6005      60.7070      27.0726    -999.2500     249.5226     203.0051    -999.2500       0.1646      17.7654       2.4910    -999.2500
   2205.4565       5.6095      61.4763      25.6577    -999.2500     317.2169     254.8257    -999.2500       0.1659      17.6588       2.5030    -999.2500
   2205.6089       5.6188      61.9717      25.4382    -999.2500     403.6420     319.3285    -999.2500       0.1654      18.3437       2.5198    -999.2500
   2205.7615       5.6283      62.1903      26.4115    -999.2500     508.7603     396.4880    -999.2500       0.1630      18.2689       2.5413    -999.2500
   2205.9138       5.6435      62.3000      26.7565    -999.2500     536.4359     415.7186    -999.2500       0.1591      17.7991       2.5487    -999.2500
   2206.0662       5.6645      62.3000      26.4761    -999.2500     487.0522     377.3072    -999.2500       0.1536      16.5560       2.5422    -999.2500
   2206.2185       5.6825      62.3000      26.2016    -999.2500     472.7083     363.5161    -999.2500       0.1490      14.9204       2.5285    -999.2500
   2206.3711       5.6975      62.3000      25.9330    -999.2500     493.3514     374.3080    -999.2500       0.1453      14.2388       2.5074    -999.2500
   2206.5234       5.7110      62.3000      25.8930    -999.2500     545.1429     428.5339    -999.2500       0.1448      14.0292       2.4869    -999.2500
   2206.6758       5.7230      62.3000      26.0806    -999.2500     627.9442     526.0002    -999.2500       0.1475      13.9610       2.4670    -999.2500
   2206.8281       5.7305      62.3000      26.2989    -999.2500     704.7591     614.9661    -999.2500       0.1487      13.9610       2.4598    -999.2500
   2206.9807       5.7335      62.3000      26.5478    -999.2500     775.5938     695.4398    -999.2500       0.1482      13.9610       2.4653    -999.2500
   2207.1331       5.7470      62.3000      27.2035    -999.2500     778.4308     701.8845    -999.2500       0.1465      13.9610       2.4758    -999.2500
   2207.2854       5.7710      62.3000      28.2644    -999.2500     713.5388     634.5925    -999.2500       0.1437      13.9610       2.4913    -999.2500
   2207.4377       5.7529      62.3000      28.6523    -999.2500     636.9301     556.6263    -999.2500       0.1402      13.9610       2.5095    -999.2500
   2207.5901       5.6929      62.3000      28.3719    -999.2500     548.6105     467.9911    -999.2500       0.1363      13.9610       2.5305    -999.2500
   2207.7427       5.6765      62.3000      27.8662    -999.2500     466.2860     392.6525    -999.2500       0.1329      13.9610       2.5453    -999.2500
   2207.8950       5.7035      62.3000      27.1360    -999.2500     389.9360     330.5648    -999.2500       0.1300      13.9610       2.5538    -999.2500
   2208.0474       5.7215      62.3000      26.3155    -999.2500     306.1757     262.5796    -999.2500       0.1287      13.9610       2.5572    -999.2500
   2208.1997       5.7305      62.3000      25.4054    -999.2500     215.0050     188.6968    -999.2500       0.1290      13.9610       2.5557    -999.2500
   2208.3523       5.7290      62.3000      25.1386    -999.2500     150.4366     135.5250    -999.2500       0.1302      13.9610       2.5580    -999.2500
   2208.5046       5.7170      62.3000      25.5132    -999.2500     112.3921     103.0031    -999.2500       0.1322      13.9610       2.5640    -999.2500
   2208.6570       5.7170      62.3000      26.0902    -999.2500      85.4713      79.8964    -999.2500       0.1336      13.9610       2.5685    -999.2500
   2208.8093       5.7290      62.3000      26.8684    -999.2500      69.6800      66.2099    -999.2500       0.1342      13.9610       2.5715    -999.2500
   2208.9617       5.7290      62.3000      27.5725    -999.2500      58.1632      56.4889    -999.2500       0.1339      13.9610       2.5627    -999.2500
   2209.1143       5.7170      62.3000      28.2027    -999.2500      50.9105      50.7238    -999.2500       0.1328      13.9610       2.5422    -999.2500
   2209.2666       5.7155      62.3000      28.7458    -999.2500      48.6851      48.9610    -999.2500       0.1326      13.9610       2.5328    -999.2500
   2209.4189       5.7245      62.3000      29.2021    -999.2500      51.4599      51.1791    -999.2500       0.1333      13.9610       2.5343    -999.2500
   2209.5713       5.7530      62.3000      29.6703    -999.2500      56.8456      55.0640    -999.2500       0.1338      13.9610       2.5400    -999.2500
   2209.7239       5.8010      62.3000      30.1505    -999.2500      64.8371      60.6125    -999.2500       0.1342      13.9610       2.5500    -999.2500
   2209.8762       5.8325      62.3000      30.2119    -999.2500      71.4964      66.4467    -999.2500       0.1341      13.9610       2.5585    -999.2500
   2210.0286       5.8475      62.3000      29.8565    -999.2500      76.8301      72.5650    -999.2500       0.1334      13.9610       2.5655    -999.2500
   2210.1809       5.8460      62.3000      29.3574    -999.2500      80.4465      74.9052    -999.2500       0.1327      13.9610       2.5728    -999.2500
   2210.3335       5.8280      62.3000      28.7147    -999.2500      82.3482      73.4727    -999.2500       0.1321      13.9610       2.5803    -999.2500
   2210.4858       5.8100      62.3000      28.4065    -999.2500      90.9037      80.7195    -999.2500       0.1319      13.9610       2.5792    -999.2500
   2210.6382       5.7920      62.3000      28.4315    -999.2500     106.0836      96.6077    -999.2500       0.1321      13.9610       2.5697    -999.2500
   2210.7905       5.8329      62.3000      28.3123    -999.2500      95.7564      96.6539    -999.2500       0.1315      13.9610       2.5552    -999.2500
   2210.9429       5.9324      62.3000      28.0499    -999.2500      59.9462      80.8730    -999.2500       0.1303      13.9610       2.5357    -999.2500
   2211.0955       6.1253      62.3000      27.4717    -999.2500      44.1486      65.1038    -999.2500       0.1293      13.9610       2.5031    -999.2500
   2211.2478       6.4114      62.3000      26.5789    -999.2500      48.2859      49.3461    -999.2500       0.1286      13.9610       2.4577    -999.2500
   2211.4001       6.3486      62.3000      25.4743    -999.2500      52.6438      43.8326    -999.2500       0.1285      13.9610       2.3989    -999.2500
   2211.5525       5.9393      62.3000      24.1594    -999.2500      57.2225      48.5589    -999.2500       0.1290      13.9610       2.3268    -999.2500
   2211.7051       5.7350      62.3000      21.8386    -999.2500      70.7239      70.1681    -999.2500       0.1300      13.9610       2.3028    -999.2500
   2211.8574       5.7350      62.3000      18.5153    -999.2500      93.1177     108.6030    -999.2500       0.1315       8.6135       2.3263    -999.2500
   2212.0098       5.6761      62.3000      13.8711    -999.2500     103.2259     121.2150    -999.2500       0.1328       1.6136       2.3608    -999.2500
   2212.1621       5.5586      62.3000       7.9142    -999.2500     101.0476     108.0026    -999.2500       0.1340       0.0000       2.4063    -999.2500
   2212.3147       5.4351      62.3000       3.5703    -999.2500      99.4107      98.5288    -999.2500       0.1352       0.0000       2.4421    -999.2500
   2212.4670       5.3056      62.3000       0.8348    -999.2500      98.3137      92.7828    -999.2500       0.1363       0.0000       2.4680    -999.2500
   2212.6194       5.2215      62.3000      -0.7215    -999.2500      97.9418      90.2445    -999.2500       0.1373       0.0000       2.4780    -999.2500
   2212.7717       5.1825      62.3000      -1.1053    -999.2500      98.2954      90.9158    -999.2500       0.1384       0.0000       2.4720    -999.2500
