#------------------------------------------------------------------------------
#
#   Created by  : [OpenWorks] Log Export Utility (LEXP)
#   Created on  : 2016-05-23 11:53:36
#   Project     : CANT971
#   User        : R5K
#   Interpreter : PEP
#
#------------------------------------------------------------------------------
~VERSION INFORMATION
VERS. 2.0 : CWLS Log ASCII Standard - version 2.0
WRAP.  NO : One line per depth step
~WELL INFORMATION
#MNEMONIC   .UNIT                                           VALUE :DESCRIPTION
#------------------------------------------------------------------------------
STRT        .M                                           940.3716 :START DEPTH
STOP        .M                                          3167.2405 :STOP DEPTH
STEP        .M                                             0.1524 :STEP
NULL        .                                           -999.2500 :NULL VALUE
COMP        .                                   PEMEX EXPL & PROD :COMPANY
WELL        .                                                  24 :WELL
FLD         .                                           CANTARELL :FIELD
LOC         .                                             UNKNOWN :LOCATION
CNTY        .                                      CD. DEL CARMEN :COUNTY
STAT        .                                            CAMPECHE :STATE
CTRY        .                                              MEXICO :COUNTRY
SRVC        .                                             UNKNOWN :SERVICE COMPANY
DATE        .                                             UNKNOWN :LOG DATE
UWI         .                                          3060000153 :UNIQUE WELL ID
XCOORD      .                                       598455.290000 :SURFACE X
YCOORD      .                                      2145024.750000 :SURFACE Y
LAT         .                                           19.398172 :LATITUDE
LON         .                                          -92.062351 :LONGITUDE
ELEV        .M                                            26.5400 :SURFACE ELEV
ELEV_TYPE   .                                                  KB :ELEV TYPE
~CURVE INFORMATION
#MNEMONIC.UNIT        API CODE       : CURVE DESCRIPTION
#------------------------------------------------------------------------------
DEPTH    .M                          : Measured Depth
CALI     .inches      UNKNOWN        : CALI:Import:rC:NONE:v0 (auto-composite)
DRHO     .g/cm3       UNKNOWN        : DRHO:Import:rC:NONE:v0 (auto-composite)
DT       .us/ft       UNKNOWN        : DT:Import:rC:NONE:v0 (auto-composite)
GR       .API         UNKNOWN        : GR:Import:rC:NONE:v0 (auto-composite)
ILD      .ohm.m       UNKNOWN        : ILD:Import:rC:NONE:v0 (auto-composite)
LLD      .ohm.m       UNKNOWN        : LLD:Import:rC:NONE:v0 (auto-composite)
LLS      .ohm.m       UNKNOWN        : LLS:Import:rC:NONE:v0 (auto-composite)
MSFL     .ohm.m       UNKNOWN        : MSFL:Import:rC:NONE:v0 (auto-composite)
NPHI     .v/v_decimal UNKNOWN        : NPHI:Import:rC:NONE:v0 (auto-composite)
RHOB     .g/cm3       UNKNOWN        : RHOB:Import:rC:NONE:v0 (auto-composite)
~A     DEPTH         CALI         DRHO           DT           GR          ILD          LLD          LLS         MSFL         NPHI         RHOB
# ...
   2083.9812       8.7059      -0.0017      92.3601      34.1291    -999.2500     966.1453     512.2046      87.7428       0.0699       2.6624
   2084.1335       8.6059      -0.0082      89.3664      37.3797    -999.2500    1010.4702     693.0090      63.5657       0.0637       2.6799
   2084.2859       8.5881      -0.0118      81.7847      39.1924    -999.2500    1133.2528     795.0169      51.9366       0.0600       2.6894
   2084.4385       8.6835      -0.0113      67.8758      39.0221    -999.2500    1364.2355     788.3576      57.6121       0.0597       2.6879
   2084.5908       8.7175      -0.0100      60.0647      38.5970    -999.2500    1662.2694     788.8947     124.1332       0.0603       2.6874
   2084.7432       8.6660      -0.0075      60.7484      37.8168    -999.2500    2053.7139     799.4571     275.4199       0.0612       2.6884
   2084.8955       8.6398      -0.0025      60.3046      36.9458    -999.2500    2225.2976     820.1111     346.4428       0.0618       2.6915
   2085.0481       8.6487       0.0060      58.2845      35.9477    -999.2500    2089.4983     854.8741     305.2506       0.0618       2.6975
   2085.2004       8.6496       0.0104      59.3318      35.3656    -999.2500    2019.9198     881.5470     227.0627       0.0618       2.7093
   2085.3528       8.6391       0.0089      64.6830      35.3671    -999.2500    2043.2533     896.8689      96.9673       0.0618       2.7293
   2085.5051       8.6451       0.0047      67.7090      35.3701    -999.2500    2112.4121     993.4048      23.7714       0.0617       2.7402
   2085.6575       8.6741      -0.0033      67.4610      35.3751    -999.2500    2246.0957    1204.2950      30.6930       0.0617       2.7382
   2085.8101       8.6824      -0.0065      66.7071      35.3801    -999.2500    2322.6221    1293.0621      69.5278       0.0617       2.7322
   2085.9624       8.6619      -0.0030      65.2522      35.3851    -999.2500    2319.9622    1212.6384     152.5754       0.0617       2.7207
   2086.1147       8.6561      -0.0016      62.9744      35.3272    -999.2500    2285.2239    1080.0826     197.7050       0.0618       2.7067
   2086.2671       8.6706      -0.0031      59.5524      35.1817    -999.2500    2205.8855     875.0457     190.1158       0.0620       2.6892
   2086.4197       8.6982      -0.0055      58.0831      34.6716    -999.2500    2176.4583     730.4702     176.0725       0.0620       2.6727
   2086.5720       8.7442      -0.0090      59.3386      33.6525    -999.2500    2216.6707     670.2557     153.0240       0.0617       2.6577
   2086.7244       8.7750      -0.0110      68.8518      33.0580    -999.2500    2223.7708     613.7999     133.6295       0.0615       2.6448
   2086.8767       8.7844      -0.0110      89.9278      33.0580    -999.2500    2184.5046     562.6070     119.3516       0.0615       2.6349
   2087.0293       8.8010      -0.0100     101.8209      33.0684    -999.2500    2102.9019     506.1598     104.2270       0.0615       2.6246
   2087.1816       8.8276      -0.0075     100.7243      33.0935    -999.2500    1961.4116     442.2802      87.9048       0.0615       2.6141
   2087.3340       8.8399      -0.0060      96.8722      33.1932    -999.2500    1788.7163     418.3395      73.6196       0.0622       2.6019
   2087.4863       8.8324      -0.0060      89.2100      33.3961    -999.2500    1572.8756     449.6200      62.1511       0.0639       2.5874
   2087.6387       8.8102      -0.0068      85.2659      33.8441    -999.2500    1296.5087     417.3155      55.6323       0.0647       2.5694
   2087.7913       8.7677      -0.0088      86.4809      34.6323    -999.2500     936.1583     296.7831      55.9817       0.0646       2.5464
   2087.9436       8.7470      -0.0127      89.1384      35.0612    -999.2500     642.0216     228.1519      57.6760       0.0643       2.5334
   2088.0959       8.7565      -0.0192      93.8046      34.9897    -999.2500     440.0871     231.7929      61.2431       0.0635       2.5344
   2088.2483       8.7578      -0.0230      95.6926      34.7003    -999.2500     349.3173     254.8808      70.4235       0.0620       2.5371
   2088.4009       8.7479      -0.0230      93.6725      34.1040    -999.2500     414.9219     305.3245      87.5001       0.0596       2.5421
   2088.5532       8.7441      -0.0222      88.1956      34.1352    -999.2500     850.8409     474.9883     121.5948       0.0582       2.5475
   2088.7056       8.7491      -0.0202      77.8389      35.0523    -999.2500    1809.5344     812.9556     179.7139       0.0582       2.5535
   2088.8579       8.7581      -0.0175      74.0394      35.5049    -999.2500    2365.3875    1001.8703     262.1964       0.0584       2.5597
   2089.0105       8.7726      -0.0140      79.2879      35.3166    -999.2500    2365.3669     985.1094     378.2978       0.0589       2.5662
   2089.1628       8.7808      -0.0114      79.7346      35.2185    -999.2500    2365.3218     954.0741     479.9587       0.0593       2.5725
   2089.3152       8.7803      -0.0099      73.4878      35.2460    -999.2500    2365.2424     903.1411     561.4904       0.0597       2.5785
   2089.4675       8.7800      -0.0071      70.8263      35.3174    -999.2500    2365.1667     840.5266     608.2935       0.0606       2.5893
   2089.6199       8.7800      -0.0026      73.1803      35.4504    -999.2500    2365.0962     761.5706     606.5148       0.0619       2.6068
   2089.7725       8.7881       0.0006      74.2868      35.6781    -999.2500    2365.0317     716.4592     574.2861       0.0628       2.6195
   2089.9248       8.8076       0.0021      73.6421      36.0390    -999.2500    2364.9758     718.8611     499.3095       0.0629       2.6255
   2090.0771       8.8128       0.0113      77.3318      36.2307    -999.2500    2364.9158     727.7729     392.4651       0.0628       2.6382
   2090.2295       8.7977       0.0314      87.1281      36.1841    -999.2500    2364.8501     745.8560     240.7230       0.0625       2.6602
   2090.3821       8.7247       0.0426      92.3538      36.0370    -999.2500    2362.5137     801.0799     124.1497       0.0616       2.6845
   2090.5344       8.5713       0.0416      91.2438      35.7506    -999.2500    2357.0298     907.7888      56.3280       0.0602       2.7120
   2090.6868       8.4933       0.0387      86.2902      35.3637    -999.2500    2346.0007    1108.8920      19.5939       0.0577       2.7267
   2090.8391       8.5203       0.0332      75.9897      34.8369    -999.2500    2327.2583    1441.3114      26.1071       0.0541       2.7237
   2090.9917       8.5940       0.0196      75.7080      34.5826    -999.2500    2305.5715    1451.4224      60.3078       0.0521       2.7157
   2091.1440       8.7329      -0.0054      89.4136      34.7085    -999.2500    2279.7742    1011.5604     133.1628       0.0522       2.7007
   2091.2964       8.8026      -0.0200      96.6229      35.0324    -999.2500    2243.0540     756.0717     184.0514       0.0527       2.6845
   2091.4487       8.7751      -0.0200      94.7308      35.6337    -999.2500    2191.0300     758.9017     204.1636       0.0536       2.6665
   2091.6011       8.7250      -0.0194      89.7705      36.3179    -999.2500    2189.5115     771.1453     254.7433       0.0547       2.6568
   2091.7537       8.6427      -0.0179      80.4677      37.1196    -999.2500    2259.4766     796.7126     348.4455       0.0558       2.6588
   2091.9060       8.6000      -0.0166      75.1502      37.8320    -999.2500    2298.9685     838.6585     343.4342       0.0570       2.6634
   2092.0583       8.6120      -0.0156      75.3461      38.4208    -999.2500    2296.3025     903.2631     201.8578       0.0583       2.6714
   2092.2107       8.6424      -0.0148      75.8026      38.6864    -999.2500    2291.4280     961.0846     150.8092       0.0597       2.6833
   2092.3633       8.6984      -0.0143      76.6207      38.5035    -999.2500    2283.4871    1009.4887     225.4459       0.0610       2.7008
