#------------------------------------------------------------------------------
#
#   Created by  : [OpenWorks] Log Export Utility (LEXP)
#   Created on  : 2016-05-23 11:51:27
#   Project     : CANT971
#   User        : R5K
#   Interpreter : PEP
#
#------------------------------------------------------------------------------
~VERSION INFORMATION
VERS. 2.0 : CWLS Log ASCII Standard - version 2.0
WRAP.  NO : One line per depth step
~WELL INFORMATION
#MNEMONIC   .UNIT                                           VALUE :DESCRIPTION
#------------------------------------------------------------------------------
STRT        .M                                           294.1315 :START DEPTH
STOP        .M                                          1758.8479 :STOP DEPTH
STEP        .M                                             0.1524 :STEP
NULL        .                                           -999.2500 :NULL VALUE
COMP        .                                   PEMEX EXPL & PROD :COMPANY
WELL        .                                                1084 :WELL
FLD         .                                           CANTARELL :FIELD
LOC         .                                             UNKNOWN :LOCATION
CNTY        .                                      CD. DEL CARMEN :COUNTY
STAT        .                                            CAMPECHE :STATE
CTRY        .                                              MEXICO :COUNTRY
SRVC        .                                             UNKNOWN :SERVICE COMPANY
DATE        .                                             UNKNOWN :LOG DATE
UWI         .                                          3060000213 :UNIQUE WELL ID
XCOORD      .                                       596992.320000 :SURFACE X
YCOORD      .                                      2148289.820000 :SURFACE Y
LAT         .                                           19.427749 :LATITUDE
LON         .                                          -92.076116 :LONGITUDE
ELEV        .M                                            27.5000 :SURFACE ELEV
ELEV_TYPE   .                                                  KB :ELEV TYPE
~CURVE INFORMATION
#MNEMONIC.UNIT        API CODE       : CURVE DESCRIPTION
#------------------------------------------------------------------------------
DEPTH    .M                          : Measured Depth
CALI     .in          UNKNOWN        : CALI:registros:rC:NONE:v0 (auto-composite)
DRHO     .g/cm3       UNKNOWN        : DRHO:registros:rC:NONE:v0 (auto-composite)
DT       .us/ft       UNKNOWN        : DT:registros:rC:NONE:v0 (auto-composite)
GR       .api         UNKNOWN        : GR:registros:rC:NONE:v0 (auto-composite)
ILD      .ohmm        UNKNOWN        : ILD:registros:rC:NONE:v0 (auto-composite)
NPHI     .v/v_decimal UNKNOWN        : NPHI:registros:rC:NONE:v0 (auto-composite)
RHOB     .g/cm3       UNKNOWN        : RHOB:registros:rC:NONE:v0 (auto-composite)
~A     DEPTH         CALI         DRHO           DT           GR          ILD         NPHI         RHOB
# ...
   1467.6115       8.8300       0.0500      61.3900      40.3000       6.3200    -999.2500       2.1600
   1467.7639       8.8300       0.0550      61.3149      39.4209       6.3200    -999.2500       2.1585
   1467.9163       8.8300       0.0600      61.2400      38.5380       6.3200    -999.2500       2.1570
   1468.0687       8.8300       0.0550      61.2400      36.6931       6.3200    -999.2500       2.1485
   1468.2211       8.8300       0.0500      61.2400      34.8400       6.3200    -999.2500       2.1400
   1468.3735       8.8300       0.0515      61.2400      34.9502       6.3200    -999.2500       2.1550
   1468.5259       8.8300       0.0530      61.2400      35.0610       6.3200    -999.2500       2.1700
   1468.6783       8.8300       0.0590      61.2650      35.5194       6.3215    -999.2500       2.1650
   1468.8307       8.8300       0.0650      61.2900      35.9800       6.3230    -999.2500       2.1600
   1468.9832       8.8300       0.0725      61.3601      35.9775       6.3265    -999.2500       2.1600
   1469.1355       8.8300       0.0800      61.4300      35.9750       6.3300    -999.2500       2.1600
   1469.2878       8.8300       0.0750      61.4300      35.9261       6.3300    -999.2500       2.1600
   1469.4403       8.8300       0.0700      61.4300      35.8770       6.3300    -999.2500       2.1600
   1469.5927       8.8300       0.0700      61.4300      35.6815       6.3300    -999.2500       2.1550
   1469.7451       8.8300       0.0700      61.4300      35.4850       6.3300    -999.2500       2.1500
   1469.8975       8.8300       0.0700      61.4300      35.2581       6.3650    -999.2500       2.1500
   1470.0499       8.8300       0.0700      61.4300      35.0300       6.4000    -999.2500       2.1500
   1470.2023       8.8300       0.0700      61.4300      35.1871       6.3975    -999.2500       2.1515
   1470.3547       8.8300       0.0700      61.4300      35.3450       6.3950    -999.2500       2.1530
   1470.5071       8.8300       0.0700      61.4300      36.0321       6.3625    -999.2500       2.1565
   1470.6595       8.8300       0.0700      61.4300      36.7230       6.3300    -999.2500       2.1600
   1470.8119       8.8300       0.0700      61.4300      38.0428       6.3300    -999.2500       2.1600
   1470.9644       8.8300       0.0700      61.4300      39.3700       6.3300    -999.2500       2.1600
   1471.1167       8.8300       0.0700      61.4300      38.9211       6.3300    -999.2500       2.1550
   1471.2690       8.8300       0.0700      61.4300      38.4700       6.3300    -999.2500       2.1500
   1471.4215       8.8300       0.0650      61.4300      38.6097       6.3245    -999.2500       2.1500
   1471.5739       8.8300       0.0600      61.4300      38.7500       6.3190    -999.2500       2.1500
   1471.7263       8.8300       0.0625      61.4300      38.6318       6.2545    -999.2500       2.1555
   1471.8787       8.8300       0.0650      61.4300      38.5130       6.1900    -999.2500       2.1610
   1472.0311       8.8300       0.0750      61.4300      38.0276       6.1915    -999.2500       2.1755
   1472.1835       8.8300       0.0850      61.4300      37.5400       6.1930    -999.2500       2.1900
   1472.3359       8.8300       0.0925      61.4300      37.6917       6.2120    -999.2500       2.1950
   1472.4883       8.8300       0.1000      61.4300      37.8440       6.2310    -999.2500       2.2000
   1472.6407       8.8300       0.0950      61.4045      38.5503       6.2780    -999.2500       2.1950
   1472.7931       8.8300       0.0900      61.3790      39.2600       6.3250    -999.2500       2.1900
   1472.9456       8.8300       0.0915      61.3029      39.2585       6.3525    -999.2500       2.2000
   1473.0979       8.8300       0.0930      61.2270      39.2570       6.3800    -999.2500       2.2100
   1473.2502       8.8250       0.1015      61.1334      39.1687       6.3585    -999.2500       2.2085
   1473.4027       8.8200       0.1100      61.0400      39.0800       6.3370    -999.2500       2.2070
   1473.5551       8.8200       0.1050      61.0400      39.2107       6.2635    -999.2500       2.1935
   1473.7075       8.8200       0.1000      61.0400      39.3420       6.1900    -999.2500       2.1800
   1473.8599       8.8200       0.1000      59.6375      40.1489       6.1900    -999.2500       2.1815
   1474.0123       8.8200       0.1000      58.2390      33.6800       6.1900    -999.2500       2.1830
   1474.1647       8.8200       0.1000      53.0160      31.8154       6.1900    -999.2500       2.1865
   1474.3171       8.8200       0.1000      47.8070      30.1114       6.1900    -999.2500       2.1900
   1474.4695       8.8200       0.0950    -999.2500      27.2277       6.1900    -999.2500       2.1850
   1474.6219       8.8200       0.0900    -999.2500      23.9687       6.1900    -999.2500       2.1800
   1474.7743       8.8250       0.0900    -999.2500      21.9740       6.2155    -999.2500       2.1850
   1474.9268       8.8300       0.0900    -999.2500      20.3695       6.2410    -999.2500       2.1900
   1475.0791       8.8450       0.0875    -999.2500      20.0000       6.3844    -999.2500       2.1750
   1475.2314       8.8600       0.0850    -999.2500      20.0000       6.5280    -999.2500       2.1600
   1475.3839       8.8600       0.0725    -999.2500      21.3202       6.7389    -999.2500       2.1600
   1475.5363       8.8600       0.0600    -999.2500      23.0249       6.9500    -999.2500       2.1600
   1475.6887       8.8600       0.0615    -999.2500      26.9196       7.0110    -999.2500       2.1615
   1475.8411       8.8600       0.0630    -999.2500      31.4321       7.0720    -999.2500       2.1630
   1475.9935       8.8600       0.0690    -999.2500      32.3606       7.5557    -999.2500       2.1690
   1476.1459       8.8600       0.0750    -999.2500      32.3105       8.0400    -999.2500       2.1750
   1476.2983       8.8600       0.0840    -999.2500      28.0207       7.3655    -999.2500       2.1825
   1476.4507       8.8600       0.0930    -999.2500      22.6057       6.6900    -999.2500       2.1900
   1476.6031       8.8600       0.0980    -999.2500      19.0271       6.6900    -999.2500       2.1850
   1476.7555       8.8600       0.1030    -999.2500      15.9198       6.6900    -999.2500       2.1800
   1476.9080       8.8600       0.1145    -999.2500      13.6142       6.9778    -999.2500       2.1635
   1477.0603       8.8600       0.1260    -999.2500      11.5083       7.2660    -999.2500       2.1470
   1477.2126       8.8600       0.1881    -999.2500      12.3933      11.8773    -999.2500       2.1340
   1477.3651       8.8600       0.2500    -999.2500      13.9978      16.4930    -999.2500       2.1210
   1477.5175       8.8600    -999.2500    -999.2500      16.9848      62.9744    -999.2500       2.0795
   1477.6699       8.8600    -999.2500    -999.2500      20.2926     109.4690    -999.2500       2.0380
   1477.8223       8.8600    -999.2500    -999.2500      25.6481     189.9530    -999.2500    -999.2500
   1477.9747       8.8600    -999.2500    -999.2500      31.4643     270.4700    -999.2500    -999.2500
   1478.1271       8.8600    -999.2500    -999.2500      30.6455     266.7365    -999.2500    -999.2500
   1478.2795       8.8600    -999.2500    -999.2500      28.3893     263.0010    -999.2500    -999.2500
   1478.4319       8.8600    -999.2500    -999.2500      25.9264     236.5228    -999.2500    -999.2500
   1478.5844       8.8600    -999.2500    -999.2500      23.4205     210.0270    -999.2500    -999.2500
   1478.7367       8.8600    -999.2500    -999.2500      25.2115     171.1488    -999.2500    -999.2500
   1478.8892       8.8600    -999.2500    -999.2500      27.8688     132.2400    -999.2500    -999.2500
   1479.0415       7.6561    -999.2500    -999.2500      29.4756     149.2223    -999.2500    -999.2500
   1479.1938       6.4530    -999.2500    -999.2500      30.8790     166.2200    -999.2500    -999.2500
