#------------------------------------------------------------------------------
#
#   Created by  : [OpenWorks] Log Export Utility (LEXP)
#   Created on  : 2016-05-23 11:50:52
#   Project     : CANT971
#   User        : R5K
#   Interpreter : PEP
#
#------------------------------------------------------------------------------
~VERSION INFORMATION
VERS. 2.0 : CWLS Log ASCII Standard - version 2.0
WRAP.  NO : One line per depth step
~WELL INFORMATION
#MNEMONIC   .UNIT                                           VALUE :DESCRIPTION
#------------------------------------------------------------------------------
STRT        .M                                           540.4100 :START DEPTH
STOP        .M                                          3242.0049 :STOP DEPTH
STEP        .M                                             0.1524 :STEP
NULL        .                                           -999.2500 :NULL VALUE
COMP        .                                   PEMEX EXPL & PROD :COMPANY
WELL        .                                                1041 :WELL
FLD         .                                           CANTARELL :FIELD
LOC         .                                             UNKNOWN :LOCATION
CNTY        .                                      CD. DEL CARMEN :COUNTY
STAT        .                                            CAMPECHE :STATE
CTRY        .                                              MEXICO :COUNTRY
SRVC        .                                             UNKNOWN :SERVICE COMPANY
DATE        .                                             UNKNOWN :LOG DATE
UWI         .                                          3060000494 :UNIQUE WELL ID
XCOORD      .                                       596162.660000 :SURFACE X
YCOORD      .                                      2150607.940000 :SURFACE Y
LAT         .                                           19.448736 :LATITUDE
LON         .                                          -92.083900 :LONGITUDE
ELEV        .M                                            30.0000 :SURFACE ELEV
ELEV_TYPE   .                                                  KB :ELEV TYPE
~CURVE INFORMATION
#MNEMONIC.UNIT        API CODE       : CURVE DESCRIPTION
#------------------------------------------------------------------------------
DEPTH    .M                          : Measured Depth
CALI     .inches      UNKNOWN        : CALI:litodensidad:rC:NONE:v0 (auto-composite)
DRHO     .g/cm3      UNKNOWN        : DRHO:DRHO-Load:rC:NONE:v0 (auto-composite)
DT       .us/ft       UNKNOWN        : DT:DT:rC:NONE:v0 (auto-composite)
GR       .API         UNKNOWN        : GR:GR-Load:rC:NONE:v0 (auto-composite)
ILD      .ohmm        UNKNOWN        : ILD:ILD-Load:rC:NONE:v0 (auto-composite)
ILM      .ohmm        UNKNOWN        : ILM:ILM-Load:rC:NONE:v0 (auto-composite)
LLD      .ohmm        UNKNOWN        : LLD:LLD-Load:rC:NONE:v0 (auto-composite)
LLS      .ohmm        UNKNOWN        : LLS:LLS-Load:rC:NONE:v0 (auto-composite)
MSFL     .ohmm        UNKNOWN        : MSFL:MSFL-Load:rC:NONE:v0 (auto-composite)
NPHI     .v/v_decimal UNKNOWN        : NPHI:NPHI-Load:rC:NONE:v0 (auto-composite)
PEF      .b/elec      UNKNOWN        : PEF:PEF-Load:rC:NONE:v0 (auto-composite)
RHOB     .g/cm3       UNKNOWN        : RHOB:RHOB-Load:rC:NONE:v0 (auto-composite)
~A     DEPTH         CALI         DRHO           DT           GR          ILD          ILM          LLD          LLS         MSFL         NPHI          PEF         RHOB
# ...
   2544.7747    -999.2500       0.0920      97.1670      47.1110    -999.2500    -999.2500       7.3470       6.0250      43.8740       0.3211       3.8110       2.3010
   2544.9272    -999.2500       0.0820      95.6650      52.8600    -999.2500    -999.2500       4.5860       3.4020       9.9180       0.3167       3.8090       2.3150
   2545.0796    -999.2500       0.0730      94.1660      58.6000    -999.2500    -999.2500       2.8650       1.9230       2.2480       0.3123       3.8080       2.3280
   2545.2319    -999.2500       0.0090      74.9680      58.4670    -999.2500    -999.2500       2.8850       1.9850       1.8150       0.3145       3.6390       2.2840
   2545.3843    -999.2500       0.0090      74.9680      58.3340    -999.2500    -999.2500       2.8850       1.9850       1.8150       0.3145       3.6390       2.2840
   2545.5369    -999.2500       0.0100      76.1260      57.3020    -999.2500    -999.2500       2.8280       1.9840       1.8370       0.3127       3.6510       2.2910
   2545.6892    -999.2500       0.0110      77.2830      56.2720    -999.2500    -999.2500       2.7720       1.9840       1.8600       0.3109       3.6620       2.2980
   2545.8416    -999.2500       0.0220     101.9330      53.9310    -999.2500    -999.2500       2.7930       1.9960       2.0030       0.3011       3.8120       2.3340
   2545.9939    -999.2500       0.0220     101.9330      51.5900    -999.2500    -999.2500       2.8140       2.0090       2.1570       0.2914       3.8120       2.3700
   2546.1465    -999.2500       0.0210     101.7110      49.7390    -999.2500    -999.2500       3.0140       2.1040       2.4910       0.2832       3.8110       2.4080
   2546.2988    -999.2500       0.0200     101.4900      47.8910    -999.2500    -999.2500       3.2280       2.2040       2.8770       0.2750       3.8100       2.4460
   2546.4512    -999.2500       0.0110      99.2980      48.2500    -999.2500    -999.2500       3.2270       2.1970       2.8670       0.2736       3.7740       2.4460
   2546.6035    -999.2500       0.0110      99.2980      48.6090    -999.2500    -999.2500       3.2270       2.1900       2.8580       0.2721       3.7740       2.4450
   2546.7559    -999.2500       0.0120      99.3700      51.4610    -999.2500    -999.2500       3.1510       2.1130       2.6580       0.2684       3.7790       2.4420
   2546.9084    -999.2500       0.0120      99.4420      54.3180    -999.2500    -999.2500       3.0760       2.0390       2.4710       0.2647       3.7830       2.4380
   2547.0608    -999.2500       0.0250     101.5840      54.0420    -999.2500    -999.2500       3.0840       2.0480       2.6720       0.2819       3.8040       2.4160
   2547.2131    -999.2500       0.0250     101.5840      53.7650    -999.2500    -999.2500       3.0920       2.0560       2.6720       0.2819       3.8250       2.4160
   2547.3655    -999.2500       0.0250      99.7110      52.0800    -999.2500    -999.2500       3.2860       2.2170       2.6020       0.2691       3.9940       2.4200
   2547.5181    -999.2500       0.0250      97.8340      50.3920    -999.2500    -999.2500       3.4930       2.3900       2.5340       0.2563       4.1630       2.4240
   2547.6704    -999.2500       0.0230      97.9890      51.3020    -999.2500    -999.2500       3.4690       2.3720       3.0260       0.2582       4.1360       2.4220
   2547.8228    -999.2500       0.0220      98.1450      52.2120    -999.2500    -999.2500       3.4450       2.3540       3.0260       0.2602       4.1080       2.4190
   2547.9751    -999.2500       0.0150     101.8400      58.7510    -999.2500    -999.2500       2.9740       2.0440       2.6020       0.2774       3.8100       2.3740
   2548.1277    -999.2500       0.0070     105.5410      65.3000    -999.2500    -999.2500       2.5670       1.7730       2.2360       0.2946       3.5120       2.3290
   2548.2800    -999.2500       0.0080     104.9190      64.5990    -999.2500    -999.2500       2.5950       1.7990       2.2740       0.2897       3.5130       2.3330
   2548.4324    -999.2500       0.0090     104.2970      63.8980    -999.2500    -999.2500       2.6240       1.8260       2.3130       0.2847       3.5140       2.3370
   2548.5847    -999.2500       0.0210      95.8740      55.3450    -999.2500    -999.2500       3.2210       2.3240       3.2140       0.2255       3.6020       2.3900
   2548.7371    -999.2500       0.0210      95.8740      55.3450    -999.2500    -999.2500       3.2210       2.3240       3.2140       0.2255       3.6020       2.3900
   2548.8896    -999.2500       0.0300      87.7980      48.1890    -999.2500    -999.2500       4.3530       3.2030       5.2680       0.1792       3.8220       2.4410
   2549.0420    -999.2500       0.0380      79.7350      41.0460    -999.2500    -999.2500       5.8800       4.4100       8.6260       0.1330       4.0400       2.4920
   2549.1943    -999.2500       0.0210      65.7450      25.8690    -999.2500    -999.2500      14.7070      11.4780      39.5380       0.0494       4.7820       2.5550
   2549.3467    -999.2500       0.0210      65.7450      25.8690    -999.2500    -999.2500      14.7070      11.4780      39.5380       0.0494       4.7820       2.5550
   2549.4993    -999.2500       0.0230      65.8350      26.0710    -999.2500    -999.2500      14.5540      11.3600      39.2320       0.0511       4.7590       2.5470
   2549.6516    -999.2500       0.0240      65.9250      26.2730    -999.2500    -999.2500      14.4040      11.2440      38.9290       0.0528       4.7370       2.5390
   2549.8040    -999.2500       0.0420      63.5570      29.9280    -999.2500    -999.2500      10.6720       8.5430       9.8850       0.0779       4.7700       2.5420
   2549.9563    -999.2500       0.0420      63.5570      29.9280    -999.2500    -999.2500      10.6720       8.5430       9.8850       0.0779       4.8030       2.5460
   2550.1089    -999.2500       0.0410      64.0320      27.7180    -999.2500    -999.2500      11.5880       9.1430      13.1140       0.0721       4.9720       2.5700
   2550.2612    -999.2500       0.0400      64.5070      25.5120    -999.2500    -999.2500      12.5820       9.7850      17.3890       0.0662       5.1410       2.5930
   2550.4136    -999.2500       0.0410      70.3880      25.9460    -999.2500    -999.2500      12.4530       9.7230      16.8810       0.0690       5.0900       2.5870
   2550.5659    -999.2500       0.0420      70.3880      26.3810    -999.2500    -999.2500      12.3240       9.6610      16.3870       0.0718       5.0400       2.5870
   2550.7183    -999.2500       0.0450      70.3700      28.2880    -999.2500    -999.2500      11.5420       9.2090      14.2150       0.0846       4.8360       2.5890
   2550.8708    -999.2500       0.0480      70.3520      30.1970    -999.2500    -999.2500      10.8090       8.7760      12.3280       0.0975       4.6320       2.5910
   2551.0232    -999.2500       0.0460      69.0290      33.7730    -999.2500    -999.2500       9.5870       7.8710      10.7740       0.1074       4.4780       2.5890
   2551.1755    -999.2500       0.0440      69.0290      33.7730    -999.2500    -999.2500       8.5030       7.0590       9.4160       0.1173       4.4780       2.5860
   2551.3279    -999.2500       0.0360      72.6250      33.6470    -999.2500    -999.2500       7.7030       6.5500       7.9420       0.1229       4.4790       2.5720
   2551.4805    -999.2500       0.0270      76.2270      33.5210    -999.2500    -999.2500       6.9770       6.0760       6.6970       0.1285       4.4790       2.5580
   2551.6328    -999.2500       0.0210      75.9040      27.2520    -999.2500    -999.2500       7.0690       6.1730       6.8940       0.1274       4.4890       2.5590
   2551.7852    -999.2500       0.0150      75.5800      27.2520    -999.2500    -999.2500       7.1610       6.2720       7.0960       0.1262       4.4990       2.5590
   2551.9375    -999.2500       0.0100      72.5620      27.2800    -999.2500    -999.2500       8.2480       7.3050       9.3800       0.1157       4.5790       2.5590
