#------------------------------------------------------------------------------
#
#   Created by  : [OpenWorks] Log Export Utility (LEXP)
#   Created on  : 2016-05-23 11:57:21
#   Project     : CANT971
#   User        : R5K
#   Interpreter : PEP
#
#------------------------------------------------------------------------------
~VERSION INFORMATION
VERS. 2.0 : CWLS Log ASCII Standard - version 2.0
WRAP.  NO : One line per depth step
~WELL INFORMATION
#MNEMONIC   .UNIT                                           VALUE :DESCRIPTION
#------------------------------------------------------------------------------
STRT        .M                                           117.7290 :START DEPTH
STOP        .M                                          2309.5459 :STOP DEPTH
STEP        .M                                             0.1524 :STEP
NULL        .                                           -999.2500 :NULL VALUE
COMP        .                                   PEMEX EXPL & PROD :COMPANY
WELL        .                                                  7A :WELL
FLD         .                                           CANTARELL :FIELD
LOC         .                                             UNKNOWN :LOCATION
CNTY        .                                      CD. DEL CARMEN :COUNTY
STAT        .                                            CAMPECHE :STATE
CTRY        .                                              MEXICO :COUNTRY
SRVC        .                                             UNKNOWN :SERVICE COMPANY
DATE        .                                             UNKNOWN :LOG DATE
UWI         .                                          3060000143 :UNIQUE WELL ID
XCOORD      .                                       603360.310000 :SURFACE X
YCOORD      .                                      2145096.320000 :SURFACE Y
LAT         .                                           19.398572 :LATITUDE
LON         .                                          -92.015639 :LONGITUDE
ELEV        .M                                            27.1400 :SURFACE ELEV
ELEV_TYPE   .                                                  KB :ELEV TYPE
~CURVE INFORMATION
#MNEMONIC.UNIT        API CODE       : CURVE DESCRIPTION
#------------------------------------------------------------------------------
DEPTH    .M                          : Measured Depth
CALI     .in          UNKNOWN        : CALI:resistivos:rC:NONE:v0 (auto-composite)
DRHO     .g/cm3       UNKNOWN        : DRHO:PETROWORKS:rC:NONE:v2 
DT       .us/ft       UNKNOWN        : DT:DT:rC:NONE:v0 (auto-composite)
GR       .API         UNKNOWN        : GR:UNKNOWN:rC:NONE:v0 (auto-composite)
ILD      .ohmm        UNKNOWN        : ILD:resistivos:rC:NONE:v0 (auto-composite)
LLD      .ohm.m       UNKNOWN        : LLD:UNKNOWN:rC:NONE:v0 (auto-composite)
LLS      .ohm.m       UNKNOWN        : LLS:UNKNOWN:rC:NONE:v0 (auto-composite)
MSFL     .ohm.m       UNKNOWN        : MSFL:UNKNOWN:rC:NONE:v0 (auto-composite)
NPHI     .v/v_decimal     UNKNOWN        : NPHI:PETROWORKS:rC:NONE:v1 
RHOB     .g/cm3       UNKNOWN        : RHOB:UNKNOWN:rC:NONE:v0 (auto-composite)
SN       .ohm.m       UNKNOWN        : SN:UNKNOWN:rC:NONE:v0 (auto-composite)
~A     DEPTH         CALI         DRHO           DT           GR          ILD          LLD          LLS         MSFL         NPHI         RHOB           SN
# ...
   2257.4250       6.8890       0.0000      59.2933      34.1632    -999.2500      17.5181      13.7022      21.6757       0.1182       2.7553    -999.2500
   2257.5774       6.8890       0.0000      59.3833      35.1418    -999.2500      19.4542      15.1525      25.0872       0.1180       2.7538    -999.2500
   2257.7297       6.8890       0.0000      59.5719      37.0747    -999.2500      22.0307      16.3229      40.7637       0.1240       2.7480    -999.2500
   2257.8823       6.8890       0.0000      59.8578      39.9733    -999.2500      25.2552      17.2098      68.8506       0.1317       2.7380    -999.2500
   2258.0347       6.8890       0.0000      60.0000      41.1334    -999.2500      25.7085      18.2910      79.0325       0.1326       2.7358    -999.2500
   2258.1870       6.8890       0.0000      60.0000      40.5732    -999.2500      23.4195      19.5645      71.4948       0.1315       2.7413    -999.2500
   2258.3394       6.8890       0.0000      62.1750      39.3040    -999.2500      22.6185      21.1123      58.4560       0.1248       2.7425    -999.2500
   2258.4917       6.8890       0.0000      66.4961      37.3310    -999.2500      23.2952      22.9325      39.9544       0.1164       2.7395    -999.2500
   2258.6443       6.8890       0.0000      65.0226      35.3446    -999.2500      25.2689      24.4828      35.1189       0.1143       2.7400    -999.2500
   2258.7966       6.8890       0.0000      57.8114      33.3450    -999.2500      28.5435      25.7622      43.9895       0.1142       2.7440    -999.2500
   2258.9490       6.8890       0.0000      54.8520      29.4383    -999.2500      32.8645      27.2439      45.5261       0.1130       2.7580    -999.2500
   2259.1013       6.8890       0.0000      56.0899      23.6123    -999.2500      38.2387      28.9292      39.6816       0.1114       2.7819    -999.2500
   2259.2539       6.8890       0.0000      54.2938      17.1992    -999.2500      40.5173      31.9695      37.1936       0.1051       2.7933    -999.2500
   2259.4062       6.8890       0.0000      49.4921      10.1933    -999.2500      39.6696      36.3781      38.0952       0.0974       2.7918    -999.2500
   2259.5586       6.8890       0.0000      49.5527       6.6670    -999.2500      37.4524      38.0981      41.0963       0.0953       2.7848    -999.2500
   2259.7109       6.8890       0.0000      54.4161       6.6670    -999.2500      33.8473      37.0936      46.2249       0.0950       2.7723    -999.2500
   2259.8635       6.8890       0.0000      55.8684       6.6670    -999.2500      30.1420      34.5674      46.9743       0.0983       2.7500    -999.2500
   2260.0159       6.8890       0.0000      53.9396       6.6670    -999.2500      26.3366      30.5231      43.3553       0.1028       2.7180    -999.2500
   2260.1682       6.8890       0.0000      53.8396       6.6670    -999.2500      23.0765      25.8911      36.1919       0.1102       2.7042    -999.2500
   2260.3206       6.8890       0.0000      55.5467       6.6670    -999.2500      20.3622      20.6709      25.4805       0.1185       2.7087    -999.2500
   2260.4729       6.8890       0.0000      56.0431       6.6670    -999.2500      19.1391      18.1852      20.5439       0.1289       2.7068    -999.2500
   2260.6255       6.8890       0.0000      55.3464       6.6670    -999.2500      19.4140      18.4460      21.4075       0.1401       2.6983    -999.2500
   2260.7778       6.8890       0.0000      55.0000       6.6670    -999.2500      20.7535      19.1590      28.5952       0.1432       2.6502    -999.2500
   2260.9302       6.8890       0.0000      55.0000       6.6670    -999.2500      23.1660      20.3275      42.1569       0.1437       2.5623    -999.2500
   2261.0825       6.8890       0.0000      55.0000       6.6670    -999.2500      24.1937      21.5414      47.2937       0.1387       2.5182    -999.2500
   2261.2351       6.8890       0.0000      55.0000       6.6670    -999.2500      23.8116      22.8014      43.8547       0.1319       2.5187    -999.2500
   2261.3875       6.8890       0.0000      55.0000       6.6670    -999.2500      22.7660      22.7946      38.0976       0.1176       2.5225    -999.2500
   2261.5398       6.8890       0.0000      55.0000       6.6670    -999.2500      21.0597      21.5267      30.0325       0.1008       2.5295    -999.2500
   2261.6921       6.8933       0.0000      55.0000       6.6670    -999.2500      19.0187      19.0649      24.6989       0.0818       2.5035    -999.2500
   2261.8445       6.9018       0.0000      55.0000       6.6670    -999.2500      16.6432      15.4105      22.0941       0.0620       2.4445    -999.2500
   2261.9971       6.9329       0.0000      55.0000       6.6670    -999.2500      14.3764      12.5912      21.3249       0.0422       2.4185    -999.2500
   2262.1494       6.9864       0.0000      55.0000       6.6670    -999.2500      12.2186      10.6091      22.3961       0.0225       2.4255    -999.2500
   2262.3018       7.0643       0.0000      55.0000       6.6670    -999.2500      10.4493       9.2022      27.0814       0.0028       2.4399    -999.2500
   2262.4541       7.1663       0.0000      55.0000       6.6670    -999.2500       9.0734       8.3776      35.4258      -0.0169       2.4619    -999.2500
   2262.6067       7.2009       0.0000      55.0000       6.6670    -999.2500       8.3800       7.9620      52.8865      -0.0236       2.4770    -999.2500
   2262.7590       7.1689       0.0000      55.0000       6.6670    -999.2500       8.3800       7.9620      79.6086      -0.0261       2.4850    -999.2500
   2262.9114       7.0994    -186.0883      55.0000       6.6670    -999.2500       8.3800       7.9620      85.8498      -0.0267       2.4890    -999.2500
   2263.0637       6.9930    -630.9652      55.0000       6.6670    -999.2500       8.3800       7.9620      71.7404      -0.0267       2.4890    -999.2500
   2263.2163       6.9440    -888.0000      55.0000       6.6670    -999.2500       8.3800       7.9620      53.4229      -0.0267       2.4890    -999.2500
   2263.3687       6.9520    -888.0000      55.0000       6.6670    -999.2500       8.3800       7.9620      30.9097      -0.0267       2.4890    -999.2500
   2263.5210       6.9671    -888.0000      55.0000       6.6670    -999.2500       8.3800       7.9620      15.5596      -0.0267       2.4890    -999.2500
   2263.6733       6.9891    -888.0000      55.0000       6.6670    -999.2500       8.3800       7.9620       7.4226      -0.0267       2.4890    -999.2500
   2263.8257       7.0000    -888.0000      55.0000       6.6670    -999.2500       8.3800       7.9620       3.3330      -0.0267       2.4890    -999.2500
   2263.9783       7.0000    -888.0000      55.0000       6.6670    -999.2500       8.3800       7.9620       3.3330      -0.0267       2.4890    -999.2500
   2264.1306    -999.2500    -888.0000    -999.2500    -999.2500    -999.2500    -999.2500    -999.2500    -999.2500    -999.2500    -999.2500    -999.2500
   2264.2830    -999.2500    -888.0000    -999.2500    -999.2500    -999.2500    -999.2500    -999.2500    -999.2500    -999.2500    -999.2500    -999.2500
   2264.4353    -999.2500    -888.0000    -999.2500    -999.2500    -999.2500    -999.2500    -999.2500    -999.2500    -999.2500    -999.2500    -999.2500
   2264.5879    -999.2500    -888.0000    -999.2500    -999.2500    -999.2500    -999.2500    -999.2500    -999.2500    -999.2500    -999.2500    -999.2500
   2264.7402    -999.2500    -888.0000    -999.2500    -999.2500    -999.2500    -999.2500    -999.2500    -999.2500    -999.2500    -999.2500    -999.2500
   2264.8926    -999.2500    -888.0000    -999.2500    -999.2500    -999.2500    -999.2500    -999.2500    -999.2500    -999.2500    -999.2500    -999.2500
   2265.0449    -999.2500    -888.0000    -999.2500    -999.2500    -999.2500    -999.2500    -999.2500    -999.2500    -999.2500    -999.2500    -999.2500
   2265.1975    -999.2500    -888.0000    -999.2500    -999.2500    -999.2500    -999.2500    -999.2500    -999.2500    -999.2500    -999.2500    -999.2500
