#------------------------------------------------------------------------------
#
#   Created by  : [OpenWorks] Log Export Utility (LEXP)
#   Created on  : 2016-05-23 11:56:46
#   Project     : CANT971
#   User        : R5K
#   Interpreter : PEP
#
#------------------------------------------------------------------------------
~VERSION INFORMATION
VERS. 2.0 : CWLS Log ASCII Standard - version 2.0
WRAP.  NO : One line per depth step
~WELL INFORMATION
#MNEMONIC   .UNIT                                           VALUE :DESCRIPTION
#------------------------------------------------------------------------------
STRT        .M                                           170.6880 :START DEPTH
STOP        .M                                          2221.8396 :STOP DEPTH
STEP        .M                                             0.1524 :STEP
NULL        .                                           -999.2500 :NULL VALUE
COMP        .                                   PEMEX EXPL & PROD :COMPANY
WELL        .                                                  51 :WELL
FLD         .                                           CANTARELL :FIELD
LOC         .                                             UNKNOWN :LOCATION
CNTY        .                                      CD. DEL CARMEN :COUNTY
STAT        .                                            CAMPECHE :STATE
CTRY        .                                              MEXICO :COUNTRY
SRVC        .                                             UNKNOWN :SERVICE COMPANY
DATE        .                                             UNKNOWN :LOG DATE
UWI         .                                          3060000165 :UNIQUE WELL ID
XCOORD      .                                       599727.990000 :SURFACE X
YCOORD      .                                      2147220.270000 :SURFACE Y
LAT         .                                           19.417949 :LATITUDE
LON         .                                          -92.050116 :LONGITUDE
ELEV        .M                                            27.8000 :SURFACE ELEV
ELEV_TYPE   .                                                  KB :ELEV TYPE
~CURVE INFORMATION
#MNEMONIC.UNIT        API CODE       : CURVE DESCRIPTION
#------------------------------------------------------------------------------
DEPTH    .M                          : Measured Depth
CAL      .inches      UNKNOWN        : CAL:CAL-Load:rC:NONE:v0 (auto-composite)
DRHO     .UNKNOWN     UNKNOWN        : DRHO:DRHO-Load:rC:NONE:v0 (auto-composite)
DT       .us/ft       UNKNOWN        : DT:DT:rC:NONE:v0 (auto-composite)
GR       .UNKNOWN     UNKNOWN        : GR:GR-Load:rC:NONE:v0 (auto-composite)
ILD      .UNKNOWN     UNKNOWN        : ILD:ILD-Load:rC:NONE:v0 (auto-composite)
NPHI     .v/v_decimal UNKNOWN        : NPHI:NPHI:rC:NONE:v0 (auto-composite)
RHOB     .UNKNOWN     UNKNOWN        : RHOB:RHOB-Load:rC:NONE:v0 (auto-composite)
SN       .UNKNOWN     UNKNOWN        : SN:SN-Load:rC:NONE:v0 (auto-composite)
~A     DEPTH          CAL         DRHO           DT           GR          ILD         NPHI         RHOB           SN
# ...
    822.6552    -999.2500    -999.2500    -999.2500      39.3120       1.2690      42.6500    -999.2500       1.4550
    822.8076    -999.2500    -999.2500    -999.2500      39.6848       1.2665      43.0245    -999.2500       1.4475
    822.9600    -999.2500    -999.2500    -999.2500      40.0570       1.2640      43.3990    -999.2500       1.4400
    823.1124    -999.2500    -999.2500    -999.2500      40.4789       1.2545      43.7660    -999.2500       1.4210
    823.2648    -999.2500    -999.2500    -999.2500      40.9000       1.2450      44.1330    -999.2500       1.4020
    823.4172    -999.2500    -999.2500    -999.2500      40.5351       1.2325      44.3885    -999.2500       1.3885
    823.5696    -999.2500    -999.2500    -999.2500      40.1710       1.2200      44.6440    -999.2500       1.3750
    823.7220    -999.2500    -999.2500    -999.2500      39.5619       1.2125      44.4225    -999.2500       1.3655
    823.8744    -999.2500    -999.2500    -999.2500      38.9540       1.2050      44.2010    -999.2500       1.3560
    824.0268    -999.2500    -999.2500    -999.2500      38.9570       1.2075      43.8595    -999.2500       1.3645
    824.1792    -999.2500    -999.2500    -999.2500      38.9600       1.2100      43.5180    -999.2500       1.3730
    824.3316    -999.2500    -999.2500    -999.2500      39.2582       1.2135      42.8970    -999.2500       1.3810
    824.4840    -999.2500    -999.2500    -999.2500      39.5560       1.2170      42.2760    -999.2500       1.3890
    824.6364    -999.2500    -999.2500    -999.2500      39.4860       1.2255      41.7220    -999.2500       1.3990
    824.7888    -999.2500    -999.2500    -999.2500      39.4160       1.2340      41.1680    -999.2500       1.4090
    824.9412    -999.2500    -999.2500    -999.2500      39.1053       1.2335      40.9800    -999.2500       1.3995
    825.0936    -999.2500    -999.2500    -999.2500      38.7950       1.2330      40.7920    -999.2500       1.3900
    825.2460    -999.2500    -999.2500    -999.2500      39.2384       1.2225      41.0781    -999.2500       1.3655
    825.3984    -999.2500    -999.2500    -999.2500      39.6810       1.2120      41.3640    -999.2500       1.3410
    825.5508    -999.2500    -999.2500    -999.2500      40.2741       1.1930      41.7691    -999.2500       1.3180
    825.7032    -999.2500    -999.2500    -999.2500      40.8660       1.1740      42.1740    -999.2500       1.2950
    825.8556    -999.2500    -999.2500    -999.2500      41.0902       1.1425      42.5990    -999.2500       1.2790
    826.0080    -999.2500    -999.2500    -999.2500      41.3140       1.1110      43.0240    -999.2500       1.2630
    826.1604    -999.2500    -999.2500    -999.2500      41.4896       1.0850      42.8900    -999.2500       1.2450
    826.3128    -999.2500    -999.2500    -999.2500      41.6650       1.0590      42.7560    -999.2500       1.2270
    826.4652    -999.2500    -999.2500    -999.2500      41.7175       1.0450      42.6000    -999.2500       1.2085
    826.6176    -999.2500    -999.2500    -999.2500      41.7700       1.0310      42.4440    -999.2500       1.1900
    826.7700    -999.2500    -999.2500    -999.2500      41.9937       1.0310      42.2950    -999.2500       1.1845
    826.9224    -999.2500    -999.2500    -999.2500      42.2170       1.0310      42.1460    -999.2500       1.1790
    827.0748    -999.2500    -999.2500    -999.2500      42.8846       1.0335      41.6644    -999.2500       1.2050
    827.2272    -999.2500    -999.2500    -999.2500      43.5510       1.0360      41.1830    -999.2500       1.2310
    827.3796    -999.2500    -999.2500    -999.2500      43.1131       1.0400      41.4250    -999.2500       1.2781
    827.5320    -999.2500    -999.2500    -999.2500      42.6760       1.0440      41.6670    -999.2500       1.3250
    827.6844    -999.2500    -999.2500    -999.2500      42.0184       1.0450      42.1000    -999.2500       1.3225
    827.8368    -999.2500    -999.2500    -999.2500      41.3620       1.0460      42.5330    -999.2500       1.3200
    827.9892    -999.2500    -999.2500    -999.2500      40.8255       1.0395      43.0690    -999.2500       1.2995
    828.1416    -999.2500    -999.2500    -999.2500      40.2900       1.0330      43.6050    -999.2500       1.2790
    828.2940    -999.2500    -999.2500    -999.2500      39.2902       1.0205      43.7655    -999.2500       1.2640
    828.4464    -999.2500    -999.2500    -999.2500      38.2920       1.0080      43.9260    -999.2500       1.2490
    828.5988    -999.2500    -999.2500    -999.2500      37.6090       0.9940      44.0345    -999.2500       1.2420
    828.7512    -999.2500    -999.2500    -999.2500      36.9270       0.9800      44.1430    -999.2500       1.2350
    828.9036    -999.2500    -999.2500    -999.2500      37.0776       0.9720      43.7765    -999.2500       1.2265
    829.0560    -999.2500    -999.2500    -999.2500      37.2280       0.9640      43.4100    -999.2500       1.2180
    829.2084    -999.2500    -999.2500    -999.2500      37.5013       0.9605      42.6083    -999.2500       1.2000
    829.3608    -999.2500    -999.2500    -999.2500      37.7740       0.9570      41.8070    -999.2500       1.1820
    829.5132    -999.2500    -999.2500    -999.2500      38.1473       0.9545      41.9520    -999.2500       1.1615
    829.6656    -999.2500    -999.2500    -999.2500      38.5200       0.9520      42.0970    -999.2500       1.1410
    829.8180    -999.2500    -999.2500    -999.2500      38.7682       0.9575      42.0080    -999.2500       1.1225
    829.9704    -999.2500    -999.2500    -999.2500      39.0160       0.9630      41.9190    -999.2500       1.1040
    830.1228    -999.2500    -999.2500    -999.2500      39.2887       0.9745      41.7110    -999.2500       1.1250
    830.2752    -999.2500    -999.2500    -999.2500      39.5610       0.9860      41.5030    -999.2500       1.1460
    830.4276    -999.2500    -999.2500    -999.2500      40.3746       1.0070      41.3835    -999.2500       1.1931
    830.5800    -999.2500    -999.2500    -999.2500      41.1870       1.0280      41.2640    -999.2500       1.2400
    830.7324    -999.2500    -999.2500    -999.2500      42.2217       1.0735      41.4685    -999.2500       1.2735
    830.8848    -999.2500    -999.2500    -999.2500      43.2550       1.1190      41.6730    -999.2500       1.3070
    831.0372    -999.2500    -999.2500    -999.2500      42.9638       1.1621      41.6715    -999.2500       1.3265
    831.1896    -999.2500    -999.2500    -999.2500      42.6730       1.2050      41.6700    -999.2500       1.3460
    831.3420    -999.2500    -999.2500    -999.2500      41.8437       1.2275      41.2929    -999.2500       1.3550
    831.4944    -999.2500    -999.2500    -999.2500      41.0160       1.2500      40.9160    -999.2500       1.3640
    831.6468    -999.2500    -999.2500    -999.2500      40.2843       1.2620      40.5450    -999.2500       1.3655
    831.7992    -999.2500    -999.2500    -999.2500      39.5540       1.2740      40.1740    -999.2500       1.3670
    831.9516    -999.2500    -999.2500    -999.2500      39.7041       1.2735      39.8920    -999.2500       1.3670
    832.1040    -999.2500    -999.2500    -999.2500      39.8540       1.2730      39.6100    -999.2500       1.3670
    832.2564    -999.2500    -999.2500    -999.2500      40.2018       1.2635      39.2470    -999.2500       1.3645
    832.4088    -999.2500    -999.2500    -999.2500      40.5490       1.2540      38.8840    -999.2500       1.3620
    832.5612    -999.2500    -999.2500    -999.2500      40.4059       1.2250      39.3025    -999.2500       1.3375
    832.7136    -999.2500    -999.2500    -999.2500      40.2630       1.1960      39.7210    -999.2500       1.3130
    832.8660    -999.2500    -999.2500    -999.2500      40.1204       1.1620      40.3605    -999.2500       1.2774
    833.0184    -999.2500    -999.2500    -999.2500      39.9780       1.1280      41.0000    -999.2500       1.2420
