#------------------------------------------------------------------------------
#
#   Created by  : [OpenWorks] Log Export Utility (LEXP)
#   Created on  : 2016-05-23 11:50:23
#   Project     : CANT971
#   User        : R5K
#   Interpreter : PEP
#
#------------------------------------------------------------------------------
~VERSION INFORMATION
VERS. 2.0 : CWLS Log ASCII Standard - version 2.0
WRAP.  NO : One line per depth step
~WELL INFORMATION
#MNEMONIC   .UNIT                                           VALUE :DESCRIPTION
#------------------------------------------------------------------------------
STRT        .M                                           790.6004 :START DEPTH
STOP        .M                                          2649.8804 :STOP DEPTH
STEP        .M                                             0.1524 :STEP
NULL        .                                           -999.2500 :NULL VALUE
COMP        .                                             UNKNOWN :COMPANY
WELL        .                                               1012D :WELL
FLD         .                                             UNKNOWN :FIELD
LOC         .                                             UNKNOWN :LOCATION
CNTY        .                                             UNKNOWN :COUNTY
STAT        .                                             UNKNOWN :STATE
CTRY        .                                             UNKNOWN :COUNTRY
SRVC        .                                             UNKNOWN :SERVICE COMPANY
DATE        .                                             UNKNOWN :LOG DATE
UWI         .                                               1012D :UNIQUE WELL ID
XCOORD      .                                       594334.990000 :SURFACE X
YCOORD      .                                      2152041.060000 :SURFACE Y
LAT         .                                           19.461774 :LATITUDE
LON         .                                          -92.101239 :LONGITUDE
ELEV        .M                                             0.0000 :SURFACE ELEV
ELEV_TYPE   .                                                  KB :ELEV TYPE
~CURVE INFORMATION
#MNEMONIC.UNIT        API CODE       : CURVE DESCRIPTION
#------------------------------------------------------------------------------
DEPTH    .M                          : Measured Depth
DT       .us/ft       UNKNOWN        : DT:UNKNOWN:rC:NONE:v0 (auto-composite)
GR       .API         UNKNOWN        : GR:PETROWORKS:rC:NONE:v1 
GR-LWD   .API         UNKNOWN        : GR-LWD:PETROWORKS:rC:NONE:v1 
ILD      .ohm.m       UNKNOWN        : ILD:resistivos:rC:NONE:v0 (auto-composite)
ILD-LWD  .ohm.m       UNKNOWN        : ILD-LWD:PETROWORKS:rC:NONE:v1 
ILM      .ohm.m       UNKNOWN        : ILM:resistivos:rC:NONE:v0 (auto-composite)
ILM-LWD  .ohm.m       UNKNOWN        : ILM-LWD:PETROWORKS:rC:NONE:v1 
~A     DEPTH           DT           GR       GR-LWD          ILD      ILD-LWD          ILM      ILM-LWD
# ...
   2398.2681    -999.2500      30.1497      57.3605    -999.2500       0.7686    -999.2500       0.7725
   2398.4204    -999.2500      29.6296      57.6769    -999.2500       0.8511    -999.2500       0.8491
   2398.5728    -999.2500      30.3438      57.0448    -999.2500       0.8203    -999.2500       0.8236
   2398.7251    -999.2500      29.9562      55.1753    -999.2500       0.8717    -999.2500       0.8751
   2398.8777    -999.2500      29.2247      48.2065    -999.2500       1.1501    -999.2500       1.1539
   2399.0300    -999.2500      27.6552      42.1821    -999.2500       1.4063    -999.2500       1.4133
   2399.1824    -999.2500      29.4079      39.8912    -999.2500       1.6740    -999.2500       1.6717
   2399.3347    -999.2500      32.6178      39.0928    -999.2500       1.8044    -999.2500       1.8118
   2399.4873    -999.2500      34.1896      38.8960    -999.2500       1.9197    -999.2500       1.9309
   2399.6396    -999.2500      34.4801      37.4269    -999.2500       2.0057    -999.2500       2.0073
   2399.7920    -999.2500      32.1580      37.2899    -999.2500       2.0209    -999.2500       2.0046
   2399.9443    -999.2500      34.5814      39.2945    -999.2500       1.9804    -999.2500       1.9608
   2400.0969    -999.2500      32.6711      41.1919    -999.2500       1.9435    -999.2500       1.9205
   2400.2493    -999.2500      33.1991      41.3892    -999.2500       1.8198    -999.2500       1.8003
   2400.4016    -999.2500      29.3372      40.7175    -999.2500       1.8009    -999.2500       1.7890
   2400.5540    -999.2500      28.5220      39.6268    -999.2500       1.8487    -999.2500       1.8459
   2400.7063    -999.2500      26.8710      38.4222    -999.2500       1.8814    -999.2500       1.8837
   2400.8589    -999.2500      29.0190      36.6866    -999.2500       1.9311    -999.2500       1.9334
   2401.0112    -999.2500      26.6750      35.3591    -999.2500       2.0880    -999.2500       2.0858
   2401.1636    -999.2500      23.8404      35.0678    -999.2500       2.1466    -999.2500       2.1332
   2401.3159    -999.2500      19.8937      35.1774    -999.2500       2.1597    -999.2500       2.1356
   2401.4685    -999.2500      19.6603      34.9882    -999.2500       2.1112    -999.2500       2.0768
   2401.6208    -999.2500      19.3700      35.0971    -999.2500       1.9619    -999.2500       1.9231
   2401.7732    -999.2500      19.5659      36.4178    -999.2500       1.7970    -999.2500       1.7688
   2401.9255    -999.2500      19.0169      37.4627    -999.2500       1.6567    -999.2500       1.6410
   2402.0779    -999.2500      19.5831      39.0539    -999.2500       1.4316    -999.2500       1.4400
   2402.2305    -999.2500      19.9498      41.7780    -999.2500       1.1879    -999.2500       1.2159
   2402.3828      76.7460      20.8285      43.6441    -999.2500       1.0713    -999.2500       1.1046
   2402.5352      76.7850      21.6637      44.9298    -999.2500       1.0280    -999.2500       1.0585
   2402.6875      77.3604      19.9278      46.1345    -999.2500       0.9976    -999.2500       1.0241
   2402.8401      79.6453      18.6327      47.1244    -999.2500       1.0010    -999.2500       1.0189
   2402.9924      82.3097      17.5589      46.6904    -999.2500       1.0252    -999.2500       1.0307
   2403.1448      86.7472      18.8616      46.3201    -999.2500       1.0506    -999.2500       1.0489
   2403.2971      92.4502      19.7445      46.1715    -999.2500       1.0694    -999.2500       1.0691
   2403.4497      91.8848      20.1764      45.2468    -999.2500       1.1806    -999.2500       1.1986
   2403.6021      76.3957      22.5192      42.3869    -999.2500       1.5428    -999.2500       1.6206
   2403.7544      62.0797      24.3990      41.6082    -999.2500       1.8189    -999.2500       1.8938
   2403.9067      76.5782      24.4068      40.7901    -999.2500       2.0236    -999.2500       2.0944
   2404.0591      90.2240      23.4236      37.6282    -999.2500       2.3584    -999.2500       2.4172
   2404.2117      88.4259      21.8584      34.2809    -999.2500       3.1609    -999.2500       3.1553
   2404.3640      83.5539      22.4549      32.1569    -999.2500       3.9481    -999.2500       3.8923
   2404.5164      77.4741      20.9792      30.2619    -999.2500       4.3064    -999.2500       4.2931
   2404.6687      73.8884      17.5317      28.2806    -999.2500       4.6544    -999.2500       4.7249
   2404.8213      72.6338      14.5343      28.6080    -999.2500       4.4444    -999.2500       4.7264
   2404.9736      74.8925      14.9790      27.8147    -999.2500       4.6861    -999.2500       4.9093
   2405.1260      78.8249      16.9929      27.0174    -999.2500       5.0503    -999.2500       5.1854
   2405.2783      81.3573      16.5064      27.4084    -999.2500       5.1824    -999.2500       5.3549
   2405.4309      85.9906      15.2109      28.1025    -999.2500       5.3584    -999.2500       5.5856
   2405.5833      90.8155      14.0719      28.5410    -999.2500       5.1485    -999.2500       5.3456
   2405.7356      90.8209      13.8621      29.4605    -999.2500       4.6149    -999.2500       4.5996
   2405.8879      93.9339      13.4834      30.1413    -999.2500       4.2185    -999.2500       4.0441
   2406.0403     103.4877      15.8380      31.5474    -999.2500       3.6011    -999.2500       3.5890
   2406.1929     107.3180      19.7414      35.4818    -999.2500       2.6091    -999.2500       2.6694
   2406.3452     108.3190      24.0855      41.8020    -999.2500       1.6377    -999.2500       1.6314
   2406.4976     108.0159      25.1051      46.2749    -999.2500       1.1518    -999.2500       1.1608
   2406.6499     106.3660      23.2880      50.0494    -999.2500       0.9765    -999.2500       0.9926
   2406.8025     106.2100      24.6070      54.0671    -999.2500       0.9455    -999.2500       0.9545
   2406.9548     107.8450      25.0410      56.8937    -999.2500       0.9590    -999.2500       0.9530
   2407.1072     111.7350      28.2760      57.7093    -999.2500       0.9877    -999.2500       0.9686
   2407.2595     109.0400      30.4070      57.3222    -999.2500       1.0200    -999.2500       0.9912
   2407.4121     111.2060      29.7120      56.9411    -999.2500       0.9862    -999.2500       0.9490
   2407.5645     111.7450      28.1490      58.9195    -999.2500       0.8353    -999.2500       0.8331
   2407.7168     106.0180      25.0060      59.2269    -999.2500       0.8490    -999.2500       0.8432
   2407.8691     107.6730      25.9830      58.7374    -999.2500       0.9151    -999.2500       0.9073
   2408.0215     107.6870      25.0060      56.6687    -999.2500       0.9532    -999.2500       0.9471
   2408.1741     107.8930      25.9830      54.9163    -999.2500       0.9015    -999.2500       0.8984
   2408.3264     109.0160      25.0060      55.2909    -999.2500       0.8767    -999.2500       0.8767
   2408.4788     110.1212      26.6336      56.1079    -999.2500       0.9187    -999.2500       0.9167
   2408.6311     111.1525      27.2510      54.6571    -999.2500       0.9556    -999.2500       0.9486
   2408.7837     110.9524      28.8477      52.3305    -999.2500       0.8780    -999.2500       0.8745
   2408.9360     110.1945      29.4022      52.0192    -999.2500       0.8359    -999.2500       0.8346
   2409.0884     109.7613      28.4585      55.0298    -999.2500       0.8073    -999.2500       0.8091
   2409.2407     108.7461      27.6102      57.6708    -999.2500       0.8042    -999.2500       0.8068
   2409.3933     106.6931      27.4157      57.8662    -999.2500       0.8197    -999.2500       0.8170
   2409.5457     106.0218      26.3267      57.7220    -999.2500       0.8496    -999.2500       0.8406
   2409.6980     106.0835      24.6064      55.2474    -999.2500       0.8865    -999.2500       0.8774
   2409.8503     106.5421      22.9968      53.8259    -999.2500       0.9308    -999.2500       0.9197
