#------------------------------------------------------------------------------
#
#   Created by  : [OpenWorks] Log Export Utility (LEXP)
#   Created on  : 2016-05-23 11:57:09
#   Project     : CANT971
#   User        : R5K
#   Interpreter : PEP
#
#------------------------------------------------------------------------------
~VERSION INFORMATION
VERS. 2.0 : CWLS Log ASCII Standard - version 2.0
WRAP.  NO : One line per depth step
~WELL INFORMATION
#MNEMONIC   .UNIT                                           VALUE :DESCRIPTION
#------------------------------------------------------------------------------
STRT        .M                                           143.0270 :START DEPTH
STOP        .M                                          2096.0330 :STOP DEPTH
STEP        .M                                             0.1524 :STEP
NULL        .                                           -999.2500 :NULL VALUE
COMP        .                                   PEMEX EXPL & PROD :COMPANY
WELL        .                                                   7 :WELL
FLD         .                                           CANTARELL :FIELD
LOC         .                                             UNKNOWN :LOCATION
CNTY        .                                      CD. DEL CARMEN :COUNTY
STAT        .                                            CAMPECHE :STATE
CTRY        .                                              MEXICO :COUNTRY
SRVC        .                                             UNKNOWN :SERVICE COMPANY
DATE        .                                             UNKNOWN :LOG DATE
UWI         .                                            W-C-0007 :UNIQUE WELL ID
XCOORD      .                                       603360.340000 :SURFACE X
YCOORD      .                                      2145093.880000 :SURFACE Y
LAT         .                                           19.398550 :LATITUDE
LON         .                                          -92.015638 :LONGITUDE
ELEV        .M                                            27.1400 :SURFACE ELEV
ELEV_TYPE   .                                                  KB :ELEV TYPE
~CURVE INFORMATION
#MNEMONIC.UNIT        API CODE       : CURVE DESCRIPTION
#------------------------------------------------------------------------------
DEPTH    .M                          : Measured Depth
CAL      .inches      UNKNOWN        : CAL:UNKNOWN:rC:NONE:v0 (auto-composite)
DRHO     .g/cm3       UNKNOWN        : DRHO:UNKNOWN:rC:NONE:v0 (auto-composite)
DT       .us/ft       UNKNOWN        : DT:UNKNOWN:rC:NONE:v0 (auto-composite)
GR       .api         UNKNOWN        : GR:UNKNOWN:rC:NONE:v0 (auto-composite)
ILD      .ohmm        UNKNOWN        : ILD:UNKNOWN:rC:NONE:v0 (auto-composite)
NPHI     .v/v_decimal UNKNOWN        : NPHI:UNKNOWN:rC:NONE:v0 (auto-composite)
RHOB     .g/cm3       UNKNOWN        : RHOB:UNKNOWN:rC:NONE:v0 (auto-composite)
~A     DEPTH          CAL         DRHO           DT           GR          ILD         NPHI         RHOB
# ...
   1304.7722       0.0000       0.2500      40.0000       0.0000       1.2025      -0.1500       1.9500
   1304.9246       0.0000       0.2500      40.0000       0.0000       1.2098      -0.1500       1.9500
   1305.0770       0.0000       0.2500      40.0000       0.0000       1.2219      -0.1500       1.9500
   1305.2294       0.0000       0.2500      40.0000       0.0000       1.2543      -0.1500       1.9500
   1305.3818       0.0000       0.2500      40.0000       0.0000       1.3013      -0.1500       1.9500
   1305.5342       0.0000       0.2500      40.0000       0.0000       1.3326      -0.1500       1.9500
   1305.6866       0.0000       0.2500      40.0000       0.0000       1.3491      -0.1500       1.9500
   1305.8390       0.0000       0.2500      40.0000       0.0000       1.3422      -0.1500       1.9500
   1305.9913       0.0000       0.2500      40.0000       0.0000       1.3077      -0.1500       1.9500
   1306.1438       0.0000       0.2500      40.0000       0.0000       1.2733      -0.1500       1.9500
   1306.2961       0.0000       0.2500      40.0000       0.0000       1.2388      -0.1500       1.9500
   1306.4486       0.0000       0.2500      40.0000       0.0000       1.2094      -0.1500       1.9500
   1306.6010       0.0000       0.2500      40.0000       0.0000       1.1900      -0.1500       1.9500
   1306.7534       0.0000       0.2500      40.0000       0.0000       1.1691      -0.1500       1.9500
   1306.9058       0.0000       0.2500      40.0000       0.0000       1.1444      -0.1500       1.9500
   1307.0582       0.0000       0.2500      40.0000       0.0000       1.1259      -0.1500       1.9500
   1307.2106       0.0000       0.2500      40.0000       0.0000       1.1303      -0.1500       1.9500
   1307.3630       0.0000       0.2500      40.0000       2.4665       1.1362      -0.1500       1.9500
   1307.5154       0.0000       0.2500      40.0000      18.1267       1.1503      -0.1500       1.9500
   1307.6678       0.0000       0.2500      40.0000      32.2669       1.1629      -0.1500       1.9500
   1307.8202       0.0000       0.2500      40.0000      32.3174       1.1614      -0.1500       1.9500
   1307.9725       0.0000       0.2500      40.0000      32.3732       1.1599      -0.1500       1.9500
   1308.1250       0.0000       0.2500      40.0000      32.5668       1.1575      -0.1500       1.9500
   1308.2773       0.0000       0.2500      40.0000      32.7604       1.1551      -0.1500       1.9500
   1308.4298       0.0000       0.2500      40.0000      32.9076       1.1498      -0.1500       1.9500
   1308.5822       0.0000       0.2500      40.0000      33.0538       1.1445      -0.1500       1.9500
   1308.7346       0.0000       0.2500      40.0000      33.0482       1.1360      -0.1500       1.9500
   1308.8870       0.0000       0.2500      40.0000      33.0288       1.1273      -0.1500       1.9500
   1309.0394       0.0000       0.2500      40.0000      33.0904       1.1256      -0.1500       1.9500
   1309.1918       0.0000       0.2500      40.0000      33.1656       1.1251      -0.1500       1.9500
   1309.3442       0.0000       0.2500      40.0000      33.7688       1.1312      -0.1500       1.9500
   1309.4966       0.0000       0.2500      40.0000      34.5073       1.1389      -0.1500       1.9500
   1309.6490       0.0000       0.2500      40.0000      35.0023       1.1485      -0.1500       1.9500
   1309.8014       0.0000       0.2500      40.0000      35.4096       1.1587      -0.1500       1.9500
   1309.9537       0.0000       0.2500      40.0000      35.7362       1.1708      -0.1500       1.9500
   1310.1062       0.0000       0.2500      40.0000      36.0241       1.1839      -0.1500       1.9500
   1310.2585       0.0000       0.2500      40.0000      36.6620       1.1950      -0.1500       1.9500
   1310.4110       0.0000       0.2500      40.0000      37.5194       1.2047      -0.1500       1.9500
   1310.5634       0.0000       0.2500      40.0000      38.1928       1.2144      -0.1500       1.9500
   1310.7158       0.0000       0.2500      40.0000      38.7180       1.2241      -0.1500       1.9500
   1310.8682       0.0000       0.2500      40.0000      38.9394       1.2257      -0.1500       1.9500
   1311.0206       0.0000       0.2500      40.0000      38.8492       1.2189      -0.1500       1.9500
   1311.1730       0.0000       0.2500      40.0000      38.8714       1.2077      -0.1500       1.9500
   1311.3254       0.0000       0.2500      40.0000      39.0408       1.1907      -0.1500       1.9500
   1311.4778       0.0000       0.2500      40.0000      39.1928       1.1609      -0.1500       1.9500
   1311.6302       0.0000       0.2500      40.0000      39.3156       1.1094      -0.1500       1.9500
   1311.7826       0.0000       0.2500      40.0000      39.4531       1.0686      -0.1500       1.9500
   1311.9349       0.0000       0.2500      40.0000      39.6230       1.0511      -0.1500       1.9500
   1312.0874       0.0000       0.2500      40.0000      39.7451       1.0361      -0.1500       1.9500
   1312.2397       0.0000       0.2500      40.0000      39.7257       1.0283      -0.1500       1.9500
   1312.3922       0.0000       0.2500      40.0000      39.6198       1.0202      -0.1500       1.9500
   1312.5446       0.0000       0.2500      40.0000      39.1501       1.0110      -0.1500       1.9500
   1312.6970       0.0000       0.2500      40.0000      38.6834       1.0010      -0.1500       1.9500
   1312.8494       0.0000       0.2500      40.0000      38.2363       0.9860      -0.1500       1.9500
   1313.0018       0.0000       0.2500      40.0000      37.7944       0.9712      -0.1500       1.9500
   1313.1542       0.0000       0.2500      40.0000      37.4202       0.9595      -0.1500       1.9500
   1313.3066       0.0000       0.2500      40.0000      37.0500       0.9480      -0.1500       1.9500
   1313.4590       0.0000       0.2500      40.0000      36.5264       0.9480      -0.1500       1.9500
   1313.6115       0.0000       0.2500      40.0000      36.0085       0.9480      -0.1500       1.9500
   1313.7638       0.0000       0.2500      40.0000      35.3118       0.9494      -0.1500       1.9500
   1313.9161       0.0000       0.2500      40.0000      34.6058       0.9508      -0.1500       1.9500
   1314.0686       0.0000       0.2500      40.0000      34.9349       0.9523      -0.1500       1.9500
   1314.2209       0.0000       0.2500      40.0000      35.3921       0.9537      -0.1500       1.9500
   1314.3734       0.0000       0.2500      40.0000      35.5159       0.9632      -0.1500       1.9500
   1314.5258       0.0000       0.2500      40.0000      35.5712       0.9744      -0.1500       1.9500
   1314.6782       0.0000       0.2500      40.0000      35.4078       0.9878      -0.0349       1.9500
   1314.8306       0.0000       0.2500      40.0000      35.1787       1.0019       0.1150       1.9500
   1314.9830       0.0000       0.2500      40.0000      35.1997       1.0163       0.2666       1.9500
   1315.1354       0.0000       0.2500      40.0000      35.3235       1.0309       0.4189       1.9500
   1315.2878       0.0000       0.2500      58.2282      35.2927       1.0429       0.4735       1.9500
   1315.4402       0.0000       0.2500      86.3722      35.1782       1.0536       0.4748       1.9500
   1315.5927       0.0000       0.2500     114.4924      34.9106       1.0660       0.4736       1.9500
   1315.7450       0.0000       0.2500     142.5959      34.5360       1.0796       0.4708       1.9500
   1315.8973       0.0000       0.2500     155.8479      33.9233       1.0932       0.4674       1.9500
   1316.0498       0.0000       0.2500     155.7488      33.0971       1.1067       0.4636       1.9500
   1316.2021       0.0000       0.2500     155.6496      32.1830       1.1117       0.4593       1.9500
   1316.3546       0.0000       0.2500     155.5501      31.1685       1.1069       0.4546       1.9500
