#------------------------------------------------------------------------------
#
#   Created by  : [OpenWorks] Log Export Utility (LEXP)
#   Created on  : 2016-05-23 11:55:49
#   Project     : CANT971
#   User        : R5K
#   Interpreter : PEP
#
#------------------------------------------------------------------------------
~VERSION INFORMATION
VERS. 2.0 : CWLS Log ASCII Standard - version 2.0
WRAP.  NO : One line per depth step
~WELL INFORMATION
#MNEMONIC   .UNIT                                           VALUE :DESCRIPTION
#------------------------------------------------------------------------------
STRT        .M                                           773.4315 :START DEPTH
STOP        .M                                          2865.1216 :STOP DEPTH
STEP        .M                                             0.1524 :STEP
NULL        .                                           -999.2500 :NULL VALUE
COMP        .                                             UNKNOWN :COMPANY
WELL        .                                                408D :WELL
FLD         .                                             UNKNOWN :FIELD
LOC         .                                             UNKNOWN :LOCATION
CNTY        .                                             UNKNOWN :COUNTY
STAT        .                                             UNKNOWN :STATE
CTRY        .                                             UNKNOWN :COUNTRY
SRVC        .                                             UNKNOWN :SERVICE COMPANY
DATE        .                                             UNKNOWN :LOG DATE
UWI         .                                                408D :UNIQUE WELL ID
XCOORD      .                                       597130.770000 :SURFACE X
YCOORD      .                                      2144867.260000 :SURFACE Y
LAT         .                                           19.396814 :LATITUDE
LON         .                                          -92.074972 :LONGITUDE
ELEV        .M                                             0.0000 :SURFACE ELEV
ELEV_TYPE   .                                                  KB :ELEV TYPE
~CURVE INFORMATION
#MNEMONIC.UNIT        API CODE       : CURVE DESCRIPTION
#------------------------------------------------------------------------------
DEPTH    .M                          : Measured Depth
CALI     .inches      UNKNOWN        : CALI:litodensidad:rC:NONE:v0 (auto-composite)
CGR      .API         UNKNOWN        : CGR:PETROWORKS:rC:NONE:v1 
DRHO     .g/cm3       UNKNOWN        : DRHO:litodensidad:rC:NONE:v0 (auto-composite)
DT       .us/ft       UNKNOWN        : DT:PETROWORKS:rC:NONE:v1 
GR       .API         UNKNOWN        : GR:PETROWORKS:rC:NONE:v3 
GR-LWD   .UNKNOWN     UNKNOWN        : GR-LWD:resistivos-LWD:rC:NONE:v0 (auto-composite)
LLD      .ohm.m       UNKNOWN        : LLD:PETROWORKS:rC:NONE:v1 
LLD-LWD  .UNKNOWN     UNKNOWN        : LLD-LWD:resistivos-LWD:rC:NONE:v0 (auto-composite)
LLS      .UNKNOWN     UNKNOWN        : LLS:PETROWORKS:rC:NONE:v1 
LLS-LWD  .UNKNOWN     UNKNOWN        : LLS-LWD:resistivos-LWD:rC:NONE:v0 (auto-composite)
MSFL     .UNKNOWN     UNKNOWN        : MSFL:PETROWORKS:rC:NONE:v1 
MSFL-LWD .UNKNOWN     UNKNOWN        : MSFL-LWD:resistivos-LWD:rC:NONE:v0 (auto-composite)
NPHI     .v/v_decimal UNKNOWN        : NPHI:PETROWORKS:rC:NONE:v3 
PEF      .UNKNOWN     UNKNOWN        : PEF:litodensidad:rC:NONE:v0 (auto-composite)
POTA     .wtpercent   UNKNOWN        : POTA:PETROWORKS:rC:NONE:v1 
RHOB     .g/cm3       UNKNOWN        : RHOB:litodensidad:rC:NONE:v0 (auto-composite)
THOR     .ppm         UNKNOWN        : THOR:PETROWORKS:rC:NONE:v1 
URAN     .ppm         UNKNOWN        : URAN:PETROWORKS:rC:NONE:v1 
~A     DEPTH         CALI          CGR         DRHO           DT           GR       GR-LWD          LLD      LLD-LWD          LLS      LLS-LWD         MSFL     MSFL-LWD         NPHI          PEF         POTA         RHOB         THOR         URAN
# ...
   2820.3159       9.1180       8.5550       0.0192    -999.2500      29.2489    -999.2500     572.0639    -999.2500     216.3058    -999.2500     269.6930    -999.2500       0.0814       3.2553       0.0032       2.7056       0.8379       2.5807
   2820.4683       9.0637       8.9792       0.0193    -999.2500      28.3614    -999.2500     791.8408    -999.2500     292.6282    -999.2500     280.4353    -999.2500       0.0718       3.2125       0.0033       2.7366       0.9244       2.3347
   2820.6206       9.0772       9.2015       0.0188    -999.2500      28.4104    -999.2500     733.3012    -999.2500     276.3522    -999.2500     407.4930    -999.2500       0.0638       3.2048       0.0035       2.7551       0.9131       2.3169
   2820.7732       9.0637      10.2782       0.0094    -999.2500      29.8396    -999.2500     640.9999    -999.2500     246.8462    -999.2500     182.9268    -999.2500       0.0618       3.6190       0.0038       2.7636       1.0943       2.3546
   2820.9255       9.1044      10.4041      -0.0025    -999.2500      31.1890    -999.2500     571.3479    -999.2500     224.3875    -999.2500     208.8507    -999.2500       0.0605       3.7693       0.0038       2.7502       1.0909       2.4412
   2821.0779       9.1112      10.0852      -0.0064    -999.2500      29.7261    -999.2500     466.6006    -999.2500     188.2843    -999.2500     175.1266    -999.2500       0.0575       3.6246       0.0035       2.7459       1.2054       2.3258
   2821.2302       9.0501       8.6599       0.0096    -999.2500      27.1033    -999.2500     359.4418    -999.2500     151.3338    -999.2500     125.0503    -999.2500       0.0554       3.7206       0.0026       2.7260       1.2555       2.1689
   2821.3828       9.3082       6.7766       0.0116    -999.2500      22.3692    -999.2500     314.8743    -999.2500     137.1147    -999.2500      70.3757    -999.2500       0.0596       3.6224       0.0019       2.6954       1.0411       1.8681
   2821.5352       9.0569       4.7248       0.0133    -999.2500      17.7283    -999.2500     276.8123    -999.2500     122.6563    -999.2500      57.6319    -999.2500       0.0725       3.5611       0.0012       2.6922       0.7894       1.5834
   2821.6875       9.0677       3.2739       0.0161    -999.2500      16.8747    -999.2500     256.3759    -999.2500     114.1042    -999.2500     170.4438    -999.2500       0.0842       3.3298       0.0006       2.7085       0.6802       1.6685
   2821.8398       9.3218       4.2197       0.0168    -999.2500      17.5901    -999.2500     245.4453    -999.2500     110.0383    -999.2500     191.6268    -999.2500       0.0909       3.2855       0.0008       2.7224       0.9035       1.6852
   2821.9924       9.1112       4.5563       0.0043    -999.2500      19.7716    -999.2500     206.8622    -999.2500      95.1680    -999.2500     276.8150    -999.2500       0.0963       3.3940       0.0009       2.6729       0.9256       1.9494
   2822.1448       9.2674       3.3630      -0.0048    -999.2500      20.5684    -999.2500     208.4679    -999.2500      99.1601    -999.2500     219.2644    -999.2500       0.1003       3.6960       0.0005       2.6426       0.7757       2.2124
   2822.2971       9.1927       3.1718      -0.0112    -999.2500      19.9010    -999.2500     237.7473    -999.2500     114.2469    -999.2500      30.6194    -999.2500       0.1032       3.6477       0.0001       2.6260       0.9614       2.1454
   2822.4495       8.9346       3.3052      -0.0056    -999.2500      18.5186    -999.2500     325.6630    -999.2500     154.7595    -999.2500      53.5284    -999.2500       0.0970       3.6472       0.0002       2.6776       0.9396       1.9654
   2822.6018       8.9142       3.2737      -0.0031    -999.2500      16.4859    -999.2500     482.8716    -999.2500     225.5945    -999.2500     136.2266    -999.2500       0.0801       3.2034       0.0004       2.7312       0.8035       1.6634
   2822.7544       8.8531       3.8387      -0.0102    -999.2500      16.6385    -999.2500     501.7044    -999.2500     237.0927    -999.2500    1205.9200    -999.2500       0.0601       3.3440       0.0009       2.7624       0.6990       1.6183
   2822.9067       8.9414       4.6884      -0.0067    -999.2500      18.0639    -999.2500     411.3372    -999.2500     198.3464    -999.2500     308.7191    -999.2500       0.0531       3.3562       0.0012       2.7500       0.8190       1.6749
   2823.0591       9.0161       4.9453      -0.0021    -999.2500      19.7628    -999.2500     352.5427    -999.2500     167.0562    -999.2500     644.1868    -999.2500       0.0589       3.2907       0.0013       2.7332       0.8261       1.8756
   2823.2114       8.9101       4.3350       0.0009    -999.2500      20.4464    -999.2500     299.4224    -999.2500     137.9112    -999.2500      95.5606    -999.2500       0.0692       3.2444       0.0010       2.7224       0.7751       2.0618
   2823.3640       8.9414       5.2302       0.0079    -999.2500      21.9625    -999.2500     267.9691    -999.2500     120.5075    -999.2500     202.9544    -999.2500       0.0734       3.1513       0.0014       2.7543       0.8359       2.1848
   2823.5164       8.9618       5.0062       0.0088    -999.2500      22.5133    -999.2500     313.4539    -999.2500     137.5341    -999.2500     250.7414    -999.2500       0.0716       3.2360       0.0015       2.7672       0.7312       2.2363
   2823.6687       8.9550       5.1216       0.0028    -999.2500      22.9400    -999.2500     292.8780    -999.2500     130.7773    -999.2500     237.9666    -999.2500       0.0694       3.2243       0.0013       2.7724       0.8798       2.2904
   2823.8210       8.8599       5.1114      -0.0001    -999.2500      21.5615    -999.2500     286.4131    -999.2500     128.8029    -999.2500      78.1207    -999.2500       0.0656       3.4814       0.0013       2.7739       0.8732       2.0654
   2823.9736       8.7512       5.0765      -0.0067    -999.2500      21.7483    -999.2500     348.1034    -999.2500     157.3813    -999.2500     143.8841    -999.2500       0.0594       3.6411       0.0015       2.7744       0.7461       2.1506
   2824.1260       8.7784       5.1039      -0.0080    -999.2500      22.5177    -999.2500     422.2901    -999.2500     198.1326    -999.2500     127.1941    -999.2500       0.0489       3.8206       0.0015       2.7891       0.7312       2.2259
   2824.2783       8.8123       6.0374      -0.0095    -999.2500      23.5640    -999.2500     403.4448    -999.2500     196.9668    -999.2500     442.6667    -999.2500       0.0436       3.7191       0.0018       2.7822       0.9136       2.2157
   2824.4307       8.8531       5.4612      -0.0111    -999.2500      24.9494    -999.2500     414.8789    -999.2500     213.6206    -999.2500     358.1751    -999.2500       0.0410       3.5680       0.0012       2.7775       1.0640       2.4897
   2824.5830       8.7852       4.7927      -0.0115    -999.2500      23.8562    -999.2500     365.5483    -999.2500     190.0661    -999.2500     205.2161    -999.2500       0.0445       3.3185       0.0011       2.7734       0.8847       2.4557
   2824.7356       8.6425       4.8855      -0.0081    -999.2500      22.7568    -999.2500     363.5789    -999.2500     187.0453    -999.2500     169.3709    -999.2500       0.0485       3.2162       0.0011       2.7837       0.9125       2.2829
   2824.8879       8.6425       5.3259      -0.0067    -999.2500      22.1510    -999.2500     348.7993    -999.2500     178.7220    -999.2500     328.4093    -999.2500       0.0499       3.2819       0.0013       2.7884       0.9601       2.0877
   2825.0403       8.6765       4.8237      -0.0048    -999.2500      21.9423    -999.2500     308.8326    -999.2500     157.6656    -999.2500     596.1970    -999.2500       0.0445       3.3172       0.0010       2.7965       0.9271       2.1567
   2825.1926       8.9210       5.2520      -0.0018    -999.2500      22.4957    -999.2500     290.7236    -999.2500     148.4168    -999.2500     659.8367    -999.2500       0.0380       3.3455       0.0010       2.7834       1.0770       2.1826
