#------------------------------------------------------------------------------
#
#   Created by  : [OpenWorks] Log Export Utility (LEXP)
#   Created on  : 2016-05-23 11:57:14
#   Project     : CANT971
#   User        : R5K
#   Interpreter : PEP
#
#------------------------------------------------------------------------------
~VERSION INFORMATION
VERS. 2.0 : CWLS Log ASCII Standard - version 2.0
WRAP.  NO : One line per depth step
~WELL INFORMATION
#MNEMONIC   .UNIT                                           VALUE :DESCRIPTION
#------------------------------------------------------------------------------
STRT        .M                                           551.2302 :START DEPTH
STOP        .M                                          2435.9609 :STOP DEPTH
STEP        .M                                             0.1524 :STEP
NULL        .                                           -999.2500 :NULL VALUE
COMP        .                                   PEMEX EXPL & PROD :COMPANY
WELL        .                                                  76 :WELL
FLD         .                                           CANTARELL :FIELD
LOC         .                                             UNKNOWN :LOCATION
CNTY        .                                      CD. DEL CARMEN :COUNTY
STAT        .                                            CAMPECHE :STATE
CTRY        .                                              MEXICO :COUNTRY
SRVC        .                                             UNKNOWN :SERVICE COMPANY
DATE        .                                             UNKNOWN :LOG DATE
UWI         .                                          3060000416 :UNIQUE WELL ID
XCOORD      .                                       599729.570000 :SURFACE X
YCOORD      .                                      2147218.620000 :SURFACE Y
LAT         .                                           19.417934 :LATITUDE
LON         .                                          -92.050101 :LONGITUDE
ELEV        .M                                            27.8000 :SURFACE ELEV
ELEV_TYPE   .                                                  KB :ELEV TYPE
~CURVE INFORMATION
#MNEMONIC.UNIT        API CODE       : CURVE DESCRIPTION
#------------------------------------------------------------------------------
DEPTH    .M                          : Measured Depth
CAL      .inches      UNKNOWN        : CAL:UNKNOWN:rC:NONE:v0 (auto-composite)
DRHO     .UNKNOWN     UNKNOWN        : DRHO:UNKNOWN:rC:NONE:v0 (auto-composite)
DT       .us/ft       UNKNOWN        : DT:DT:rC:NONE:v0 (auto-composite)
GR       .UNKNOWN     UNKNOWN        : GR:GR-Load:rC:NONE:v0 (auto-composite)
ILD      .UNKNOWN     UNKNOWN        : ILD:ILD-Load:rC:NONE:v0 (auto-composite)
LLD      .UNKNOWN     UNKNOWN        : LLD:UNKNOWN:rC:NONE:v0 (auto-composite)
LLS      .UNKNOWN     UNKNOWN        : LLS:UNKNOWN:rC:NONE:v0 (auto-composite)
NPHI     .v/v_decimal UNKNOWN        : NPHI:NPHI:rC:NONE:v0 (auto-composite)
RHOB     .UNKNOWN     UNKNOWN        : RHOB:UNKNOWN:rC:NONE:v0 (auto-composite)
~A     DEPTH          CAL         DRHO           DT           GR          ILD          LLD          LLS         NPHI         RHOB
# ...
   2270.9119       6.3799       0.0458      59.7138      36.7801       0.2000      32.1251      25.8188      13.0277       2.6840
   2271.0642       6.4100       0.0438      59.3190      36.8930       0.2000      31.1206      25.6941      13.3310       2.6845
   2271.2166       6.4374       0.0431      58.1565      37.9935       0.2000      30.2411      25.5311      13.6201       2.6839
   2271.3691       6.4409       0.0541      56.9950      39.0930       0.2000      30.4687      25.0292      13.9090       2.6729
   2271.5215       6.4440       0.0646      56.4153      41.0809       0.2000      30.7352      24.6132      13.8630       2.6630
   2271.6738       6.4440       0.0701      55.8360      43.0640       0.2000      31.3264      24.9140      13.8170       2.6630
   2271.8262       6.4440       0.0751      56.2486      43.0565       0.2000      31.8921      25.2080      13.4149       2.6637
   2271.9785       6.4440       0.0761      56.6610      43.0490       0.2000      32.2571      25.4482      13.0130       2.6697
   2272.1311       6.4440       0.0755      56.5395      40.7080       0.2000      32.5221      25.6064      12.8565       2.6751
   2272.2834       6.4440       0.0630      56.4180      38.3720       0.2000      32.0403      25.1521      12.7000       2.6761
   2272.4358       6.4440       0.0525      56.1294      36.9771       0.2000      31.5251      24.7221      12.7000       2.6765
   2272.5881       6.4440       0.0565      55.8410      35.5850       0.2000      30.7731      24.4641      12.7000       2.6725
   2272.7407       6.4440       0.0606      55.8640      36.1651       0.2000      30.1235      24.1846      12.6670       2.6700
   2272.8931       6.4440       0.0657      55.8870      36.7440       0.2000      30.1747      23.7579      12.6340       2.6780
   2273.0454       6.4440       0.0689      55.8045      38.8043       0.2000      30.2620      23.4310      12.4795       2.6845
   2273.1978       6.4440       0.0609      55.7220      40.8610       0.2000      30.5849      23.7539      12.3250       2.6810
   2273.3503       6.4440       0.0541      56.2845      41.4645       0.2000      30.8377      24.0525      12.3740       2.6759
   2273.5027       6.4440       0.0546      56.8470      42.0670       0.2000      30.6552      24.2004      12.4230       2.6609
   2273.6550       6.4440       0.0556      57.9415      40.3622       0.2000      30.3879      24.2422      12.4705       2.6470
   2273.8074       6.4440       0.0596      59.0360      38.6600       0.2000      29.6173      23.6535      12.5180       2.6400
   2273.9597       6.4474       0.0655      59.7095      37.9120       0.2000      28.6906      23.0474      12.5675       2.6338
   2274.1123       6.4699       0.0820      60.3820      37.1650       0.2000      26.8776      22.3419      12.6170       2.6328
   2274.2646       6.4979       0.0948      60.2914      38.3152       0.2000      25.2740      21.6506      12.8016       2.6335
   2274.4170       6.5556       0.0867      60.2010      39.4640       0.2000      24.8101      21.0359      12.9860       2.6430
   2274.5693       6.6014       0.0782      59.7082      40.1309       0.2000      24.3803      20.4776      13.2682       2.6503
   2274.7219       6.5854       0.0666      59.2160      40.7970       0.2000      24.1311      20.2174      13.5500       2.6458
   2274.8743       6.5630       0.0579      59.6857      39.2334       0.2000      23.9835      20.0195      13.8802       2.6409
   2275.0266       6.5083       0.0634      60.1550      37.6740       0.2000      24.3511      20.1378      14.2100       2.6344
   2275.1790       6.4614       0.0696      60.4436      36.7624       0.2000      24.8318      20.3310      13.9254       2.6312
   2275.3315       6.4519       0.0791      60.7320      35.8530       0.2000      25.8641      20.8891      13.6410       2.6443
   2275.4839       6.4486       0.0868      61.4923      36.3471       0.2000      26.8745      21.4145      13.6980       2.6576
   2275.6362       6.4747       0.0858      62.2520      36.8400       0.2000      27.7815      21.7870      13.7550       2.6721
   2275.7886       6.5015       0.0823      63.6825      37.0332       0.2000      28.4355      22.0262      13.8670       2.6823
   2275.9409       6.5315       0.0672      65.1120      37.2260       0.2000      27.9475      21.6635      13.9790       2.6728
   2276.0935       6.5560       0.0544      66.2413      38.3347       0.2000      27.4214      21.2663      14.1751       2.6615
   2276.2458       6.5560       0.0514      67.3700      39.4410       0.2000      26.7275      20.7172      14.3710       2.6424
   2276.3982       6.5560       0.0522      66.8784      39.5821       0.2000      26.1740      20.2469      14.7836       2.6267
   2276.5505       6.5560       0.0687      66.3870      39.7230       0.2000      26.2162      20.1100      15.1960       2.6252
   2276.7031       6.5517       0.0835      64.9478      38.4768       0.2000      26.4023      20.0406      15.5971       2.6274
   2276.8555       6.5296       0.0910      63.5090      37.2330       0.2000      27.1780      20.2471      15.9980       2.6450
   2277.0078       6.5102       0.0964      62.2504      35.8693       0.2000      27.9629      20.5350      16.1285       2.6557
   2277.1602       6.5012       0.0934      60.9920      34.5080       0.2000      28.7847      21.1442      16.2590       2.6391
   2277.3127       6.4924       0.0867      60.8815      33.4757       0.2000      29.5068      21.6819      15.6255       2.6214
   2277.4651       6.4849       0.0662      60.7710      32.4450       0.2000      29.8483      21.9467      14.9920       2.5994
   2277.6174       6.4753       0.0484      62.0599      31.4713       0.2000      30.0293      22.1550      14.5295       2.5824
   2277.7698       6.4577       0.0409      63.3490      30.4990       0.2000      29.6175      22.1550      14.0670       2.5844
   2277.9221       6.4486       0.0351      64.3512      28.1289       0.2000      29.1390      22.1550      14.4418       2.5881
   2278.0747       6.4696       0.0356      65.3520      25.7620       0.2000      28.4200      22.1550      14.8160       2.5976
   2278.2271       6.4945       0.0369      65.8993      24.3751       0.2000      27.8581      22.0980      15.6110       2.6049
   2278.3794       6.5326       0.0409      66.4460      22.9900       0.2000      27.8451      21.8418      16.4050       2.6044
   2278.5317       6.5692       0.0445      66.6991      23.4282       0.2000      27.6422      21.5761      17.0058       2.6053
   2278.6843       6.6008       0.0465      66.9520      23.8660       0.2000      26.7969      21.2783      17.6060       2.6108
   2278.8367       6.6268       0.0492      67.0315      23.6192       0.2000      25.9983      21.0222      17.8001       2.6184
   2278.9890       6.6343       0.0542      67.1110      23.3730       0.2000      25.3530      20.9034      17.9940       2.6329
   2279.1414       6.6269       0.0596      67.1420      23.3004       0.2000      24.8238      20.7714      17.9290       2.6469
   2279.2939       6.5723       0.0661      67.1730      23.2280       0.2000      24.6640      20.5976      17.8640       2.6589
   2279.4463       6.5323       0.0747      66.2056      22.7970       0.2000      24.6869      20.6508      17.9505       2.6686
   2279.5986       6.5379       0.0897      65.2390      22.3670       0.2000      25.2791      21.4109      18.0370       2.6711
   2279.7510       6.5431       0.1027      64.3657      22.4486       0.2000      26.0956      22.2172      18.2486       2.6735
   2279.9033       6.5476       0.1098      63.4930      22.5300       0.2000      27.5902      23.1633      18.4600       2.6755
   2280.0559       6.5444       0.1133      63.1684      23.9355       0.2000      28.6805      23.8220      18.2845       2.6766
   2280.2083       6.5183       0.1068      62.8440      25.3380       0.2000      28.5843      23.6370      18.1090       2.6751
