#------------------------------------------------------------------------------
#
#   Created by  : [OpenWorks] Log Export Utility (LEXP)
#   Created on  : 2016-05-23 11:51:58
#   Project     : CANT971
#   User        : R5K
#   Interpreter : PEP
#
#------------------------------------------------------------------------------
~VERSION INFORMATION
VERS. 2.0 : CWLS Log ASCII Standard - version 2.0
WRAP.  NO : One line per depth step
~WELL INFORMATION
#MNEMONIC   .UNIT                                           VALUE :DESCRIPTION
#------------------------------------------------------------------------------
STRT        .M                                           695.7060 :START DEPTH
STOP        .M                                          3054.7056 :STOP DEPTH
STEP        .M                                             0.1524 :STEP
NULL        .                                           -999.2500 :NULL VALUE
COMP        .                                   PEMEX EXPL & PROD :COMPANY
WELL        .                                                 17D :WELL
FLD         .                                           CANTARELL :FIELD
LOC         .                                             UNKNOWN :LOCATION
CNTY        .                                      CD. DEL CARMEN :COUNTY
STAT        .                                            CAMPECHE :STATE
CTRY        .                                              MEXICO :COUNTRY
SRVC        .                                             UNKNOWN :SERVICE COMPANY
DATE        .                                             UNKNOWN :LOG DATE
UWI         .                                          3060000460 :UNIQUE WELL ID
XCOORD      .                                       603362.626000 :SURFACE X
YCOORD      .                                      2145093.910000 :SURFACE Y
LAT         .                                           19.398550 :LATITUDE
LON         .                                          -92.015617 :LONGITUDE
ELEV        .M                                            27.1400 :SURFACE ELEV
ELEV_TYPE   .                                                  KB :ELEV TYPE
~CURVE INFORMATION
#MNEMONIC.UNIT        API CODE       : CURVE DESCRIPTION
#------------------------------------------------------------------------------
DEPTH    .M                          : Measured Depth
CALI     .in          UNKNOWN        : CALI:UNKNOWN:rC:NONE:v0 (auto-composite)
DT       .us/ft       UNKNOWN        : DT:DT:rC:NONE:v0 (auto-composite)
GR       .API         UNKNOWN        : GR:UNKNOWN:rC:NONE:v0 (auto-composite)
ILD      .ohmm        UNKNOWN        : ILD:UNKNOWN:rC:NONE:v0 (auto-composite)
LLD      .ohmm        UNKNOWN        : LLD:UNKNOWN:rC:NONE:v0 (auto-composite)
LLS      .ohmm        UNKNOWN        : LLS:UNKNOWN:rC:NONE:v0 (auto-composite)
MSFL     .ohmm        UNKNOWN        : MSFL:UNKNOWN:rC:NONE:v0 (auto-composite)
NPHI     .v/v_decimal UNKNOWN        : NPHI:UNKNOWN:rC:NONE:v0 (auto-composite)
PEF      .b/elec      UNKNOWN        : PEF:UNKNOWN:rC:NONE:v0 (auto-composite)
RHOB     .g/cm3       UNKNOWN        : RHOB:UNKNOWN:rC:NONE:v0 (auto-composite)
~A     DEPTH         CALI           DT           GR          ILD          LLD          LLS         MSFL         NPHI          PEF         RHOB
# ...
   2385.5171       6.6600      79.3161      30.5185    -999.2500      62.1950      60.8975     137.5207       0.0659       3.1965       2.7780
   2385.6697       6.6600      79.1951      34.6010    -999.2500      54.3220      53.6080     197.0700       0.0672       3.1490       2.7580
   2385.8220       6.6600      78.9047      45.4163    -999.2500      41.8389      41.1997     151.1297       0.0768       3.1580       2.7585
   2385.9744       6.6600      78.5241      56.3050    -999.2500      29.2710      28.7470     105.0250       0.0864       3.1670       2.7590
   2386.1267       6.6600      77.9332      55.9941    -999.2500      30.8769      30.3341     108.1557       0.0863       3.2900       2.7620
   2386.2793       6.6600      77.1586      55.6800    -999.2500      32.4990      31.9270     111.2980       0.0862       3.4130       2.7650
   2386.4316       6.6600      75.7682      52.6039    -999.2500      46.2919      45.6078     142.8705       0.0834       3.4110       2.7725
   2386.5840       6.6600      74.3176      49.5110    -999.2500      60.1600      59.3410     174.5640       0.0807       3.4090       2.7800
   2386.7363       6.6600      73.1269      40.7557    -999.2500     107.1061     106.7613     363.2820       0.0704       3.3470       2.7915
   2386.8887       6.6600      72.1003      31.9940    -999.2500     154.0870     154.2930     552.4430       0.0599       3.2850       2.8030
   2387.0413       6.6600      72.0165      23.8745    -999.2500     218.3950     219.6922     517.9381       0.0512       3.2890       2.8230
   2387.1936       6.6600      72.5771      15.7220    -999.2500     282.9650     285.2530     483.3480       0.0424       3.2930       2.8430
   2387.3459       6.6600      74.7703      15.7399    -999.2500     378.4131     359.4416     366.3106       0.0431       3.3350       2.8420
   2387.4983       6.6600      77.5370      15.7580    -999.2500     474.5700     433.8230     248.9690       0.0438       3.3770       2.8410
   2387.6509       6.6600      77.0288      16.7335    -999.2500     465.5523     423.7617     164.2643       0.0505       3.5839       2.8231
   2387.8032       6.6600      75.7347      17.7180    -999.2500     456.4520     413.6730      79.3290       0.0572       3.7910       2.8050
   2387.9556       6.6600      72.0769      17.6831    -999.2500     408.0432     364.5261      87.1593       0.0571       3.7845       2.8050
   2388.1079       6.6600      68.1489      17.6480    -999.2500     359.4180     315.2390      95.0120       0.0569       3.7780       2.8050
   2388.2605       6.6600      68.6618      17.7669    -999.2500     294.0033     258.0506     182.5388       0.0545       3.7250       2.8095
   2388.4128       6.6600      70.4081      17.8860    -999.2500     228.4990     200.6920     270.3260       0.0520       3.6720       2.8140
   2388.5652       6.6600      74.8180      18.7894    -999.2500     186.0928     164.8182     261.4303       0.0524       3.4866       2.8130
   2388.7175       6.6600      78.7126      19.6970    -999.2500     143.4870     128.8330     252.5070       0.0529       3.3010       2.8120
   2388.8699       6.6600      77.1939      22.7581    -999.2500     116.6654     106.4157     217.5339       0.0551       3.3025       2.8015
   2389.0225       6.6600      74.9306      25.8390    -999.2500      89.6710      83.9260     182.4480       0.0574       3.3040       2.7910
   2389.1748       6.6600      75.8427      25.7011    -999.2500      90.2198      84.5120     157.7594       0.0609       3.3120       2.7910
   2389.3271       6.6600      76.9411      25.5620    -999.2500      90.7730      85.1000     132.9880       0.0645       3.3200       2.7910
   2389.4795       6.6600      76.9708      24.6688    -999.2500      94.1688      88.5740     157.7080       0.0641       3.3325       2.7935
   2389.6321       6.6600      76.6238      23.7710    -999.2500      97.5820      92.0600     182.5140       0.0638       3.3450       2.7960
   2389.7844       6.6600      75.5107      20.8304    -999.2500     109.8452     103.4085     459.5208       0.0613       3.4835       2.8105
   2389.9368       6.6600      74.7321      17.8840    -999.2500     122.1330     114.7980     737.5270       0.0589       3.6220       2.8250
   2390.0891       6.6600      75.0263      17.9868    -999.2500     121.8535     114.4773     677.1841       0.0511       3.6200       2.8240
   2390.2417       6.6600      75.5806      18.0900    -999.2500     121.5730     114.1560     616.7130       0.0433       3.6180       2.8230
   2390.3940       6.6600      74.0578      18.8204    -999.2500     117.2174     109.6990     446.1849       0.0434       3.5890       2.8155
   2390.5464       6.6600      73.2692      19.5560    -999.2500     112.8310     105.2320     275.2730       0.0435       3.5600       2.8080
   2390.6987       6.6600      75.2516      21.0413    -999.2500     114.0521     106.1644     183.8228       0.0440       3.4675       2.8100
   2390.8511       6.6600      77.7498      22.5420    -999.2500     115.2860     107.0990      92.1550       0.0445       3.3750       2.8120
   2391.0037       6.6600      78.0372      23.2734    -999.2500     115.1230     106.9871     103.8464       0.0450       3.3125       2.8285
   2391.1560       6.6600      77.7300      24.0090    -999.2500     114.9590     106.8750     115.5670       0.0455       3.2500       2.8450
   2391.3083       6.6600      76.4288      24.6502    -999.2500     112.8456     105.0184     261.7892       0.0464       3.2575       2.8440
   2391.4607       6.6600      75.2462      25.2920    -999.2500     110.7300     103.1570     408.3960       0.0473       3.2650       2.8430
   2391.6133       6.6600      75.3066      26.9883    -999.2500     104.0984      96.8172     406.8307       0.0503       3.3205       2.8380
   2391.7656       6.6600      75.9438      28.6920    -999.2500      97.4380      90.4600     405.2610       0.0533       3.3760       2.8330
   2391.9180       6.6600      78.7587      30.4238    -999.2500      90.5695      83.9599     385.7831       0.0567       3.5299       2.8225
   2392.0703       6.6600      81.1910      32.1690    -999.2500      83.6480      77.4410     366.2490       0.0600       3.6840       2.8120
   2392.2229       6.6600      81.7400      33.2384    -999.2500      86.1576      78.0076     258.8544       0.0622       3.6305       2.8165
   2392.3752       6.6600      81.6460      34.3180    -999.2500      88.6910      78.5760     151.1370       0.0643       3.5770       2.8210
   2392.5276       6.6600      81.1717      33.7499    -999.2500      88.6810      80.6807     152.4714       0.0650       3.5840       2.8180
   2392.6799       6.6600      79.7563      33.1790    -999.2500      88.6710      82.7920     153.8100       0.0656       3.5910       2.8150
   2392.8323       6.6600      75.5762      30.8939    -999.2500      87.5534      81.9768     164.6758       0.0658       3.6744       2.8160
   2392.9849       6.6600      70.9137      28.6050    -999.2500      86.4340      81.1590     175.5770       0.0659       3.7580       2.8170
   2393.1372       6.6600      70.6231      26.9077    -999.2500      86.9053      81.5533     210.3905       0.0659       3.7445       2.8245
   2393.2896       6.6600      70.9430      25.2020    -999.2500      87.3790      81.9490     245.3220       0.0658       3.7310       2.8320
   2393.4419       6.6600      71.7936      23.9238    -999.2500      89.8083      83.9889     297.2718       0.0657       3.6240       2.8315
   2393.5945       6.6600      72.6380      22.6370    -999.2500      92.2540      86.0360     349.4040       0.0655       3.5170       2.8310
   2393.7468       6.6600      72.7582      21.3783    -999.2500      97.1786      90.1825     423.6335       0.0648       3.5320       2.8285
   2393.8992       6.6600      72.8856      20.1090    -999.2500     102.1450      94.3440     498.1330       0.0642       3.5470       2.8260
