#------------------------------------------------------------------------------
#
#   Created by  : [OpenWorks] Log Export Utility (LEXP)
#   Created on  : 2016-05-11 12:45:43
#   Project     : CANT971
#   User        : R5K
#   Interpreter : PEP
#
#------------------------------------------------------------------------------
~VERSION INFORMATION
VERS. 2.0 : CWLS Log ASCII Standard - version 2.0
WRAP.  NO : One line per depth step
~WELL INFORMATION
#MNEMONIC   .UNIT                                           VALUE :DESCRIPTION
#------------------------------------------------------------------------------
STRT        .M                                            80.3144 :START DEPTH
STOP        .M                                          1350.4160 :STOP DEPTH
STEP        .M                                             0.1524 :STEP
NULL        .                                           -999.2500 :NULL VALUE
COMP        .                                   PEMEX EXPL & PROD :COMPANY
WELL        .                                         CANTARELL-3 :WELL
FLD         .                                           CANTARELL :FIELD
LOC         .                                             UNKNOWN :LOCATION
CNTY        .                                      CD. DEL CARMEN :COUNTY
STAT        .                                            CAMPECHE :STATE
CTRY        .                                              MEXICO :COUNTRY
SRVC        .                                             UNKNOWN :SERVICE COMPANY
DATE        .                                             UNKNOWN :LOG DATE
UWI         .                                          3060000139 :UNIQUE WELL ID
XCOORD      .                                       600825.370000 :SURFACE X
YCOORD      .                                      2145118.460000 :SURFACE Y
LAT         .                                           19.398901 :LATITUDE
LON         .                                          -92.039777 :LONGITUDE
ELEV        .M                                            27.7000 :SURFACE ELEV
ELEV_TYPE   .                                                  KB :ELEV TYPE
~CURVE INFORMATION
#MNEMONIC.UNIT        API CODE       : CURVE DESCRIPTION
#------------------------------------------------------------------------------
DEPTH    .M                          : Measured Depth
CALI     .inches      UNKNOWN        : CALI:Import:rC:NONE:v0 (auto-composite)
DRHO     .g/cm3       UNKNOWN        : DRHO:Import:rC:NONE:v0 (auto-composite)
DT       .us/ft       UNKNOWN        : DT:Import:rC:NONE:v0 (auto-composite)
GR       .API         UNKNOWN        : GR:Import:rC:NONE:v0 (auto-composite)
ILD      .ohm.m       UNKNOWN        : ILD:Import:rC:NONE:v0 (auto-composite)
NPHI     .v/v_decimal UNKNOWN        : NPHI:Import:rC:NONE:v0 (auto-composite)
RHOB     .g/cm3       UNKNOWN        : RHOB:Import:rC:NONE:v0 (auto-composite)
SP       .mV          UNKNOWN        : SP:Import:rC:NONE:v0 (auto-composite)
~A     DEPTH         CALI         DRHO           DT           GR          ILD         NPHI         RHOB           SP
# ...
    301.1420      16.6120       0.0730     145.9773    -999.2500    -999.2500    -999.2500       1.8350    -999.2500
    301.2944      16.5455       0.0720     143.4590    -999.2500    -999.2500    -999.2500       1.8455    -999.2500
    301.4468      16.4790       0.0710     141.6671    -999.2500    -999.2500    -999.2500       1.8560    -999.2500
    301.5992      16.3806       0.0650     139.8770    -999.2500    -999.2500    -999.2500       1.8545    -999.2500
    301.7516      16.2820       0.0590     140.0056    -999.2500    -999.2500    -999.2500       1.8530    -999.2500
    301.9040      16.1381       0.0510     140.1340    -999.2500    -999.2500    -999.2500       1.8550    -999.2500
    302.0564      15.9940       0.0430     141.0955    -999.2500    -999.2500    -999.2500       1.8570    -999.2500
    302.2088      15.8061       0.0395     142.0560    -999.2500    -999.2500    -999.2500       1.8670    -999.2500
    302.3612      15.6180       0.0360     145.8511    -999.2500    -999.2500    -999.2500       1.8770    -999.2500
    302.5136      15.4996       0.0290     149.6430    -999.2500    -999.2500    -999.2500       1.8885    -999.2500
    302.6660      15.3810       0.0220     148.6891    -999.2500    -999.2500    -999.2500       1.9000    -999.2500
    302.8184      15.3145       0.0110     147.7360    -999.2500    -999.2500    -999.2500       1.9120    -999.2500
    302.9708      15.2480       0.0000     142.9402    -999.2500    -999.2500    -999.2500       1.9240    -999.2500
    303.1232      15.0461       0.0025     138.1490    -999.2500    -999.2500    -999.2500       1.9215    -999.2500
    303.2756      14.8440       0.0050     130.8810    -999.2500    -999.2500    -999.2500       1.9190    -999.2500
    303.4280      14.8505       0.0170     123.6190    -999.2500    -999.2500    -999.2500       1.8985    -999.2500
    303.5804      14.8570       0.0290     118.2956    -999.2500    -999.2500    -999.2500       1.8780    -999.2500
    303.7328      14.9524       0.0590     112.9770    -999.2500    -999.2500    -999.2500       1.8785    -999.2500
    303.8852      15.0480       0.0890     113.9510    -999.2500    -999.2500    -999.2500       1.8790    -999.2500
    304.0376      14.8222       0.0885     114.9240    -999.2500    -999.2500    -999.2500       1.8830    -999.2500
    304.1900      14.5960       0.0880     118.7502    -999.2500    -999.2500    -999.2500       1.8870    -999.2500
    304.3424      14.6030       0.0830     122.5730    -999.2500    -999.2500    -999.2500       1.8945    -999.2500
    304.4948      14.6100       0.0780     127.2992    -999.2500    -999.2500    -999.2500       1.9020    -999.2500
    304.6472      14.6675       0.0645     132.0210    -999.2500    -999.2500    -999.2500       1.9115    -999.2500
    304.7996      14.7250       0.0510     142.9540    -999.2500    -999.2500    -999.2500       1.9210    -999.2500
    304.9520      14.8569       0.0380     153.8760    -999.2500    -999.2500    -999.2500       1.9280    -999.2500
    305.1044      14.9890       0.0250     153.0586    -999.2500    -999.2500    -999.2500       1.9350    -999.2500
    305.2568      14.9260       0.0095     152.2420    -999.2500    -999.2500    -999.2500       1.9345    -999.2500
    305.4092      14.8630      -0.0060     148.4437    -999.2500    -999.2500    -999.2500       1.9340    -999.2500
    305.5616      14.8710      -0.0060     144.6490    -999.2500    -999.2500    -999.2500       1.9285    -999.2500
    305.7140      14.8790      -0.0060     128.8243    -999.2500    -999.2500    -999.2500       1.9230    -999.2500
    305.8664      14.9519      -0.0035     113.0160    -999.2500    -999.2500    -999.2500       1.9040    -999.2500
    306.0188      15.0250      -0.0010     113.7338    -999.2500    -999.2500    -999.2500       1.8850    -999.2500
    306.1712      15.2443       0.0095     114.4510    -999.2500    -999.2500    -999.2500       1.8575    -999.2500
    306.3236      15.4640       0.0200     120.0873    -999.2500    -999.2500    -999.2500       1.8300    -999.2500
    306.4760      15.7483       0.0295     125.7180    -999.2500    -999.2500    -999.2500       1.8100    -999.2500
    306.6284      16.0330       0.0390     137.6263    -999.2500    -999.2500    -999.2500       1.7900    -999.2500
    306.7808      16.3663       0.0525     149.5220    -999.2500    -999.2500    -999.2500       1.7925    -999.2500
    306.9332      16.7000       0.0660     154.4843    -999.2500    -999.2500    -999.2500       1.7950    -999.2500
    307.0856      16.6720       0.0660     159.4420    -999.2500    -999.2500    -999.2500       1.8035    -999.2500
    307.2380      16.6440       0.0660     162.7472    -999.2500    -999.2500    -999.2500       1.8120    -999.2500
    307.3904      16.4531       0.0630     166.0490    -999.2500    -999.2500    -999.2500       1.8105    -999.2500
    307.5428      16.2620       0.0600     169.7165    -999.2500    -999.2500    -999.2500       1.8090    -999.2500
    307.6952      16.3180       0.0490     173.3800    -999.2500    -999.2500    -999.2500       1.8020    -999.2500
    307.8476      16.3740       0.0380     174.8377    -999.2500    -999.2500    -999.2500       1.7950    -999.2500
    308.0000      16.3690       0.0385     176.2940    -999.2500    -999.2500    -999.2500       1.7880    -999.2500
    308.1524      16.3640       0.0390     177.2034    -999.2500    -999.2500    -999.2500       1.7810    -999.2500
    308.3048      16.2771       0.0405     178.1120    -999.2500    -999.2500    -999.2500       1.7845    -999.2500
    308.4572      16.1900       0.0420     177.4337    -999.2500    -999.2500    -999.2500       1.7880    -999.2500
    308.6096      15.9367       0.0415     176.7560    -999.2500    -999.2500    -999.2500       1.7875    -999.2500
    308.7620      15.6830       0.0410     173.2853    -999.2500    -999.2500    -999.2500       1.7870    -999.2500
    308.9144      15.8064       0.0380     169.8180    -999.2500    -999.2500    -999.2500       1.7855    -999.2500
    309.0668      15.9300       0.0350     164.2416    -999.2500    -999.2500    -999.2500       1.7840    -999.2500
    309.2192      15.9150       0.0335     158.6700    -999.2500    -999.2500    -999.2500       1.7805    -999.2500
    309.3716      15.9000       0.0320     153.9888    -999.2500    -999.2500    -999.2500       1.7770    -999.2500
    309.5240      15.8071       0.0335     149.3120    -999.2500    -999.2500    -999.2500       1.7790    -999.2500
    309.6764      15.7140       0.0350     145.7842    -999.2500    -999.2500    -999.2500       1.7810    -999.2500
    309.8288      15.5656       0.0420     142.2600    -999.2500    -999.2500    -999.2500       1.7895    -999.2500
    309.9812      15.4170       0.0490     138.2667    -999.2500    -999.2500    -999.2500       1.7980    -999.2500
    310.1336      15.4010       0.0555     134.2770    -999.2500    -999.2500    -999.2500       1.8135    -999.2500
    310.2860      15.3850       0.0620     129.1786    -999.2500    -999.2500    -999.2500       1.8290    -999.2500
    310.4384      15.2936       0.0640     124.0850    -999.2500    -999.2500    -999.2500       1.8245    -999.2500
    310.5908      15.2020       0.0660     120.8038    -999.2500    -999.2500    -999.2500       1.8200    -999.2500
    310.7432      15.2360       0.0890     117.5260    -999.2500    -999.2500    -999.2500       1.8210    -999.2500
    310.8956      15.2700       0.1120     113.2090    -999.2500    -999.2500    -999.2500       1.8220    -999.2500
    311.0480      15.4509       0.1110     108.8960    -999.2500    -999.2500    -999.2500       1.8265    -999.2500
    311.2004      15.6320       0.1100     112.2206    -999.2500    -999.2500    -999.2500       1.8310    -999.2500
    311.3528      15.5775       0.1035     115.5420    -999.2500    -999.2500    -999.2500       1.8305    -999.2500
    311.5052      15.5230       0.0970     136.7027    -999.2500    -999.2500    -999.2500       1.8300    -999.2500
