#------------------------------------------------------------------------------
#
#   Created by  : [OpenWorks] Log Export Utility (LEXP)
#   Created on  : 2016-05-23 11:57:01
#   Project     : CANT971
#   User        : R5K
#   Interpreter : PEP
#
#------------------------------------------------------------------------------
~VERSION INFORMATION
VERS. 2.0 : CWLS Log ASCII Standard - version 2.0
WRAP.  NO : One line per depth step
~WELL INFORMATION
#MNEMONIC   .UNIT                                           VALUE :DESCRIPTION
#------------------------------------------------------------------------------
STRT        .M                                           485.8514 :START DEPTH
STOP        .M                                          3526.5361 :STOP DEPTH
STEP        .M                                             0.1524 :STEP
NULL        .                                           -999.2500 :NULL VALUE
COMP        .                                   PEMEX EXPL & PROD :COMPANY
WELL        .                                                  62 :WELL
FLD         .                                           CANTARELL :FIELD
LOC         .                                             UNKNOWN :LOCATION
CNTY        .                                      CD. DEL CARMEN :COUNTY
STAT        .                                            CAMPECHE :STATE
CTRY        .                                              MEXICO :COUNTRY
SRVC        .                                             UNKNOWN :SERVICE COMPANY
DATE        .                                             UNKNOWN :LOG DATE
UWI         .                                          3060000468 :UNIQUE WELL ID
XCOORD      .                                       601711.280000 :SURFACE X
YCOORD      .                                      2142346.320000 :SURFACE Y
LAT         .                                           19.373806 :LATITUDE
LON         .                                          -92.031488 :LONGITUDE
ELEV        .M                                            24.0000 :SURFACE ELEV
ELEV_TYPE   .                                                  KB :ELEV TYPE
~CURVE INFORMATION
#MNEMONIC.UNIT        API CODE       : CURVE DESCRIPTION
#------------------------------------------------------------------------------
DEPTH    .M                          : Measured Depth
CALI     .inches      UNKNOWN        : CALI:editado:rC:NONE:v0 (auto-composite)
DRHO     .g/cm3       UNKNOWN        : DRHO:editado:rC:NONE:v0 (auto-composite)
DT       .us/ft       UNKNOWN        : DT:editado:rC:NONE:v0 (auto-composite)
GR       .API         UNKNOWN        : GR:editado:rC:NONE:v0 (auto-composite)
ILD      .ohm.m       UNKNOWN        : ILD:editado:rC:NONE:v0 (auto-composite)
ILM      .ohm.m       UNKNOWN        : ILM:editado:rC:NONE:v0 (auto-composite)
LLD      .ohm.m       UNKNOWN        : LLD:editado:rC:NONE:v0 (auto-composite)
LLS      .ohm.m       UNKNOWN        : LLS:editado:rC:NONE:v0 (auto-composite)
MSFL     .ohm.m       UNKNOWN        : MSFL:editado:rC:NONE:v0 (auto-composite)
NPHI     .v/v_decimal UNKNOWN        : NPHI:editado:rC:NONE:v0 (auto-composite)
PEF      .b/elec      UNKNOWN        : PEF:editado:rC:NONE:v0 (auto-composite)
RHOB     .g/cm3       UNKNOWN        : RHOB:editado:rC:NONE:v0 (auto-composite)
~A     DEPTH         CALI         DRHO           DT           GR          ILD          ILM          LLD          LLS         MSFL         NPHI          PEF         RHOB
# ...
   3068.1169       6.7120      -0.0090      56.0280      59.9530    -999.2500    -999.2500      25.9700      18.7520       3.3020       0.1127       3.3330       2.7590
   3068.2695       7.0887      -0.0020      54.9636      60.1269    -999.2500    -999.2500      28.2896      20.2952      10.4945       0.1152       3.3330       2.7570
   3068.4219       7.4630       0.0050      53.9060      60.3000    -999.2500    -999.2500      30.5980      21.8310      17.6410       0.1177       3.3330       2.7550
   3068.5742       7.4023       0.0080      54.2852      68.0586    -999.2500    -999.2500      27.6175      19.7326      14.7615       0.1116       3.4859       2.7169
   3068.7266       7.3420       0.0110      54.6620      75.7810    -999.2500    -999.2500      24.6510      17.6440      11.9000       0.1052       3.6380       2.6790
   3068.8789       6.9719       0.0135      58.4205      70.5581    -999.2500    -999.2500      24.0602      17.1283       7.0782       0.1046       3.7237       2.6344
   3069.0315       6.6040       0.0160      62.1560      65.3590    -999.2500    -999.2500      23.4720      16.6150       2.2860       0.1065       3.8090       2.5900
   3069.1838       6.6536       0.0145      61.4564      58.3951    -999.2500    -999.2500      30.4154      21.5353       6.4235       0.1214       3.8627       2.6130
   3069.3362       6.7030       0.0130      60.7610      51.4620    -999.2500    -999.2500      37.3170      26.4260      10.5360       0.1364       3.9160       2.6360
   3069.4885       6.6764       0.0195      57.1980      47.0766    -999.2500    -999.2500      34.3427      24.7987      13.0193       0.1406       3.7515       2.7066
   3069.6411       6.6500       0.0260      53.6560      42.7100    -999.2500    -999.2500      31.3860      23.1810      15.4880       0.1408       3.5880       2.7770
   3069.7935       6.6395       0.0340      55.2466      40.6477    -999.2500    -999.2500      31.9356      23.5721      24.7608       0.1216       3.4707       2.7705
   3069.9458       6.6290       0.0420      56.8280      38.5940    -999.2500    -999.2500      32.4820      23.9610      33.9800       0.1013       3.3540       2.7640
   3070.0981       6.6806       0.0350      56.6980      39.2749    -999.2500    -999.2500      42.8442      31.4577      27.7183       0.0919       3.3996       2.7660
   3070.2505       6.7320       0.0280      56.5690      39.9530    -999.2500    -999.2500      53.1480      38.9120      21.4920       0.0857       3.4450       2.7680
   3070.4031       6.6979       0.0210      54.0099      34.5559    -999.2500    -999.2500      51.8188      37.8801      19.5466       0.0928       3.4866       2.7835
   3070.5554       6.6640       0.0140      51.4690      29.1800    -999.2500    -999.2500      50.4970      36.8540      17.6120       0.1006       3.5280       2.7990
   3070.7078       6.6485       0.0205      50.9512      31.4869    -999.2500    -999.2500      49.6176      36.3431      16.5882       0.1003       3.5125       2.8115
   3070.8601       6.6330       0.0270      50.4370      33.7850    -999.2500    -999.2500      48.7430      35.8350      15.5700       0.0980       3.4970       2.8240
   3071.0127       6.6711       0.0225      50.8976      38.4325    -999.2500    -999.2500      45.9110      34.0994      16.9622       0.0890       3.4885       2.8210
   3071.1650       6.7090       0.0180      51.3550      43.0630    -999.2500    -999.2500      43.0940      32.3730      18.3470       0.0790       3.4800       2.8180
   3071.3174       6.6965       0.0270      52.6017      44.3383    -999.2500    -999.2500      41.8453      31.4095      22.6180       0.0686       3.4620       2.8070
   3071.4697       6.6840       0.0360      53.8400      45.6090    -999.2500    -999.2500      40.6030      30.4510      26.8670       0.0595       3.4440       2.7960
   3071.6223       6.6494       0.0380      53.8967      43.7293    -999.2500    -999.2500      39.0431      29.4685      21.3531       0.0585       3.4936       2.7715
   3071.7747       6.6150       0.0400      53.9530      41.8590    -999.2500    -999.2500      37.4910      28.4910      15.8670       0.0596       3.5430       2.7470
   3071.9270       6.6777       0.0440      53.5923      42.6580    -999.2500    -999.2500      36.9933      28.1908      21.4647       0.0670       3.4934       2.7375
   3072.0793       6.7400       0.0480      53.2340      43.4530    -999.2500    -999.2500      36.4980      27.8920      27.0260       0.0749       3.4440       2.7280
   3072.2317       6.7219       0.0430      53.4888      39.7697    -999.2500    -999.2500      37.9911      28.9961      30.4770       0.0803       3.4440       2.7450
   3072.3843       6.7040       0.0380      53.7420      36.1040    -999.2500    -999.2500      39.4770      30.0950      33.9060       0.0849       3.4440       2.7620
   3072.5366       6.6564       0.0254      53.7616      34.5599    -999.2500    -999.2500      41.6511      31.8285      31.5787       0.0864       3.4019       2.7695
   3072.6890       6.6090       0.0130      53.7810      33.0230    -999.2500    -999.2500      43.8150      33.5540      29.2660       0.0869       3.3600       2.7770
   3072.8413       6.6777       0.0009      53.2704      34.8592    -999.2500    -999.2500      45.1149      34.5653      41.4282       0.0838       3.3465       2.7745
   3072.9939       6.7460      -0.0110      52.7630      36.6870    -999.2500    -999.2500      46.4090      35.5720      53.5160       0.0803       3.3330       2.7720
   3073.1462       6.7284       0.0066      52.3021      39.4491    -999.2500    -999.2500      41.8453      32.1001      43.2382       0.0781       3.4223       2.7725
   3073.2986       6.7110       0.0240      51.8440      42.1990    -999.2500    -999.2500      37.3090      28.6490      33.0220       0.0761       3.5110       2.7730
   3073.4509       6.6659       0.0240      52.6504      46.9301    -999.2500    -999.2500      35.1106      26.8262      25.4869       0.0747       3.6449       2.7740
   3073.6035       6.6210       0.0240      53.4520      51.6410    -999.2500    -999.2500      32.9250      25.0140      17.9960       0.0735       3.7780       2.7750
   3073.7559       6.6972       0.0175      54.2282      51.4782    -999.2500    -999.2500      33.7032      25.4447      18.0802       0.0733       3.6361       2.7735
   3073.9082       6.7730       0.0110      55.0000      51.3160    -999.2500    -999.2500      34.4770      25.8730      18.1640       0.0740       3.4950       2.7720
   3074.0605       6.7429       0.0110      54.4395      49.6937    -999.2500    -999.2500      34.2629      25.8279      16.3599       0.0790       3.4138       2.7700
   3074.2129       6.7130       0.0110      53.8830      48.0780    -999.2500    -999.2500      34.0500      25.7830      14.5660       0.0842       3.3330       2.7680
   3074.3655       6.6924       0.0110      53.5809      51.3834    -999.2500    -999.2500      33.2638      25.3889       9.8285       0.0857       3.3330       2.7625
   3074.5178       6.6720       0.0110      53.2810      54.6760    -999.2500    -999.2500      32.4820      24.9970       5.1170       0.0864       3.3330       2.7570
   3074.6702       6.7788       0.0110      54.4516      57.4783    -999.2500    -999.2500      31.6924      24.6466      15.9430       0.0852       3.3656       2.7580
   3074.8225       6.8850       0.0110      55.6140      60.2700    -999.2500    -999.2500      30.9070      24.2980      26.7110       0.0835       3.3980       2.7590
   3074.9751       6.8770       0.0180      55.6822      61.4607    -999.2500    -999.2500      31.7637      24.9181      23.1396       0.0802       3.4767       2.7380
   3075.1274       6.8690       0.0250      55.7500      62.6470    -999.2500    -999.2500      32.6160      25.5350      19.5870       0.0777       3.5550       2.7170
   3075.2798       6.9698       0.0300      55.5152      65.2751    -999.2500    -999.2500      28.4899      22.7544      14.9988       0.0815       3.5555       2.7155
