#------------------------------------------------------------------------------
#
#   Created by  : [OpenWorks] Log Export Utility (LEXP)
#   Created on  : 2016-05-23 11:56:14
#   Project     : CANT971
#   User        : R5K
#   Interpreter : PEP
#
#------------------------------------------------------------------------------
~VERSION INFORMATION
VERS. 2.0 : CWLS Log ASCII Standard - version 2.0
WRAP.  NO : One line per depth step
~WELL INFORMATION
#MNEMONIC   .UNIT                                           VALUE :DESCRIPTION
#------------------------------------------------------------------------------
STRT        .M                                          2395.2905 :START DEPTH
STOP        .M                                          2859.1960 :STOP DEPTH
STEP        .M                                             0.1524 :STEP
NULL        .                                           -999.2500 :NULL VALUE
COMP        .                                             UNKNOWN :COMPANY
WELL        .                                               446-V :WELL
FLD         .                                             UNKNOWN :FIELD
LOC         .                                             UNKNOWN :LOCATION
CNTY        .                                             UNKNOWN :COUNTY
STAT        .                                             UNKNOWN :STATE
CTRY        .                                             UNKNOWN :COUNTRY
SRVC        .                                             UNKNOWN :SERVICE COMPANY
DATE        .                                             UNKNOWN :LOG DATE
UWI         .                                               446-V :UNIQUE WELL ID
XCOORD      .                                       596708.730000 :SURFACE X
YCOORD      .                                      2143311.960000 :SURFACE Y
LAT         .                                           19.382780 :LATITUDE
LON         .                                          -92.079070 :LONGITUDE
ELEV        .M                                             0.0000 :SURFACE ELEV
ELEV_TYPE   .                                                  NA :ELEV TYPE
~CURVE INFORMATION
#MNEMONIC.UNIT        API CODE       : CURVE DESCRIPTION
#------------------------------------------------------------------------------
DEPTH    .M                          : Measured Depth
CALI     .inches      UNKNOWN        : CALI:litodensidad:rC:NONE:v0 (auto-composite)
CGR      .API         UNKNOWN        : CGR:Espectrometria:rC:NONE:v0 (auto-composite)
DRHO     .g/cm3       UNKNOWN        : DRHO:litodensidad:rC:NONE:v0 (auto-composite)
DT       .us/ft       UNKNOWN        : DT:sonico:rC:NONE:v0 (auto-composite)
GR       .API         UNKNOWN        : GR:GR-Load:rC:NONE:v0 (auto-composite)
GR-LWD   .API         UNKNOWN        : GR-LWD:resistivos-LWD:rC:NONE:v0 (auto-composite)
ILD-LWD  .ohm.m       UNKNOWN        : ILD-LWD:resistivos-LWD:rC:NONE:v0 (auto-composite)
ILM-LWD  .UNKNOWN     UNKNOWN        : ILM-LWD:resistivos-LWD:rC:NONE:v0 (auto-composite)
LLD      .ohm.m       UNKNOWN        : LLD:resistivos:rC:NONE:v0 (auto-composite)
LLS      .ohm.m       UNKNOWN        : LLS:resistivos:rC:NONE:v0 (auto-composite)
MSFL     .ohm.m       UNKNOWN        : MSFL:resistivos:rC:NONE:v0 (auto-composite)
NPHI     .UNKNOWN     UNKNOWN        : NPHI:porosidad:rC:NONE:v0 (auto-composite)
PEF      .UNKNOWN     UNKNOWN        : PEF:litodensidad:rC:NONE:v0 (auto-composite)
POTA     .wtpercent   UNKNOWN        : POTA:Espectrometria:rC:NONE:v0 (auto-composite)
RHOB     .g/cm3       UNKNOWN        : RHOB:litodensidad:rC:NONE:v0 (auto-composite)
THOR     .ppm         UNKNOWN        : THOR:Espectrometria:rC:NONE:v0 (auto-composite)
URAN     .ppm         UNKNOWN        : URAN:Espectrometria:rC:NONE:v0 (auto-composite)
~A     DEPTH         CALI          CGR         DRHO           DT           GR       GR-LWD      ILD-LWD      ILM-LWD          LLD          LLS         MSFL         NPHI          PEF         POTA         RHOB         THOR         URAN
# ...
   2645.9885       9.5249      23.9155       0.0431      55.1132      35.0066    -999.2500    -999.2500    -999.2500      77.2724      64.5560       7.2285       0.0503       3.3220       0.0111       2.7958       2.3818       1.2349
   2646.1409       9.5224      21.0517       0.0418      54.8468      34.0584    -999.2500    -999.2500    -999.2500      86.4294      71.5645      23.7998       0.0506       3.3138       0.0106       2.7971       1.7586       1.4481
   2646.2932       9.4812      18.5413       0.0466      55.0531      34.1622    -999.2500    -999.2500    -999.2500      91.2349      74.2617      40.5486       0.0480       3.3370       0.0106       2.7911       1.0677       1.7392
   2646.4458       9.4410      17.0037       0.0582      55.5014      34.2578    -999.2500    -999.2500    -999.2500      90.7478      74.8085      30.7419       0.0480       3.3721       0.0102       2.7853       0.7645       1.9209
   2646.5981       9.4151      14.1327       0.0747      56.7998      32.4184    -999.2500    -999.2500    -999.2500      82.6255      67.3837      20.6119       0.0632       3.3841       0.0094       2.7293       0.2703       2.0358
   2646.7505       9.4166      12.4131       0.0718      57.5798      30.1088    -999.2500    -999.2500    -999.2500      76.4521      61.6095      10.0305       0.0695       3.3563       0.0085       2.6537       0.1503       1.9702
   2646.9028       9.4612       9.7587       0.0501      58.0008      26.0793    -999.2500    -999.2500    -999.2500      66.1549      53.2701       2.2901       0.0676       3.3265       0.0067       2.5506       0.0953       1.8170
   2647.0554       9.5420       9.1811       0.0376      57.9265      23.0282    -999.2500    -999.2500    -999.2500      63.3250      51.5836       1.5413       0.0746       3.3405       0.0056       2.5557       0.3938       1.5417
   2647.2078       9.6613       8.9160       0.0420      57.7822      21.1890    -999.2500    -999.2500    -999.2500      58.6663      49.8466       2.8944       0.0760       3.3692       0.0047       2.6566       0.6549       1.3664
   2647.3601       9.7154       9.1423       0.0546      57.8714      21.1611    -999.2500    -999.2500    -999.2500      53.2850      45.5229       5.7668       0.0811       3.3563       0.0044       2.6873       0.8496       1.3381
   2647.5125       9.6265       9.5167       0.0799      58.0594      21.9569    -999.2500    -999.2500    -999.2500      44.1870      36.6469       9.9570       0.0829       3.3466       0.0039       2.6523       1.1631       1.3850
   2647.6650       9.5183      10.3954       0.0870      58.4250      22.7349    -999.2500    -999.2500    -999.2500      40.2580      32.4418       6.6744       0.0829       3.3600       0.0037       2.6120       1.4777       1.3738
   2647.8174       9.4024      13.7503       0.0795      57.8652      23.8405    -999.2500    -999.2500    -999.2500      38.2494      30.8630       2.5620       0.0859       3.3974       0.0053       2.6139       1.8088       1.1234
   2647.9697       9.4025      16.2066       0.0687      56.8603      24.4960    -999.2500    -999.2500    -999.2500      39.1676      31.9116       2.4180       0.0859       3.4139       0.0060       2.6535       2.2237       0.9229
   2648.1221       9.4427      17.4329       0.0586      54.0989      25.1181    -999.2500    -999.2500    -999.2500      42.2176      33.9734       2.7267       0.0821       3.4271       0.0063       2.7006       2.4491       0.8556
   2648.2744       9.5284      18.0145       0.0458      51.9868      26.3045    -999.2500    -999.2500    -999.2500      46.6275      36.8663       3.1925       0.0813       3.4135       0.0063       2.7441       2.6284       0.9230
   2648.4270       9.5954      16.1737       0.0400      51.3814      26.2176    -999.2500    -999.2500    -999.2500      49.9041      37.5409       2.6221       0.0791       3.3678       0.0058       2.7607       2.2947       1.1182
   2648.5793       9.5926      12.8970       0.0450      52.0770      25.7350    -999.2500    -999.2500    -999.2500      51.9905      36.9199       1.7352       0.0749       3.3227       0.0047       2.7731       1.7829       1.4293
   2648.7317       9.5091       9.3951       0.0579      53.1222      24.8049    -999.2500    -999.2500    -999.2500      52.0198      35.3873       0.9849       0.0743       3.3535       0.0037       2.7801       1.1854       1.7156
   2648.8840       9.3462       5.9613       0.0620      54.1871      23.9063    -999.2500    -999.2500    -999.2500      51.7284      33.7409       2.2487       0.0730       3.4028       0.0032       2.7754       0.4069       1.9979
   2649.0366       9.1865       6.0961       0.0426      53.8992      22.5904    -999.2500    -999.2500    -999.2500      57.8095      38.1512       4.9638       0.0698       3.3878       0.0043       2.7493       0.0404       1.8364
   2649.1890       9.0511      10.4207       0.0176      52.7459      21.1876    -999.2500    -999.2500    -999.2500      71.5286      49.1002       5.4575       0.0600       3.3353       0.0074       2.7168       0.0334       1.1987
   2649.3413       9.1554       9.1763       0.0209      49.9871      20.3807    -999.2500    -999.2500    -999.2500      91.8930      62.1385       2.5079       0.0538       3.3360       0.0060       2.7216       0.2061       1.2474
   2649.4937       9.2924      10.5523       0.0437      49.3465      20.7591    -999.2500    -999.2500    -999.2500     117.2424      71.9160       1.6395       0.0526       3.3966       0.0059       2.7514       0.6718       1.1364
   2649.6462       9.3468      12.5202       0.0642      48.6666      21.5078    -999.2500    -999.2500    -999.2500     122.6558      71.7904       1.8508       0.0537       3.4600       0.0065       2.7831       0.9829       1.0006
   2649.7986       9.3147      14.2235       0.0786      48.8368      22.3447    -999.2500    -999.2500    -999.2500     119.0669      65.3513       2.8185       0.0564       3.4731       0.0075       2.8260       1.0763       0.9042
   2649.9509       9.2693      14.6469       0.0739      48.9709      22.3560    -999.2500    -999.2500    -999.2500     112.5202      64.3508       5.1647       0.0560       3.4233       0.0076       2.8389       1.1526       0.8583
   2650.1033       9.1606      13.4776       0.0583      49.2620      21.7868    -999.2500    -999.2500    -999.2500     109.1144      65.5249       6.0098       0.0528       3.3360       0.0063       2.8329       1.3277       0.9251
   2650.2556       9.1373      12.8269       0.0508      49.4938      21.2620    -999.2500    -999.2500    -999.2500     111.5145      70.3690       4.0951       0.0522       3.3137       0.0055       2.8234       1.4502       0.9391
   2650.4082       9.1175      10.1663       0.0468      49.7277      20.3495    -999.2500    -999.2500    -999.2500     130.2953      85.0111       1.6135       0.0542       3.2905       0.0040       2.8268       1.3133       1.1338
   2650.5605       9.1954       8.9718       0.0457      50.3645      20.2431    -999.2500    -999.2500    -999.2500     140.8132      91.7123       1.5135       0.0496       3.2685       0.0034       2.8284       1.1834       1.2549
   2650.7129       9.3341       7.3052       0.0460      51.2787      20.8676    -999.2500    -999.2500    -999.2500     156.4817     106.0176       1.4816       0.0423       3.2380       0.0028       2.8296       0.9586       1.5100
   2650.8652       9.3855       7.2408       0.0466      52.7327      21.0877    -999.2500    -999.2500    -999.2500     128.4622     102.3595       1.4260       0.0467       3.2257       0.0027       2.8307       0.9749       1.5416
   2651.0178       9.4298       6.6274       0.0452      52.8918      20.5293    -999.2500    -999.2500    -999.2500      58.3062      62.0371       0.9184       0.0581       3.2128       0.0034       2.8165       0.5460       1.5477
   2651.1702       9.7984       7.0324       0.0416      52.3616      19.8369    -999.2500    -999.2500    -999.2500      36.1319      42.2603       0.6426       0.0567       3.2184       0.0042       2.7915       0.3340       1.4256
