#------------------------------------------------------------------------------
#
#   Created by  : [OpenWorks] Log Export Utility (LEXP)
#   Created on  : 2015-10-01 09:50:16
#   Project     : CANT971
#   User        : R5K
#   Interpreter : PEP
#
#------------------------------------------------------------------------------
~VERSION INFORMATION
VERS. 2.0 : CWLS Log ASCII Standard - version 2.0
WRAP.  NO : One line per depth step
~WELL INFORMATION
#MNEMONIC   .UNIT                                           VALUE :DESCRIPTION
#------------------------------------------------------------------------------
STRT        .M                                           352.7300 :START DEPTH
STOP        .M                                          2346.8840 :STOP DEPTH
STEP        .M                                             0.1524 :STEP
NULL        .                                           -999.2500 :NULL VALUE
COMP        .                                   PEMEX EXPL & PROD :COMPANY
WELL        .                                        CANTARELL-64 :WELL
FLD         .                                           CANTARELL :FIELD
LOC         .                                             UNKNOWN :LOCATION
CNTY        .                                      CD. DEL CARMEN :COUNTY
STAT        .                                            CAMPECHE :STATE
CTRY        .                                              MEXICO :COUNTRY
SRVC        .                                             UNKNOWN :SERVICE COMPANY
DATE        .                                             UNKNOWN :LOG DATE
UWI         .                                          3060000172 :UNIQUE WELL ID
XCOORD      .                                       599695.280000 :SURFACE X
YCOORD      .                                      2143036.290000 :SURFACE Y
LAT         .                                           19.380142 :LATITUDE
LON         .                                          -92.050647 :LONGITUDE
ELEV        .M                                            26.7400 :SURFACE ELEV
ELEV_TYPE   .                                                  KB :ELEV TYPE
~CURVE INFORMATION
#MNEMONIC.UNIT        API CODE       : CURVE DESCRIPTION
#------------------------------------------------------------------------------
DEPTH    .M                          : Measured Depth
CALI     .inches      UNKNOWN        : CALI:UNKNOWN:rC:NONE:v0 (auto-composite)
DRHO     .g/cm3       UNKNOWN        : DRHO:UNKNOWN:rC:NONE:v0 (auto-composite)
DT       .us/ft       UNKNOWN        : DT:DT:rC:NONE:v0 (auto-composite)
GR       .API         UNKNOWN        : GR:GR-Load:rC:NONE:v0 (auto-composite)
ILD      .ohm.m       UNKNOWN        : ILD:ILD-Load:rC:NONE:v0 (auto-composite)
LLD      .ohm.m       UNKNOWN        : LLD:UNKNOWN:rC:NONE:v0 (auto-composite)
LLS      .ohm.m       UNKNOWN        : LLS:UNKNOWN:rC:NONE:v0 (auto-composite)
MSFL     .ohm.m       UNKNOWN        : MSFL:UNKNOWN:rC:NONE:v0 (auto-composite)
NPHI     .v/v_decimal UNKNOWN        : NPHI:NPHI:rC:NONE:v0 (auto-composite)
PEF      .b/elec      UNKNOWN        : PEF:UNKNOWN:rC:NONE:v0 (auto-composite)
RHOB     .g/cm3       UNKNOWN        : RHOB:RHOB-Load:rC:NONE:v0 (auto-composite)
~A     DEPTH        CALI         DRHO           DT           GR          ILD          LLD          LLS         MSFL         NPHI          PEF         RHOB
# ...
   2215.0581      5.4789       0.0872      51.4618      12.6106       0.0000    2775.7520    1734.5183       8.7665       5.6001       3.0358       2.6915 
   2215.2104      5.4800       0.0957      51.4078      13.8015       0.0000    4498.4854    3806.6553       9.4616       5.6756       3.1626       2.6845 
   2215.3628      5.4800       0.1102      51.4830      14.0476       0.0000    6497.3242    6321.9795      10.3110       5.9592       3.3215       2.6732 
   2215.5151      5.4800       0.1122      51.6855      13.3614       0.0000    6463.2441    6174.1245      11.7912       6.4469       3.3439       2.6577 
   2215.6677      5.4800       0.1112      52.2314      12.3060       0.0000    5946.3491    5393.7690      13.4212       7.0605       3.3339       2.6445 
   2215.8201      5.4800       0.0926      53.1150      10.8849       0.0000    8094.6030    4366.8311      13.3056       7.7972       3.2198       2.6335 
   2215.9724      5.4800       0.0701      53.4475      10.3027       0.0000   10853.3525    3283.4092      12.7902       8.9344       3.0819       2.6212 
   2216.1248      5.4800       0.0615      53.2360      10.5486       0.0000   10757.0566    2800.5344      13.2712      10.4645       2.9835       2.6077 
   2216.2773      5.4800       0.0560      53.0403      10.9595       0.0000   10030.5156    2450.2295      13.9721      11.1722       2.8937       2.5952 
   2216.4297      5.4800       0.0558      52.8604      11.5337       0.0000    6772.2495    1870.4131      12.1590      11.0758       2.9495       2.5837 
   2216.5820      5.4800       0.0568      52.9532      11.8142       0.0000    2975.8867    1241.8162       9.8115      10.9023       3.0363       2.5750 
   2216.7344      5.4800       0.0632      53.3153      11.8047       0.0000    1554.0540     856.4171       9.7566      10.6532       3.0560       2.5690 
   2216.8870      5.4800       0.0708      55.0104      11.4840       0.0000     617.6813     520.7384      10.1704      10.3865       3.0620       2.5663 
   2217.0393      5.4645       0.0770      58.0181      10.8548       0.0000     496.3096     440.9160      12.1668      10.1026       3.0592       2.5668 
   2217.1917      5.4460       0.0830      59.0043      10.5551       0.0000     536.9217     411.9456      14.4777       9.8848       3.0547       2.5612 
   2217.3440      5.4139       0.0848      57.9929      10.5811       0.0000     503.3092     463.6894      16.5094       9.7317       3.1833       2.5497 
   2217.4963      5.3794       0.0858      56.2716      10.8374       0.0000     455.5317     530.8365      18.4879       9.9800       3.3372       2.5337 
   2217.6489      5.3926       0.0754      53.8506      11.3220       0.0000     343.5321     451.3313      17.7836      10.6212       3.4102       2.5132 
   2217.8013      5.4147       0.0629      53.4473      11.7287       0.0000     219.7781     344.9845      16.5883      11.8521       3.4683       2.4885 
   2217.9536      5.4427       0.0499      55.0389      12.0584       0.0000     147.7030     244.8618      14.1733      13.6623       3.3704       2.4594 
   2218.1060      5.4718       0.0369      57.4362      12.5064       0.0000      84.6884     145.8302      11.5446      16.1044       3.2450       2.4131 
   2218.2585      5.4777       0.0371      60.6278      13.0712       0.0000      88.7716     152.4898      21.0940      19.1656       3.1871       2.3497 
   2218.4109      5.4797       0.0397      63.0342      13.7973       0.0000     104.1078     176.8749      32.6858      21.6098       3.1405       2.3205 
   2218.5632      5.4800       0.0387      64.6638      14.6831       0.0000     144.2347     226.5072      43.3682      23.4474       3.1525       2.3255 
   2218.7156      5.4800       0.0372      63.8249      14.7111       0.0000     188.3866     280.2386      53.9029      22.4929       3.1741       2.3664 
   2218.8679      5.4800       0.0431      60.5512      13.8930       0.0000     179.9708     266.1343      44.7557      18.8020       3.2039       2.4428 
   2219.0205      5.4800       0.0501      59.3035      13.5250       0.0000     163.4114     241.5211      32.5594      15.4538       3.2350       2.5046 
   2219.1729      5.4970       0.0584      60.0481      13.6025       0.0000     137.2534     196.5166      25.2810      12.4427       3.2626       2.5516 
   2219.3252      5.5166       0.0670      60.3352      13.5786       0.0000     109.6790     148.5030      18.7283      10.4522       3.2897       2.5793 
   2219.4775      5.5476       0.0728      60.1706      13.4547       0.0000      99.4844     132.4455      16.5440       9.4623       3.3884       2.5878 
   2219.6301      5.5802       0.0784      59.2710      13.2940       0.0000      91.7284     120.8719      14.9726       9.2983       3.4972       2.5870 
   2219.7825      5.6008       0.0949      57.6482      13.0969       0.0000     115.2420     123.5487      19.2592       9.9415       3.7003       2.5770 
   2219.9348      5.6199       0.1130      57.9233      12.7830       0.0000     142.9193     128.1229      24.3257      10.1959       3.9159       2.5723 
   2220.0872      5.6531       0.1226      60.0721      12.3537       0.0000     166.6688     140.5204      22.1168      10.0688       3.7936       2.5728 
   2220.2397      5.6882       0.1311      60.9005      12.2812       0.0000     189.9231     153.9043      18.9907      10.7291       3.6288       2.5529 
   2220.3921      5.6674       0.1078      60.4292      12.5623       0.0000     209.9266     179.1167      26.1808      12.1595       3.4473       2.5129 
   2220.5444      5.6398       0.0808      59.4250      12.8431       0.0000     229.5365     205.7616      34.6202      14.6943       3.2638       2.4591 
   2220.6968      5.6334       0.0978      57.8945      13.1234       0.0000     286.7911     261.5253     107.4542      18.3132       3.4556       2.3916 
   2220.8491      5.6294       0.1199      56.2842      13.0344       0.0000     348.3437     320.6136     187.6405      18.7612       3.6903       2.4147 
   2221.0017      5.6331       0.1229      54.5954      12.5792       0.0000     305.1230     283.7040     169.9055      16.1064       3.4961       2.5277 
   2221.1541      5.6376       0.1239      53.0496      12.5420       0.0000     250.6565     236.4906     141.6602      13.4307       3.2559       2.5737 
   2221.3064      5.6421       0.1030      51.6451      12.9179       0.0000     243.5437     237.7021     168.1443      10.7347       3.1484       2.5532 
   2221.4587      5.6466       0.0800      51.1479      13.2052       0.0000     241.1937     243.7839     200.1330       9.6492       3.0541       2.5327 
   2221.6113      5.6337       0.0785      51.5447      13.4048       0.0000     217.6445     223.4839     197.3983      10.1405       3.0945       2.5122 
   2221.7637      5.6192       0.0790      51.6540      13.1969       0.0000     192.1047     200.7065     191.4030      10.0010       3.1477       2.5261 
   2221.9160      5.6180       0.0772      51.4789      12.5862       0.0000     165.6820     181.9558     152.7763       9.2417       3.2436       2.5741 
   2222.0684      5.6180       0.0752      50.8746      12.3195       0.0000     139.1805     163.5643     111.2386       8.4050       3.3434       2.6128 
   2222.2209      5.6287       0.0667      49.8470      12.3920       0.0000     127.7735     160.0297      94.6624       7.4924       3.3431       2.6423 
   2222.3733      5.6402       0.0576      49.0257      12.7702       0.0000     117.6144     157.7233      80.1497       6.7671       3.3346       2.6475 
   2222.5256      5.6098       0.0691      48.4085      13.4510       0.0000     185.1710     192.7763     176.7618       6.2259       3.2935       2.6285 
   2222.6780      5.5762       0.0821      48.9267      14.0819       0.0000     258.6502     230.6763     281.8426       5.9610       3.2498       2.6193 
   2222.8303      5.5942       0.0727      50.5648      14.6636       0.0000     273.4314     263.4061     241.6001       5.9670       3.2348       2.6198 
