#------------------------------------------------------------------------------
#
#   Created by  : [OpenWorks] Log Export Utility (LEXP)
#   Created on  : 2016-05-23 11:55:37
#   Project     : CANT971
#   User        : R5K
#   Interpreter : PEP
#
#------------------------------------------------------------------------------
~VERSION INFORMATION
VERS. 2.0 : CWLS Log ASCII Standard - version 2.0
WRAP.  NO : One line per depth step
~WELL INFORMATION
#MNEMONIC   .UNIT                                           VALUE :DESCRIPTION
#------------------------------------------------------------------------------
STRT        .M                                           299.0628 :START DEPTH
STOP        .M                                          2570.8896 :STOP DEPTH
STEP        .M                                             0.1524 :STEP
NULL        .                                           -999.2500 :NULL VALUE
COMP        .                                   PEMEX EXPL & PROD :COMPANY
WELL        .                                                  31 :WELL
FLD         .                                           CANTARELL :FIELD
LOC         .                                             UNKNOWN :LOCATION
CNTY        .                                      CD. DEL CARMEN :COUNTY
STAT        .                                            CAMPECHE :STATE
CTRY        .                                              MEXICO :COUNTRY
SRVC        .                                             UNKNOWN :SERVICE COMPANY
DATE        .                                             UNKNOWN :LOG DATE
UWI         .                                          3060000157 :UNIQUE WELL ID
XCOORD      .                                       599727.810000 :SURFACE X
YCOORD      .                                      2147216.930000 :SURFACE Y
LAT         .                                           19.417919 :LATITUDE
LON         .                                          -92.050118 :LONGITUDE
ELEV        .M                                            27.8000 :SURFACE ELEV
ELEV_TYPE   .                                                  KB :ELEV TYPE
~CURVE INFORMATION
#MNEMONIC.UNIT        API CODE       : CURVE DESCRIPTION
#------------------------------------------------------------------------------
DEPTH    .M                          : Measured Depth
CALI     .inches      UNKNOWN        : CALI:Import:rC:NONE:v0 (auto-composite)
DRHO     .g/cm3       UNKNOWN        : DRHO:Import:rC:NONE:v0 (auto-composite)
DT       .us/ft       UNKNOWN        : DT:Import:rC:NONE:v0 (auto-composite)
GR       .API         UNKNOWN        : GR:Import:rC:NONE:v0 (auto-composite)
ILD      .ohm.m       UNKNOWN        : ILD:Import:rC:NONE:v0 (auto-composite)
LLD      .ohm.m       UNKNOWN        : LLD:Import:rC:NONE:v0 (auto-composite)
LLS      .ohm.m       UNKNOWN        : LLS:Import:rC:NONE:v0 (auto-composite)
MSFL     .ohm.m       UNKNOWN        : MSFL:Import:rC:NONE:v0 (auto-composite)
NPHI     .v/v_decimal UNKNOWN        : NPHI:Import:rC:NONE:v0 (auto-composite)
RHOB     .g/cm3       UNKNOWN        : RHOB:Import:rC:NONE:v0 (auto-composite)
~A     DEPTH         CALI         DRHO           DT           GR          ILD          LLD          LLS         MSFL         NPHI         RHOB
# ...
   1775.5140    -999.2500    -999.2500      57.4170      25.3168    -999.2500     410.4463     321.5377    -999.2500       0.0502       2.7197
   1775.6664    -999.2500    -999.2500      59.4780      24.5638    -999.2500     662.3600     537.6636    -999.2500       0.0448       2.7280
   1775.8188    -999.2500    -999.2500      59.4780      23.6182    -999.2500    3343.5386    2811.1653    -999.2500       0.0434       2.7280
   1775.9712    -999.2500    -999.2500      59.2542      22.8375    -999.2500    5557.1323    4677.3345    -999.2500       0.0456       2.7275
   1776.1237    -999.2500    -999.2500      56.6396      23.7835    -999.2500    2875.9539    2404.7444    -999.2500       0.0515       2.7215
   1776.2760    -999.2500    -999.2500      54.2755      24.6109    -999.2500     577.1971     478.8832    -999.2500       0.0570       2.7164
   1776.4283    -999.2500    -999.2500      54.4837      24.2450    -999.2500    2167.0862    1977.5137    -999.2500       0.0583       2.7204
   1776.5808    -999.2500    -999.2500      55.0115      23.8942    -999.2500    3455.4473    3194.1233    -999.2500       0.0581       2.7240
   1776.7332    -999.2500    -999.2500      58.7284      23.6909    -999.2500    1791.8683    1701.4695    -999.2500       0.0581       2.7240
   1776.8856    -999.2500    -999.2500      61.7506      23.5531    -999.2500     444.4327     499.5921    -999.2500       0.0585       2.7209
   1777.0380    -999.2500    -999.2500      58.0323      24.0384    -999.2500    2108.0117    1991.6475    -999.2500       0.0598       2.6878
   1777.1904    -999.2500    -999.2500      54.6608      24.4751    -999.2500    3448.7837    3187.6589    -999.2500       0.0617       2.6583
   1777.3428    -999.2500    -999.2500      54.5347      24.4661    -999.2500    1796.7351    1712.2201    -999.2500       0.0643       2.6613
   1777.4952    -999.2500    -999.2500      54.4210      24.4580    -999.2500     310.7180     387.4270    -999.2500       0.0664       2.6632
   1777.6476    -999.2500    -999.2500      54.4210      24.4580    -999.2500     310.7180     387.4270    -999.2500       0.0672       2.6546
   1777.8000    -999.2500    -999.2500      54.4347      24.2751    -999.2500     331.9783     411.7063    -999.2500       0.0696       2.6479
   1777.9524    -999.2500    -999.2500      54.5688      22.4963    -999.2500     538.7092     642.4028    -999.2500       0.0761       2.6564
   1778.1049    -999.2500    -999.2500      54.7764      20.9078    -999.2500     787.3761     898.5270    -999.2500       0.0820       2.6642
   1778.2572    -999.2500    -999.2500      55.6133      20.9243    -999.2500    1392.8115    1365.5769    -999.2500       0.0830       2.6657
   1778.4095    -999.2500    -999.2500      56.3601      20.9590    -999.2500    4252.6929    1909.2502    -999.2500       0.0811       2.6715
   1778.5620    -999.2500    -999.2500      56.3516      21.1437    -999.2500   25670.5996    3073.3591    -999.2500       0.0772       2.7136
   1778.7144    -999.2500    -999.2500      56.1929      21.3701    -999.2500   44710.0742    4809.5298    -999.2500       0.0699       2.7509
   1778.8668    -999.2500    -999.2500      54.8178      21.9315    -999.2500   44635.2031   11033.2197    -999.2500       0.0575       2.7504
   1779.0192    -999.2500    -999.2500      53.6174      22.5060    -999.2500   44485.3281   16536.7715    -999.2500       0.0475       2.7490
   1779.1716    -999.2500    -999.2500      53.7991      23.1828    -999.2500   43746.7031   16520.3730    -999.2500       0.0460       2.7400
   1779.3240    -999.2500    -999.2500      54.2482      23.9073    -999.2500   42756.0234   16476.8203    -999.2500       0.0473       2.7322
   1779.4764    -999.2500    -999.2500      56.7641      24.9951    -999.2500   39847.2070   16229.8125    -999.2500       0.0476       2.7342
   1779.6288    -999.2500    -999.2500      58.9141      25.9409    -999.2500   35774.6758   15581.2910    -999.2500       0.0476       2.7360
   1779.7812    -999.2500    -999.2500      58.3204      25.8308    -999.2500   23044.1172   12012.8740    -999.2500       0.0477       2.7360
   1779.9336    -999.2500    -999.2500      57.8448      25.7340    -999.2500   11861.9053    8884.1816    -999.2500       0.0478       2.7360
   1780.0861    -999.2500    -999.2500      58.2348      25.7340    -999.2500   11861.9053    8884.1816    -999.2500       0.0479       2.7360
   1780.2384    -999.2500    -999.2500      58.3960      25.4527    -999.2500   12074.4082    9010.7920    -999.2500       0.0487       2.7359
   1780.3907    -999.2500    -999.2500      56.9167      23.1831    -999.2500   13788.6250   10012.7129    -999.2500       0.0512       2.7349
   1780.5432    -999.2500    -999.2500      55.6251      21.2386    -999.2500   15895.7930   11204.9326    -999.2500       0.0565       2.7304
   1780.6956    -999.2500    -999.2500      55.6416      21.5270    -999.2500   20721.1406   13685.3896    -999.2500       0.0657       2.7019
   1780.8480    -999.2500    -999.2500      55.8856      21.7780    -999.2500   26534.0410   16831.0859    -999.2500       0.0735       2.6775
   1781.0004    -999.2500    -999.2500      57.6817      21.7780    -999.2500   38988.4648   24387.8320    -999.2500       0.0755       2.6815
   1781.1528    -999.2500    -999.2500      58.9169      21.7506    -999.2500   48160.2422   29916.9180    -999.2500       0.0721       2.6845
   1781.3052    -999.2500    -999.2500      56.4039      21.5428    -999.2500   35705.8203   22363.2012    -999.2500       0.0634       2.6805
   1781.4576    -999.2500    -999.2500      54.2342      21.3741    -999.2500   26540.6270   16766.0469    -999.2500       0.0556       2.6771
   1781.6100    -999.2500    -999.2500      54.2958      21.4562    -999.2500   38609.5469   23543.0410    -999.2500       0.0533       2.6776
   1781.7625    -999.2500    -999.2500      54.5998      21.7706    -999.2500   48513.8008   28674.6133    -999.2500       0.0533       2.6758
   1781.9148    -999.2500    -999.2500      56.4485      23.5452    -999.2500   44813.0664   23602.9297    -999.2500       0.0534       2.6598
   1782.0673    -999.2500    -999.2500      57.7868      24.8242    -999.2500   42145.6328   19971.4238    -999.2500       0.0537       2.6488
   1782.2196    -999.2500    -999.2500      55.9374      23.0489    -999.2500   45846.3672   25041.0742    -999.2500       0.0548       2.6688
   1782.3719    -999.2500    -999.2500      54.2134      21.7167    -999.2500   49061.0195   30276.0684    -999.2500       0.0580       2.6860
   1782.5244    -999.2500    -999.2500      53.2528      23.0458    -999.2500   49337.3516   36491.1562    -999.2500       0.0642       2.6860
   1782.6768    -999.2500    -999.2500      52.7087      24.1820    -999.2500   49573.5898   41794.5430    -999.2500       0.0697       2.6868
   1782.8292    -999.2500    -999.2500      54.6513      24.1820    -999.2500   49573.5898   41794.5430    -999.2500       0.0713       2.6923
   1782.9816    -999.2500    -999.2500      56.0243      24.0411    -999.2500   49289.3984   41310.7344    -999.2500       0.0712       2.6962
   1783.1340    -999.2500    -999.2500      54.0825      23.0851    -999.2500   47361.7461   38081.7422    -999.2500       0.0711       2.6907
   1783.2864    -999.2500    -999.2500      52.3787      22.3758    -999.2500   44967.6094   33946.8828    -999.2500       0.0707       2.6863
   1783.4388    -999.2500    -999.2500      52.0343      23.0586    -999.2500   39925.2461   24765.0176    -999.2500       0.0699       2.6883
   1783.5912    -999.2500    -999.2500      51.7561      23.6369    -999.2500   34126.7266   17002.8613    -999.2500       0.0686       2.6904
   1783.7437    -999.2500    -999.2500      51.8492      23.6364    -999.2500   24139.2812   17009.3105    -999.2500       0.0661       2.6929
   1783.8960    -999.2500    -999.2500      52.4295      23.6190    -999.2500   15711.8750   17029.2715    -999.2500       0.0615       2.6955
