#------------------------------------------------------------------------------
#
#   Created by  : [OpenWorks] Log Export Utility (LEXP)
#   Created on  : 2015-10-01 09:50:16
#   Project     : CANT971
#   User        : R5K
#   Interpreter : PEP
#
#------------------------------------------------------------------------------
~VERSION INFORMATION
VERS. 2.0 : CWLS Log ASCII Standard - version 2.0
WRAP.  NO : One line per depth step
~WELL INFORMATION
#MNEMONIC   .UNIT                                           VALUE :DESCRIPTION
#------------------------------------------------------------------------------
STRT        .M                                           352.7300 :START DEPTH
STOP        .M                                          2346.8840 :STOP DEPTH
STEP        .M                                             0.1524 :STEP
NULL        .                                           -999.2500 :NULL VALUE
COMP        .                                   PEMEX EXPL & PROD :COMPANY
WELL        .                                        CANTARELL-64 :WELL
FLD         .                                           CANTARELL :FIELD
LOC         .                                             UNKNOWN :LOCATION
CNTY        .                                      CD. DEL CARMEN :COUNTY
STAT        .                                            CAMPECHE :STATE
CTRY        .                                              MEXICO :COUNTRY
SRVC        .                                             UNKNOWN :SERVICE COMPANY
DATE        .                                             UNKNOWN :LOG DATE
UWI         .                                          3060000172 :UNIQUE WELL ID
XCOORD      .                                       599695.280000 :SURFACE X
YCOORD      .                                      2143036.290000 :SURFACE Y
LAT         .                                           19.380142 :LATITUDE
LON         .                                          -92.050647 :LONGITUDE
ELEV        .M                                            26.7400 :SURFACE ELEV
ELEV_TYPE   .                                                  KB :ELEV TYPE
~CURVE INFORMATION
#MNEMONIC.UNIT        API CODE       : CURVE DESCRIPTION
#------------------------------------------------------------------------------
DEPTH    .M                          : Measured Depth
CALI     .inches      UNKNOWN        : CALI:UNKNOWN:rC:NONE:v0 (auto-composite)
DRHO     .g/cm3       UNKNOWN        : DRHO:UNKNOWN:rC:NONE:v0 (auto-composite)
DT       .us/ft       UNKNOWN        : DT:DT:rC:NONE:v0 (auto-composite)
GR       .API         UNKNOWN        : GR:GR-Load:rC:NONE:v0 (auto-composite)
ILD      .ohm.m       UNKNOWN        : ILD:ILD-Load:rC:NONE:v0 (auto-composite)
LLD      .ohm.m       UNKNOWN        : LLD:UNKNOWN:rC:NONE:v0 (auto-composite)
LLS      .ohm.m       UNKNOWN        : LLS:UNKNOWN:rC:NONE:v0 (auto-composite)
MSFL     .ohm.m       UNKNOWN        : MSFL:UNKNOWN:rC:NONE:v0 (auto-composite)
NPHI     .v/v_decimal UNKNOWN        : NPHI:NPHI:rC:NONE:v0 (auto-composite)
PEF      .b/elec      UNKNOWN        : PEF:UNKNOWN:rC:NONE:v0 (auto-composite)
RHOB     .g/cm3       UNKNOWN        : RHOB:RHOB-Load:rC:NONE:v0 (auto-composite)
~A     DEPTH        CALI         DRHO           DT           GR          ILD          LLD          LLS         MSFL         NPHI          PEF         RHOB
# ...
   1707.8708      0.0000       0.0000     108.4053      39.6005       0.7405       0.2000       0.2000       0.2000    -999.2500       0.0000    -999.2500 
   1708.0232      0.0000       0.0000     111.0382      38.8015       0.7195       0.2000       0.2000       0.2000    -999.2500       0.0000    -999.2500 
   1708.1757      0.0000       0.0000     112.2255      38.5027       0.7095       0.2000       0.2000       0.2000    -999.2500       0.0000    -999.2500 
   1708.3280      0.0000       0.0000     111.9839      38.6967       0.7105       0.2000       0.2000       0.2000    -999.2500       0.0000    -999.2500 
   1708.4805      0.0000       0.0000     110.9577      39.1241       0.7140       0.2000       0.2000       0.2000    -999.2500       0.0000    -999.2500 
   1708.6328      0.0000       0.0000     109.1583      39.7816       0.7200       0.2000       0.2000       0.2000    -999.2500       0.0000    -999.2500 
   1708.7853      0.0000       0.0000     108.2791      40.3777       0.7288       0.2000       0.2000       0.2000    -999.2500       0.0000    -999.2500 
   1708.9376      0.0000       0.0000     108.3071      40.9131       0.7403       0.2000       0.2000       0.2000    -999.2500       0.0000    -999.2500 
   1709.0901      0.0000       0.0000     108.4018      42.0521       0.7515       0.2000       0.2000       0.2000    -999.2500       0.0000    -999.2500 
   1709.2424      0.0000       0.0000     108.5623      43.7860       0.7625       0.2000       0.2000       0.2000    -999.2500       0.0000    -999.2500 
   1709.3949      0.0000       0.0000     108.8587      44.5720       0.7703       0.2000       0.2000       0.2000    -999.2500       0.0000    -999.2500 
   1709.5472      0.0000       0.0000     109.2892      44.4230       0.7748       0.2000       0.2000       0.2000    -999.2500       0.0000    -999.2500 
   1709.6996      0.0000       0.0000     110.0094      43.5242       0.7795       0.2000       0.2000       0.2000    -999.2500       0.0000    -999.2500 
   1709.8521      0.0000       0.0000     111.0154      41.8858       0.7845       0.2000       0.2000       0.2000    -999.2500       0.0000    -999.2500 
   1710.0044      0.0000       0.0000     111.3424      41.0838       0.7893       0.2000       0.2000       0.2000    -999.2500       0.0000    -999.2500 
   1710.1569      0.0000       0.0000     110.9994      41.1073       0.7938       0.2000       0.2000       0.2000    -999.2500       0.0000    -999.2500 
   1710.3092      0.0000       0.0000     109.8771      41.6955       0.7975       0.2000       0.2000       0.2000    -999.2500       0.0000    -999.2500 
   1710.4617      0.0000       0.0000     107.9857      42.8409       0.8005       0.2000       0.2000       0.2000    -999.2500       0.0000    -999.2500 
   1710.6140      0.0000       0.0000     107.3985      43.1246       0.8073       0.2000       0.2000       0.2000    -999.2500       0.0000    -999.2500 
   1710.7665      0.0000       0.0000     108.0990      42.5574       0.8178       0.2000       0.2000       0.2000    -999.2500       0.0000    -999.2500 
   1710.9188      0.0000       0.0000     108.2266      40.5211       0.8273       0.2000       0.2000       0.2000    -999.2500       0.0000    -999.2500 
   1711.0713      0.0000       0.0000     107.7886      37.0387       0.8358       0.2000       0.2000       0.2000    -999.2500       0.0000    -999.2500 
   1711.2236      0.0000       0.0000     105.9728      35.3226       0.8413       0.2000       0.2000       0.2000    -999.2500       0.0000    -999.2500 
   1711.3761      0.0000       0.0000     102.7959      35.3456       0.8438       0.2000       0.2000       0.2000    -999.2500       0.0000    -999.2500 
   1711.5284      0.0000       0.0000     101.2557      35.4867       0.8523       0.2000       0.2000       0.2000    -999.2500       0.0000    -999.2500 
   1711.6808      0.0000       0.0000     101.3327      35.7442       0.8668       0.2000       0.2000       0.2000    -999.2500       0.0000    -999.2500 
   1711.8333      0.0000       0.0000     102.0874      35.8690       0.8725       0.2000       0.2000       0.2000    -999.2500       0.0000    -999.2500 
   1711.9856      0.0000       0.0000     103.5119      35.8630       0.8695       0.2000       0.2000       0.2000    -999.2500       0.0000    -999.2500 
   1712.1381      0.0000       0.0000     103.6319      36.1438       0.8587       0.2000       0.2000       0.2000    -999.2500       0.0000    -999.2500 
   1712.2904      0.0000       0.0000     102.4625      36.7073       0.8402       0.2000       0.2000       0.2000    -999.2500       0.0000    -999.2500 
   1712.4429      0.0000       0.0000     102.2668      38.9264       0.8150       0.2000       0.2000       0.2000    -999.2500       0.0000    -999.2500 
   1712.5952      0.0000       0.0000     103.0307      42.7773       0.7830       0.2000       0.2000       0.2000    -999.2500       0.0000    -999.2500 
   1712.7477      0.0000       0.0000     106.3598      44.6142       0.7560       0.2000       0.2000       0.2000    -999.2500       0.0000    -999.2500 
   1712.9000      0.0000       0.0000     112.2176      44.4657       0.7340       0.2000       0.2000       0.2000    -999.2500       0.0000    -999.2500 
   1713.0525      0.0000       0.0000     114.9349      43.5678       0.7135       0.2000       0.2000       0.2000    -999.2500       0.0000    -999.2500 
   1713.2048      0.0000       0.0000     114.5554      41.9308       0.6945       0.2000       0.2000       0.2000    -999.2500       0.0000    -999.2500 
   1713.3573      0.0000       0.0000     114.5709      41.2632       0.6772       0.2000       0.2000       0.2000    -999.2500       0.0000    -999.2500 
   1713.5096      0.0000       0.0000     114.9759      41.5517       0.6617       0.2000       0.2000       0.2000    -999.2500       0.0000    -999.2500 
   1713.6620      0.0000       0.0000     115.0303      41.6419       0.6550       0.2000       0.2000       0.2000    -999.2500       0.0000    -999.2500 
   1713.8145      0.0000       0.0000     114.7388      41.5364       0.6570       0.2000       0.2000       0.2000    -999.2500       0.0000    -999.2500 
   1713.9668      0.0000       0.0000     113.7127      42.0253       0.6630       0.2000       0.2000       0.2000    -999.2500       0.0000    -999.2500 
   1714.1193      0.0000       0.0000     111.9618      43.1008       0.6730       0.2000       0.2000       0.2000    -999.2500       0.0000    -999.2500 
   1714.2716      0.0000       0.0000     111.1798      43.6219       0.6860       0.2000       0.2000       0.2000    -999.2500       0.0000    -999.2500 
   1714.4241      0.0000       0.0000     111.3543      43.5959       0.7020       0.2000       0.2000       0.2000    -999.2500       0.0000    -999.2500 
   1714.5764      0.0000       0.0000     112.2584      43.4405       0.7215       0.2000       0.2000       0.2000    -999.2500       0.0000    -999.2500 
   1714.7289      0.0000       0.0000     113.8829      43.1574       0.7445       0.2000       0.2000       0.2000    -999.2500       0.0000    -999.2500 
   1714.8812      0.0000       0.0000     114.6543      43.3108       0.7648       0.2000       0.2000       0.2000    -999.2500       0.0000    -999.2500 
   1715.0337      0.0000       0.0000     114.5833      43.8938       0.7823       0.2000       0.2000       0.2000    -999.2500       0.0000    -999.2500 
   1715.1860      0.0000       0.0000     112.6659      43.2869       0.7945       0.2000       0.2000       0.2000    -999.2500       0.0000    -999.2500 
   1715.3385      0.0000       0.0000     108.9245      41.5085       0.8015       0.2000       0.2000       0.2000    -999.2500       0.0000    -999.2500 
   1715.4908      0.0000       0.0000     107.0665      40.6623       0.8143       0.2000       0.2000       0.2000    -999.2500       0.0000    -999.2500 
   1715.6432      0.0000       0.0000     107.0695      40.7343       0.8328       0.2000       0.2000       0.2000    -999.2500       0.0000    -999.2500 
