#------------------------------------------------------------------------------
#
#   Created by  : [OpenWorks] Log Export Utility (LEXP)
#   Created on  : 2016-05-23 11:55:46
#   Project     : CANT971
#   User        : R5K
#   Interpreter : PEP
#
#------------------------------------------------------------------------------
~VERSION INFORMATION
VERS. 2.0 : CWLS Log ASCII Standard - version 2.0
WRAP.  NO : One line per depth step
~WELL INFORMATION
#MNEMONIC   .UNIT                                           VALUE :DESCRIPTION
#------------------------------------------------------------------------------
STRT        .M                                           292.5192 :START DEPTH
STOP        .M                                          2727.7188 :STOP DEPTH
STEP        .M                                             0.1524 :STEP
NULL        .                                           -999.2500 :NULL VALUE
COMP        .                                   PEMEX EXPL & PROD :COMPANY
WELL        .                                                  39 :WELL
FLD         .                                           CANTARELL :FIELD
LOC         .                                             UNKNOWN :LOCATION
CNTY        .                                      CD. DEL CARMEN :COUNTY
STAT        .                                            CAMPECHE :STATE
CTRY        .                                              MEXICO :COUNTRY
SRVC        .                                             UNKNOWN :SERVICE COMPANY
DATE        .                                             UNKNOWN :LOG DATE
UWI         .                                          3060000161 :UNIQUE WELL ID
XCOORD      .                                       603360.280000 :SURFACE X
YCOORD      .                                      2145098.760000 :SURFACE Y
LAT         .                                           19.398594 :LATITUDE
LON         .                                          -92.015639 :LONGITUDE
ELEV        .M                                            27.1400 :SURFACE ELEV
ELEV_TYPE   .                                                  KB :ELEV TYPE
~CURVE INFORMATION
#MNEMONIC.UNIT        API CODE       : CURVE DESCRIPTION
#------------------------------------------------------------------------------
DEPTH    .M                          : Measured Depth
CALI     .inches      UNKNOWN        : CALI:Import:rC:NONE:v0 (auto-composite)
DRHO     .g/cm3       UNKNOWN        : DRHO:Import:rC:NONE:v0 (auto-composite)
DT       .us/ft       UNKNOWN        : DT:Import:rC:NONE:v0 (auto-composite)
GR       .API         UNKNOWN        : GR:Import:rC:NONE:v0 (auto-composite)
ILD      .ohm.m       UNKNOWN        : ILD:Import:rC:NONE:v0 (auto-composite)
LLD      .ohm.m       UNKNOWN        : LLD:Import:rC:NONE:v0 (auto-composite)
LLS      .ohm.m       UNKNOWN        : LLS:Import:rC:NONE:v0 (auto-composite)
MSFL     .ohm.m       UNKNOWN        : MSFL:Import:rC:NONE:v0 (auto-composite)
NPHI     .v/v_decimal UNKNOWN        : NPHI:Import:rC:NONE:v0 (auto-composite)
RHOB     .g/cm3       UNKNOWN        : RHOB:Import:rC:NONE:v0 (auto-composite)
~A     DEPTH         CALI         DRHO           DT           GR          ILD          LLD          LLS         MSFL         NPHI         RHOB
# ...
    778.9800       0.0000       0.0000      40.0000      59.5793       1.2220       0.2000       0.2000       0.2000      -0.1500       2.0000
    779.1324       0.0000       0.0000      40.0000      56.1829       1.2221       0.2000       0.2000       0.2000      -0.1500       2.0000
    779.2848       0.0000       0.0000      40.0000      48.9233       1.2226       0.2000       0.2000       0.2000      -0.1500       2.0000
    779.4372       0.0000       0.0000      40.0000      41.7680       1.2230       0.2000       0.2000       0.2000      -0.1500       2.0000
    779.5896       0.0000       0.0000      40.0000      35.2241       1.2230       0.2000       0.2000       0.2000      -0.1500       2.0000
    779.7420       0.0000       0.0000      40.0000      30.0347       1.2234       0.2000       0.2000       0.2000      -0.1500       2.0000
    779.8944       0.0000       0.0000      40.0000      32.8624       1.2264       0.2000       0.2000       0.2000      -0.1500       2.0000
    780.0468       0.0000       0.0000      40.0000      35.6997       1.2301       0.2000       0.2000       0.2000      -0.1500       2.0000
    780.1992       0.0000       0.0000      40.0000      38.5912       1.2371       0.2000       0.2000       0.2000      -0.1500       2.0000
    780.3516       0.0000       0.0000      40.0000      40.6025       1.2445       0.2000       0.2000       0.2000      -0.1500       2.0000
    780.5040       0.0000       0.0000      40.0000      37.8088       1.2540       0.2000       0.2000       0.2000      -0.1500       2.0000
    780.6564       0.0000       0.0000      40.0000      35.3853       1.2632       0.2000       0.2000       0.2000      -0.1500       2.0000
    780.8088       0.0000       0.0000      40.0000      35.0034       1.2713       0.2000       0.2000       0.2000      -0.1500       2.0000
    780.9612       0.0000       0.0000      40.0000      35.2230       1.2794       0.2000       0.2000       0.2000      -0.1500       2.0000
    781.1136       0.0000       0.0000      40.0000      38.6324       1.2884       0.2000       0.2000       0.2000      -0.1500       2.0000
    781.2660       0.0000       0.0000      40.0000      41.8783       1.2973       0.2000       0.2000       0.2000      -0.1500       2.0000
    781.4184       0.0000       0.0000      40.0000      44.2494       1.3059       0.2000       0.2000       0.2000      -0.1500       2.0000
    781.5708       0.0000       0.0000      40.0000      46.4475       1.3141       0.2000       0.2000       0.2000      -0.1500       2.0000
    781.7232       0.0000       0.0000      40.0000      47.7546       1.3212       0.2000       0.2000       0.2000      -0.1500       2.0000
    781.8756       0.0000       0.0000      40.0000      49.1987       1.3287       0.2000       0.2000       0.2000      -0.1500       2.0000
    782.0280       0.0000       0.0000      40.0000      51.3204       1.3387       0.2000       0.2000       0.2000      -0.1500       2.0000
    782.1804       0.0000       0.0000      40.0000      53.8578       1.3498       0.2000       0.2000       0.2000      -0.1500       2.0000
    782.3328       0.0000       0.0000      40.0000      58.4766       1.3669       0.2000       0.2000       0.2000      -0.1500       2.0000
    782.4852       0.0000       0.0000      40.0000      63.0039       1.3839       0.2000       0.2000       0.2000      -0.1500       2.0000
    782.6376       0.0000       0.0000      40.0000      67.0909       1.4010       0.2000       0.2000       0.2000      -0.1500       2.0000
    782.7900       0.0000       0.0000      40.0000      70.6483       1.4185       0.2000       0.2000       0.2000      -0.1500       2.0000
    782.9424       0.0000       0.0000      40.0000      71.7451       1.4379       0.2000       0.2000       0.2000      -0.1500       2.0000
    783.0948       0.0000       0.0000      40.0000      73.1468       1.4561       0.2000       0.2000       0.2000      -0.1500       2.0000
    783.2472       0.0000       0.0000      40.0000      75.9770       1.4681       0.2000       0.2000       0.2000      -0.1500       2.0000
    783.3996       0.0000       0.0000      40.0000      78.3470       1.4797       0.2000       0.2000       0.2000      -0.1500       2.0000
    783.5520       0.0000       0.0000      40.0000      78.6343       1.4892       0.2000       0.2000       0.2000      -0.1500       2.0000
    783.7044       0.0000       0.0000      40.0000      78.9775       1.4984       0.2000       0.2000       0.2000      -0.1500       2.0000
    783.8568       0.0000       0.0000      40.0000      79.5755       1.5059       0.2000       0.2000       0.2000      -0.1500       2.0000
    784.0092       0.0000       0.0000      40.0000      80.0760       1.5125       0.2000       0.2000       0.2000      -0.1500       2.0000
    784.1616       0.0000       0.0000      40.0000      80.1462       1.5150       0.2000       0.2000       0.2000      -0.1500       2.0000
    784.3140       0.0000       0.0000      40.0000      80.1490       1.5170       0.2000       0.2000       0.2000      -0.1500       2.0000
    784.4664       0.0000       0.0000      40.0000      79.8652       1.5170       0.2000       0.2000       0.2000      -0.1500       2.0000
    784.6188       0.0000       0.0000      40.0000      79.7969       1.5179       0.2000       0.2000       0.2000      -0.1500       2.0000
    784.7712       0.0000       0.0000      40.0000      80.6542       1.5224       0.2000       0.2000       0.2000      -0.1500       2.0000
    784.9236       0.0000       0.0000      40.0000      81.2013       1.5278       0.2000       0.2000       0.2000      -0.1500       2.0000
    785.0760       0.0000       0.0000      40.0000      80.4618       1.5373       0.2000       0.2000       0.2000      -0.1500       2.0000
    785.2284       0.0000       0.0000      40.0000      79.6668       1.5483       0.2000       0.2000       0.2000      -0.1500       2.0000
    785.3808       0.0000       0.0000      40.0000      78.6402       1.5653       0.2000       0.2000       0.2000      -0.1500       2.0000
    785.5332       0.0000       0.0000      40.0000      77.5632       1.5822       0.2000       0.2000       0.2000      -0.1500       2.0000
    785.6856       0.0000       0.0000      40.0000      76.2824       1.5982       0.2000       0.2000       0.2000      -0.1500       2.0000
    785.8380       0.0000       0.0000      40.0000      74.6782       1.6141       0.2000       0.2000       0.2000      -0.1500       2.0000
    785.9904       0.0000       0.0000      40.0000      71.8070       1.6296       0.2000       0.2000       0.2000      -0.1500       2.0000
    786.1428       0.0000       0.0000      40.0000      69.1199       1.6456       0.2000       0.2000       0.2000      -0.1500       2.0000
    786.2952       0.0000       0.0000      40.0000      67.1599       1.6637       0.2000       0.2000       0.2000      -0.1500       2.0000
    786.4476       0.0000       0.0000      40.0000      65.4375       1.6803       0.2000       0.2000       0.2000      -0.1500       2.0000
    786.6000       0.0000       0.0000      40.0000      64.6245       1.6913       0.2000       0.2000       0.2000      -0.1500       2.0000
    786.7524       0.0000       0.0000      40.0000      63.8307       1.7020       0.2000       0.2000       0.2000      -0.1500       2.0000
    786.9048       0.0000       0.0000      40.0000      63.1109       1.7115       0.2000       0.2000       0.2000      -0.1500       2.0000
    787.0572       0.0000       0.0000      40.0000      62.9736       1.7195       0.2000       0.2000       0.2000      -0.1500       2.0000
    787.2096       0.0000       0.0000      40.0000      65.0132       1.7220       0.2000       0.2000       0.2000      -0.1500       2.0000
    787.3620       0.0000       0.0000      40.0000      66.8981       1.7227       0.2000       0.2000       0.2000      -0.1500       2.0000
