#------------------------------------------------------------------------------
#
#   Created by  : [OpenWorks] Log Export Utility (LEXP)
#   Created on  : 2016-05-23 11:51:27
#   Project     : CANT971
#   User        : R5K
#   Interpreter : PEP
#
#------------------------------------------------------------------------------
~VERSION INFORMATION
VERS. 2.0 : CWLS Log ASCII Standard - version 2.0
WRAP.  NO : One line per depth step
~WELL INFORMATION
#MNEMONIC   .UNIT                                           VALUE :DESCRIPTION
#------------------------------------------------------------------------------
STRT        .M                                           294.1315 :START DEPTH
STOP        .M                                          1758.8479 :STOP DEPTH
STEP        .M                                             0.1524 :STEP
NULL        .                                           -999.2500 :NULL VALUE
COMP        .                                   PEMEX EXPL & PROD :COMPANY
WELL        .                                                1084 :WELL
FLD         .                                           CANTARELL :FIELD
LOC         .                                             UNKNOWN :LOCATION
CNTY        .                                      CD. DEL CARMEN :COUNTY
STAT        .                                            CAMPECHE :STATE
CTRY        .                                              MEXICO :COUNTRY
SRVC        .                                             UNKNOWN :SERVICE COMPANY
DATE        .                                             UNKNOWN :LOG DATE
UWI         .                                          3060000213 :UNIQUE WELL ID
XCOORD      .                                       596992.320000 :SURFACE X
YCOORD      .                                      2148289.820000 :SURFACE Y
LAT         .                                           19.427749 :LATITUDE
LON         .                                          -92.076116 :LONGITUDE
ELEV        .M                                            27.5000 :SURFACE ELEV
ELEV_TYPE   .                                                  KB :ELEV TYPE
~CURVE INFORMATION
#MNEMONIC.UNIT        API CODE       : CURVE DESCRIPTION
#------------------------------------------------------------------------------
DEPTH    .M                          : Measured Depth
CALI     .in          UNKNOWN        : CALI:registros:rC:NONE:v0 (auto-composite)
DRHO     .g/cm3       UNKNOWN        : DRHO:registros:rC:NONE:v0 (auto-composite)
DT       .us/ft       UNKNOWN        : DT:registros:rC:NONE:v0 (auto-composite)
GR       .api         UNKNOWN        : GR:registros:rC:NONE:v0 (auto-composite)
ILD      .ohmm        UNKNOWN        : ILD:registros:rC:NONE:v0 (auto-composite)
NPHI     .v/v_decimal UNKNOWN        : NPHI:registros:rC:NONE:v0 (auto-composite)
RHOB     .g/cm3       UNKNOWN        : RHOB:registros:rC:NONE:v0 (auto-composite)
~A     DEPTH         CALI         DRHO           DT           GR          ILD         NPHI         RHOB
# ...
   1338.5287      14.3714       0.2025     126.8423      81.6871       2.1275    -999.2500       2.4005
   1338.6812      14.6470       0.2050     123.8700      82.9200       2.1250    -999.2500       2.4080
   1338.8335      14.7165       0.2165     123.9080      82.9100       2.1125    -999.2500       2.4190
   1338.9858      14.7860       0.2280     123.9460      82.9000       2.1000    -999.2500       2.4300
   1339.1383      15.0929       0.2405     125.1394      83.3295       2.0745    -999.2500       2.4300
   1339.2906      15.4000       0.2530     126.3300      83.7600       2.0490    -999.2500       2.4300
   1339.4431      15.2900       0.2565     126.2934      83.6477       2.0105    -999.2500       2.4200
   1339.5955      15.1800       0.2600     126.2570      83.5350       1.9720    -999.2500       2.4100
   1339.7479      15.2015       0.2550     125.7526      82.9628       1.9335    -999.2500       2.4115
   1339.9003      15.2230       0.2500     125.2500      82.3890       1.8950    -999.2500       2.4130
   1340.0527      15.3665       0.2515     125.4804      81.5807       1.8475    -999.2500       2.4165
   1340.2051      15.5100       0.2530     125.7100      80.7700       1.8000    -999.2500       2.4200
   1340.3575      15.4445       0.2615     126.4743      81.3491       1.8040    -999.2500       2.4215
   1340.5099      15.3790       0.2700     127.2360      81.9300       1.8080    -999.2500       2.4230
   1340.6624      15.1160       0.2650     127.6687      81.8861       1.8230    -999.2500       2.4280
   1340.8147      14.8530       0.2600     128.1000      81.8420       1.8380    -999.2500       2.4330
   1340.9670      14.6210       0.2615     127.7044      81.6467       1.8545    -999.2500       2.4380
   1341.1195      14.3890       0.2630     127.3100      81.4510       1.8710    -999.2500       2.4430
   1341.2719      14.3390       0.2665     127.3601      81.1478       1.8880    -999.2500       2.4465
   1341.4243      14.2890       0.2700     127.4100      80.8440       1.9050    -999.2500       2.4500
   1341.5767      14.1845       0.2715     127.1757      80.5418       1.9375    -999.2500       2.4485
   1341.7291      14.0800       0.2730     126.9420      80.2390       1.9700    -999.2500       2.4470
   1341.8815      14.2984       0.2765     125.6993      79.4203       1.9660    -999.2500       2.4410
   1342.0339      14.5170       0.2800     124.4600      78.6000       1.9620    -999.2500       2.4350
   1342.1863      15.3508       0.2750     124.6683      78.6749       1.9445    -999.2500       2.4175
   1342.3387      16.1850       0.2700     124.8760      78.7500       1.9270    -999.2500       2.4000
   1342.4911      16.9287       0.2700     125.6304      79.5391       1.9070    -999.2500       2.4000
   1342.6436      17.6730       0.2700     126.3830      80.3300       1.8870    -999.2500       2.4000
   1342.7959      17.8114       0.2700     127.1319      79.8806       1.8820    -999.2500       2.4050
   1342.9482      17.9500       0.2700     127.8790      79.4300       1.8770    -999.2500       2.4100
   1343.1007      17.9500       0.2700     128.7600      80.1541       1.8710    -999.2500       2.4050
   1343.2531      17.9500       0.2700     129.6390      80.8800       1.8650    -999.2500       2.4000
   1343.4055      17.9500       0.2650     130.0501      80.4306       1.8495    -999.2500       2.4000
   1343.5579      17.9500       0.2600     130.4600      79.9800       1.8340    -999.2500       2.4000
   1343.7103      17.8855       0.2650     130.2146      80.1737       1.8025    -999.2500       2.3950
   1343.8627      17.8210       0.2700     129.9700      80.3680       1.7710    -999.2500       2.3900
   1344.0151      17.4705       0.2650     130.1102      81.7719       1.7415    -999.2500       2.3915
   1344.1675      17.1200       0.2600     130.2500      83.1800       1.7120    -999.2500       2.3930
   1344.3199      16.5800       0.2615     131.0964      83.0202       1.6930    -999.2500       2.3965
   1344.4723      16.0400       0.2630     131.9400      82.8600       1.6740    -999.2500       2.4000
   1344.6248      16.0400       0.2665     131.8509      82.1209       1.6420    -999.2500       2.4000
   1344.7771      16.0400       0.2700     131.7620      81.3800       1.6100    -999.2500       2.4000
   1344.9294      15.9800       0.2650     131.2577      82.3991       1.6115    -999.2500       2.4015
   1345.0819      15.9200       0.2600     130.7550      83.4200       1.6130    -999.2500       2.4030
   1345.2343      15.9585       0.2625     129.2303      82.9270       1.6215    -999.2500       2.4065
   1345.3867      15.9970       0.2650     127.7100      82.4330       1.6300    -999.2500       2.4100
   1345.5391      16.3434       0.2725     127.9568      80.8845       1.6615    -999.2500       2.4100
   1345.6915      16.6900       0.2800     128.2030      79.3330       1.6930    -999.2500       2.4100
   1345.8439      16.5800       0.2800     128.9796      78.9609       1.7815    -999.2500       2.4115
   1345.9963      16.4700       0.2800     129.7540      78.5880       1.8700    -999.2500       2.4130
   1346.1487      16.8249       0.2800     133.6020      78.0811       1.8620    -999.2500       2.4190
   1346.3011      17.1800       0.2800     137.4400      77.5730       1.8540    -999.2500       2.4250
   1346.4535      17.1345       0.2815     134.1910      75.9589       1.8270    -999.2500       2.4475
   1346.6060      17.0890       0.2830     130.9500      74.3410       1.8000    -999.2500       2.4700
   1346.7583      16.8631       0.2915     131.5547      72.7924       1.7800    -999.2500       2.4660
   1346.9106      16.6370       0.3000     132.1580      71.2400       1.7600    -999.2500       2.4620
   1347.0631      16.3040       0.2900     135.9066      71.7194       1.7770    -999.2500       2.4460
   1347.2155      15.9710       0.2800     139.6470      72.2000       1.7940    -999.2500       2.4300
   1347.3679      15.7204       0.2800     146.2585      76.4043       1.8805    -999.2500       2.4350
   1347.5203      15.4700       0.2800     152.8510      80.6200       1.9670    -999.2500       2.4400
   1347.6727      15.6560       0.2785     155.3750      80.4947       2.0979    -999.2500       2.4385
   1347.8251      15.8420       0.2770     157.8900      80.3690       2.2290    -999.2500       2.4370
   1347.9775      17.0711       0.2635     156.2322      78.7120       2.3644    -999.2500       2.4295
   1348.1299      18.3000       0.2500     154.5800      77.0500       2.5000    -999.2500       2.4220
   1348.2823      18.0330       0.2515     148.5250      77.1678       2.4720    -999.2500       2.4010
   1348.4347      17.7660       0.2530     142.4900      77.2860       2.4440    -999.2500       2.3800
   1348.5872      16.8430       0.2590     135.8244      78.1811       2.3476    -999.2500       2.3800
   1348.7395      15.9200       0.2650     129.1800      79.0790       2.2510    -999.2500       2.3800
   1348.8918      16.2365       0.2725     129.6502      81.8914       2.1631    -999.2500       2.3825
   1349.0443      16.5530       0.2800     130.1190      84.7110       2.0750    -999.2500       2.3850
   1349.1967      17.5114       0.2785     133.1940      88.6318       1.9986    -999.2500       2.3975
   1349.3491      18.4700       0.2770     136.2600      92.5600       1.9220    -999.2500       2.4100
   1349.5015      18.4100       0.2720     135.8725      92.2383       1.8570    -999.2500       2.4075
   1349.6539      18.3500       0.2670     135.4860      91.9160       1.7920    -999.2500       2.4050
   1349.8063      18.3630       0.2620     131.0521      90.6648       1.7360    -999.2500       2.3875
   1349.9587      18.3760       0.2570     126.6300      89.4110       1.6800    -999.2500       2.3700
   1350.1111      18.4130       0.2485     126.8953      88.3202       1.6800    -999.2500       2.3715
