#------------------------------------------------------------------------------
#
#   Created by  : [OpenWorks] Log Export Utility (LEXP)
#   Created on  : 2016-05-23 11:56:14
#   Project     : CANT971
#   User        : R5K
#   Interpreter : PEP
#
#------------------------------------------------------------------------------
~VERSION INFORMATION
VERS. 2.0 : CWLS Log ASCII Standard - version 2.0
WRAP.  NO : One line per depth step
~WELL INFORMATION
#MNEMONIC   .UNIT                                           VALUE :DESCRIPTION
#------------------------------------------------------------------------------
STRT        .M                                          1862.0000 :START DEPTH
STOP        .M                                          3052.8535 :STOP DEPTH
STEP        .M                                             0.1524 :STEP
NULL        .                                           -999.2500 :NULL VALUE
COMP        .                                   PEMEX EXPL & PROD :COMPANY
WELL        .                                                446D :WELL
FLD         .                                           CANTARELL :FIELD
LOC         .                                             UNKNOWN :LOCATION
CNTY        .                                      CD. DEL CARMEN :COUNTY
STAT        .                                            CAMPECHE :STATE
CTRY        .                                              MEXICO :COUNTRY
SRVC        .                                             UNKNOWN :SERVICE COMPANY
DATE        .                                             UNKNOWN :LOG DATE
UWI         .                                            W-C-446D :UNIQUE WELL ID
XCOORD      .                                       598705.170000 :SURFACE X
YCOORD      .                                      2143305.170000 :SURFACE Y
LAT         .                                           19.382621 :LATITUDE
LON         .                                          -92.060061 :LONGITUDE
ELEV        .M                                            28.0000 :SURFACE ELEV
ELEV_TYPE   .                                                  KB :ELEV TYPE
~CURVE INFORMATION
#MNEMONIC.UNIT        API CODE       : CURVE DESCRIPTION
#------------------------------------------------------------------------------
DEPTH    .M                          : Measured Depth
CALI     .inches      UNKNOWN        : CALI:litodensidad:rC:NONE:v0 (auto-composite)
CGR      .API         UNKNOWN        : CGR:CGR-Load:rC:NONE:v0 (auto-composite)
DRHO     .g/cm3       UNKNOWN        : DRHO:litodensidad:rC:NONE:v0 (auto-composite)
DT       .us/ft       UNKNOWN        : DT:DT-Load:rC:NONE:v0 (auto-composite)
GR       .UNKNOWN     UNKNOWN        : GR:PETROWORKS:rC:NONE:v1 
LLD      .ohm.m       UNKNOWN        : LLD:PETROWORKS:rC:NONE:v1 
LLS      .UNKNOWN     UNKNOWN        : LLS:PETROWORKS:rC:NONE:v1 
MSFL     .UNKNOWN     UNKNOWN        : MSFL:PETROWORKS:rC:NONE:v1 
NPHI     .v/v_decimal UNKNOWN        : NPHI:PETROWORKS:rC:NONE:v2 
PEF      .UNKNOWN     UNKNOWN        : PEF:litodensidad:rC:NONE:v0 (auto-composite)
POTA     .UNKNOWN     UNKNOWN        : POTA:radioactividad:rC:NONE:v0 (auto-composite)
RHOB     .g/cm3       UNKNOWN        : RHOB:litodensidad:rC:NONE:v0 (auto-composite)
THOR     .ppm         UNKNOWN        : THOR:radioactividad:rC:NONE:v0 (auto-composite)
URAN     .ppm         UNKNOWN        : URAN:radioactividad:rC:NONE:v0 (auto-composite)
~A     DEPTH         CALI          CGR         DRHO           DT           GR          LLD          LLS         MSFL         NPHI          PEF         POTA         RHOB         THOR         URAN
# ...
   2905.3303       6.7333      20.1862       0.0105      60.9232      39.9612      41.4515      33.0029      24.3225       0.0431       4.1265       0.0067       2.6151       1.9304       2.1362
   2905.4829       6.7171      21.2322       0.0082      58.5741      42.0546      38.3269      32.9329      39.9265       0.0438       3.8690       0.0065       2.6147       2.2877       2.3610
   2905.6353       6.6093      18.5575       0.0059      56.7020      39.2331      42.1244      37.0754      99.0040       0.0408       4.0391       0.0051       2.6198       2.2557       2.2764
   2905.7876       6.5936      18.8547       0.0043      57.2494      39.0787      50.6497      44.6467     145.5645       0.0371       4.3006       0.0051       2.6215       2.2766       2.2932
   2905.9399       6.6689      13.1034       0.0022      57.5697      34.2739      53.8235      49.2517      96.3963       0.0360       4.9772       0.0054       2.6190       0.8318       2.2735
   2906.0923       6.6776      13.9428       0.0014      56.8788      35.7410      54.9196      48.8122      57.2557       0.0373       5.0828       0.0059       2.6049       0.8317       2.4720
   2906.2449       6.6687      13.1886       0.0031      59.2542      36.3220      46.8221      43.1017      66.1921       0.0407       5.2150       0.0054       2.5939       0.8450       2.5269
   2906.3972       6.6269      13.6053       0.0059      60.0397      42.0415      36.8359      34.4860      31.6500       0.0427       5.1030       0.0061       2.5870       0.6625       3.2238
   2906.5496       6.5987      15.0997       0.0073      59.2942      45.5201      31.4996      28.3994      16.3132       0.0468       5.1220       0.0068       2.5971       0.7240       3.4598
   2906.7019       6.6159      16.0541       0.0089      59.8711      47.5108      27.9869      25.7360      26.3475       0.0470       5.3178       0.0070       2.6070       0.8561       3.5695
   2906.8545       6.7274      14.4731       0.0076      55.6714      46.1222      30.0506      26.4190      28.5111       0.0440       5.4416       0.0064       2.6147       0.7240       3.5513
   2907.0068       6.7230      15.0217       0.0083      54.7302      46.8763      33.5808      29.7702      71.0546       0.0365       5.0990       0.0065       2.6089       0.8344       3.6193
   2907.1592       6.6427      14.8653       0.0086      54.7424      46.8936      40.7939      36.8269     286.6288       0.0302       4.1361       0.0062       2.6048       0.9181       3.6429
   2907.3115       6.5914      13.8646       0.0094      54.9621      45.5648      59.8460      51.8007     139.8905       0.0276       3.9118       0.0058       2.6009       0.8466       3.5891
   2907.4641       6.6143      13.1554       0.0093      59.7948      44.7686      74.0252      67.8970      60.5537       0.0278       4.1289       0.0053       2.6097       0.8828       3.5704
   2907.6165       6.6604      14.1160       0.0112      55.8956      46.1621      74.7036      72.9876      58.6668       0.0303       5.2008       0.0056       2.6256       0.9728       3.6016
   2907.7688       6.6646      17.1186       0.0102      56.8337      50.9489      69.0578      65.8632      66.1157       0.0363       5.3809       0.0058       2.6245       1.6236       3.8628
   2907.9211       6.6506      17.4305       0.0107      66.0155      53.3610      43.9256      45.2893     110.9460       0.0481       5.0253       0.0055       2.6140       1.7993       3.8794
   2908.0735       6.6374      34.5349       0.0196      72.0971      69.5179      15.4225      20.2106      33.7307       0.0622       4.5210       0.0141       2.5767       2.2628       4.0059
   2908.2261       6.6490      37.8253       0.0182      75.8711      74.6465       7.5812       8.0180       5.5905       0.0849       4.3272       0.0156       2.5460       2.4105       4.0686
   2908.3784       6.7566      43.7320       0.0162      71.9839      83.6737       6.4202       6.4493       2.4930       0.1095       4.2706       0.0165       2.5316       3.4030       4.5176
   2908.5308       6.9320      34.9966       0.0146      66.1953      73.4386       6.7129       6.7111      11.9789       0.1225       4.4473       0.0136       2.5526       2.5853       4.2431
   2908.6831       6.9627      30.8433       0.0146      62.3731      66.4756       8.4174       9.4731      76.4068       0.1073       4.6116       0.0124       2.5793       2.0932       4.0405
   2908.8357       6.6747      20.9839       0.0038      61.2134      56.3314      18.2053      17.2753      51.2015       0.0801       4.8469       0.0072       2.5851       1.9333       3.9887
   2908.9880       6.6146      14.0947       0.0033      58.6376      46.2778      29.7307      27.1970      37.4497       0.0566       4.8797       0.0049       2.5911       1.2771       3.6494
   2909.1404       6.6645      10.5735       0.0062      60.0659      41.1509      32.6067      32.2275      39.6580       0.0469       4.6137       0.0034       2.5980       1.0742       3.3537
   2909.2927       6.7249      13.4335       0.0110      60.0183      43.4285      33.0149      33.7663      84.7969       0.0407       4.3741       0.0046       2.6017       1.2750       3.4013
   2909.4453       6.7017      12.5590       0.0139      58.9741      40.6305      37.9244      36.1336      57.7868       0.0384       4.2676       0.0044       2.6137       1.1268       3.1023
   2909.5977       6.6500      14.3827       0.0169      60.7951      41.3354      36.4684      35.4867      36.5666       0.0405       4.4463       0.0052       2.6227       1.2124       3.0564
   2909.7500       6.6418      14.4671       0.0133      59.2389      38.0022      34.5510      32.5179      24.7892       0.0441       4.4791       0.0067       2.6278       0.6366       2.6254
   2909.9023       6.7174      14.4045       0.0116      57.5426      36.4313      35.0958      31.9892      27.1400       0.0448       4.5802       0.0070       2.6262       0.4857       2.5000
   2910.0547       6.7637      13.3090       0.0076      57.5970      34.6239      35.3664      32.3740      47.9414       0.0413       4.4213       0.0067       2.6227       0.3108       2.4110
   2910.2073       6.7665      12.5226       0.0044      57.5227      33.0137      35.3383      32.3161      58.0478       0.0391       4.2270       0.0067       2.6172       0.1435       2.3222
   2910.3596       6.6742      11.9433       0.0066      59.1985      31.8115      34.8407      31.8632      41.1692       0.0384       4.0536       0.0066       2.6110       0.0570       2.2557
   2910.5120       6.6739      11.0234       0.0113      60.3482      30.5052      33.4251      30.9361      67.1090       0.0403       4.1745       0.0062       2.6049       0.0092       2.1984
   2910.6643       6.6795      11.0378       0.0101      56.9368      30.3671      32.7015      30.2610      41.1044       0.0398       4.7365       0.0060       2.6011       0.1004       2.2066
   2910.8169       6.6665       9.7741       0.0133      55.9181      29.2116      32.4894      30.2185      32.0981       0.0402       5.1435       0.0055       2.6133       0.0183       2.1540
   2910.9692       6.6795      11.6627       0.0148      54.6188      32.1867      33.2661      31.5641      54.5188       0.0395       5.1204       0.0060       2.6311       0.2474       2.3437
   2911.1216       6.6614      12.0965       0.0101      54.6544      33.7197      38.2637      34.8607     111.8377       0.0396       5.0241       0.0060       2.6370       0.3237       2.4060
   2911.2739       6.6604      13.3508       0.0066      56.0996      37.9690      38.7423      36.6221     295.3540       0.0364       4.8237       0.0062       2.6396       0.5697       2.8004
   2911.4265       6.7582      13.5190       0.0074      58.6837      38.9506      39.0236      36.5024     420.3905       0.0347       4.8568       0.0060       2.6367       0.6694       2.8711
   2911.5789       6.8025      14.4349       0.0055      60.4584      39.8581      38.5093      35.8405     100.5721       0.0359       4.5684       0.0062       2.6234       0.8357       2.8828
