#------------------------------------------------------------------------------
#
#   Created by  : [OpenWorks] Log Export Utility (LEXP)
#   Created on  : 2016-05-23 11:56:14
#   Project     : CANT971
#   User        : R5K
#   Interpreter : PEP
#
#------------------------------------------------------------------------------
~VERSION INFORMATION
VERS. 2.0 : CWLS Log ASCII Standard - version 2.0
WRAP.  NO : One line per depth step
~WELL INFORMATION
#MNEMONIC   .UNIT                                           VALUE :DESCRIPTION
#------------------------------------------------------------------------------
STRT        .M                                          1862.0000 :START DEPTH
STOP        .M                                          3052.8535 :STOP DEPTH
STEP        .M                                             0.1524 :STEP
NULL        .                                           -999.2500 :NULL VALUE
COMP        .                                   PEMEX EXPL & PROD :COMPANY
WELL        .                                                446D :WELL
FLD         .                                           CANTARELL :FIELD
LOC         .                                             UNKNOWN :LOCATION
CNTY        .                                      CD. DEL CARMEN :COUNTY
STAT        .                                            CAMPECHE :STATE
CTRY        .                                              MEXICO :COUNTRY
SRVC        .                                             UNKNOWN :SERVICE COMPANY
DATE        .                                             UNKNOWN :LOG DATE
UWI         .                                            W-C-446D :UNIQUE WELL ID
XCOORD      .                                       598705.170000 :SURFACE X
YCOORD      .                                      2143305.170000 :SURFACE Y
LAT         .                                           19.382621 :LATITUDE
LON         .                                          -92.060061 :LONGITUDE
ELEV        .M                                            28.0000 :SURFACE ELEV
ELEV_TYPE   .                                                  KB :ELEV TYPE
~CURVE INFORMATION
#MNEMONIC.UNIT        API CODE       : CURVE DESCRIPTION
#------------------------------------------------------------------------------
DEPTH    .M                          : Measured Depth
CALI     .inches      UNKNOWN        : CALI:litodensidad:rC:NONE:v0 (auto-composite)
CGR      .API         UNKNOWN        : CGR:CGR-Load:rC:NONE:v0 (auto-composite)
DRHO     .g/cm3       UNKNOWN        : DRHO:litodensidad:rC:NONE:v0 (auto-composite)
DT       .us/ft       UNKNOWN        : DT:DT-Load:rC:NONE:v0 (auto-composite)
GR       .UNKNOWN     UNKNOWN        : GR:PETROWORKS:rC:NONE:v1 
LLD      .ohm.m       UNKNOWN        : LLD:PETROWORKS:rC:NONE:v1 
LLS      .UNKNOWN     UNKNOWN        : LLS:PETROWORKS:rC:NONE:v1 
MSFL     .UNKNOWN     UNKNOWN        : MSFL:PETROWORKS:rC:NONE:v1 
NPHI     .v/v_decimal UNKNOWN        : NPHI:PETROWORKS:rC:NONE:v2 
PEF      .UNKNOWN     UNKNOWN        : PEF:litodensidad:rC:NONE:v0 (auto-composite)
POTA     .UNKNOWN     UNKNOWN        : POTA:radioactividad:rC:NONE:v0 (auto-composite)
RHOB     .g/cm3       UNKNOWN        : RHOB:litodensidad:rC:NONE:v0 (auto-composite)
THOR     .ppm         UNKNOWN        : THOR:radioactividad:rC:NONE:v0 (auto-composite)
URAN     .ppm         UNKNOWN        : URAN:radioactividad:rC:NONE:v0 (auto-composite)
~A     DEPTH         CALI          CGR         DRHO           DT           GR          LLD          LLS         MSFL         NPHI          PEF         POTA         RHOB         THOR         URAN
# ...
   2873.3264       7.0834      18.0496       0.0066      55.4000      34.7996      33.5811      29.1015      33.2374       0.0299       5.7009       0.0068       2.6275       1.1515       1.7501
   2873.4788       7.1224      19.5215       0.0069      55.9938      42.0220      32.9496      27.6246      35.4892       0.0300       5.6703       0.0070       2.6369       1.3954       2.3813
   2873.6311       7.0720      21.2699       0.0040      56.8636      44.5532      32.6734      27.2040      44.3478       0.0353       5.5097       0.0077       2.6316       1.4992       2.5788
   2873.7837       6.9765      16.5712       0.0027      55.9815      38.6825      31.7737      27.2413      55.8639       0.0399       5.3245       0.0060       2.6301       1.1632       2.3401
   2873.9360       7.0465      13.9083       0.0010      55.3330      34.3288      35.2800      29.4291      75.5586       0.0392       5.2497       0.0050       2.6234       0.9692       2.1919
   2874.0884       7.1240      12.4682      -0.0010      53.1721      28.8662      40.7255      32.6036      47.1206       0.0359       5.2377       0.0039       2.6236       1.1195       1.7352
   2874.2407       7.1324      12.6941      -0.0015      54.4117      28.1008      38.0320      32.1440      44.9597       0.0350       5.5000       0.0040       2.6207       1.1037       1.6144
   2874.3933       7.0186      13.6094       0.0000      54.8697      29.3311      32.8360      28.2554      57.4371       0.0407       5.4036       0.0043       2.6045       1.2065       1.6639
   2874.5457       7.0764      15.9849       0.0006      57.7866      32.5238      29.1161      24.6242      32.1701       0.0496       5.3847       0.0054       2.5826       1.2645       1.7905
   2874.6980       7.0983      16.4782       0.0007      63.4387      33.3943      24.6762      21.2011      21.6709       0.0617       5.0521       0.0059       2.5513       1.2137       1.7905
   2874.8503       7.0298      16.1925       0.0024      68.5919      28.4476      20.2889      17.9566      18.3953       0.0733       5.1285       0.0059       2.5282       1.1105       1.2457
   2875.0027       7.0120      15.6506       0.0039      70.5803      26.2086      18.3106      16.1459      17.0655       0.0852       4.8047       0.0056       2.5046       1.1313       1.1261
   2875.1553       7.0407      11.3624       0.0050      67.0649      20.8667      17.6323      15.6506      15.4764       0.0939       4.7639       0.0032       2.4824       1.1747       0.9526
   2875.3076       7.0891      10.0642       0.0064      65.8055      18.9522      17.1790      15.4479      13.1860       0.1044       4.7251       0.0025       2.4734       1.1599       0.9447
   2875.4600       7.0153       9.3106       0.0074      64.2580      17.6937      16.9899      15.4289      15.0545       0.1089       5.1049       0.0022       2.4705       1.1020       0.8834
   2875.6123       6.9689       8.6914       0.0070      65.1029      16.7539      16.6568      15.4037      14.3632       0.1116       5.0933       0.0024       2.4768       0.9096       0.8390
   2875.7649       7.0657       9.3009       0.0067      65.1302      17.7651      16.2059      15.2706      17.2495       0.1101       4.8646       0.0027       2.4850       0.8916       0.9044
   2875.9172       7.1381       8.9281       0.0036      65.4821      18.0697      16.0954      15.1578      15.4324       0.1083       4.6865       0.0027       2.4926       0.8230       0.9725
   2876.0696       7.1208       8.1921       0.0037      64.4050      17.6122      16.2387      15.0871      15.6439       0.1083       5.0237       0.0024       2.4949       0.7706       0.9918
   2876.2219       7.0539       8.2619       0.0030      65.0058      17.8544      15.9666      14.9299      17.5380       0.1087       5.4084       0.0027       2.4839       0.6631       1.0481
   2876.3745       7.0293       5.8986       0.0027      63.5800      15.7207      15.7625      14.9088      15.4913       0.1087       5.4387       0.0025       2.4742       0.2480       1.0343
   2876.5269       7.0835       6.3299       0.0040      64.4037      16.3867      16.8520      15.6949      18.8393       0.1043       5.1814       0.0032       2.4769       0.0830       1.0636
   2876.6792       7.1612       7.1876       0.0075      64.9822      17.8495      19.0115      17.7414      20.3391       0.0942       5.1364       0.0037       2.4983       0.0615       1.1284
   2876.8315       7.0599       7.2462       0.0073      62.3776      18.9924      22.6662      21.1637      45.6989       0.0862       5.2197       0.0034       2.5119       0.1890       1.2305
   2876.9839       7.0358       7.7951       0.0086      60.7121      20.8966      28.9964      26.6929      59.6536       0.0764       5.4260       0.0030       2.5297       0.4961       1.3866
   2877.1365       7.0497       6.8481       0.0073      58.8023      20.2042      35.7994      32.4592      65.9764       0.0680       5.3127       0.0024       2.5468       0.5231       1.4035
   2877.2888       7.1143       6.7218       0.0078      59.4766      19.6231      36.4952      33.4505      45.5645       0.0604       5.3953       0.0024       2.5680       0.4835       1.3655
   2877.4412       6.9960       5.7643       0.0098      59.0138      17.1570      30.7223      29.4025      34.2112       0.0597       5.4257       0.0022       2.5781       0.3339       1.1757
   2877.5935       6.9404       6.0319       0.0111      62.3783      16.1951      26.4218      24.9630      19.1864       0.0618       4.8700       0.0024       2.5680       0.3593       1.0756
   2877.7461       6.9804       6.0865       0.0097      62.2361      15.7009      22.5494      21.6273      26.3422       0.0631       4.5922       0.0025       2.5580       0.3020       0.9623
   2877.8984       7.0723       9.4975       0.0115      61.1660      18.8397      19.0418      18.9002      46.1129       0.0633       4.4274       0.0030       2.5619       0.8325       0.9838
   2878.0508       7.0954       8.4100       0.0144      59.8550      17.4424      18.6560      17.9430      24.5692       0.0653       4.8842       0.0026       2.5694       0.7756       0.9270
   2878.2031       6.9619       8.2678       0.0155      58.5897      17.1080      18.6428      18.0195      18.7326       0.0675       4.8423       0.0022       2.5755       0.8750       0.9370
   2878.3557       6.9378       8.0737       0.0140      57.6362      16.8256      18.5796      17.9987      29.3596       0.0636       4.7597       0.0021       2.5702       0.8834       0.9308
   2878.5081       7.0241       7.7834       0.0187      56.6510      15.9715      18.5310      18.9306      36.4972       0.0563       4.4805       0.0022       2.5868       0.8044       0.8731
   2878.6604       7.0594       5.5747       0.0252      55.5657      14.0252      23.2406      22.6850      32.5807       0.0485       4.5916       0.0015       2.6056       0.6076       0.8589
   2878.8127       7.0648       5.3320       0.0287      55.8242      15.4700      28.6486      27.4552      36.5106       0.0439       4.6713       0.0013       2.6258       0.6319       1.0717
   2878.9651       6.9948       6.2935       0.0276      56.7485      18.5380      30.3831      29.6560      66.4726       0.0403       5.2162       0.0017       2.6464       0.6850       1.2614
   2879.1177       6.9715       9.9761       0.0279      56.0087      26.3795      30.6800      30.1844      39.7846       0.0365       5.6884       0.0048       2.6686       0.2325       1.7498
   2879.2700       6.9696      16.6478       0.0271      55.8925      33.9660      32.2651      31.7912      30.8542       0.0356       5.9094       0.0076       2.6931       0.5363       1.8617
   2879.4224       6.9669      17.1647       0.0233      54.8821      34.4658      37.0864      35.3507      97.2358       0.0350       5.6486       0.0077       2.6974       0.5645       1.8166
   2879.5747       6.9664      17.4562       0.0172      53.7668      34.5161      40.9027      39.4630     154.9155       0.0341       5.6353       0.0078       2.6901       0.6292       1.8099
