#------------------------------------------------------------------------------
#
#   Created by  : [OpenWorks] Log Export Utility (LEXP)
#   Created on  : 2016-05-23 11:52:56
#   Project     : CANT971
#   User        : R5K
#   Interpreter : PEP
#
#------------------------------------------------------------------------------
~VERSION INFORMATION
VERS. 2.0 : CWLS Log ASCII Standard - version 2.0
WRAP.  NO : One line per depth step
~WELL INFORMATION
#MNEMONIC   .UNIT                                           VALUE :DESCRIPTION
#------------------------------------------------------------------------------
STRT        .M                                           340.6189 :START DEPTH
STOP        .M                                          3243.0769 :STOP DEPTH
STEP        .M                                             0.1524 :STEP
NULL        .                                           -999.2500 :NULL VALUE
COMP        .                                   PEMEX EXPL & PROD :COMPANY
WELL        .                                                2098 :WELL
FLD         .                                           CANTARELL :FIELD
LOC         .                                             UNKNOWN :LOCATION
CNTY        .                                      CD. DEL CARMEN :COUNTY
STAT        .                                            CAMPECHE :STATE
CTRY        .                                              MEXICO :COUNTRY
SRVC        .                                             UNKNOWN :SERVICE COMPANY
DATE        .                                             UNKNOWN :LOG DATE
UWI         .                                          3060000229 :UNIQUE WELL ID
XCOORD      .                                       599692.800000 :SURFACE X
YCOORD      .                                      2143031.510000 :SURFACE Y
LAT         .                                           19.380099 :LATITUDE
LON         .                                          -92.050671 :LONGITUDE
ELEV        .M                                            26.7400 :SURFACE ELEV
ELEV_TYPE   .                                                  KB :ELEV TYPE
~CURVE INFORMATION
#MNEMONIC.UNIT        API CODE       : CURVE DESCRIPTION
#------------------------------------------------------------------------------
DEPTH    .M                          : Measured Depth
CALI     .inches      UNKNOWN        : CALI:litodensidad:rC:NONE:v0 (auto-composite)
CGR      .API         UNKNOWN        : CGR:Espectrometria:rC:NONE:v0 (auto-composite)
DRHO     .g/cm3       UNKNOWN        : DRHO:litodensidad:rC:NONE:v0 (auto-composite)
DT       .us/ft       UNKNOWN        : DT:DT-Load:rC:NONE:v0 (auto-composite)
GR       .API         UNKNOWN        : GR:GR-load:rC:NONE:v0 (auto-composite)
ILD      .UNKNOWN     UNKNOWN        : ILD:resistivos:rC:NONE:v0 (auto-composite)
LLD      .ohm.m       UNKNOWN        : LLD:resistivos:rC:NONE:v0 (auto-composite)
LLS      .UNKNOWN     UNKNOWN        : LLS:resistivos:rC:NONE:v0 (auto-composite)
MSFL     .UNKNOWN     UNKNOWN        : MSFL:resistivos:rC:NONE:v0 (auto-composite)
NPHI     .v/v_decimal UNKNOWN        : NPHI:porosidad:rC:NONE:v0 (auto-composite)
PEF      .UNKNOWN     UNKNOWN        : PEF:litodensidad:rC:NONE:v0 (auto-composite)
POTA     .UNKNOWN     UNKNOWN        : POTA:Espectrometria:rC:NONE:v0 (auto-composite)
RHOB     .UNKNOWN     UNKNOWN        : RHOB:litodensidad:rC:NONE:v0 (auto-composite)
THOR     .ppm         UNKNOWN        : THOR:Espectrometria:rC:NONE:v0 (auto-composite)
URAN     .ppm         UNKNOWN        : URAN:Espectrometria:rC:NONE:v0 (auto-composite)
~A     DEPTH         CALI          CGR         DRHO           DT           GR          ILD          LLD          LLS         MSFL         NPHI          PEF         POTA         RHOB         THOR         URAN
# ...
   2545.6946       8.7501    -999.2500       0.1604      78.0289       0.1120    -999.2500    -999.2500    -999.2500       1.3904       0.2507    -999.2500    -999.2500       2.2493    -999.2500    -999.2500
   2545.8469       8.9021    -999.2500       0.1414      77.7883       3.9238    -999.2500    -999.2500    -999.2500       1.7198       0.2491    -999.2500    -999.2500       2.2238    -999.2500    -999.2500
   2545.9993       9.0570    -999.2500       0.1231      77.5154       7.9530    -999.2500    -999.2500    -999.2500       2.0366       0.2476    -999.2500    -999.2500       2.1989    -999.2500    -999.2500
   2546.1516       9.3097    -999.2500       0.1261      76.2015      19.3853    -999.2500    -999.2500    -999.2500       1.9570       0.2482    -999.2500    -999.2500       2.1954    -999.2500    -999.2500
   2546.3040       9.5641    -999.2500       0.1313      74.8282      30.4977    -999.2500    -999.2500    -999.2500       1.8661       0.2490    -999.2500    -999.2500       2.1919    -999.2500    -999.2500
   2546.4565       9.9054    -999.2500       0.2072      71.4870      30.9984    -999.2500    -999.2500    -999.2500       1.4243       0.2557    -999.2500    -999.2500       2.1884    -999.2500    -999.2500
   2546.6089      10.2448    -999.2500       0.2809      68.2467      31.5054    -999.2500       2.5895       3.4614       0.9967       0.2627    -999.2500    -999.2500       2.1846    -999.2500    -999.2500
   2546.7612      10.5301    -999.2500       0.2779      68.2692      32.2231    -999.2500       2.5139       3.2368       1.0192       0.2834    -999.2500    -999.2500       2.1690    -999.2500    -999.2500
   2546.9136      10.8114    -999.2500       0.2744      68.3401      32.9655    -999.2500       2.4425       3.0200       1.0383       0.3042    -999.2500    -999.2500       2.1542    -999.2500    -999.2500
   2547.0662      10.9678    -999.2500       0.2529      70.0268      34.5273    -999.2500       2.4849       3.0205       0.9539       0.3306    -999.2500    -999.2500       2.1622    -999.2500    -999.2500
   2547.2185      11.1162    -999.2500       0.2304      71.6386      36.1131    -999.2500       2.5346       3.0263       0.8778       0.3561    -999.2500    -999.2500       2.1715    -999.2500    -999.2500
   2547.3708      10.9786    -999.2500       0.1749      70.8235      38.5215    -999.2500       2.7902       3.1854       1.0694       0.3495    -999.2500    -999.2500       2.2230    -999.2500    -999.2500
   2547.5232      10.8260    -999.2500       0.1193      70.0391      40.8930    -999.2500       3.0698       3.3657       1.3153       0.3422    -999.2500    -999.2500       2.2760    -999.2500    -999.2500
   2547.6758      10.1476    -999.2500       0.0613      70.2832      42.0295    -999.2500       4.0244       4.1429       3.2435       0.3100    -999.2500    -999.2500       2.3769    -999.2500    -999.2500
   2547.8281       9.4873    -999.2500       0.0050      70.5493      43.1422    -999.2500       4.9395       4.8848       5.1066       0.2773    -999.2500    -999.2500       2.4765    -999.2500    -999.2500
   2547.9805       9.4983    -999.2500       0.0055      71.5331      43.4328    -999.2500       4.7164       4.6102       5.0007       0.2331    -999.2500    -999.2500       2.5301    -999.2500    -999.2500
   2548.1328       9.5107    -999.2500       0.0061      72.4812      43.7327    -999.2500       4.4672       4.3159       4.9484       0.1894    -999.2500    -999.2500       2.5822    -999.2500    -999.2500
   2548.2852       9.5732    -999.2500       0.0096      72.2903      44.3449    -999.2500       3.4791       3.4652       6.5655       0.1650    -999.2500    -999.2500       2.5887    -999.2500    -999.2500
   2548.4377       9.6369    -999.2500       0.0130      72.0797      44.9333    -999.2500       2.5246       2.6445       8.1221       0.1413    -999.2500    -999.2500       2.5957    -999.2500    -999.2500
   2548.5901       9.7450    -999.2500       0.0125      71.2248      44.6927    -999.2500       2.5426       2.6885       7.8443       0.1427    -999.2500    -999.2500       2.6202    -999.2500    -999.2500
   2548.7424       9.8530    -999.2500       0.0121      70.3518      44.4332    -999.2500       2.5739       2.7453       7.5501       0.1440    -999.2500    -999.2500       2.6439    -999.2500    -999.2500
   2548.8948       9.9600    -999.2500       0.0156      68.8964      43.5369    -999.2500       2.9823       3.1646       6.7473       0.1437    -999.2500    -999.2500       2.6419    -999.2500    -999.2500
   2549.0474      10.0702    -999.2500       0.0190      67.4292      42.6410    -999.2500       3.3747       3.5674       5.9715       0.1433    -999.2500    -999.2500       2.6398    -999.2500    -999.2500
   2549.1997      10.2982    -999.2500       0.0180      65.5720      41.7614    -999.2500       3.3062       3.4899       6.0174       0.1391    -999.2500    -999.2500       2.6313    -999.2500    -999.2500
   2549.3521      10.5268    -999.2500       0.0169      63.7629      40.8667    -999.2500       3.2243       3.4055       6.0725       0.1345    -999.2500    -999.2500       2.6228    -999.2500    -999.2500
   2549.5044      10.7729    -999.2500       0.0134      63.4940      39.4596    -999.2500       2.7615       3.1272       6.4106       0.1185    -999.2500    -999.2500       2.6163    -999.2500    -999.2500
   2549.6570      11.0113    -999.2500       0.0099      63.2077      38.0359    -999.2500       2.3150       2.8629       6.7834       0.1019    -999.2500    -999.2500       2.6099    -999.2500    -999.2500
   2549.8093      10.9863    -999.2500       0.0069      62.3458      36.0608    -999.2500       2.3460       3.0120       8.2188       0.0617    -999.2500    -999.2500       2.6074    -999.2500    -999.2500
   2549.9617      10.9584    -999.2500       0.0038      61.4401      34.0760    -999.2500       2.3857       3.1801      10.0338       0.0226    -999.2500    -999.2500       2.6051    -999.2500    -999.2500
   2550.1140      10.8273    -999.2500      -0.0017      59.1231      31.7646    -999.2500       2.6731       3.8903      23.7949       0.0227    -999.2500    -999.2500       2.6076    -999.2500    -999.2500
   2550.2664      10.6925    -999.2500      -0.0069      56.8773      29.5453    -999.2500       2.9829       4.6020      37.0571       0.0228    -999.2500    -999.2500       2.6103    -999.2500    -999.2500
   2550.4189      10.4123    -999.2500      -0.0044      56.9909      30.3739    -999.2500       3.9482       5.3603      34.9990       0.0253    -999.2500    -999.2500       2.6203    -999.2500    -999.2500
   2550.5713      10.1263    -999.2500      -0.0016      57.1389      31.2718    -999.2500       5.0219       6.3528      32.6755       0.0279    -999.2500    -999.2500       2.6306    -999.2500    -999.2500
   2550.7236       9.6269    -999.2500       0.0119      58.4003      34.5340    -999.2500       9.1939      14.0471      21.9685       0.0369    -999.2500    -999.2500       2.6526    -999.2500    -999.2500
   2550.8760       9.1427    -999.2500       0.0250      59.7544      37.7931    -999.2500      13.1675      21.3790      11.6461       0.0459    -999.2500    -999.2500       2.6740    -999.2500    -999.2500
   2551.0286       9.1692    -999.2500       0.0240      64.1890      40.9492    -999.2500      11.5866      18.5677      13.1761       0.0542    -999.2500    -999.2500       2.6730    -999.2500    -999.2500
   2551.1809       9.1981    -999.2500       0.0229      68.4718      44.0115    -999.2500       9.9628      15.6861      15.0771       0.0624    -999.2500    -999.2500       2.6715    -999.2500    -999.2500
   2551.3333       9.3132    -999.2500       0.0199      67.8301      43.8535    -999.2500       7.1027      10.7837      28.1370       0.0689    -999.2500    -999.2500       2.6535    -999.2500    -999.2500
   2551.4856       9.4246    -999.2500       0.0169      67.1433      43.6310    -999.2500       4.3304       6.0267      43.6748       0.0754    -999.2500    -999.2500       2.6360    -999.2500    -999.2500
