#------------------------------------------------------------------------------
#
#   Created by  : [OpenWorks] Log Export Utility (LEXP)
#   Created on  : 2016-05-23 11:51:18
#   Project     : CANT971
#   User        : R5K
#   Interpreter : PEP
#
#------------------------------------------------------------------------------
~VERSION INFORMATION
VERS. 2.0 : CWLS Log ASCII Standard - version 2.0
WRAP.  NO : One line per depth step
~WELL INFORMATION
#MNEMONIC   .UNIT                                           VALUE :DESCRIPTION
#------------------------------------------------------------------------------
STRT        .M                                           690.7880 :START DEPTH
STOP        .M                                          2950.1179 :STOP DEPTH
STEP        .M                                             0.1524 :STEP
NULL        .                                           -999.2500 :NULL VALUE
COMP        .                                   PEMEX EXPL & PROD :COMPANY
WELL        .                                                1066 :WELL
FLD         .                                           CANTARELL :FIELD
LOC         .                                             UNKNOWN :LOCATION
CNTY        .                                      CD. DEL CARMEN :COUNTY
STAT        .                                            CAMPECHE :STATE
CTRY        .                                              MEXICO :COUNTRY
SRVC        .                                             UNKNOWN :SERVICE COMPANY
DATE        .                                             UNKNOWN :LOG DATE
UWI         .                                          3060000505 :UNIQUE WELL ID
XCOORD      .                                       596157.670000 :SURFACE X
YCOORD      .                                      2150605.920000 :SURFACE Y
LAT         .                                           19.448718 :LATITUDE
LON         .                                          -92.083948 :LONGITUDE
ELEV        .M                                            30.0000 :SURFACE ELEV
ELEV_TYPE   .                                                  KB :ELEV TYPE
~CURVE INFORMATION
#MNEMONIC.UNIT        API CODE       : CURVE DESCRIPTION
#------------------------------------------------------------------------------
DEPTH    .M                          : Measured Depth
CALI     .inches      UNKNOWN        : CALI:litodensidad:rC:NONE:v0 (auto-composite)
DRHO     .g/cm3       UNKNOWN        : DRHO:litodensidad:rC:NONE:v0 (auto-composite)
DT       .us/ft       UNKNOWN        : DT:DT:rC:NONE:v0 (auto-composite)
GR       .API         UNKNOWN        : GR:UNKNOWN:rC:NONE:v0 (auto-composite)
ILD      .ohmm        UNKNOWN        : ILD:UNKNOWN:rC:NONE:v0 (auto-composite)
ILM      .ohmm        UNKNOWN        : ILM:UNKNOWN:rC:NONE:v0 (auto-composite)
LLD      .ohmm        UNKNOWN        : LLD:UNKNOWN:rC:NONE:v0 (auto-composite)
LLS      .ohmm        UNKNOWN        : LLS:UNKNOWN:rC:NONE:v0 (auto-composite)
MSFL     .ohmm        UNKNOWN        : MSFL:UNKNOWN:rC:NONE:v0 (auto-composite)
NPHI     .v/v_decimal UNKNOWN        : NPHI:PETROWORKS:rC:NONE:v2 
PEF      .b/elec      UNKNOWN        : PEF:litodensidad:rC:NONE:v0 (auto-composite)
RHOB     .g/cm3       UNKNOWN        : RHOB:litodensidad:rC:NONE:v0 (auto-composite)
~A     DEPTH         CALI         DRHO           DT           GR          ILD          ILM          LLD          LLS         MSFL         NPHI          PEF         RHOB
# ...
   2636.6311       4.8240      -1.0021    -999.2500      30.9665       1.9723       1.8193       0.2406       0.2043       0.0860       0.5391    -999.2500       2.0520
   2636.7837       4.8240      -1.0091    -999.2500      30.3131       1.9799       1.8339       0.2381       0.3476       0.0860       0.5352    -999.2500       2.0465
   2636.9360       4.8240      -1.0201    -999.2500      29.5840       1.9859       1.8449       0.2321       0.5293       0.0860       0.5307    -999.2500       2.0309
   2637.0884       4.8240      -1.0326    -999.2500      29.2174       1.9878       1.8324       0.2079       0.7381       0.0860       0.5245    -999.2500       2.0114
   2637.2407       4.8240      -1.0451    -999.2500      28.9361       1.9888       1.8143       0.1793       0.9532       0.0860       0.5178    -999.2500       1.9908
   2637.3933       4.8240      -1.0576    -999.2500      28.1862       1.9788       1.7922       0.1593       0.8958       0.0860       0.5136    -999.2500       1.9698
   2637.5457       4.8251      -1.0729    -999.2500      27.3298       1.9663       1.7691       0.1412       0.7764       0.0860       0.5109    -999.2500       1.9397
   2637.6980       4.8266      -1.0895    -999.2500      26.6159       1.9533       1.7707       0.1401       0.6750       0.0860       0.5179    -999.2500       1.9062
   2637.8503       4.8382      -1.1056    -999.2500      25.9332       1.9403       1.7777       0.1425       0.5776       0.0860       0.5283    -999.2500       1.8561
   2638.0029       4.8537      -1.1216    -999.2500      27.5202       1.9799       1.8028       0.1500       0.5801       0.0860       0.5416    -999.2500       1.7996
   2638.1553       4.9072      -1.1311    -999.2500      29.6070       2.0311       1.8319       0.1585       0.6047       0.0860       0.5565    -999.2500       1.7862
   2638.3076       4.9753      -1.1381    -999.2500      29.6968       2.1273       1.9000       0.1559       0.6992       0.0860       0.5635    -999.2500       1.7892
   2638.4600       5.1024      -1.1414    -999.2500      29.3632       2.2332       1.9764       0.1509       0.8086       0.0860       0.5666    -999.2500       1.7835
   2638.6123       5.2519      -1.1435    -999.2500      28.6123       2.3407       2.0968       0.1389       1.0466       0.0860       0.5595    -999.2500       1.7745
   2638.7649       5.4641      -1.1476    -999.2500      27.7715       2.4485       2.2267       0.1253       1.3123       0.0860       0.5472    -999.2500       1.7397
   2638.9172       5.7000      -1.1526    -999.2500      27.8762       2.5651       2.5598       0.1391       1.4631       0.0860       0.5323    -999.2500       1.6953
   2639.0696       5.9878      -1.1623    -999.2500      28.1770       2.6835       2.9352       0.1586       1.5901       0.0860       0.5175    -999.2500       1.6196
   2639.2219       6.2954      -1.1738    -999.2500      28.4020       2.9081       3.4496       0.2578       1.3826       0.0860       0.5057    -999.2500       1.5321
   2639.3745       6.6152      -1.1745    -999.2500      28.6110       3.1548       3.9931       0.3736       1.1054       0.0860       0.4951    -999.2500       1.5265
   2639.5269       6.9396      -1.1710    -999.2500      27.3025       3.4576       4.3615       0.4439       0.6931       0.0860       0.4813    -999.2500       1.5520
   2639.6792       7.2532      -1.1595    -999.2500      25.6893       3.7717       4.6946       0.5050       0.2537       0.0860       0.4652    -999.2500       1.6220
   2639.8315       7.5629      -1.1450    -999.2500      23.9050       4.2579       5.0154       0.4029       0.2372       0.0860       0.4352    -999.2500       1.7091
   2639.9841       7.8357      -1.1156    -999.2500      22.0873       4.7777       5.3338       0.2690       0.3032       0.0860       0.3994    -999.2500       1.8341
   2640.1365       8.0946      -1.0807    -999.2500      21.0224       5.2729       6.1274       0.3212       0.5227       0.0860       0.3572    -999.2500       1.9735
   2640.2888       8.2638      -1.0438    -999.2500      20.1054       5.7633       7.0144       0.4099       0.7724       0.0860       0.3125    -999.2500       2.1160
   2640.4412       8.3988      -1.0063    -999.2500      20.2528       6.1536       7.7081       0.4683       0.8023       0.0860       0.2742    -999.2500       2.2595
   2640.5935       8.4621      -0.9851    -999.2500      20.6008       6.5252       8.3654       0.5209       0.7908       0.0860       0.2399    -999.2500       2.2950
   2640.7461       8.4981      -0.9701    -999.2500      20.8583       7.0430       8.5832       0.9993       0.7112       0.0860       0.2157    -999.2500       2.2895
   2640.8984       8.5149      -0.9617    -999.2500      21.0995       7.5874       8.7215       1.5547       0.6193       0.0860       0.1967    -999.2500       2.2902
   2641.0508       8.5244      -0.9557    -999.2500      20.8182       8.1479       9.4527       1.7494       0.5102       0.0860       0.1854    -999.2500       2.2932
   2641.2031       8.5299      -0.9497       8.7669      20.4406       8.7115      10.2930       1.8778       0.3978       0.0860       0.1762    -999.2500       2.3009
   2641.3557       8.5339      -0.9437     316.8951      19.8054       9.0662      11.1298       1.4857       0.3551       0.0860       0.1707    -999.2500       2.3104
   2641.5081       8.5361      -0.9402     371.5050      19.1246       9.3841      11.9659       1.0020       0.3246       0.0860       0.1668    -999.2500       2.3275
   2641.6604       8.5376      -0.9377     332.4864      17.9839       9.6398      11.5308       0.9567       0.4541       0.0860       0.1633    -999.2500       2.3475
   2641.8127       8.5384      -0.9287     257.5712      16.7616       9.8845      10.8700       0.9893       0.6121       0.0860       0.1589    -999.2500       2.3827
   2641.9653       8.5389      -0.9172     169.3406      15.5327      10.4878      10.6064       1.5876       0.6500       0.0860       0.1483    -999.2500       2.4237
   2642.1177       8.5390      -0.9162     112.8313      14.3028      11.1522      10.4104       2.2820       0.6675       0.0860       0.1359    -999.2500       2.4520
   2642.2700       8.5390      -0.9192      68.0447      14.1619      11.3571      11.3849       2.6484       0.4878       0.0860       0.1267    -999.2500       2.4755
   2642.4224       8.5390      -0.9486      55.7696      14.1979      11.4875      12.5494       2.9615       0.2761       0.0860       0.1194    -999.2500       2.3997
   2642.5747       8.5390      -0.9881      55.5620      15.2877      10.7069      11.6045       2.1234       0.2434       0.0860       0.1251    -999.2500       2.2862
   2642.7273       8.5390      -1.0494      55.5326      16.5522       9.7753      10.3099       1.0946       0.2404       0.0860       0.1358    -999.2500       2.0926
   2642.8796       8.5390      -1.1189      55.5691      18.7695       9.5424       9.4387       0.8042       0.2495       0.0860       0.1541    -999.2500       1.8687
   2643.0320       8.5390      -1.1322      55.6104      21.1376       9.4200       8.6344       0.6307       0.2606       0.0860       0.1760    -999.2500       1.8248
   2643.1843       8.5390      -1.1242      55.6534      21.5105       9.6385       9.4253       0.7187       0.2650       0.0860       0.1926    -999.2500       1.8493
   2643.3369       8.5390      -1.1035      55.6730      21.5825       9.9084      10.4569       0.8462       0.2685       0.0860       0.2063    -999.2500       1.9169
   2643.4893       8.5390      -1.0780      55.6840      20.4961      10.3753      11.1719       1.0423       0.2686       0.0860       0.2120    -999.2500       2.0008
   2643.6416       8.5390      -1.0482      55.6662      19.2336      10.8722      11.8387       1.2489       0.2681       0.0860       0.2138    -999.2500       2.0983
   2643.7939       8.5390      -1.0167      55.6377      18.5596      12.0972      12.4182       3.5811       0.2676       0.0860       0.2082    -999.2500       2.2008
