#------------------------------------------------------------------------------
#
#   Created by  : [OpenWorks] Log Export Utility (LEXP)
#   Created on  : 2016-05-12 17:01:19
#   Project     : CANT971
#   User        : R5K
#   Interpreter : PEP
#
#------------------------------------------------------------------------------
~VERSION INFORMATION
VERS. 2.0 : CWLS Log ASCII Standard - version 2.0
WRAP.  NO : One line per depth step
~WELL INFORMATION
#MNEMONIC   .UNIT                                           VALUE :DESCRIPTION
#------------------------------------------------------------------------------
STRT        .M                                           335.5854 :START DEPTH
STOP        .M                                          2510.4858 :STOP DEPTH
STEP        .M                                             0.1524 :STEP
NULL        .                                           -999.2500 :NULL VALUE
COMP        .                                   PEMEX EXPL & PROD :COMPANY
WELL        .                                                  35 :WELL
FLD         .                                           CANTARELL :FIELD
LOC         .                                             UNKNOWN :LOCATION
CNTY        .                                      CD. DEL CARMEN :COUNTY
STAT        .                                            CAMPECHE :STATE
CTRY        .                                              MEXICO :COUNTRY
SRVC        .                                             UNKNOWN :SERVICE COMPANY
DATE        .                                             UNKNOWN :LOG DATE
UWI         .                                          3060000159 :UNIQUE WELL ID
XCOORD      .                                       602147.900000 :SURFACE X
YCOORD      .                                      2147168.470000 :SURFACE Y
LAT         .                                           19.417359 :LATITUDE
LON         .                                          -92.027072 :LONGITUDE
ELEV        .M                                            28.1700 :SURFACE ELEV
ELEV_TYPE   .                                                  KB :ELEV TYPE
~CURVE INFORMATION
#MNEMONIC.UNIT        API CODE       : CURVE DESCRIPTION
#------------------------------------------------------------------------------
DEPTH    .M                          : Measured Depth
CALI     .inches      UNKNOWN        : CALI:Import:rC:NONE:v0 (auto-composite)
DRHO     .g/cm3       UNKNOWN        : DRHO:Import:rC:NONE:v0 (auto-composite)
DT       .us/ft       UNKNOWN        : DT:Import:rC:NONE:v0 (auto-composite)
GR       .API         UNKNOWN        : GR:Import:rC:NONE:v0 (auto-composite)
ILD      .ohm.m       UNKNOWN        : ILD:Import:rC:NONE:v0 (auto-composite)
LLD      .ohm.m       UNKNOWN        : LLD:Import:rC:NONE:v0 (auto-composite)
LLS      .ohm.m       UNKNOWN        : LLS:Import:rC:NONE:v0 (auto-composite)
MSFL     .ohm.m       UNKNOWN        : MSFL:Import:rC:NONE:v0 (auto-composite)
NPHI     .v/v_decimal UNKNOWN        : NPHI:Import:rC:NONE:v0 (auto-composite)
RHOB     .g/cm3       UNKNOWN        : RHOB:Import:rC:NONE:v0 (auto-composite)
SP       .mV          UNKNOWN        : SP:Import:rC:NONE:v0 (auto-composite)
~A     DEPTH         CALI         DRHO           DT           GR          ILD          LLD          LLS         MSFL         NPHI         RHOB           SP
# ...
    898.2462    -999.2500   -1998.5000     128.0200      48.8000       1.1230    -999.2500    -999.2500    -999.2500    -999.2500    -999.2500      69.5700
    898.3986    -999.2500   -1998.5000     128.0275      47.3723       1.1145    -999.2500    -999.2500    -999.2500    -999.2500    -999.2500      69.5249
    898.5510    -231.1590   -1998.5000     128.0350      45.9560       1.1060    -999.2500    -999.2500    -999.2500    -999.2500    -229.6600      69.4800
    898.7034    -113.2114   -1998.5000     128.4456      43.5687       1.1175    -999.2500    -999.2500    -999.2500      -1.1654    -113.8217      69.4915
    898.8558       4.7540   -1998.5000     128.8530      41.2000       1.1290    -999.2500    -999.2500    -999.2500      -0.1612       2.0340      69.5030
    899.0082       7.9126   -1998.5000     129.0357      42.3554       1.1435    -999.2500    -999.2500    -999.2500       0.3035       2.0820      69.7987
    899.1606      11.0720   -1998.5000     129.2170      43.5020       1.1580    -999.2500    -999.2500    -999.2500       0.4600       2.1300      70.0930
    899.3130      11.8009   -1998.5000     129.2336      44.0783       1.1690    -999.2500    -999.2500    -999.2500       0.5084       2.1260      70.3220
    899.4654      12.5300   -1998.5000     129.2500      44.6500       1.1800    -999.2500    -999.2500    -999.2500       0.5066       2.1220      70.5500
    899.6178      12.5300   -1998.5000     128.3262      44.1479       1.1855    -999.2500    -999.2500    -999.2500       0.5074       2.1135      70.9909
    899.7702      12.5300   -1998.5000     127.4100      43.6500       1.1910    -999.2500    -999.2500    -999.2500       0.5122       2.1050      71.4300
    899.9226      12.5300   -1998.5000     128.1239      44.4668       1.1825    -999.2500    -999.2500    -999.2500       0.5231       2.0645      71.4185
    900.0750      12.5300   -1998.5000     128.8320      45.2770       1.1740    -999.2500    -999.2500    -999.2500       0.5319       2.0240      71.4070
    900.2274      12.5300   -1998.5000     130.1362      45.5396       1.1590    -999.2500    -999.2500    -999.2500       0.5306       2.0070      70.6719
    900.3798      12.5300   -1998.5000     131.4300      45.8000       1.1440    -999.2500    -999.2500    -999.2500       0.5250       1.9900      69.9400
    900.5322      12.5300   -1998.5000     130.3984      46.2362       1.1250    -999.2500    -999.2500    -999.2500       0.5205       2.0250      70.1329
    900.6846      12.5300   -1998.5000     129.3750      46.6690       1.1060    -999.2500    -999.2500    -999.2500       0.5207       2.0600      70.3250
    900.8370      12.5300   -1998.5000     127.8667      47.1865       1.0910    -999.2500    -999.2500    -999.2500       0.5296       2.0105      70.5731
    900.9894      12.5300   -1998.5000     126.3700      47.7000       1.0760    -999.2500    -999.2500    -999.2500       0.5432       1.9610      70.8200
    901.1418      12.5300   -1998.5000     126.5206      47.4490       1.0835    -999.2500    -999.2500    -999.2500       0.5579       1.9080      70.4993
    901.2942      12.5300   -1998.5000     126.6700      47.2000       1.0910    -999.2500    -999.2500    -999.2500       0.5676       1.8550      70.1800
    901.4466      12.5300   -1998.5000     126.3437      47.2954       1.0995    -999.2500    -999.2500    -999.2500       0.5655       1.8350      70.2146
    901.5990      12.5300   -1998.5000     126.0200      47.3900       1.1080    -999.2500    -999.2500    -999.2500       0.5572       1.8150      70.2490
    901.7514      12.5300   -1998.5000     127.5362      47.5371       1.1220    -999.2500    -999.2500    -999.2500       0.5479       1.8075      70.3046
    901.9038      12.5300   -1998.5000     129.0400      47.6830       1.1360    -999.2500    -999.2500    -999.2500       0.5387       1.8000      70.3600
    902.0562      12.5375   -1998.5000     128.7970      48.6956       1.1495    -999.2500    -999.2500    -999.2500       0.5311       1.8000      70.1134
    902.2086      12.5450   -1998.5000     128.5560      49.7000       1.1630    -999.2500    -999.2500    -999.2500       0.5237       1.8000      69.8680
    902.3610      12.5785   -1998.5000     127.9355      47.6730       1.1740    -999.2500    -999.2500    -999.2500       0.5154       1.8425      69.7036
    902.5134      12.6120   -1998.5000     127.3200      45.6620       1.1850    -999.2500    -999.2500    -999.2500       0.5057       1.8850      69.5400
    902.6658      12.6210   -1998.5000     128.0363      45.0285       1.1810    -999.2500    -999.2500    -999.2500       0.4938       1.9705      69.5976
    902.8182      12.6300   -1998.5000     128.7470      44.4000       1.1770    -999.2500    -999.2500    -999.2500       0.4885       2.0560      69.6550
    902.9706      12.6300   -1998.5000     130.6307      44.5255       1.1735    -999.2500    -999.2500    -999.2500       0.4987       2.0830      69.8630
    903.1230      12.6300   -1998.5000     132.5000      44.6500       1.1700    -999.2500    -999.2500    -999.2500       0.5084       2.1100      70.0700
    903.2754      12.6300   -1998.5000     132.3845      44.1309       1.1655    -999.2500    -999.2500    -999.2500       0.5013       2.0750      70.2454
    903.4278      12.6300   -1998.5000     132.2700      43.6160       1.1610    -999.2500    -999.2500    -999.2500       0.4900       2.0400      70.4200
    903.5802      12.6300   -1998.5000     131.6525      43.4322       1.1515    -999.2500    -999.2500    -999.2500       0.4868       2.0400      70.2687
    903.7326      12.6300   -1998.5000     131.0400      43.2500       1.1420    -999.2500    -999.2500    -999.2500       0.4894       2.0400      70.1180
    903.8850      12.6455   -1998.5000     131.1655      46.1116       1.1275    -999.2500    -999.2500    -999.2500       0.4958       2.0670      69.5452
    904.0374      12.6610   -1998.5000     131.2900      48.9500       1.1130    -999.2500    -999.2500    -999.2500       0.5009       2.0940      68.9750
    904.1898      12.6655   -1998.5000     130.6424      48.1162       1.1020    -999.2500    -999.2500    -999.2500       0.4998       2.1020      68.5064
    904.3422      12.6700   -1998.5000     130.0000      47.2890       1.0910    -999.2500    -999.2500    -999.2500       0.4953       2.1100      68.0400
    904.4946      12.6700   -1998.5000     129.6331      46.9095       1.0810    -999.2500    -999.2500    -999.2500       0.4900       2.0800      67.5288
    904.6470      12.6700   -1998.5000     129.2690      46.5330       1.0710    -999.2500    -999.2500    -999.2500       0.4866       2.0500      67.0200
    904.7994      12.6700   -1998.5000     128.5367      44.1322       1.0324    -999.2500    -999.2500    -999.2500       0.4876       2.0650      65.9621
    904.9518      12.6700   -1998.5000     127.8100      41.7500       0.9940    -999.2500    -999.2500    -999.2500       0.4894       2.0800      64.9090
    905.1042      12.6625   -1998.5000     126.7608      42.5532       0.9830    -999.2500    -999.2500    -999.2500       0.4883       2.0550      63.0268
    905.2566      12.6550   -1998.5000     125.7200      43.3500       0.9720    -999.2500    -999.2500    -999.2500       0.4798       2.0300      61.1530
    905.4090      12.6425   -1998.5000     127.0846      45.9357       0.9750    -999.2500    -999.2500    -999.2500       0.4593       2.0500      59.3080
    905.5614      12.6300   -1998.5000     128.4380      48.5000       0.9780    -999.2500    -999.2500    -999.2500       0.4414       2.0700      57.4710
    905.7138      12.6300   -1998.5000     129.6590      45.7202       0.9790    -999.2500    -999.2500    -999.2500       0.4405       2.0625      56.5987
    905.8662      12.6300   -1998.5000     130.8700      42.9630       0.9800    -999.2500    -999.2500    -999.2500       0.4520       2.0550      55.7300
    906.0186      12.6300   -1998.5000     131.8288      41.4203       0.9800    -999.2500    -999.2500    -999.2500       0.4714       2.0375      56.4000
