#------------------------------------------------------------------------------
#
#   Created by  : [OpenWorks] Log Export Utility (LEXP)
#   Created on  : 2016-05-12 17:01:25
#   Project     : CANT971
#   User        : R5K
#   Interpreter : PEP
#
#------------------------------------------------------------------------------
~VERSION INFORMATION
VERS. 2.0 : CWLS Log ASCII Standard - version 2.0
WRAP.  NO : One line per depth step
~WELL INFORMATION
#MNEMONIC   .UNIT                                           VALUE :DESCRIPTION
#------------------------------------------------------------------------------
STRT        .M                                           310.6675 :START DEPTH
STOP        .M                                          2665.7046 :STOP DEPTH
STEP        .M                                             0.1524 :STEP
NULL        .                                           -999.2500 :NULL VALUE
COMP        .                                   PEMEX EXPL & PROD :COMPANY
WELL        .                                                 77A :WELL
FLD         .                                           CANTARELL :FIELD
LOC         .                                             UNKNOWN :LOCATION
CNTY        .                                      CD. DEL CARMEN :COUNTY
STAT        .                                            CAMPECHE :STATE
CTRY        .                                              MEXICO :COUNTRY
SRVC        .                                             UNKNOWN :SERVICE COMPANY
DATE        .                                             UNKNOWN :LOG DATE
UWI         .                                          3060000181 :UNIQUE WELL ID
XCOORD      .                                       602151.310000 :SURFACE X
YCOORD      .                                      2147165.430000 :SURFACE Y
LAT         .                                           19.417331 :LATITUDE
LON         .                                          -92.027040 :LONGITUDE
ELEV        .M                                            28.1700 :SURFACE ELEV
ELEV_TYPE   .                                                  KB :ELEV TYPE
~CURVE INFORMATION
#MNEMONIC.UNIT        API CODE       : CURVE DESCRIPTION
#------------------------------------------------------------------------------
DEPTH    .M                          : Measured Depth
CALI     .inches      UNKNOWN        : CALI:UNKNOWN:rC:NONE:v0 (auto-composite)
DRHO     .UNKNOWN     UNKNOWN        : DRHO:PETROWORKS:rC:NONE:v1 
DT       .us/ft       UNKNOWN        : DT:DT:rC:NONE:v0 (auto-composite)
GR       .API         UNKNOWN        : GR:UNKNOWN:rC:NONE:v0 (auto-composite)
ILD      .UNKNOWN     UNKNOWN        : ILD:UNKNOWN:rC:NONE:v0 (auto-composite)
LLD      .ohm.m       UNKNOWN        : LLD:UNKNOWN:rC:NONE:v0 (auto-composite)
LLS      .ohm.m       UNKNOWN        : LLS:UNKNOWN:rC:NONE:v0 (auto-composite)
MSFL     .ohm.m       UNKNOWN        : MSFL:UNKNOWN:rC:NONE:v0 (auto-composite)
NPHI     .v/v_decimal UNKNOWN        : NPHI:PETROWORKS:rC:NONE:v1 
RHOB     .UNKNOWN     UNKNOWN        : RHOB:PETROWORKS:rC:NONE:v1 
SP       .UNKNOWN     UNKNOWN        : SP:UNKNOWN:rC:NONE:v0 (auto-composite)
~A     DEPTH         CALI         DRHO           DT           GR          ILD          LLD          LLS         MSFL         NPHI         RHOB           SP
# ...
   2402.8147       9.6118       0.0222      63.5818      22.1310     227.4101    1181.3285     605.1570    -999.2500       0.0735       2.6716      19.6193
   2402.9670       9.5596       0.0271      62.6582      21.9555     164.3824    1034.8544     577.5245    -999.2500       0.0740       2.6772      19.7993
   2403.1196       9.4191       0.0204      61.9671      21.9500     137.6393    1037.5193     618.1317    -999.2500       0.0739       2.6675      19.9215
   2403.2720       9.2757       0.0094      61.5079      21.9500     112.0795    1044.9659     660.9268    -999.2500       0.0731       2.6550      20.0419
   2403.4243       9.2339       0.0026      60.9096      23.1708     115.2865    1122.7227     707.3736    -999.2500       0.0711       2.6539      20.1617
   2403.5767       9.1948      -0.0007      60.1730      24.4243     119.2625    1202.3208     753.9161    -999.2500       0.0680       2.6591      20.2815
   2403.7290       9.2068      -0.0015      59.8989      26.7073     327.7401    1193.0049     734.4650    -999.2500       0.0672       2.6649      20.3429
   2403.8816       9.2198      -0.0019      60.0865      29.0119     540.4959    1181.8765     713.6685    -999.2500       0.0687       2.6648      20.4030
   2404.0339       9.2328      -0.0040      62.1258      31.0717    1082.3806    1126.3906     711.7114    -999.2500       0.0733       2.6522      20.4632
   2404.1863       9.2460      -0.0060      66.0076      33.1500    1635.8290    1069.5920     710.0440    -999.2500       0.0809       2.6318      20.5240
   2404.3386       9.2589      -0.0060      67.8769      35.2822    1662.0403    1098.8071     762.1118    -999.2500       0.0842       2.6087      20.5835
   2404.4912       9.2720      -0.0058      67.7369      37.4500    1688.6880    1128.4780     814.9920    -999.2500       0.0831       2.5920      20.6440
   2404.6436       9.2850      -0.0070      66.9454      38.1730    1708.2900    1223.0477     885.5068    -999.2500       0.0805       2.5910      20.7632
   2404.7959       9.2980      -0.0070      65.5053      38.9000    1727.9980    1318.0310     956.3300    -999.2500       0.0764       2.5966      20.8830
   2404.9482       9.2980      -0.0030      62.1287      39.8778    1731.9618    1382.7207     970.1254    -999.2500       0.0722       2.5995      20.9432
   2405.1008       9.2980       0.0032      56.8300      40.8500    1735.9030    1446.9750     983.8280    -999.2500       0.0681       2.6022      21.0030
   2405.2532       9.2980       0.0096      54.3313      39.3374    1727.8947    1367.3154     908.2440    -999.2500       0.0669       2.6070      21.2445
   2405.4055       9.2980       0.0135      54.6215      37.8500    1720.0200    1289.0670     833.9990    -999.2500       0.0687       2.6125      21.4820
   2405.5579       9.2848       0.0125      55.7660      37.5207    1708.1158    1202.1519     803.0133    -999.2500       0.0786       2.6171      21.6639
   2405.7102       9.2720       0.0099      57.7592      37.1875    1696.2863    1117.4093     774.1359    -999.2500       0.0967       2.6209      21.8410
   2405.8628       9.2720       0.0090      60.7380      36.3602    1680.7562    1106.2894     855.5331    -999.2500       0.1053       2.6246      21.8410
   2406.0151       9.2725       0.0082      64.6989      35.5676    1665.5470    1101.5087     943.1866    -999.2500       0.1046       2.6219      21.8447
   2406.1675       9.2986       0.0059      65.8133      36.4200    1665.5470    1389.8214    1320.1121    -999.2500       0.1020       2.6075      22.0247
   2406.3198       9.3243       0.0045      64.0996      37.2310    1665.4469    1695.8141    1704.0526    -999.2500       0.0975       2.5940      22.2016
   2406.4724       9.3374       0.0061      59.9932      36.5039    1661.6263    2645.9373    2343.5759    -999.2500       0.0897       2.5926      22.2617
   2406.6248       9.3500       0.0071      53.5013      35.7801    1658.0494    3582.8635    2956.5579    -999.2500       0.0786       2.5992      22.3200
   2406.7771       9.3500       0.0043      51.0848      35.1534    1661.9050    4123.8828    2773.3154    -999.2500       0.0649       2.6094      22.3200
   2406.9294       9.3500       0.0012      52.7196      34.4781    1665.3309    4622.4990    2587.0203    -999.2500       0.0486       2.6181      22.3245
   2407.0820       9.3500       0.0005      53.0920      32.5493    1657.6609    4041.8250    2323.0259    -999.2500       0.0410       2.6205      22.4447
   2407.2344       9.3489       0.0010      52.2052      30.6152    1649.8402    3470.9072    2062.1746    -999.2500       0.0420       2.6185      22.5550
   2407.3867       9.3229       0.0015      52.4072      28.5595    1638.5183    3123.9448    1873.4695    -999.2500       0.0473       2.6137      22.4347
   2407.5391       9.2980       0.0004      53.6922      26.5214    1628.0785    2787.0664    1693.1277    -999.2500       0.0570       2.6074      22.3256
   2407.6914       9.2980      -0.0038      56.4181      24.8418    1635.6149    2653.3489    1681.2783    -999.2500       0.0615       2.6006      22.4460
   2407.8440       9.2980      -0.0073      60.5821      23.3733    1643.1549    2536.4209    1686.6077    -999.2500       0.0608       2.5934      22.5537
   2407.9963       9.2980      -0.0074      63.8898      25.7298    1650.7610    2720.4875    1999.9081    -999.2500       0.0611       2.5856      22.4334
   2408.1487       9.2965      -0.0046      66.3452      27.8833    1657.9270    2948.0471    2344.8413    -999.2500       0.0624       2.5726      22.3131
   2408.3010       9.2704       0.0004      67.2882      26.7301    1657.9270    3877.1431    3200.0115    -999.2500       0.0671       2.5510      22.1932
   2408.4536       9.2377       0.0048      66.7210      25.5324    1657.6847    4864.0010    4086.7500    -999.2500       0.0753       2.5265      22.0810
   2408.6060       9.1074       0.0065      65.1010      23.6772    1653.8641    6696.7358    5435.7812    -999.2500       0.0912       2.5041      22.0810
   2408.7583       8.9932       0.0063      62.4330      21.9465    1651.3647    8603.8652    6833.0752    -999.2500       0.1151       2.4904      22.0810
   2408.9106       9.0974       0.0049      61.3169      21.8964    1666.7050   11507.5645    8876.8691    -999.2500       0.1251       2.4904      22.0810
   2409.0632       9.1940       0.0034      61.7413      21.9834    1680.3674   14454.4746   10720.8770    -999.2500       0.1213       2.5050      22.0810
   2409.2156       9.1940       0.0030      61.6024      23.8135    1672.6912   17946.8359   10043.0771    -999.2500       0.1134       2.5342      22.0810
   2409.3679       9.1960       0.0033      60.9027      25.4961    1665.3145   20791.4824    9175.8672    -999.2500       0.1015       2.5661      22.0810
   2409.5203       9.2221       0.0041      60.9236      25.4459    1661.4589   16079.9102    6098.9966    -999.2500       0.0999       2.5919      22.0810
   2409.6726       9.2460       0.0045      61.6603      25.4463    1658.8984   11429.7686    3229.4050    -999.2500       0.1085       2.6101      22.0810
   2409.8252       9.2460       0.0039      61.9310      25.9978    1670.4661    7445.2168    2605.6602    -999.2500       0.1126       2.6201      22.0810
   2409.9775       9.2472       0.0022      61.7375      26.4125    1679.6204    3783.0105    2023.7240    -999.2500       0.1121       2.6242      22.0863
   2410.1299       9.2602      -0.0008      60.7676      25.4348    1664.2322    3378.4924    1864.3167    -999.2500       0.1083       2.6244      22.1460
   2410.2822       9.2732      -0.0021      59.0263      24.4952    1651.7654    2978.5735    1703.3298    -999.2500       0.1014       2.6208      22.2057
   2410.4348       9.2863       0.0004      58.2915      23.9191    1667.1056    2622.1711    1527.3997    -999.2500       0.0986       2.6137      22.2658
   2410.5872       9.2954       0.0058      58.5601      23.3355    1679.4069    2293.6067    1407.9612    -999.2500       0.0999       2.6095      22.3319
