#------------------------------------------------------------------------------
#
#   Created by  : [OpenWorks] Log Export Utility (LEXP)
#   Created on  : 2016-05-23 11:56:20
#   Project     : CANT971
#   User        : R5K
#   Interpreter : PEP
#
#------------------------------------------------------------------------------
~VERSION INFORMATION
VERS. 2.0 : CWLS Log ASCII Standard - version 2.0
WRAP.  NO : One line per depth step
~WELL INFORMATION
#MNEMONIC   .UNIT                                           VALUE :DESCRIPTION
#------------------------------------------------------------------------------
STRT        .M                                          1446.1469 :START DEPTH
STOP        .M                                          3739.7668 :STOP DEPTH
STEP        .M                                             0.1524 :STEP
NULL        .                                           -999.2500 :NULL VALUE
COMP        .                                             UNKNOWN :COMPANY
WELL        .                                               468-V :WELL
FLD         .                                             UNKNOWN :FIELD
LOC         .                                             UNKNOWN :LOCATION
CNTY        .                                             UNKNOWN :COUNTY
STAT        .                                             UNKNOWN :STATE
CTRY        .                                             UNKNOWN :COUNTRY
SRVC        .                                             UNKNOWN :SERVICE COMPANY
DATE        .                                             UNKNOWN :LOG DATE
UWI         .                                               468-V :UNIQUE WELL ID
XCOORD      .                                       598699.140000 :SURFACE X
YCOORD      .                                      2143301.650000 :SURFACE Y
LAT         .                                           19.382589 :LATITUDE
LON         .                                          -92.060118 :LONGITUDE
ELEV        .M                                             0.0000 :SURFACE ELEV
ELEV_TYPE   .                                                  NA :ELEV TYPE
~CURVE INFORMATION
#MNEMONIC.UNIT        API CODE       : CURVE DESCRIPTION
#------------------------------------------------------------------------------
DEPTH    .M                          : Measured Depth
CALI     .inches      UNKNOWN        : CALI:PETROWORKS:rC:NONE:v1 
DRHO     .g/cm3       UNKNOWN        : DRHO:PETROWORKS:rC:NONE:v1 
DT       .us/ft       UNKNOWN        : DT:sonico:rC:NONE:v0 (auto-composite)
GR       .API         UNKNOWN        : GR:PETROWORKS:rC:NONE:v1 
GR-LWD   .API         UNKNOWN        : GR-LWD:PETROWORKS:rC:NONE:v3 
ILD-LWD  .ohm.m       UNKNOWN        : ILD-LWD:PETROWORKS:rC:NONE:v3 
ILM-LWD  .UNKNOWN     UNKNOWN        : ILM-LWD:PETROWORKS:rC:NONE:v3 
NPHI     .v/v_decimal UNKNOWN        : NPHI:PETROWORKS:rC:NONE:v1 
PEF      .b/elec      UNKNOWN        : PEF:PETROWORKS:rC:NONE:v1 
RHOB     .g/cm3       UNKNOWN        : RHOB:PETROWORKS:rC:NONE:v1 
~A     DEPTH         CALI         DRHO           DT           GR       GR-LWD      ILD-LWD      ILM-LWD         NPHI          PEF         RHOB
# ...
   2717.7725       8.3984       0.0635    -999.2500      27.1716      20.1944      32.4162      30.2679       0.0669       3.4178       2.7075
   2717.9248       8.4666       0.0632    -999.2500      26.4963      19.6526      31.9004      29.0807       0.0679       3.4017       2.6988
   2718.0771       8.4802       0.0658    -999.2500      26.7836      18.9598      31.1377      27.5699       0.0649       3.3780       2.6928
   2718.2297       8.4988       0.0681    -999.2500      28.3900      18.6070      30.2781      26.0935       0.0632       3.3371       2.7163
   2718.3821       8.5382       0.0686    -999.2500      31.4043      18.3701      29.0105      24.7522       0.0542       3.2790       2.7570
   2718.5344       8.5447       0.0702    -999.2500      31.6632      18.4442      27.9526      23.9540       0.0502       3.2747       2.7740
   2718.6868       8.5269       0.0749    -999.2500      30.0307      18.2466      27.0272      23.1246       0.0463       3.2880       2.7795
   2718.8394       8.5085       0.0748    -999.2500      28.2892      17.7015      25.6581      21.5653       0.0469       3.2624       2.7686
   2718.9917       8.5188       0.0688    -999.2500      26.6775      17.2409      24.4034      20.0576       0.0524       3.1822       2.7465
   2719.1440       8.5046       0.0581    -999.2500      25.7645      15.5590      23.3995      18.8730       0.0683       3.1132       2.7022
   2719.2964       8.5162       0.0454    -999.2500      25.2533      16.0145      22.5205      17.9508       0.0914       3.0897       2.6127
   2719.4487       8.5124       0.0367    -999.2500      27.5035      16.6220      21.5613      17.1195       0.1057       3.0709       2.5121
   2719.6013       8.5262       0.0277    -999.2500      31.1189      17.3500      20.8000      16.5900       0.1180       3.0038       2.4262
   2719.7537       8.4441       0.0263    -999.2500      30.5151      18.4787      19.8984      16.1369       0.1153       3.0631       2.4614
   2719.9060       8.3771       0.0309    -999.2500      30.9115      19.9723      19.2832      15.8598       0.0931       3.2954       2.5818
   2720.0583       8.3946       0.0365    -999.2500      32.5101      22.2661      20.2466      16.1915       0.0775       3.3730       2.6592
   2720.2109       8.3812       0.0450    -999.2500      34.5894      26.6058      21.3772      16.5844       0.0723       3.3375       2.7305
   2720.3633       8.3728       0.0484    -999.2500      36.2835      30.2344      21.6380      16.6073       0.0680       3.2729       2.7345
   2720.5156       8.3178       0.0504    -999.2500      39.5883      32.8375      21.7554      16.7229       0.0714       3.2113       2.7306
   2720.6680       8.3368       0.0544    -999.2500      41.4828      34.7516      21.5112      17.3292       0.0780       3.2206       2.7276
   2720.8206       8.3353       0.0630    -999.2500      45.5854      35.6177      22.9308      18.9689       0.0895       3.2551       2.7084
   2720.9729       8.3155       0.0640    -999.2500      47.1034      35.1527      23.9064      20.0056       0.0955       3.2388       2.7106
   2721.1252       8.3080       0.0634    -999.2500      46.1863      31.1096      28.8404      24.9545       0.0937       3.1815       2.7245
   2721.2776       8.4661       0.0602    -999.2500      39.8579      27.8666      30.5227      26.7815       0.0790       3.1236       2.7189
   2721.4299       8.3810       0.0534    -999.2500      33.1767      23.0565      36.1364      33.8173       0.0712       3.0960       2.6872
   2721.5825       8.3213       0.0466    -999.2500      26.8796      19.8202      42.3567      42.7178       0.0659       3.0494       2.6888
   2721.7349       8.3402       0.0442    -999.2500      26.5079      19.4414      45.4353      46.8852       0.0641       3.0419       2.7377
   2721.8872       8.3841       0.0458    -999.2500      28.2892      20.0982      49.3392      51.8071       0.0598       3.0561       2.7759
   2722.0396       8.3657       0.0483    -999.2500      28.4987      21.0500      52.5041      55.0470       0.0576       3.0704       2.7717
   2722.1921       8.3702       0.0418    -999.2500      29.1232      22.1187      55.7990      57.9694       0.0573       3.0942       2.7643
   2722.3445       8.3772       0.0322    -999.2500      31.5129      22.6857      58.4464      59.8506       0.0569       3.0821       2.7728
   2722.4968       8.3867       0.0308    -999.2500      31.5820      23.2043      61.4020      61.6762       0.0565       3.0710       2.7860
   2722.6492       8.4198       0.0327    -999.2500      30.3375      23.4225      65.3317      63.4831       0.0565       3.1203       2.7898
   2722.8018       8.4029       0.0243    -999.2500      31.6474      23.4300      66.1000      63.9200       0.0547       3.2086       2.7833
   2722.9541       8.4317       0.0163    -999.2500      31.9945      22.9457      67.4728      65.1726       0.0527       3.1858       2.7819
   2723.1064       8.5243       0.0060    -999.2500      33.3954      22.1567      69.1108      66.6183       0.0483       3.0777       2.7875
   2723.2588       8.6046       0.0004    -999.2500      34.4089      22.0806      69.5904      67.2730       0.0468       3.0462       2.7890
   2723.4111       8.6677       0.0007    -999.2500      33.0222      21.0306      71.1445      68.9468       0.0478       3.0726       2.8015
   2723.5637       8.6637       0.0102    -999.2500      30.7022      19.9795      73.0187      71.2212       0.0486       3.0537       2.8099
   2723.7161       8.6584       0.0300    -999.2500      25.3563      18.7064      74.7777      73.2267       0.0482       2.9882       2.7913
   2723.8684       8.6433       0.0341    -999.2500      23.0880      17.2221      77.1449      75.4162       0.0494       3.0198       2.7722
   2724.0208       8.5717       0.0262    -999.2500      22.9791      16.1046      78.6797      76.7574       0.0526       3.1137       2.7786
   2724.1733       8.5992       0.0207    -999.2500      23.6947      15.4547      78.6650      75.9591       0.0519       3.1215       2.7901
   2724.3257       8.5935       0.0158    -999.2500      23.3114      15.7454      77.6698      73.6632       0.0522       3.0976       2.7824
   2724.4780       8.5728       0.0124    -999.2500      23.2326      16.8468      74.7512      68.2184       0.0558       3.0756       2.7630
   2724.6304       8.5938       0.0117    -999.2500      24.9556      18.2558      67.6083      57.4485       0.0626       3.0920       2.7561
   2724.7830       8.6433       0.0109    -999.2500      27.1604      19.1312      65.4083      54.5025       0.0702       3.1525       2.7523
   2724.9353       8.6418       0.0112    -999.2500      29.6276      20.6483      61.6146      49.4036       0.0766       3.2267       2.7446
   2725.0876       8.6421       0.0101    -999.2500      32.8961      22.1752      58.5907      45.8282       0.0805       3.2846       2.7303
   2725.2400       8.5929       0.0094    -999.2500      33.5365      22.9523      57.4907      44.5586       0.0801       3.3013       2.7386
   2725.3923       8.5449       0.0112    -999.2500      34.3832      23.6033      53.4731      40.8031       0.0752       3.2987       2.7660
   2725.5449       8.6359       0.0143    -999.2500      34.9596      22.8405      49.0190      36.7287       0.0684       3.2666       2.7854
   2725.6973       8.7486       0.0177    -999.2500      33.0550      21.5097      44.9408      33.0167       0.0626       3.2513       2.7951
   2725.8496       8.7017       0.0190    -999.2500      31.4354      20.6209      42.7368      31.1108       0.0619       3.2634       2.7928
   2726.0020       8.6972       0.0211    -999.2500      26.8382      19.8100      41.2400      29.7800       0.0575       3.2607       2.7787
   2726.1545       8.7200       0.0227    -999.2500      27.2828      19.2127      40.0982      28.6482       0.0579       3.2468       2.7679
