#------------------------------------------------------------------------------
#
#   Created by  : [OpenWorks] Log Export Utility (LEXP)
#   Created on  : 2016-05-23 11:55:46
#   Project     : CANT971
#   User        : R5K
#   Interpreter : PEP
#
#------------------------------------------------------------------------------
~VERSION INFORMATION
VERS. 2.0 : CWLS Log ASCII Standard - version 2.0
WRAP.  NO : One line per depth step
~WELL INFORMATION
#MNEMONIC   .UNIT                                           VALUE :DESCRIPTION
#------------------------------------------------------------------------------
STRT        .M                                           325.5260 :START DEPTH
STOP        .M                                          2414.9299 :STOP DEPTH
STEP        .M                                             0.1524 :STEP
NULL        .                                           -999.2500 :NULL VALUE
COMP        .                                   PEMEX EXPL & PROD :COMPANY
WELL        .                                                   4 :WELL
FLD         .                                           CANTARELL :FIELD
LOC         .                                             UNKNOWN :LOCATION
CNTY        .                                      CD. DEL CARMEN :COUNTY
STAT        .                                            CAMPECHE :STATE
CTRY        .                                              MEXICO :COUNTRY
SRVC        .                                             UNKNOWN :SERVICE COMPANY
DATE        .                                             UNKNOWN :LOG DATE
UWI         .                                          3060000140 :UNIQUE WELL ID
XCOORD      .                                       598455.270000 :SURFACE X
YCOORD      .                                      2145027.190000 :SURFACE Y
LAT         .                                           19.398194 :LATITUDE
LON         .                                          -92.062351 :LONGITUDE
ELEV        .M                                            26.5400 :SURFACE ELEV
ELEV_TYPE   .                                                  KB :ELEV TYPE
~CURVE INFORMATION
#MNEMONIC.UNIT        API CODE       : CURVE DESCRIPTION
#------------------------------------------------------------------------------
DEPTH    .M                          : Measured Depth
CALI     .inches      UNKNOWN        : CALI:Import:rC:NONE:v0 (auto-composite)
CGR      .API         UNKNOWN        : CGR:Import:rC:NONE:v0 (auto-composite)
DRHO     .g/cm3       UNKNOWN        : DRHO:Import:rC:NONE:v0 (auto-composite)
DT       .us/ft       UNKNOWN        : DT:Import:rC:NONE:v0 (auto-composite)
GR       .API         UNKNOWN        : GR:Import:rC:NONE:v0 (auto-composite)
ILD      .ohm.m       UNKNOWN        : ILD:Import:rC:NONE:v0 (auto-composite)
LLD      .ohm.m       UNKNOWN        : LLD:Import:rC:NONE:v0 (auto-composite)
LLS      .ohm.m       UNKNOWN        : LLS:Import:rC:NONE:v0 (auto-composite)
MSFL     .ohm.m       UNKNOWN        : MSFL:Import:rC:NONE:v0 (auto-composite)
NPHI     .v/v_decimal UNKNOWN        : NPHI:Import:rC:NONE:v0 (auto-composite)
POTA     .wtpercent   UNKNOWN        : POTA:Import:rC:NONE:v0 (auto-composite)
RHOB     .g/cm3       UNKNOWN        : RHOB:Import:rC:NONE:v0 (auto-composite)
THOR     .ppm         UNKNOWN        : THOR:Import:rC:NONE:v0 (auto-composite)
URAN     .ppm         UNKNOWN        : URAN:Import:rC:NONE:v0 (auto-composite)
~A     DEPTH         CALI          CGR         DRHO           DT           GR          ILD          LLD          LLS         MSFL         NPHI         POTA         RHOB         THOR         URAN
# ...
   2181.7581       9.3550    -999.2500      -0.0010      55.1590      14.1930    -999.2500   36666.0078    4124.4380     219.1090       0.0310    -999.2500       2.7300    -999.2500    -999.2500
   2181.9104       9.2393    -999.2500      -0.0070      55.4572      14.6614    -999.2500   28123.6934    3561.6436     277.5330       0.0356    -999.2500       2.7220    -999.2500    -999.2500
   2182.0627       9.1240    -999.2500      -0.0130      55.7540      15.1290    -999.2500   19608.7812    2999.7539     335.8630       0.0401    -999.2500       2.7140    -999.2500    -999.2500
   2182.2151       9.2081    -999.2500      -0.0105      55.6698      14.7877    -999.2500   15561.0586    2688.5300     243.8477       0.0399    -999.2500       2.7190    -999.2500    -999.2500
   2182.3677       9.2920    -999.2500      -0.0080      55.5860      14.4470    -999.2500   11525.8037    2377.7681     151.9690       0.0397    -999.2500       2.7240    -999.2500    -999.2500
   2182.5200       9.2850    -999.2500      -0.0025      55.1260      13.5129    -999.2500    9465.3555    2208.3940     174.3056       0.0372    -999.2500       2.7410    -999.2500    -999.2500
   2182.6724       9.2780    -999.2500       0.0030      54.6680      12.5800    -999.2500    7411.0010    2039.2500     196.6120       0.0348    -999.2500       2.7580    -999.2500    -999.2500
   2182.8247       9.2605    -999.2500       0.0010      53.8422      11.9851    -999.2500    7425.7021    2104.6143     221.2507       0.0351    -999.2500       2.7530    -999.2500    -999.2500
   2182.9773       9.2430    -999.2500      -0.0010      53.0200      11.3910    -999.2500    7440.3618    2169.8979     245.8590       0.0354    -999.2500       2.7480    -999.2500    -999.2500
   2183.1296       9.2901    -999.2500      -0.0005      52.4122      11.7507    -999.2500    9360.1240    2683.9221     347.6297       0.0329    -999.2500       2.7585    -999.2500    -999.2500
   2183.2820       9.3370    -999.2500       0.0000      51.8070      12.1100    -999.2500   11274.6895    3196.5549     449.1250       0.0306    -999.2500       2.7690    -999.2500    -999.2500
   2183.4343       9.3620    -999.2500       0.0055      51.9343      12.5932    -999.2500   17577.4785    6436.4551     433.8043       0.0315    -999.2500       2.7845    -999.2500    -999.2500
   2183.5869       9.3870    -999.2500       0.0110      52.0610      13.0760    -999.2500   23864.0098    9667.9990     418.5230       0.0325    -999.2500       2.8000    -999.2500    -999.2500
   2183.7393       9.3645    -999.2500       0.0105      53.6307      13.2381    -999.2500   17449.5117    6572.2725     277.5965       0.0408    -999.2500       2.7875    -999.2500    -999.2500
   2183.8916       9.3420    -999.2500       0.0100      55.1940      13.4000    -999.2500   11050.7666    3484.1489     137.0160       0.0490    -999.2500       2.7750    -999.2500    -999.2500
   2184.0439       9.2729    -999.2500       0.0020      57.6062      13.2695    -999.2500    9267.4629    2807.6306     113.0701       0.0572    -999.2500       2.7535    -999.2500    -999.2500
   2184.1963       9.2040    -999.2500      -0.0060      60.0090      13.1390    -999.2500    7488.3120    2132.6880      89.1800       0.0653    -999.2500       2.7320    -999.2500    -999.2500
   2184.3489       9.2370    -999.2500       0.0020      61.8976      13.2877    -999.2500    8877.6865    2333.5654      90.1301       0.0647    -999.2500       2.7320    -999.2500    -999.2500
   2184.5012       9.2700    -999.2500       0.0100      63.7790      13.4360    -999.2500   10263.9980    2534.0000      91.0780       0.0642    -999.2500       2.7320    -999.2500    -999.2500
   2184.6536       9.2550    -999.2500       0.0095      69.7139      14.1838    -999.2500    8612.1055    2135.1406      84.6904       0.0673    -999.2500       2.7225    -999.2500    -999.2500
   2184.8059       9.2400    -999.2500       0.0090      75.6270      14.9300    -999.2500    6963.6450    1737.1100      78.3160       0.0703    -999.2500       2.7130    -999.2500    -999.2500
   2184.9585       9.2605    -999.2500       0.0040      85.1234      15.4175    -999.2500    6169.9077    1583.2351     108.9815       0.0694    -999.2500       2.7065    -999.2500    -999.2500
   2185.1108       9.2810    -999.2500      -0.0010      94.5860      15.9040    -999.2500    5377.7222    1429.6610     139.5870       0.0686    -999.2500       2.7000    -999.2500    -999.2500
   2185.2632       9.2244    -999.2500      -0.0045      92.6342      15.5857    -999.2500    4359.1753    1169.2111     160.4531       0.0711    -999.2500       2.6940    -999.2500    -999.2500
   2185.4155       9.1680    -999.2500      -0.0080      90.6890      15.2680    -999.2500    3342.4900     909.2370     181.2810       0.0736    -999.2500       2.6880    -999.2500    -999.2500
   2185.5681       9.2617    -999.2500      -0.0095      91.3356      14.5329    -999.2500    2572.4675     710.1945     128.4300       0.0834    -999.2500       2.6590    -999.2500    -999.2500
   2185.7205       9.3550    -999.2500      -0.0110      91.9790      13.7990    -999.2500    1803.7570     511.4910      75.6690       0.0930    -999.2500       2.6300    -999.2500    -999.2500
   2185.8728       9.3505    -999.2500      -0.0105      96.0612      12.9058    -999.2500    1552.2289     446.8510      53.7002       0.1111    -999.2500       2.5964    -999.2500    -999.2500
   2186.0251       9.3460    -999.2500      -0.0100     100.1240      12.0140    -999.2500    1301.5000     382.3130      31.7660       0.1288    -999.2500       2.5630    -999.2500    -999.2500
   2186.1775       9.3425    -999.2500      -0.0080     103.3485      11.6492    -999.2500    1422.4093     427.1571      28.9384       0.1443    -999.2500       2.5520    -999.2500    -999.2500
   2186.3301       9.3390    -999.2500      -0.0060     106.5580      11.2850    -999.2500    1542.9500     471.9360      26.1150       0.1595    -999.2500       2.5410    -999.2500    -999.2500
   2186.4824       9.3841    -999.2500      -0.0110     105.2100      11.4561    -999.2500    1617.9177     521.4639      26.4187       0.1517    -999.2500       2.5320    -999.2500    -999.2500
   2186.6348       9.4290    -999.2500      -0.0160     103.8680      11.6270    -999.2500    1692.6660     570.9260      26.7220       0.1440    -999.2500       2.5230    -999.2500    -999.2500
   2186.7871       9.4140    -999.2500      -0.0200     107.2760      12.0342    -999.2500    1599.7970     563.3434      26.2377       0.1345    -999.2500       2.5055    -999.2500    -999.2500
   2186.9397       9.3990    -999.2500      -0.0240     110.6690      12.4410    -999.2500    1507.1880     555.7700      25.7540       0.1251    -999.2500       2.4880    -999.2500    -999.2500
   2187.0920       9.3234    -999.2500      -0.0215     109.0906      12.3905    -999.2500    1372.3401     519.0664      22.9913       0.1271    -999.2500       2.4695    -999.2500    -999.2500
   2187.2444       9.2480    -999.2500      -0.0190     107.5190      12.3400    -999.2500    1237.8530     482.4610      20.2360       0.1291    -999.2500       2.4510    -999.2500    -999.2500
   2187.3967       9.1524    -999.2500      -0.0160     103.9621      12.3990    -999.2500    1063.9133     399.7161      23.2984       0.1285    -999.2500       2.4720    -999.2500    -999.2500
   2187.5493       9.0570    -999.2500      -0.0130     100.4200      12.4580    -999.2500     890.4170     317.1820      26.3530       0.1279    -999.2500       2.4930    -999.2500    -999.2500
   2187.7017       9.1221    -999.2500      -0.0120      96.3288      12.5460    -999.2500     741.3718     258.4102      34.7737       0.1213    -999.2500       2.5361    -999.2500    -999.2500
   2187.8540       9.1870    -999.2500      -0.0110      92.2540      12.6340    -999.2500     592.6880     199.7810      43.1740       0.1148    -999.2500       2.5790    -999.2500    -999.2500
   2188.0063       9.2651    -999.2500      -0.0125      88.7537      12.8826    -999.2500     798.4494     258.1381      61.5171       0.1020    -999.2500       2.6015    -999.2500    -999.2500
