#------------------------------------------------------------------------------
#
#   Created by  : [OpenWorks] Log Export Utility (LEXP)
#   Created on  : 2016-05-23 11:55:56
#   Project     : CANT971
#   User        : R5K
#   Interpreter : PEP
#
#------------------------------------------------------------------------------
~VERSION INFORMATION
VERS. 2.0 : CWLS Log ASCII Standard - version 2.0
WRAP.  NO : One line per depth step
~WELL INFORMATION
#MNEMONIC   .UNIT                                           VALUE :DESCRIPTION
#------------------------------------------------------------------------------
STRT        .M                                          3767.4790 :START DEPTH
STOP        .M                                          5548.2729 :STOP DEPTH
STEP        .M                                             0.1524 :STEP
NULL        .                                           -999.2500 :NULL VALUE
COMP        .                                             UNKNOWN :COMPANY
WELL        .                                            418D-ST2 :WELL
FLD         .                                             UNKNOWN :FIELD
LOC         .                                             UNKNOWN :LOCATION
CNTY        .                                             UNKNOWN :COUNTY
STAT        .                                             UNKNOWN :STATE
CTRY        .                                             UNKNOWN :COUNTRY
SRVC        .                                             UNKNOWN :SERVICE COMPANY
DATE        .                                             UNKNOWN :LOG DATE
UWI         .                                            418D-ST2 :UNIQUE WELL ID
XCOORD      .                                       597130.010000 :SURFACE X
YCOORD      .                                      2144879.410000 :SURFACE Y
LAT         .                                           19.396924 :LATITUDE
LON         .                                          -92.074978 :LONGITUDE
ELEV        .M                                             0.0000 :SURFACE ELEV
ELEV_TYPE   .                                                  NA :ELEV TYPE
~CURVE INFORMATION
#MNEMONIC.UNIT        API CODE       : CURVE DESCRIPTION
#------------------------------------------------------------------------------
DEPTH    .M                          : Measured Depth
CALI     .inches      UNKNOWN        : CALI:PETROWORKS:rC:NONE:v1 
CGR      .API         UNKNOWN        : CGR:PETROWORKS:rC:NONE:v2 
DRHO     .g/cm3       UNKNOWN        : DRHO:PETROWORKS:rC:NONE:v1 
DT       .us/ft       UNKNOWN        : DT:PETROWORKS:rC:NONE:v2 
GR       .API         UNKNOWN        : GR:PETROWORKS:rC:NONE:v2 
ILD      .ohm.m       UNKNOWN        : ILD:PETROWORKS:rC:NONE:v2 
ILM      .ohm.m       UNKNOWN        : ILM:PETROWORKS:rC:NONE:v2 
NPHI     .v/v_decimal UNKNOWN        : NPHI:PETROWORKS:rC:NONE:v3 
PEF      .b/elec      UNKNOWN        : PEF:PETROWORKS:rC:NONE:v1 
POTA     .wtpercent   UNKNOWN        : POTA:PETROWORKS:rC:NONE:v2 
RHOB     .UNKNOWN     UNKNOWN        : RHOB:PETROWORKS:rC:NONE:v1 
THOR     .ppm         UNKNOWN        : THOR:PETROWORKS:rC:NONE:v2 
URAN     .ppm         UNKNOWN        : URAN:PETROWORKS:rC:NONE:v2 
~A     DEPTH         CALI          CGR         DRHO           DT           GR          ILD          ILM         NPHI          PEF         POTA         RHOB         THOR         URAN
# ...
   5396.9399       6.4090      23.2127       0.0176      48.3014      38.0157     222.1468     131.5849       0.0291       5.5761       0.0132       2.8088       0.5529       2.0865
   5397.0923       6.4041      23.1457       0.0107      48.2365      34.5116     369.4653     113.6998       0.0300       5.8379       0.0118       2.7982       1.2463       1.9047
   5397.2446       6.3752      20.9518       0.0077      47.8050      29.2630    1159.1079     128.2229       0.0301       6.0437       0.0092       2.7836       1.9186       1.4560
   5397.3970       6.3391      15.8672       0.0179      47.3891      22.9915    3053.5623     162.8283       0.0288       5.8485       0.0057       2.7714       1.5387       1.2653
   5397.5493       6.3259      11.0167       0.0328      46.7703      19.5165   14622.3721     367.6676       0.0268       5.4593       0.0035       2.7682       1.0811       1.3542
   5397.7017       6.3306       8.3880       0.0433      46.2958      18.8068   19916.0332    1695.8608       0.0239       5.0427       0.0029       2.7806       0.9941       1.4230
   5397.8540       6.3363       7.2664       0.0432      46.1445      18.1816   20000.0000    5047.5098       0.0216       4.8442       0.0025       2.7949       0.9503       1.4870
   5398.0068       6.3394       6.8438       0.0312      46.1882      18.0644   20000.0000   10634.2529       0.0203       4.8983       0.0025       2.8091       0.8895       1.5287
   5398.1592       6.3400       6.8195       0.0222      46.2815      18.0448   20000.0000    8367.5781       0.0191       5.0039       0.0027       2.8196       0.8533       1.5293
   5398.3115       6.3295       7.2149       0.0198      46.4988      18.1404   20000.0000    3381.5913       0.0194       5.1214       0.0030       2.8209       0.8633       1.4885
   5398.4639       6.3081       7.7300       0.0192      46.9018      18.3349   20000.0000    1506.8083       0.0215       5.1774       0.0033       2.8176       0.8914       1.4448
   5398.6162       6.2962       8.3665       0.0191      47.8248      18.7468   20000.0000     955.1104       0.0271       5.1974       0.0035       2.8089       0.9376       1.4142
   5398.7686       6.3037       8.8770       0.0195      48.5169      19.1906   20000.0000     733.9058       0.0326       5.2505       0.0035       2.8016       0.9955       1.4052
   5398.9209       6.3302       9.8073       0.0181      48.5939      19.8163   20000.0000     685.8972       0.0340       5.3764       0.0040       2.7997       1.0788       1.3636
   5399.0732       6.3466      11.1064       0.0155      48.3366      20.6690   20000.0000     713.1080       0.0320       5.4987       0.0046       2.8000       1.1707       1.3028
   5399.2256       6.3634      12.1199       0.0126      47.5955      21.6228   20000.0000     939.4035       0.0279       5.5998       0.0051       2.8012       1.2295       1.2946
   5399.3784       6.3951      12.4818       0.0098      46.9952      22.3001   20000.0000    1281.9491       0.0248       5.7009       0.0053       2.8013       1.2373       1.3376
   5399.5308       6.4053      13.2965       0.0072      46.6114      23.2851   20000.0000    2694.7373       0.0248       5.9105       0.0056       2.7942       1.3133       1.3608
   5399.6831       6.3800      15.6506       0.0044      46.5867      25.8876   20000.0000    4606.6523       0.0279       6.1328       0.0071       2.7819       1.3168       1.4046
   5399.8354       6.3401      17.3078       0.0033      47.0269      27.8842   10396.6855    3518.1599       0.0312       6.1384       0.0082       2.7775       1.2754       1.4326
   5399.9878       6.3074      17.4676       0.0053      47.3950      28.6091    3320.3228    1706.1617       0.0338       5.9001       0.0085       2.7920       1.1503       1.4744
   5400.1401       6.3072      17.1541       0.0080      47.6949      28.8731    1019.2149     638.6493       0.0360       5.7414       0.0086       2.8069       0.9874       1.5446
   5400.2925       6.3263      16.4379       0.0087      47.9133      28.1917     382.5453     276.2598       0.0371       5.9089       0.0081       2.8046       0.8183       1.6473
   5400.4448       6.3379      14.9151       0.0077      48.2351      27.6611     181.4109     144.7323       0.0372       6.1204       0.0073       2.7923       0.5673       1.7915
   5400.5972       6.3267      12.5688       0.0062      48.4675      25.1282     100.8940      93.7785       0.0337       6.1320       0.0058       2.7760       0.5532       1.7121
   5400.7500       6.3120      11.1794       0.0040      48.3843      21.8823     216.6697     182.0615       0.0289       6.0533       0.0049       2.7655       0.8645       1.4582
   5400.9023       6.2951      12.1060       0.0005      47.8961      19.9945     622.8718     478.8573       0.0242       6.0104       0.0051       2.7613       1.2864       1.0748
   5401.0547       6.2802      13.0509      -0.0034      47.4180      19.1791    1278.2007     880.3594       0.0209       6.0134       0.0052       2.7586       1.4761       0.8349
   5401.2070       6.2731      12.8136      -0.0040      46.5736      18.9549    1535.8782    1032.1217       0.0193       5.9412       0.0050       2.7630       1.4537       0.8367
   5401.3594       6.2721      12.4660      -0.0018      45.8709      18.7985    1185.0001     875.9423       0.0185       5.7558       0.0048       2.7721       1.4519       0.8628
   5401.5117       6.2741      12.1011       0.0001      45.4238      18.7448     613.9094     575.9729       0.0182       5.4463       0.0046       2.7812       1.4694       0.9051
   5401.6641       6.2741      11.7948       0.0019      45.3369      18.7453     401.1503     484.2612       0.0178       5.2177       0.0044       2.7869       1.4771       0.9469
   5401.8164       6.2692      11.3662       0.0017      45.5125      18.7624     388.5083     492.0533       0.0181       5.1682       0.0042       2.7880       1.4770       1.0076
   5401.9692       6.2652      11.1300       0.0011      45.6533      18.7924     419.6008     486.0290       0.0185       5.1922       0.0040       2.7900       1.5036       1.0439
   5402.1216       6.2642      11.4168       0.0012      45.7209      19.0634     742.1104     470.3710       0.0192       5.2516       0.0039       2.7937       1.6232       1.0417
   5402.2739       6.2693      11.6285       0.0032      45.7169      19.3294    1155.9919     450.1361       0.0197       5.2680       0.0038       2.7994       1.7681       1.0491
   5402.4263       6.2732      11.8863       0.0093      45.6390      19.4176    3151.4741     414.3013       0.0199       5.1433       0.0036       2.8085       1.9578       1.0261
   5402.5786       6.2718      12.1298       0.0147      45.5903      19.3917    7228.7261     384.6179       0.0202       4.9898       0.0034       2.8156       2.1211       1.0023
   5402.7310       6.2728      12.6446       0.0178      45.6558      19.4024   16260.9385     358.0447       0.0202       4.9242       0.0035       2.8207       2.2112       0.9614
   5402.8833       6.2750      13.6089       0.0217      45.7845      19.5190   19940.7617     351.3586       0.0205       5.0324       0.0040       2.8246       2.2728       0.8781
   5403.0356       6.2781      14.2398       0.0250      46.0434      19.6305   20000.0000     394.2688       0.0210       5.1873       0.0044       2.8252       2.2813       0.7883
   5403.1880       6.2810      14.6292       0.0247      46.2672      19.6968   20000.0000     458.2257       0.0213       5.3137       0.0047       2.8241       2.2857       0.7028
   5403.3408       6.2817      15.0903       0.0223      46.5957      19.7703   20000.0000     620.3893       0.0215       5.4291       0.0051       2.8235       2.3073       0.6378
   5403.4932       6.2858      15.5105       0.0187      46.8612      19.7466   20000.0000     793.2546       0.0218       5.5745       0.0052       2.8219       2.2887       0.5771
