#------------------------------------------------------------------------------
#
#   Created by  : [OpenWorks] Log Export Utility (LEXP)
#   Created on  : 2016-05-23 11:56:46
#   Project     : CANT971
#   User        : R5K
#   Interpreter : PEP
#
#------------------------------------------------------------------------------
~VERSION INFORMATION
VERS. 2.0 : CWLS Log ASCII Standard - version 2.0
WRAP.  NO : One line per depth step
~WELL INFORMATION
#MNEMONIC   .UNIT                                           VALUE :DESCRIPTION
#------------------------------------------------------------------------------
STRT        .M                                           170.6880 :START DEPTH
STOP        .M                                          2221.8396 :STOP DEPTH
STEP        .M                                             0.1524 :STEP
NULL        .                                           -999.2500 :NULL VALUE
COMP        .                                   PEMEX EXPL & PROD :COMPANY
WELL        .                                                  51 :WELL
FLD         .                                           CANTARELL :FIELD
LOC         .                                             UNKNOWN :LOCATION
CNTY        .                                      CD. DEL CARMEN :COUNTY
STAT        .                                            CAMPECHE :STATE
CTRY        .                                              MEXICO :COUNTRY
SRVC        .                                             UNKNOWN :SERVICE COMPANY
DATE        .                                             UNKNOWN :LOG DATE
UWI         .                                          3060000165 :UNIQUE WELL ID
XCOORD      .                                       599727.990000 :SURFACE X
YCOORD      .                                      2147220.270000 :SURFACE Y
LAT         .                                           19.417949 :LATITUDE
LON         .                                          -92.050116 :LONGITUDE
ELEV        .M                                            27.8000 :SURFACE ELEV
ELEV_TYPE   .                                                  KB :ELEV TYPE
~CURVE INFORMATION
#MNEMONIC.UNIT        API CODE       : CURVE DESCRIPTION
#------------------------------------------------------------------------------
DEPTH    .M                          : Measured Depth
CAL      .inches      UNKNOWN        : CAL:CAL-Load:rC:NONE:v0 (auto-composite)
DRHO     .UNKNOWN     UNKNOWN        : DRHO:DRHO-Load:rC:NONE:v0 (auto-composite)
DT       .us/ft       UNKNOWN        : DT:DT:rC:NONE:v0 (auto-composite)
GR       .UNKNOWN     UNKNOWN        : GR:GR-Load:rC:NONE:v0 (auto-composite)
ILD      .UNKNOWN     UNKNOWN        : ILD:ILD-Load:rC:NONE:v0 (auto-composite)
NPHI     .v/v_decimal UNKNOWN        : NPHI:NPHI:rC:NONE:v0 (auto-composite)
RHOB     .UNKNOWN     UNKNOWN        : RHOB:RHOB-Load:rC:NONE:v0 (auto-composite)
SN       .UNKNOWN     UNKNOWN        : SN:SN-Load:rC:NONE:v0 (auto-composite)
~A     DEPTH          CAL         DRHO           DT           GR          ILD         NPHI         RHOB           SN
# ...
    885.7488    -999.2500    -999.2500    -999.2500      41.9350       0.6740      40.2620    -999.2500       0.5910
    885.9012    -999.2500    -999.2500    -999.2500      41.4010       0.6985      40.6065    -999.2500       0.6055
    886.0536    -999.2500    -999.2500    -999.2500      40.8680       0.7230      40.9510    -999.2500       0.6200
    886.2060    -999.2500    -999.2500    -999.2500      41.1643       0.7440      41.2740    -999.2500       0.6435
    886.3584    -999.2500    -999.2500    -999.2500      41.4600       0.7650      41.5970    -999.2500       0.6670
    886.5108    -999.2500    -999.2500    -999.2500      41.8568       0.7640      42.4220    -999.2500       0.6615
    886.6632    -999.2500    -999.2500    -999.2500      42.2530       0.7630      43.2470    -999.2500       0.6560
    886.8156    -999.2500    -999.2500    -999.2500      42.6489       0.7455      43.7305    -999.2500       0.6485
    886.9680    -999.2500    -999.2500    -999.2500      43.0440       0.7280      44.2140    -999.2500       0.6410
    887.1204    -999.2500    -999.2500    -999.2500      43.1456       0.7025      44.1685    -999.2500       0.6315
    887.2728    -999.2500    -999.2500    -999.2500      43.2470       0.6770      44.1230    -999.2500       0.6220
    887.4252    -999.2500    -999.2500    -999.2500      43.2515       0.6560      44.1070    -999.2500       0.6055
    887.5776    -999.2500    -999.2500    -999.2500      43.2560       0.6350      44.0910    -999.2500       0.5890
    887.7300    -999.2500    -999.2500    -999.2500      43.1114       0.6220      43.8245    -999.2500       0.5835
    887.8824    -999.2500    -999.2500    -999.2500      42.9670       0.6090      43.5580    -999.2500       0.5780
    888.0348    -999.2500    -999.2500    -999.2500      42.5536       0.6100      43.1430    -999.2500       0.5685
    888.1872    -999.2500    -999.2500    -999.2500      42.1410       0.6110      42.7280    -999.2500       0.5590
    888.3396    -999.2500    -999.2500    -999.2500      41.8007       0.6180      42.7560    -999.2500       0.5600
    888.4920    -999.2500    -999.2500    -999.2500      41.4610       0.6250      42.7840    -999.2500       0.5610
    888.6444    -999.2500    -999.2500    -999.2500      41.0236       0.6335      42.5610    -999.2500       0.5700
    888.7968    -999.2500    -999.2500    -999.2500      40.5870       0.6420      42.3380    -999.2500       0.5790
    888.9492    -999.2500    -999.2500    -999.2500      40.3708       0.6500      41.8429    -999.2500       0.5840
    889.1016    -999.2500    -999.2500    -999.2500      40.1550       0.6580      41.3480    -999.2500       0.5890
    889.2540    -999.2500    -999.2500    -999.2500      40.3782       0.6540      40.9994    -999.2500       0.5855
    889.4064    -999.2500    -999.2500    -999.2500      40.6010       0.6500      40.6510    -999.2500       0.5820
    889.5588    -999.2500    -999.2500    -999.2500      41.3417       0.6405      40.9601    -999.2500       0.5720
    889.7112    -999.2500    -999.2500    -999.2500      42.0810       0.6310      41.2690    -999.2500       0.5620
    889.8636    -999.2500    -999.2500    -999.2500      42.7962       0.6175      41.8576    -999.2500       0.5505
    890.0160    -999.2500    -999.2500    -999.2500      43.5100       0.6040      42.4460    -999.2500       0.5390
    890.1684    -999.2500    -999.2500    -999.2500      43.2923       0.5910      42.9000    -999.2500       0.5250
    890.3208    -999.2500    -999.2500    -999.2500      43.0750       0.5780      43.3540    -999.2500       0.5110
    890.4732    -999.2500    -999.2500    -999.2500      42.7102       0.5800      43.2865    -999.2500       0.5110
    890.6256    -999.2500    -999.2500    -999.2500      42.3460       0.5820      43.2190    -999.2500       0.5110
    890.7780    -999.2500    -999.2500    -999.2500      41.7374       0.5900      42.9305    -999.2500       0.5200
    890.9304    -999.2500    -999.2500    -999.2500      41.1300       0.5980      42.6420    -999.2500       0.5290
    891.0828    -999.2500    -999.2500    -999.2500      40.8637       0.6140      42.1675    -999.2500       0.5480
    891.2352    -999.2500    -999.2500    -999.2500      40.5980       0.6300      41.6930    -999.2500       0.5670
    891.3876    -999.2500    -999.2500    -999.2500      40.6005       0.6440      41.7805    -999.2500       0.5845
    891.5400    -999.2500    -999.2500    -999.2500      40.6030       0.6580      41.8680    -999.2500       0.6020
    891.6924    -999.2500    -999.2500    -999.2500      40.6070       0.6660      42.0735    -999.2500       0.5990
    891.8448    -999.2500    -999.2500    -999.2500      40.6110       0.6740      42.2790    -999.2500       0.5960
    891.9972    -999.2500    -999.2500    -999.2500      40.9088       0.6650      42.6450    -999.2500       0.5785
    892.1496    -999.2500    -999.2500    -999.2500      41.2060       0.6560      43.0110    -999.2500       0.5610
    892.3020    -999.2500    -999.2500    -999.2500      41.6018       0.6290      43.3780    -999.2500       0.5420
    892.4544    -999.2500    -999.2500    -999.2500      41.9970       0.6020      43.7450    -999.2500       0.5230
    892.6068    -999.2500    -999.2500    -999.2500      42.1727       0.5820      44.1270    -999.2500       0.5115
    892.7592    -999.2500    -999.2500    -999.2500      42.3480       0.5620      44.5090    -999.2500       0.5000
    892.9116    -999.2500    -999.2500    -999.2500      42.7700       0.5525      44.3010    -999.2500       0.4935
    893.0640    -999.2500    -999.2500    -999.2500      43.1910       0.5430      44.0930    -999.2500       0.4870
    893.2164    -999.2500    -999.2500    -999.2500      43.1194       0.5390      44.1210    -999.2500       0.4830
    893.3688    -999.2500    -999.2500    -999.2500      43.0480       0.5350      44.1490    -999.2500       0.4790
    893.5212    -999.2500    -999.2500    -999.2500      42.6366       0.5330      44.0375    -999.2500       0.4775
    893.6736    -999.2500    -999.2500    -999.2500      42.2260       0.5310      43.9260    -999.2500       0.4760
    893.8260    -999.2500    -999.2500    -999.2500      42.2280       0.5315      43.8875    -999.2500       0.4705
    893.9784    -999.2500    -999.2500    -999.2500      42.2300       0.5320      43.8490    -999.2500       0.4650
    894.1308    -999.2500    -999.2500    -999.2500      42.3811       0.5335      43.7140    -999.2500       0.4695
    894.2832    -999.2500    -999.2500    -999.2500      42.5320       0.5350      43.5790    -999.2500       0.4740
    894.4356    -999.2500    -999.2500    -999.2500      42.8058       0.5355      43.2385    -999.2500       0.4715
    894.5880    -999.2500    -999.2500    -999.2500      43.0790       0.5360      42.8980    -999.2500       0.4690
    894.7404    -999.2500    -999.2500    -999.2500      43.5005       0.5380      43.0960    -999.2500       0.4645
    894.8928    -999.2500    -999.2500    -999.2500      43.9210       0.5400      43.2940    -999.2500       0.4600
    895.0452    -999.2500    -999.2500    -999.2500      43.8755       0.5430      43.6461    -999.2500       0.4630
    895.1976    -999.2500    -999.2500    -999.2500      43.8300       0.5460      43.9980    -999.2500       0.4660
    895.3500    -999.2500    -999.2500    -999.2500      43.9316       0.5495      44.5641    -999.2500       0.4730
    895.5024    -999.2500    -999.2500    -999.2500      44.0330       0.5530      45.1300    -999.2500       0.4800
    895.6548    -999.2500    -999.2500    -999.2500      43.9624       0.5570      45.0840    -999.2500       0.4830
    895.8072    -999.2500    -999.2500    -999.2500      43.8920       0.5610      45.0380    -999.2500       0.4860
    895.9596    -999.2500    -999.2500    -999.2500      43.7239       0.5630      44.9780    -999.2500       0.4875
    896.1120    -999.2500    -999.2500    -999.2500      43.5560       0.5650      44.9180    -999.2500       0.4890
