#------------------------------------------------------------------------------
#
#   Created by  : [OpenWorks] Log Export Utility (LEXP)
#   Created on  : 2016-05-23 11:56:31
#   Project     : CANT971
#   User        : R5K
#   Interpreter : PEP
#
#------------------------------------------------------------------------------
~VERSION INFORMATION
VERS. 2.0 : CWLS Log ASCII Standard - version 2.0
WRAP.  NO : One line per depth step
~WELL INFORMATION
#MNEMONIC   .UNIT                                           VALUE :DESCRIPTION
#------------------------------------------------------------------------------
STRT        .M                                          1639.8856 :START DEPTH
STOP        .M                                          2789.8960 :STOP DEPTH
STEP        .M                                             0.1524 :STEP
NULL        .                                           -999.2500 :NULL VALUE
COMP        .                                             UNKNOWN :COMPANY
WELL        .                                                 477 :WELL
FLD         .                                             UNKNOWN :FIELD
LOC         .                                             UNKNOWN :LOCATION
CNTY        .                                             UNKNOWN :COUNTY
STAT        .                                             UNKNOWN :STATE
CTRY        .                                             UNKNOWN :COUNTRY
SRVC        .                                             UNKNOWN :SERVICE COMPANY
DATE        .                                             UNKNOWN :LOG DATE
UWI         .                                                 477 :UNIQUE WELL ID
XCOORD      .                                       598704.070000 :SURFACE X
YCOORD      .                                      2143268.860000 :SURFACE Y
LAT         .                                           19.382293 :LATITUDE
LON         .                                          -92.060073 :LONGITUDE
ELEV        .M                                             0.0000 :SURFACE ELEV
ELEV_TYPE   .                                                  KB :ELEV TYPE
~CURVE INFORMATION
#MNEMONIC.UNIT        API CODE       : CURVE DESCRIPTION
#------------------------------------------------------------------------------
DEPTH    .M                          : Measured Depth
CALI     .inches      UNKNOWN        : CALI:litodensidad:rC:NONE:v0 (auto-composite)
CGR      .API         UNKNOWN        : CGR:Espectrometria:rC:NONE:v0 (auto-composite)
DRHO     .g/cm3       UNKNOWN        : DRHO:litodensidad:rC:NONE:v0 (auto-composite)
DT       .us/ft       UNKNOWN        : DT:Sonico:rC:NONE:v0 (auto-composite)
GR       .API         UNKNOWN        : GR:Espectrometria:rC:NONE:v0 (auto-composite)
GR-LWD   .API         UNKNOWN        : GR-LWD:resistivos-LWD:rC:NONE:v0 (auto-composite)
LLD      .ohm.m       UNKNOWN        : LLD:resistivos:rC:NONE:v0 (auto-composite)
LLD-LWD  .ohm.m       UNKNOWN        : LLD-LWD:resistivos-LWD:rC:NONE:v0 (auto-composite)
LLS      .ohm.m       UNKNOWN        : LLS:resistivos:rC:NONE:v0 (auto-composite)
LLS-LWD  .ohm.m       UNKNOWN        : LLS-LWD:resistivos-LWD:rC:NONE:v0 (auto-composite)
MSFL     .ohm.m       UNKNOWN        : MSFL:resistivos:rC:NONE:v0 (auto-composite)
MSFL-LWD .ohm.m       UNKNOWN        : MSFL-LWD:resistivos-LWD:rC:NONE:v0 (auto-composite)
NPHI     .UNKNOWN     UNKNOWN        : NPHI:porosidad:rC:NONE:v0 (auto-composite)
PEF      .UNKNOWN     UNKNOWN        : PEF:litodensidad:rC:NONE:v0 (auto-composite)
POTA     .wtpercent   UNKNOWN        : POTA:PETROWORKS:rC:NONE:v1 
RHOB     .g/cm3       UNKNOWN        : RHOB:litodensidad:rC:NONE:v0 (auto-composite)
THOR     .ppm         UNKNOWN        : THOR:Espectrometria:rC:NONE:v0 (auto-composite)
URAN     .ppm         UNKNOWN        : URAN:Espectrometria:rC:NONE:v0 (auto-composite)
~A     DEPTH         CALI          CGR         DRHO           DT           GR       GR-LWD          LLD      LLD-LWD          LLS      LLS-LWD         MSFL     MSFL-LWD         NPHI          PEF         POTA         RHOB         THOR         URAN
# ...
   2429.4700       8.6386       7.6278      -0.0013    -999.2500      36.5872    -999.2500    5989.5049    -999.2500     270.4909    -999.2500       8.5562    -999.2500       0.0390       3.4226       0.0048       2.6526       0.2557       3.2242
   2429.6223       8.6479       6.3448      -0.0060    -999.2500      39.7915    -999.2500    6378.1650    -999.2500     262.0809    -999.2500       6.0487    -999.2500       0.0343       3.4340       0.0038       2.6974       0.2778       3.7238
   2429.7749       8.6413       5.7227      -0.0048    -999.2500      44.9917    -999.2500    7464.6431    -999.2500     270.8490    -999.2500       5.5075    -999.2500       0.0316       3.4420       0.0037       2.7458       0.1369       4.3720
   2429.9272       8.7081       7.1287       0.0009    -999.2500      52.1412    -999.2500    8456.3896    -999.2500     278.6846    -999.2500      13.8577    -999.2500       0.0306       3.4561       0.0042       2.7833       0.3587       5.0114
   2430.0796       8.6933       8.9524       0.0071    -999.2500      59.1829    -999.2500    9205.4854    -999.2500     283.4957    -999.2500      38.7198    -999.2500       0.0309       3.4754       0.0049       2.7973       0.6068       5.5923
   2430.2319       8.7047       9.5206       0.0038    -999.2500      62.8394    -999.2500   10115.8574    -999.2500     266.4364    -999.2500      68.5677    -999.2500       0.0316       3.4769       0.0053       2.7795       0.5851       5.9362
   2430.3845       8.7254       8.8382      -0.0042    -999.2500      61.1780    -999.2500   11002.2793    -999.2500     230.7593    -999.2500     106.0162    -999.2500       0.0309       3.4356       0.0051       2.7528       0.4700       5.8272
   2430.5369       8.7066       7.5672      -0.0092    -999.2500      54.9999    -999.2500   11857.1963    -999.2500     199.9907    -999.2500     183.3486    -999.2500       0.0297       3.3716       0.0049       2.7292       0.2097       5.2809
   2430.6892       8.6735       6.4990      -0.0141    -999.2500      48.1097    -999.2500   12085.8662    -999.2500     177.3413    -999.2500     186.0132    -999.2500       0.0291       3.3108       0.0044       2.6962       0.1084       4.6327
   2430.8416       8.6603       5.6444      -0.0255    -999.2500      42.4065    -999.2500   12194.0889    -999.2500     173.0767    -999.2500      69.4236    -999.2500       0.0299       3.2607       0.0038       2.6387       0.1061       4.0929
   2430.9941       8.5695       4.4004      -0.0365    -999.2500      37.0981    -999.2500   12332.2559    -999.2500     172.7610    -999.2500      29.7122    -999.2500       0.0323       3.2390       0.0029       2.5733       0.1158       3.6404
   2431.1465       8.5737       3.1421      -0.0328    -999.2500      34.6156    -999.2500   11221.2305    -999.2500     152.7182    -999.2500      21.1903    -999.2500       0.0352       3.2708       0.0020       2.5511       0.1105       3.5040
   2431.2988       8.6218       2.7072      -0.0234    -999.2500      34.6055    -999.2500    9001.6494    -999.2500     123.3258    -999.2500      17.2754    -999.2500       0.0369       3.3311       0.0017       2.5668       0.0970       3.5514
   2431.4512       8.6012       3.3831      -0.0180    -999.2500      36.1847    -999.2500    7097.8711    -999.2500      96.5909    -999.2500      14.9248    -999.2500       0.0374       3.3796       0.0022       2.6050       0.0752       3.6519
   2431.6035       8.6072       3.0970      -0.0182    -999.2500      33.5162    -999.2500    5935.7466    -999.2500      79.2860    -999.2500      20.0611    -999.2500       0.0374       3.3955       0.0020       2.6342       0.0862       3.3867
   2431.7561       8.6217       3.2629      -0.0119    -999.2500      30.8975    -999.2500    5430.8735    -999.2500      73.2839    -999.2500      30.1761    -999.2500       0.0350       3.3860       0.0019       2.6682       0.1621       3.0766
   2431.9084       8.6183       2.8679      -0.0004    -999.2500      28.1965    -999.2500    5420.6348    -999.2500      73.0628    -999.2500      39.8088    -999.2500       0.0301       3.3754       0.0016       2.7090       0.1956       2.8199
   2432.0608       8.6190       2.8016       0.0147    -999.2500      25.9277    -999.2500    5744.7358    -999.2500      79.0970    -999.2500      48.2477    -999.2500       0.0251       3.3894       0.0018       2.7599       0.0618       2.5747
   2432.2131       8.5643       3.0832       0.0244    -999.2500      24.6489    -999.2500    6282.4141    -999.2500      87.7229    -999.2500      90.8582    -999.2500       0.0228       3.4213       0.0021       2.7903       0.0266       2.4010
   2432.3657       8.5761       3.3013       0.0208    -999.2500      24.4952    -999.2500    6574.8516    -999.2500      88.1931    -999.2500      93.7134    -999.2500       0.0238       3.4493       0.0023       2.7831       0.0270       2.3596
   2432.5181       8.6081       2.9005       0.0096    -999.2500      25.0310    -999.2500    6636.5708    -999.2500      85.4975    -999.2500      63.0005    -999.2500       0.0254       3.4649       0.0020       2.7596       0.0287       2.4639
   2432.6704       8.6422       5.0702       0.0032    -999.2500      26.6633    -999.2500    6312.0083    -999.2500      75.1069    -999.2500      45.7617    -999.2500       0.0257       3.4705       0.0035       2.7455       0.0399       2.4040
   2432.8228       8.6387       7.5867       0.0068    -999.2500      28.6533    -999.2500    6345.3901    -999.2500      73.9885    -999.2500      52.3772    -999.2500       0.0251       3.4669       0.0053       2.7470       0.0433       2.3455
   2432.9753       8.6261       8.9734       0.0132    -999.2500      30.0736    -999.2500    7091.2554    -999.2500      84.3375    -999.2500      66.8824    -999.2500       0.0242       3.4525       0.0063       2.7628       0.0337       2.3492
   2433.1277       8.6146       9.8226       0.0139    -999.2500      31.0374    -999.2500    8449.3545    -999.2500      98.9152    -999.2500     102.3508    -999.2500       0.0233       3.4388       0.0069       2.7769       0.0321       2.3619
   2433.2800       8.6146       9.6749       0.0098    -999.2500      33.2897    -999.2500   10303.3008    -999.2500     112.7782    -999.2500     111.8646    -999.2500       0.0228       3.4316       0.0068       2.7761       0.0458       2.6291
   2433.4324       8.6108       7.1671       0.0078    -999.2500      34.2501    -999.2500   11474.4580    -999.2500     117.9277    -999.2500     105.6507    -999.2500       0.0225       3.4293       0.0050       2.7658       0.0501       3.0152
   2433.5847       8.6112       5.5554       0.0089    -999.2500      33.9037    -999.2500   11351.3086    -999.2500     113.2635    -999.2500      75.9599    -999.2500       0.0212       3.4231       0.0038       2.7657       0.0494       3.1561
   2433.7373       8.6454       6.2129       0.0076    -999.2500      33.5032    -999.2500   11033.2178    -999.2500     110.3753    -999.2500      71.5030    -999.2500       0.0195       3.4074       0.0043       2.7769       0.0479       3.0383
   2433.8896       8.7095       7.2714       0.0029    -999.2500      34.0310    -999.2500   10462.7705    -999.2500     111.4457    -999.2500     102.9725    -999.2500       0.0193       3.3779       0.0051       2.7865       0.0493       2.9793
   2434.0420       8.7060       6.4710       0.0009    -999.2500      33.3297    -999.2500    8162.5127    -999.2500     103.4970    -999.2500     128.5204    -999.2500       0.0212       3.3586       0.0045       2.7803       0.0693       2.9903
   2434.1943       8.6754       4.9051       0.0029    -999.2500      32.6178    -999.2500    6465.6724    -999.2500      87.1291    -999.2500     130.8268    -999.2500       0.0238       3.3534       0.0033       2.7612       0.0858       3.0854
   2434.3469       8.6722       5.3086       0.0035    -999.2500      32.2985    -999.2500    5465.0132    -999.2500      74.4906    -999.2500     102.3024    -999.2500       0.0262       3.3531       0.0030       2.7323       0.3187       3.0049
