#------------------------------------------------------------------------------
#
#   Created by  : [OpenWorks] Log Export Utility (LEXP)
#   Created on  : 2016-05-11 12:45:47
#   Project     : CANT971
#   User        : R5K
#   Interpreter : PEP
#
#------------------------------------------------------------------------------
~VERSION INFORMATION
VERS. 2.0 : CWLS Log ASCII Standard - version 2.0
WRAP.  NO : One line per depth step
~WELL INFORMATION
#MNEMONIC   .UNIT                                           VALUE :DESCRIPTION
#------------------------------------------------------------------------------
STRT        .M                                           801.4664 :START DEPTH
STOP        .M                                          3402.1724 :STOP DEPTH
STEP        .M                                             0.1524 :STEP
NULL        .                                           -999.2500 :NULL VALUE
COMP        .                                   PEMEX EXPL & PROD :COMPANY
WELL        .                                        CANTARELL-85 :WELL
FLD         .                                           CANTARELL :FIELD
LOC         .                                             UNKNOWN :LOCATION
CNTY        .                                      CD. DEL CARMEN :COUNTY
STAT        .                                            CAMPECHE :STATE
CTRY        .                                              MEXICO :COUNTRY
SRVC        .                                             UNKNOWN :SERVICE COMPANY
DATE        .                                             UNKNOWN :LOG DATE
UWI         .                                          3060000185 :UNIQUE WELL ID
XCOORD      .                                       604541.690000 :SURFACE X
YCOORD      .                                      2141649.620000 :SURFACE Y
LAT         .                                           19.367365 :LATITUDE
LON         .                                          -92.004578 :LONGITUDE
ELEV        .M                                            30.0000 :SURFACE ELEV
ELEV_TYPE   .                                                  KB :ELEV TYPE
~CURVE INFORMATION
#MNEMONIC.UNIT        API CODE       : CURVE DESCRIPTION
#------------------------------------------------------------------------------
DEPTH    .M                          : Measured Depth
CALI     .inches      UNKNOWN        : CALI:Import:rC:NONE:v0 (auto-composite)
DRHO     .g/cm3       UNKNOWN        : DRHO:Import:rC:NONE:v0 (auto-composite)
DT       .us/ft       UNKNOWN        : DT:Import:rC:NONE:v0 (auto-composite)
GR       .API         UNKNOWN        : GR:Import:rC:NONE:v0 (auto-composite)
ILD      .ohm.m       UNKNOWN        : ILD:Import:rC:NONE:v0 (auto-composite)
ILM      .ohm.m       UNKNOWN        : ILM:Import:rC:NONE:v0 (auto-composite)
NPHI     .v/v_decimal UNKNOWN        : NPHI:Import:rC:NONE:v0 (auto-composite)
RHOB     .g/cm3       UNKNOWN        : RHOB:Import:rC:NONE:v0 (auto-composite)
SN       .ohm.m       UNKNOWN        : SN:Import:rC:NONE:v0 (auto-composite)
SP       .mV          UNKNOWN        : SP:Import:rC:NONE:v0 (auto-composite)
~A     DEPTH         CALI         DRHO           DT           GR          ILD          ILM         NPHI         RHOB           SN           SP
# ...
   2935.0664       8.9409       0.0359      66.6089      36.5346       3.5114    -999.2500      13.7640       2.6007    -999.2500    -999.2500
   2935.2188       8.9284       0.0399      66.8283      36.3368       3.4994    -999.2500      14.1263       2.6107    -999.2500    -999.2500
   2935.3711       8.8060       0.0521      69.0585      36.3658       3.4491    -999.2500      15.1813       2.6071    -999.2500    -999.2500
   2935.5237       8.6800       0.0646      71.3531      36.4029       3.3975    -999.2500      16.2570       2.6031    -999.2500    -999.2500
   2935.6760       8.6881       0.0640      70.9423      36.6321       3.3402    -999.2500      18.7220       2.5812    -999.2500    -999.2500
   2935.8284       8.7006       0.0630      70.4370      36.8670       3.2827    -999.2500      21.2258       2.5587    -999.2500    -999.2500
   2935.9807       8.6889       0.0596      70.4350      38.2864       3.2412    -999.2500      21.2994       2.5590    -999.2500    -999.2500
   2936.1331       8.6764       0.0561      70.4505      39.7423       3.2003    -999.2500      21.2884       2.5600    -999.2500    -999.2500
   2936.2856       8.6184       0.0541      70.7471      39.7154       3.1361    -999.2500      20.8384       2.5644    -999.2500    -999.2500
   2936.4380       8.5589       0.0521      71.0527      39.6415       3.0712    -999.2500      20.3747       2.5689    -999.2500    -999.2500
   2936.5903       8.4567       0.0559      71.8289      39.1645       3.0690    -999.2500      18.9325       2.5860    -999.2500    -999.2500
   2936.7427       8.3532       0.0599      72.6196      38.6737       3.0690    -999.2500      17.4600       2.6035    -999.2500    -999.2500
   2936.8953       8.2037       0.0731      72.2551      37.4346       3.0898    -999.2500      16.8579       2.6025    -999.2500    -999.2500
   2937.0476       8.0527       0.0866      71.8507      36.1691       3.1114    -999.2500      16.2893       2.6010    -999.2500    -999.2500
   2937.2000       8.0480       0.0851      72.8664      36.3665       3.0999    -999.2500      16.3678       2.5957    -999.2500    -999.2500
   2937.3523       8.0480       0.0831      73.9262      36.6069       3.0874    -999.2500      16.4685       2.5902    -999.2500    -999.2500
   2937.5049       8.0480       0.0617      73.9509      37.4516       3.0477    -999.2500      18.0581       2.5740    -999.2500    -999.2500
   2937.6572       8.0480       0.0397      73.9384      38.3145       3.0073    -999.2500      19.6944       2.5575    -999.2500    -999.2500
   2937.8096       8.0572       0.0429      73.2641      39.1694       2.9833    -999.2500      19.6096       2.5730    -999.2500    -999.2500
   2937.9619       8.0667       0.0469      72.5702      40.0240       2.9598    -999.2500      19.4650       2.5895    -999.2500    -999.2500
   2938.1143       8.1183       0.0436      72.6312      41.3563       2.8850    -999.2500      19.6632       2.5876    -999.2500    -999.2500
   2938.2668       8.1713       0.0401      72.7190      42.7047       2.8086    -999.2500      19.8728       2.5851    -999.2500    -999.2500
   2938.4192       8.1609       0.0284      73.0811      42.6361       2.6950    -999.2500      19.7730       2.5738    -999.2500    -999.2500
   2938.5715       8.1484       0.0164      73.4510      42.5183       2.5802    -999.2500      19.6629       2.5623    -999.2500    -999.2500
   2938.7239       8.1480       0.0296      74.1459      41.9165       2.5886    -999.2500      19.2676       2.5814    -999.2500    -999.2500
   2938.8765       8.1480       0.0436      74.8499      41.3008       2.6006    -999.2500      18.8638       2.6014    -999.2500    -999.2500
   2939.0288       8.0870       0.0406      74.4224      40.1404       2.6601    -999.2500      18.6007       2.6005    -999.2500    -999.2500
   2939.1812       8.0240       0.0371      73.9566      38.9629       2.7211    -999.2500      18.3436       2.5990    -999.2500    -999.2500
   2939.3335       8.0583       0.0370      71.8219      37.6233       2.7980    -999.2500      17.8890       2.6014    -999.2500    -999.2500
   2939.4861       8.0958       0.0370      69.6342      36.2783       2.8755    -999.2500      17.4288       2.6039    -999.2500    -999.2500
   2939.6384       8.2559       0.0380      71.0901      35.2299       2.8940    -999.2500      14.9865       2.6215    -999.2500    -999.2500
   2939.7908       8.4199       0.0390      72.6698      34.1914       2.9105    -999.2500      12.4842       2.6395    -999.2500    -999.2500
   2939.9431       8.4129       0.0361      72.6065      34.4685       2.9653    -999.2500      12.5451       2.6342    -999.2500    -999.2500
   2940.0955       8.4004       0.0331      72.4862      34.7906       3.0214    -999.2500      12.6948       2.6282    -999.2500    -999.2500
   2940.2480       8.4242       0.0364      72.1026      35.9014       3.0400    -999.2500      13.4908       2.5853    -999.2500    -999.2500
   2940.4004       8.4492       0.0399      71.7112      37.0360       3.0575    -999.2500      14.3065       2.5413    -999.2500    -999.2500
   2940.5527       8.5415       0.0381      70.7988      37.6803       3.0633    -999.2500      15.4308       2.5410    -999.2500    -999.2500
   2940.7051       8.6360       0.0361      69.8702      38.3096       3.0688    -999.2500      16.5628       2.5420    -999.2500    -999.2500
   2940.8577       8.7029       0.0249      70.2371      38.7480       3.0966    -999.2500      16.8285       2.5468    -999.2500    -999.2500
   2941.0100       8.7689       0.0134      70.6490      39.1803       3.1251    -999.2500      17.0621       2.5518    -999.2500    -999.2500
   2941.1624       8.8281       0.0164      72.0028      39.9585       3.1207    -999.2500      16.9101       2.5695    -999.2500    -999.2500
   2941.3147       8.8871       0.0199      73.3821      40.7480       3.1152    -999.2500      16.7457       2.5875    -999.2500    -999.2500
   2941.4673       8.9868       0.0307      73.8349      40.4057       3.0976    -999.2500      16.7652       2.5870    -999.2500    -999.2500
   2941.6196       9.0878       0.0417      74.2528      40.0234       3.0796    -999.2500      16.7911       2.5860    -999.2500    -999.2500
   2941.7720       9.1094       0.0449      74.1198      37.8953       3.0606    -999.2500      16.8792       2.5870    -999.2500    -999.2500
   2941.9243       9.1284       0.0479      73.9683      35.7037       3.0416    -999.2500      16.9689       2.5880    -999.2500    -999.2500
   2942.0767       9.1653       0.0340      73.9630      37.0761       3.0410    -999.2500      17.1355       2.5832    -999.2500    -999.2500
   2942.2292       9.2028       0.0195      73.9630      38.5570       3.0410    -999.2500      17.3042       2.5782    -999.2500    -999.2500
   2942.3816       9.2011       0.0190      72.5296      38.2451       3.0342    -999.2500      17.2857       2.5576    -999.2500    -999.2500
   2942.5339       9.1981       0.0190      71.0537      37.8771       3.0272    -999.2500      17.2609       2.5366    -999.2500    -999.2500
   2942.6863       9.1796       0.0205      71.0291      36.7774       2.9956    -999.2500      17.0558       2.5379    -999.2500    -999.2500
   2942.8389       9.1606       0.0220      71.0570      35.6529       2.9631    -999.2500      16.8452       2.5399    -999.2500    -999.2500
   2942.9912       9.1266       0.0293      71.6925      35.2439       2.9213    -999.2500      16.4095       2.5725    -999.2500    -999.2500
   2943.1436       9.0921       0.0368      72.3471      34.8598       2.8792    -999.2500      15.9678       2.6060    -999.2500    -999.2500
   2943.2959       9.0484       0.0472      72.2588      35.4726       2.8780    -999.2500      15.5355       2.6046    -999.2500    -999.2500
   2943.4485       9.0044       0.0577      72.1449      36.1144       2.8780    -999.2500      15.1048       2.6021    -999.2500    -999.2500
