#------------------------------------------------------------------------------
#
#   Created by  : [OpenWorks] Log Export Utility (LEXP)
#   Created on  : 2016-05-23 11:56:12
#   Project     : CANT971
#   User        : R5K
#   Interpreter : PEP
#
#------------------------------------------------------------------------------
~VERSION INFORMATION
VERS. 2.0 : CWLS Log ASCII Standard - version 2.0
WRAP.  NO : One line per depth step
~WELL INFORMATION
#MNEMONIC   .UNIT                                           VALUE :DESCRIPTION
#------------------------------------------------------------------------------
STRT        .M                                           365.7604 :START DEPTH
STOP        .M                                          2883.8655 :STOP DEPTH
STEP        .M                                             0.1524 :STEP
NULL        .                                           -999.2500 :NULL VALUE
COMP        .                                   PEMEX EXPL & PROD :COMPANY
WELL        .                                                  44 :WELL
FLD         .                                           CANTARELL :FIELD
LOC         .                                             UNKNOWN :LOCATION
CNTY        .                                      CD. DEL CARMEN :COUNTY
STAT        .                                            CAMPECHE :STATE
CTRY        .                                              MEXICO :COUNTRY
SRVC        .                                             UNKNOWN :SERVICE COMPANY
DATE        .                                             UNKNOWN :LOG DATE
UWI         .                                          3060000162 :UNIQUE WELL ID
XCOORD      .                                       599695.380000 :SURFACE X
YCOORD      .                                      2143038.730000 :SURFACE Y
LAT         .                                           19.380164 :LATITUDE
LON         .                                          -92.050646 :LONGITUDE
ELEV        .M                                            26.7400 :SURFACE ELEV
ELEV_TYPE   .                                                  KB :ELEV TYPE
~CURVE INFORMATION
#MNEMONIC.UNIT        API CODE       : CURVE DESCRIPTION
#------------------------------------------------------------------------------
DEPTH    .M                          : Measured Depth
CALI     .inches      UNKNOWN        : CALI:registros:rC:NONE:v0 (auto-composite)
CGR      .API         UNKNOWN        : CGR:registros:rC:NONE:v0 (auto-composite)
DRHO     .g/cm3       UNKNOWN        : DRHO:registros:rC:NONE:v0 (auto-composite)
DT       .UNKNOWN     UNKNOWN        : DT:registros:rC:NONE:v0 (auto-composite)
GR       .API         UNKNOWN        : GR:registros:rC:NONE:v0 (auto-composite)
ILD      .ohm.m       UNKNOWN        : ILD:registros:rC:NONE:v0 (auto-composite)
LLD      .ohm.m       UNKNOWN        : LLD:registros:rC:NONE:v0 (auto-composite)
LLS      .ohm.m       UNKNOWN        : LLS:registros:rC:NONE:v0 (auto-composite)
MSFL     .ohm.m       UNKNOWN        : MSFL:registros:rC:NONE:v0 (auto-composite)
NPHI     .UNKNOWN     UNKNOWN        : NPHI:registros:rC:NONE:v0 (auto-composite)
PEF      .b/elec      UNKNOWN        : PEF:registros:rC:NONE:v0 (auto-composite)
POTA     .wtpercent   UNKNOWN        : POTA:registros:rC:NONE:v0 (auto-composite)
RHOB     .g/cm3       UNKNOWN        : RHOB:registros:rC:NONE:v0 (auto-composite)
THOR     .ppm         UNKNOWN        : THOR:registros:rC:NONE:v0 (auto-composite)
URAN     .ppm         UNKNOWN        : URAN:registros:rC:NONE:v0 (auto-composite)
~A     DEPTH         CALI          CGR         DRHO           DT           GR          ILD          LLD          LLS         MSFL         NPHI          PEF         POTA         RHOB         THOR         URAN
# ...
   2446.0203       5.0040      34.5000       0.1090      97.7690      25.0630    -999.2500     306.0740     233.3200     178.9560       0.0233       3.2320    -999.2500       2.7990    -999.2500    -999.2500
   2446.1729       4.9532      34.5000       0.1160     104.3264      25.8246    -999.2500     577.2991     497.3083     431.2485       0.0238       3.2380    -999.2500       2.7869    -999.2500    -999.2500
   2446.3252       4.9030      34.5000       0.1230     110.8570      26.5830    -999.2500     847.4180     760.2200     682.5120       0.0245       3.2440    -999.2500       2.7750    -999.2500    -999.2500
   2446.4775       4.8577      34.5000       0.1326     112.8091      25.4129    -999.2500     700.1116     619.5065     554.5142       0.0240       3.2083    -999.2500       2.7649    -999.2500    -999.2500
   2446.6299       4.8130      34.5000       0.1420     114.7440      24.2530    -999.2500     554.0950     480.0250     427.6370       0.0236       3.1730    -999.2500       2.7550    -999.2500    -999.2500
   2446.7825       4.7949      34.5000       0.1611     114.9904      22.2558    -999.2500     435.6513     359.5373     284.8099       0.0244       3.1217    -999.2500       2.7661    -999.2500    -999.2500
   2446.9348       4.7770      34.5000       0.1800     115.2340      20.2820    -999.2500     318.6010     240.4670     143.6630       0.0252       3.0710    -999.2500       2.7770    -999.2500    -999.2500
   2447.0872       4.7770      34.5000       0.1911     115.1752      19.9114    -999.2500     339.7055     295.8814     153.4791       0.0242       3.0841    -999.2500       2.7871    -999.2500    -999.2500
   2447.2395       4.7770      34.5000       0.2020     115.1170      19.5440    -999.2500     360.6310     350.8260     163.2120       0.0231       3.0970    -999.2500       2.7970    -999.2500    -999.2500
   2447.3921       4.7770      34.5000       0.2055     115.1757      20.8825    -999.2500     391.5932     374.5482     169.5555       0.0217       3.1010    -999.2500       2.8005    -999.2500    -999.2500
   2447.5444       4.7770      34.5000       0.2090     115.2340      22.2120    -999.2500     422.3460     398.1100     175.8560       0.0204       3.1050    -999.2500       2.8040    -999.2500    -999.2500
   2447.6968       4.7770      34.5000       0.2115     115.2255      23.6119    -999.2500     425.9547     340.3643     159.7873       0.0237       3.0768    -999.2500       2.8075    -999.2500    -999.2500
   2447.8491       4.7770      34.5000       0.2140     115.2170      25.0070    -999.2500     429.5510     282.8180     143.7740       0.0269       3.0490    -999.2500       2.8110    -999.2500    -999.2500
   2448.0015       4.7770      34.5000       0.2170     115.1668      23.1675    -999.2500     418.6609     420.7959     164.0152       0.0238       3.0490    -999.2500       2.8150    -999.2500    -999.2500
   2448.1541       4.7770      34.5000       0.2200     115.1170      21.3400    -999.2500     407.8420     557.8720     184.1240       0.0206       3.0490    -999.2500       2.8190    -999.2500    -999.2500
   2448.3064       4.7770      34.5000       0.2275     115.1291      21.7262    -999.2500     433.1466     872.7809     222.4014       0.0197       3.0495    -999.2500       2.8260    -999.2500    -999.2500
   2448.4587       4.7770      34.5000       0.2350     115.1410      22.1080    -999.2500     458.1690    1184.1780     260.2520       0.0190       3.0500    -999.2500       2.8330    -999.2500    -999.2500
   2448.6111       4.7770      34.5000       0.2330     115.1320      22.9439    -999.2500     399.3950     884.6251     211.2451       0.0196       3.0882    -999.2500       2.8315    -999.2500    -999.2500
   2448.7637       4.7770      34.5000       0.2310     115.1230      23.7720    -999.2500     341.1760     587.9010     162.7010       0.0202       3.1260    -999.2500       2.8300    -999.2500    -999.2500
   2448.9160       4.7770      34.5000       0.2149      77.4459      23.9897    -999.2500     322.4521     419.2185     148.4583       0.0186       3.0707    -999.2500       2.8134    -999.2500    -999.2500
   2449.0684       4.7770      34.5000       0.1990      40.0000      24.2060    -999.2500     303.8430     251.5710     134.3030       0.0171       3.0160    -999.2500       2.7970    -999.2500    -999.2500
   2449.2207       4.7770      17.1564       0.1834      40.0000      22.8175    -999.2500     299.3431     255.9953     143.4965       0.0195       3.0175    -999.2500       2.7799    -999.2500    -999.2500
   2449.3733       4.7770       0.0000       0.1680      40.0000      21.4330    -999.2500     294.8560     260.4070     152.6640       0.0220       3.0190    -999.2500       2.7630    -999.2500    -999.2500
   2449.5256       4.7770       0.0000       0.1821      40.0000      19.6553    -999.2500     290.7461     255.1086     156.4713       0.0231       3.0275    -999.2500       2.7771    -999.2500    -999.2500
   2449.6780       4.7770       0.0000       0.1960      40.0000      17.8910    -999.2500     286.6670     249.8500     160.2500       0.0241       3.0360    -999.2500       2.7910    -999.2500    -999.2500
   2449.8303       4.7770       0.0000       0.2086      40.0000      17.1123    -999.2500     291.0702     239.0451     157.2363       0.0226       3.0385    -999.2500       2.8056    -999.2500    -999.2500
   2449.9827       4.7770       0.0000       0.2210      40.0000      16.3430    -999.2500     295.4200     228.3710     154.2590       0.0211       3.0410    -999.2500       2.8200    -999.2500    -999.2500
   2450.1353    -999.2500    -999.2500    -999.2500      40.0000      16.6264    -999.2500     303.6563     263.9897     165.0402       0.0187    -999.2500    -999.2500    -999.2500    -999.2500    -999.2500
   2450.2876    -999.2500    -999.2500    -999.2500    -999.2500      16.6628    -999.2500     299.8012     283.7636     172.9418       0.0170    -999.2500    -999.2500    -999.2500    -999.2500    -999.2500
   2450.4399    -999.2500    -999.2500    -999.2500    -999.2500      16.2185    -999.2500     272.3561     272.8988     175.3228       0.0165    -999.2500    -999.2500    -999.2500    -999.2500    -999.2500
   2450.5923    -999.2500    -999.2500    -999.2500    -999.2500      15.8004    -999.2500     246.5175     255.0176     173.4383       0.0163    -999.2500    -999.2500    -999.2500    -999.2500    -999.2500
   2450.7449    -999.2500    -999.2500    -999.2500    -999.2500      15.4339    -999.2500     223.8377     223.3418     163.1679       0.0167    -999.2500    -999.2500    -999.2500    -999.2500    -999.2500
   2450.8972    -999.2500    -999.2500    -999.2500    -999.2500      15.7166    -999.2500     206.6911     197.8692     151.7680       0.0171    -999.2500    -999.2500    -999.2500    -999.2500    -999.2500
   2451.0496    -999.2500    -999.2500    -999.2500    -999.2500      17.2444    -999.2500     200.1580     184.2951     138.2019       0.0176    -999.2500    -999.2500    -999.2500    -999.2500    -999.2500
   2451.2019    -999.2500    -999.2500    -999.2500    -999.2500      19.0981    -999.2500     193.4729     171.0086     126.0626       0.0179    -999.2500    -999.2500    -999.2500    -999.2500    -999.2500
   2451.3545    -999.2500    -999.2500    -999.2500    -999.2500      21.5790    -999.2500     186.4955     158.2758     116.6707       0.0180    -999.2500    -999.2500    -999.2500    -999.2500    -999.2500
   2451.5068    -999.2500    -999.2500    -999.2500    -999.2500      23.5460    -999.2500     176.1059     145.2995     108.1254       0.0182    -999.2500    -999.2500    -999.2500    -999.2500    -999.2500
   2451.6592    -999.2500    -999.2500    -999.2500    -999.2500      24.5126    -999.2500     159.0738     131.8493     101.2284       0.0188    -999.2500    -999.2500    -999.2500    -999.2500    -999.2500
   2451.8115    -999.2500    -999.2500    -999.2500    -999.2500      25.1065    -999.2500     145.5152     119.6967      94.8216       0.0189    -999.2500    -999.2500    -999.2500    -999.2500    -999.2500
