#------------------------------------------------------------------------------
#
#   Created by  : [OpenWorks] Log Export Utility (LEXP)
#   Created on  : 2016-05-23 11:55:58
#   Project     : CANT971
#   User        : R5K
#   Interpreter : PEP
#
#------------------------------------------------------------------------------
~VERSION INFORMATION
VERS. 2.0 : CWLS Log ASCII Standard - version 2.0
WRAP.  NO : One line per depth step
~WELL INFORMATION
#MNEMONIC   .UNIT                                           VALUE :DESCRIPTION
#------------------------------------------------------------------------------
STRT        .M                                           646.6334 :START DEPTH
STOP        .M                                          2755.8494 :STOP DEPTH
STEP        .M                                             0.1524 :STEP
NULL        .                                           -999.2500 :NULL VALUE
COMP        .                                   PEMEX EXPL & PROD :COMPANY
WELL        .                                                  42 :WELL
FLD         .                                           CANTARELL :FIELD
LOC         .                                             UNKNOWN :LOCATION
CNTY        .                                      CD. DEL CARMEN :COUNTY
STAT        .                                            CAMPECHE :STATE
CTRY        .                                              MEXICO :COUNTRY
SRVC        .                                             UNKNOWN :SERVICE COMPANY
DATE        .                                             UNKNOWN :LOG DATE
UWI         .                                          3060000464 :UNIQUE WELL ID
XCOORD      .                                       599690.710000 :SURFACE X
YCOORD      .                                      2143036.470000 :SURFACE Y
LAT         .                                           19.380144 :LATITUDE
LON         .                                          -92.050691 :LONGITUDE
ELEV        .M                                            26.7400 :SURFACE ELEV
ELEV_TYPE   .                                                  KB :ELEV TYPE
~CURVE INFORMATION
#MNEMONIC.UNIT        API CODE       : CURVE DESCRIPTION
#------------------------------------------------------------------------------
DEPTH    .M                          : Measured Depth
CALI     .inches      UNKNOWN        : CALI:Import:rC:NONE:v0 (auto-composite)
DRHO     .g/cm3       UNKNOWN        : DRHO:Import:rC:NONE:v0 (auto-composite)
DT       .us/ft       UNKNOWN        : DT:Import:rC:NONE:v0 (auto-composite)
GR       .API         UNKNOWN        : GR:Import:rC:NONE:v0 (auto-composite)
ILD      .ohm.m       UNKNOWN        : ILD:Import:rC:NONE:v0 (auto-composite)
ILM      .ohm.m       UNKNOWN        : ILM:Import:rC:NONE:v0 (auto-composite)
LLD      .ohm.m       UNKNOWN        : LLD:Import:rC:NONE:v0 (auto-composite)
LLS      .ohm.m       UNKNOWN        : LLS:Import:rC:NONE:v0 (auto-composite)
MSFL     .ohm.m       UNKNOWN        : MSFL:Import:rC:NONE:v0 (auto-composite)
NPHI     .v/v_decimal UNKNOWN        : NPHI:Import:rC:NONE:v0 (auto-composite)
PEF      .b/elec      UNKNOWN        : PEF:Import:rC:NONE:v0 (auto-composite)
RHOB     .g/cm3       UNKNOWN        : RHOB:Import:rC:NONE:v0 (auto-composite)
~A     DEPTH         CALI         DRHO           DT           GR          ILD          ILM          LLD          LLS         MSFL         NPHI          PEF         RHOB
# ...
   2043.8365      16.5280       0.0040    -999.2500      42.1478    -999.2500    -999.2500     539.1104      85.5136     210.0694       0.0187       3.5158       2.7940
   2043.9890      16.5130       0.0050    -999.2500      44.9070    -999.2500    -999.2500     398.7480      77.2530      79.1320       0.0207       3.6310       2.7920
   2044.1414      16.5300       0.0085    -999.2500      44.8476    -999.2500    -999.2500     341.3227      71.7799      83.0958       0.0224       3.5889       2.7780
   2044.2937      16.5470       0.0120    -999.2500      44.7880    -999.2500    -999.2500     283.8050      66.2980      87.0660       0.0240       3.5470       2.7640
   2044.4462      16.5470       0.0310    -999.2500      44.3093    -999.2500    -999.2500     265.4089      63.9945     116.6094       0.0258       3.3876       2.7440
   2044.5985      16.5470       0.0500    -999.2500      43.8290    -999.2500    -999.2500     246.9810      61.6870     146.2040       0.0277       3.2290       2.7240
   2044.7510      16.5440       0.0495    -999.2500      42.6271    -999.2500    -999.2500     237.7870      60.3413     139.5002       0.0304       3.2415       2.6994
   2044.9033      16.5410       0.0490    -999.2500      41.4210    -999.2500    -999.2500     228.5760      58.9930     132.7840       0.0331       3.2540       2.6750
   2045.0558      16.5425       0.0465    -999.2500      42.6328    -999.2500    -999.2500     220.9940      57.5679     112.8873       0.0355       3.4118       2.6820
   2045.2081      16.5440       0.0440    -999.2500      43.8490    -999.2500    -999.2500     213.3970      56.1400      92.9510       0.0380       3.5690       2.6890
   2045.3606      16.5956       0.0305    -999.2500      43.5466    -999.2500    -999.2500     204.1503      54.5512      57.8865       0.0489       3.5540       2.6785
   2045.5129      16.6470       0.0170    -999.2500      43.2430    -999.2500    -999.2500     194.8840      52.9590      22.7480       0.0597       3.5390       2.6680
   2045.6654      16.6024       0.0185    -999.2500      38.7963    -999.2500    -999.2500     187.7789      51.6465      52.5237       0.0582       3.3772       2.6710
   2045.8177      16.5580       0.0200    -999.2500      34.3360    -999.2500    -999.2500     180.6580      50.3310      82.3660       0.0563       3.2160       2.6740
   2045.9702      16.5615       0.0190    -999.2500      34.5877    -999.2500    -999.2500     169.2969      47.8025      79.8215       0.0409       3.2160       2.7006
   2046.1226      16.5650       0.0180    -999.2500      34.8400    -999.2500    -999.2500     157.9090      45.2680      77.2710       0.0256       3.2160       2.7270
   2046.2749      16.5946       0.0135    -999.2500      36.7891    -999.2500    -999.2500     158.9662      45.4278      53.8067       0.0258       3.2230       2.7155
   2046.4274      16.6240       0.0090    -999.2500      38.7430    -999.2500    -999.2500     160.0260      45.5880      30.2840       0.0263       3.2300       2.7040
   2046.5797      16.7212       0.0030    -999.2500      37.9830    -999.2500    -999.2500     167.0658      46.5997      37.8261       0.0298       3.2656       2.7055
   2046.7322      16.8180      -0.0030    -999.2500      37.2210    -999.2500    -999.2500     174.1240      47.6140      45.3880       0.0336       3.3010       2.7070
   2046.8845      16.8075      -0.0070    -999.2500      31.3256    -999.2500    -999.2500     194.6796      50.1600     271.3929       0.0410       3.4322       2.7150
   2047.0370      16.7970      -0.0110    -999.2500      25.4140    -999.2500    -999.2500     215.2750      52.7110     497.8360       0.0483       3.5630       2.7230
   2047.1893      16.7479      -0.0105    -999.2500      25.8783    -999.2500    -999.2500     211.4109      52.3008     290.0931       0.0479       3.5189       2.7355
   2047.3418      16.6990      -0.0100    -999.2500      26.3440    -999.2500    -999.2500     207.5420      51.8900      82.0880       0.0471       3.4750       2.7480
   2047.4941      16.7085      -0.0090    -999.2500      27.8792    -999.2500    -999.2500     192.7822      50.2052      86.4350       0.0420       3.5752       2.7600
   2047.6466      16.7180      -0.0080    -999.2500      29.4190    -999.2500    -999.2500     178.0020      48.5180      90.7880       0.0371       3.6750       2.7720
   2047.7990      16.7847      -0.0060    -999.2500      30.2337    -999.2500    -999.2500     168.9818      47.2630     120.0364       0.0387       3.6640       2.7690
   2047.9514      16.8510      -0.0040    -999.2500      31.0510    -999.2500    -999.2500     159.9480      46.0060     149.3290       0.0406       3.6530       2.7660
   2048.1038      16.7713      -0.0020    -999.2500      29.3036    -999.2500    -999.2500     151.5963      44.1285     135.4409       0.0473       3.6154       2.7495
   2048.2561      16.6920       0.0000    -999.2500      27.5520    -999.2500    -999.2500     143.2310      42.2480     121.5300       0.0539       3.5780       2.7330
   2048.4084      16.6935       0.0030    -999.2500      28.0838    -999.2500    -999.2500     144.1443      42.3134      90.9258       0.0531       3.4503       2.7024
   2048.5610      16.6950       0.0060    -999.2500      28.6170    -999.2500    -999.2500     145.0600      42.3790      60.2430       0.0518       3.3230       2.6720
   2048.7134      16.7065       0.0075    -999.2500      31.0917    -999.2500    -999.2500     149.8920      42.9078      55.7211       0.0440       3.3240       2.6725
   2048.8657      16.7180       0.0090    -999.2500      33.5730    -999.2500    -999.2500     154.7370      43.4380      51.1870       0.0363       3.3250       2.6730
   2049.0181      16.7511       0.0145    -999.2500      37.9398    -999.2500    -999.2500     162.1695      44.6678      40.4185       0.0379       3.3771       2.6765
   2049.1707      16.7840       0.0200    -999.2500      42.3190    -999.2500    -999.2500     169.6110      45.8990      29.6370       0.0400       3.4290       2.6800
   2049.3230      16.8331       0.0395    -999.2500      42.0020    -999.2500    -999.2500     175.8763      46.7834      34.0460       0.0472       3.3373       2.6840
   2049.4753      16.8820       0.0590    -999.2500      41.6840    -999.2500    -999.2500     182.1500      47.6690      38.4610       0.0550       3.2460       2.6880
   2049.6277      16.8795       0.0580    -999.2500      40.3780    -999.2500    -999.2500     190.4559      48.7167      63.6410       0.0710       3.4961       2.6985
   2049.7803      16.8770       0.0570    -999.2500      39.0680    -999.2500    -999.2500     198.7740      49.7660      88.8580       0.0867       3.7450       2.7090
   2049.9326      16.8835       0.0525    -999.2500      37.5110    -999.2500    -999.2500     205.7824      50.8791     109.2832       0.0856       3.7280       2.7551
   2050.0850      16.8900       0.0480    -999.2500      35.9490    -999.2500    -999.2500     212.8020      51.9940     129.7410       0.0836       3.7110       2.8010
   2050.2373      16.8324       0.0375    -999.2500      31.1575    -999.2500    -999.2500     211.4911      51.8756      79.2269       0.0737       3.5055       2.7930
   2050.3896      16.7750       0.0270    -999.2500      26.3500    -999.2500    -999.2500     210.1780      51.7570      28.6260       0.0640       3.3010       2.7850
   2050.5422      16.7750       0.0105    -999.2500      26.4928    -999.2500    -999.2500     199.8610      50.5236      48.8883       0.0657       3.3195       2.7494
   2050.6946      16.7750      -0.0060    -999.2500      26.6360    -999.2500    -999.2500     189.5250      49.2880      69.1880       0.0677       3.3380       2.7140
   2050.8469      16.7960      -0.0060    -999.2500      27.5963    -999.2500    -999.2500     168.3219      46.0677      55.5559       0.0652       3.4082       2.7150
   2050.9993      16.8170      -0.0060    -999.2500      28.5600    -999.2500    -999.2500     147.0770      42.8410      41.8970       0.0622       3.4780       2.7160
