#------------------------------------------------------------------------------
#
#   Created by  : [OpenWorks] Log Export Utility (LEXP)
#   Created on  : 2016-05-23 11:51:18
#   Project     : CANT971
#   User        : R5K
#   Interpreter : PEP
#
#------------------------------------------------------------------------------
~VERSION INFORMATION
VERS. 2.0 : CWLS Log ASCII Standard - version 2.0
WRAP.  NO : One line per depth step
~WELL INFORMATION
#MNEMONIC   .UNIT                                           VALUE :DESCRIPTION
#------------------------------------------------------------------------------
STRT        .M                                           690.7880 :START DEPTH
STOP        .M                                          2950.1179 :STOP DEPTH
STEP        .M                                             0.1524 :STEP
NULL        .                                           -999.2500 :NULL VALUE
COMP        .                                   PEMEX EXPL & PROD :COMPANY
WELL        .                                                1066 :WELL
FLD         .                                           CANTARELL :FIELD
LOC         .                                             UNKNOWN :LOCATION
CNTY        .                                      CD. DEL CARMEN :COUNTY
STAT        .                                            CAMPECHE :STATE
CTRY        .                                              MEXICO :COUNTRY
SRVC        .                                             UNKNOWN :SERVICE COMPANY
DATE        .                                             UNKNOWN :LOG DATE
UWI         .                                          3060000505 :UNIQUE WELL ID
XCOORD      .                                       596157.670000 :SURFACE X
YCOORD      .                                      2150605.920000 :SURFACE Y
LAT         .                                           19.448718 :LATITUDE
LON         .                                          -92.083948 :LONGITUDE
ELEV        .M                                            30.0000 :SURFACE ELEV
ELEV_TYPE   .                                                  KB :ELEV TYPE
~CURVE INFORMATION
#MNEMONIC.UNIT        API CODE       : CURVE DESCRIPTION
#------------------------------------------------------------------------------
DEPTH    .M                          : Measured Depth
CALI     .inches      UNKNOWN        : CALI:litodensidad:rC:NONE:v0 (auto-composite)
DRHO     .g/cm3       UNKNOWN        : DRHO:litodensidad:rC:NONE:v0 (auto-composite)
DT       .us/ft       UNKNOWN        : DT:DT:rC:NONE:v0 (auto-composite)
GR       .API         UNKNOWN        : GR:UNKNOWN:rC:NONE:v0 (auto-composite)
ILD      .ohmm        UNKNOWN        : ILD:UNKNOWN:rC:NONE:v0 (auto-composite)
ILM      .ohmm        UNKNOWN        : ILM:UNKNOWN:rC:NONE:v0 (auto-composite)
LLD      .ohmm        UNKNOWN        : LLD:UNKNOWN:rC:NONE:v0 (auto-composite)
LLS      .ohmm        UNKNOWN        : LLS:UNKNOWN:rC:NONE:v0 (auto-composite)
MSFL     .ohmm        UNKNOWN        : MSFL:UNKNOWN:rC:NONE:v0 (auto-composite)
NPHI     .v/v_decimal UNKNOWN        : NPHI:PETROWORKS:rC:NONE:v2 
PEF      .b/elec      UNKNOWN        : PEF:litodensidad:rC:NONE:v0 (auto-composite)
RHOB     .g/cm3       UNKNOWN        : RHOB:litodensidad:rC:NONE:v0 (auto-composite)
~A     DEPTH         CALI         DRHO           DT           GR          ILD          ILM          LLD          LLS         MSFL         NPHI          PEF         RHOB
# ...
   2490.3271    -999.2500    -999.2500    -999.2500      39.1633       0.8249       0.8625       0.2000       0.2000       0.2000      -0.1500    -999.2500    -999.2500
   2490.4797    -999.2500    -999.2500    -999.2500      39.3701       0.8202       0.8580       0.2000       0.2000       0.2000      -0.1500    -999.2500    -999.2500
   2490.6321    -999.2500    -999.2500    -999.2500      39.6614       0.8152       0.8499       0.2000       0.2000       0.2000      -0.1500    -999.2500    -999.2500
   2490.7844    -999.2500    -999.2500    -999.2500      39.6420       0.8167       0.8457       0.2000       0.2000       0.2000      -0.1500    -999.2500    -999.2500
   2490.9368    -999.2500    -999.2500    -999.2500      39.5231       0.8202       0.8427       0.2000       0.2000       0.2000      -0.1500    -999.2500    -999.2500
   2491.0891    -999.2500    -999.2500    -999.2500      39.8785       0.8183       0.8447       0.2000       0.2000       0.2000      -0.1500    -999.2500    -999.2500
   2491.2417    -999.2500    -999.2500    -999.2500      40.3808       0.8148       0.8482       0.2000       0.2000       0.2000      -0.1500    -999.2500    -999.2500
   2491.3940    -999.2500    -999.2500    -999.2500      39.7754       0.8136       0.8494       0.2000       0.2000       0.2000      -0.1500    -999.2500    -999.2500
   2491.5464    -999.2500    -999.2500    -999.2500      38.8218       0.8131       0.8499       0.2000       0.2000       0.2000      -0.1500    -999.2500    -999.2500
   2491.6987    -999.2500    -999.2500    -999.2500      38.7162       0.8203       0.8557       0.2000       0.2000       0.2000      -0.1500    -999.2500    -999.2500
   2491.8513    -999.2500    -999.2500    -999.2500      38.8691       0.8298       0.8632       0.2000       0.2000       0.2000      -0.1500    -999.2500    -999.2500
   2492.0037    -999.2500    -999.2500    -999.2500      39.8649       0.8332       0.8658       0.2000       0.2000       0.2000      -0.1500    -999.2500    -999.2500
   2492.1560    -999.2500    -999.2500    -999.2500      41.1189       0.8347       0.8668       0.2000       0.2000       0.2000      -0.1500    -999.2500    -999.2500
   2492.3083    -999.2500    -999.2500    -999.2500      41.3593       0.8396       0.8674       0.2000       0.2000       0.2000      -0.1500    -999.2500    -999.2500
   2492.4609    -999.2500    -999.2500    -999.2500      41.2986       0.8456       0.8679       0.2000       0.2000       0.2000      -0.1500    -999.2500    -999.2500
   2492.6133    -999.2500    -999.2500    -999.2500      40.6657       0.8551       0.8777       0.2000       0.2000       0.2000      -0.1500    -999.2500    -999.2500
   2492.7656    -999.2500    -999.2500    -999.2500      39.8665       0.8656       0.8902       0.2000       0.2000       0.2000      -0.1500    -999.2500    -999.2500
   2492.9180    -999.2500    -999.2500    -999.2500      38.9645       0.8750       0.9031       0.2000       0.2000       0.2000      -0.1500    -999.2500    -999.2500
   2493.0703    -999.2500    -999.2500    -999.2500      38.0324       0.8840       0.9161       0.2000       0.2000       0.2000      -0.1500    -999.2500    -999.2500
   2493.2229    -999.2500    -999.2500    -999.2500      37.4720       0.8958       0.9260       0.2000       0.2000       0.2000      -0.1500    -999.2500    -999.2500
   2493.3752    -999.2500    -999.2500    -999.2500      37.0168       0.9083       0.9351       0.2000       0.2000       0.2000      -0.1500    -999.2500    -999.2500
   2493.5276    -999.2500    -999.2500    -999.2500      35.5745       0.9161       0.9425       0.2000       0.2000       0.2000      -0.1500    -999.2500    -999.2500
   2493.6799    -999.2500    -999.2500    -999.2500      33.8623       0.9226       0.9495       0.2000       0.2000       0.2000      -0.1500    -999.2500    -999.2500
   2493.8325    -999.2500    -999.2500    -999.2500      35.5332       0.9154       0.9427       0.2000       0.2000       0.2000      -0.1500    -999.2500    -999.2500
   2493.9849    -999.2500    -999.2500    -999.2500      38.1343       0.9043       0.9322       0.2000       0.2000       0.2000      -0.1500    -999.2500    -999.2500
   2494.1372    -999.2500    -999.2500    -999.2500      39.9177       0.8922       0.9178       0.2000       0.2000       0.2000      -0.1500    -999.2500    -999.2500
   2494.2896    -999.2500    -999.2500    -999.2500      41.4816       0.8797       0.9023       0.2000       0.2000       0.2000      -0.1500    -999.2500    -999.2500
   2494.4421    -999.2500    -999.2500    -999.2500      42.5077       0.8762       0.9002       0.2000       0.2000       0.2000      -0.1500    -999.2500    -999.2500
   2494.5945    -999.2500    -999.2500    -999.2500      43.3886       0.8752       0.9017       0.2000       0.2000       0.2000      -0.1500    -999.2500    -999.2500
   2494.7468    -999.2500    -999.2500    -999.2500      42.8653       0.8766       0.9096       0.2000       0.2000       0.2000      -0.1500    -999.2500    -999.2500
   2494.8992    -999.2500    -999.2500    -999.2500      41.9753       0.8786       0.9191       0.2000       0.2000       0.2000      -0.1500    -999.2500    -999.2500
   2495.0515    -999.2500    -999.2500    -999.2500      40.1164       0.8993       0.9401       0.2000       0.2000       0.2000      -0.1500    -999.2500    -999.2500
   2495.2041    -999.2500    -999.2500    -999.2500      38.0130       0.9248       0.9641       0.2000       0.2000       0.2000      -0.1500    -999.2500    -999.2500
   2495.3564    -999.2500    -999.2500    -999.2500      36.3104       0.9587       0.9993       0.2000       0.2000       0.2000      -0.1500    -999.2500    -999.2500
   2495.5088    -999.2500    -999.2500    -999.2500      34.7104       0.9948       1.0374       0.2000       0.2000       0.2000      -0.1500    -999.2500    -999.2500
   2495.6611    -999.2500    -999.2500    -999.2500      35.0368       1.0324       1.0694       0.2000       0.2000       0.2000      -0.1500    -999.2500    -999.2500
   2495.8137    -999.2500    -999.2500    -999.2500      35.8400       1.0704       1.0999       0.2000       0.2000       0.2000      -0.1500    -999.2500    -999.2500
   2495.9661    -999.2500    -999.2500    -999.2500      34.3106       1.1033       1.1225       0.2000       0.2000       0.2000      -0.1500    -999.2500    -999.2500
   2496.1184    -999.2500    -999.2500    -999.2500      32.2007       1.1349       1.1430       0.2000       0.2000       0.2000      -0.1500    -999.2500    -999.2500
   2496.2708    -999.2500    -999.2500    -999.2500      31.8797       1.1438       1.1595       0.2000       0.2000       0.2000      -0.1500    -999.2500    -999.2500
   2496.4233    -999.2500    -999.2500    -999.2500      31.9885       1.1473       1.1751       0.2000       0.2000       0.2000      -0.1500    -999.2500    -999.2500
   2496.5757    -999.2500    -999.2500    -999.2500      33.9059       1.1322       1.1610       0.2000       0.2000       0.2000      -0.1500    -999.2500    -999.2500
   2496.7280    -999.2500    -999.2500    -999.2500      36.2425       1.1127       1.1400       0.2000       0.2000       0.2000      -0.1500    -999.2500    -999.2500
   2496.8804    -999.2500    -999.2500    -999.2500      37.1810       1.1074       1.1177       0.2000       0.2000       0.2000      -0.1500    -999.2500    -999.2500
   2497.0327    -999.2500    -999.2500    -999.2500      37.7902       1.1054       1.0952       0.2000       0.2000       0.2000      -0.1500    -999.2500    -999.2500
   2497.1853    -999.2500    -999.2500    -999.2500      37.8184       1.0927       1.1020       0.2000       0.2000       0.2000      -0.1500    -999.2500    -999.2500
   2497.3376    -999.2500    -999.2500    -999.2500      37.7146       1.0777       1.1156       0.2000       0.2000       0.2000      -0.1500    -999.2500    -999.2500
   2497.4900    -999.2500    -999.2500    -999.2500      36.1973       1.0504       1.0987       0.2000       0.2000       0.2000      -0.1500    -999.2500    -999.2500
