#------------------------------------------------------------------------------
#
#   Created by  : [OpenWorks] Log Export Utility (LEXP)
#   Created on  : 2016-05-23 11:56:01
#   Project     : CANT971
#   User        : R5K
#   Interpreter : PEP
#
#------------------------------------------------------------------------------
~VERSION INFORMATION
VERS. 2.0 : CWLS Log ASCII Standard - version 2.0
WRAP.  NO : One line per depth step
~WELL INFORMATION
#MNEMONIC   .UNIT                                           VALUE :DESCRIPTION
#------------------------------------------------------------------------------
STRT        .M                                          1572.0055 :START DEPTH
STOP        .M                                          3732.1230 :STOP DEPTH
STEP        .M                                             0.1524 :STEP
NULL        .                                           -999.2500 :NULL VALUE
COMP        .                                             UNKNOWN :COMPANY
WELL        .                                               428-V :WELL
FLD         .                                             UNKNOWN :FIELD
LOC         .                                             UNKNOWN :LOCATION
CNTY        .                                             UNKNOWN :COUNTY
STAT        .                                             UNKNOWN :STATE
CTRY        .                                             UNKNOWN :COUNTRY
SRVC        .                                             UNKNOWN :SERVICE COMPANY
DATE        .                                             UNKNOWN :LOG DATE
UWI         .                                               428-V :UNIQUE WELL ID
XCOORD      .                                            0.000000 :SURFACE X
YCOORD      .                                            0.000000 :SURFACE Y
LAT         .                                            0.000000 :LATITUDE
LON         .                                            0.000000 :LONGITUDE
ELEV        .M                                             0.0000 :SURFACE ELEV
ELEV_TYPE   .                                                  KB :ELEV TYPE
~CURVE INFORMATION
#MNEMONIC .UNIT        API CODE       : CURVE DESCRIPTION
#------------------------------------------------------------------------------
DEPTH     .M                          : Measured Depth
CALIH-LWD .inches      UNKNOWN        : CALIH-LWD:PETROWORKS:rC:NONE:v5 
CALIV-LWD .inches      UNKNOWN        : CALIV-LWD:PETROWORKS:rC:NONE:v5 
CGR       .API         UNKNOWN        : CGR:Espectrometria:rC:NONE:v0 (auto-composite)
DRHO-LWD  .g/cm3       UNKNOWN        : DRHO-LWD:PETROWORKS:rC:NONE:v5 
DT        .us/ft       UNKNOWN        : DT:sonico:rC:NONE:v0 (auto-composite)
GR        .API         UNKNOWN        : GR:Espectrometria:rC:NONE:v0 (auto-composite)
GR-LWD    .API         UNKNOWN        : GR-LWD:PETROWORKS:rC:NONE:v3 
ILD-LWD   .ohm.m       UNKNOWN        : ILD-LWD:PETROWORKS:rC:NONE:v2 
ILM-LWD   .ohm.m       UNKNOWN        : ILM-LWD:PETROWORKS:rC:NONE:v2 
LLD-LWD   .ohm.m       UNKNOWN        : LLD-LWD:registros-LWD:rC:NONE:v0 (auto-composite)
LLS-LWD   .ohm.m       UNKNOWN        : LLS-LWD:registros-LWD:rC:NONE:v0 (auto-composite)
MSFL-LWD  .ohm.m       UNKNOWN        : MSFL-LWD:registros-LWD:rC:NONE:v0 (auto-composite)
NPHI-LWD  .v/v_decimal UNKNOWN        : NPHI-LWD:PETROWORKS:rC:NONE:v5 
PEF-LWD   .b/elec      UNKNOWN        : PEF-LWD:PETROWORKS:rC:NONE:v5 
POTA      .wtpercent   UNKNOWN        : POTA:Espectrometria:rC:NONE:v0 (auto-composite)
RHOB-LWD  .g/cm3       UNKNOWN        : RHOB-LWD:PETROWORKS:rC:NONE:v5 
THOR      .UNKNOWN     UNKNOWN        : THOR:Espectrometria:rC:NONE:v0 (auto-composite)
URAN      .UNKNOWN     UNKNOWN        : URAN:Espectrometria:rC:NONE:v0 (auto-composite)
~A     DEPTH    CALIH-LWD    CALIV-LWD          CGR     DRHO-LWD           DT           GR       GR-LWD      ILD-LWD      ILM-LWD      LLD-LWD      LLS-LWD     MSFL-LWD     NPHI-LWD      PEF-LWD         POTA     RHOB-LWD         THOR         URAN
# ...
   2950.0063    -999.2500    -999.2500      10.0595    -999.2500      56.0154      28.2165      38.0400    -999.2500    -999.2500      24.4549      29.1135      29.4841    -999.2500    -999.2500       0.0060    -999.2500       0.4652       2.0215
   2950.1587    -999.2500    -999.2500      13.4030    -999.2500      58.1390      27.7225      39.8155    -999.2500    -999.2500      27.2552      42.3557      30.3306    -999.2500    -999.2500       0.0079    -999.2500       0.6578       1.5942
   2950.3110    -999.2500    -999.2500      16.3284    -999.2500      61.2002      27.8570      42.6568    -999.2500    -999.2500      28.3062      35.7701      33.6009    -999.2500    -999.2500       0.0097    -999.2500       0.7988       1.2835
   2950.4634    -999.2500    -999.2500      18.6776    -999.2500      63.3120      29.1574      43.7989    -999.2500    -999.2500      28.5594      38.6158      34.0737    -999.2500    -999.2500       0.0113    -999.2500       0.8105       1.1668
   2950.6160       6.9336       6.8252      18.6894      -0.4429      63.7365      30.3127      43.5798    -999.2500    -999.2500      24.0901      35.5583      30.7791       0.1276    -999.2500       0.0115       2.3755       0.7438       1.2940
   2950.7683       7.0260       6.9021      18.4227      -0.4455      63.3370      30.3824      41.1208    -999.2500    -999.2500      27.4107      34.2339      28.6683       0.1295     418.6014       0.0114       2.3749       0.7156       1.3315
   2950.9207       7.2881       7.1851      18.5055      -0.4384      63.0479      29.4669      39.1961    -999.2500    -999.2500      37.4361      51.7848      34.5172       0.1302     454.5247       0.0108       2.3856       0.9709       1.2204
   2951.0730       7.3730       7.3256      18.5609      -0.4365      62.6820      28.5423      39.7741    -999.2500    -999.2500      46.5465      59.8544      35.3598       0.1298     489.9999       0.0100       2.3876       1.2921       1.1113
   2951.2256       7.2299       7.3181      16.6482      -0.4389      61.6590      28.7363      42.6577    -999.2500    -999.2500      40.3057      40.1249      25.3762       0.1295     569.1071       0.0087       2.3746       1.2807       1.3458
   2951.3779       6.4782       6.5213      12.2860      -0.4364      59.9404      29.7332      43.2597    -999.2500    -999.2500      44.5580      57.6515      33.0858       0.1293     587.8819       0.0065       2.3905       0.9044       1.9425
   2951.5303       6.8998       6.9983       9.0910      -0.4462      58.1319      29.7995      41.3675    -999.2500    -999.2500      50.6582      60.5996      30.8466       0.1305     509.4785       0.0051       2.4085       0.5510       2.3055
   2951.6826       7.1714       7.2286       8.8613      -0.4817      56.7328      28.8392      38.4238    -999.2500    -999.2500      49.2132      55.0918      38.6684       0.1315     525.0312       0.0053       2.4001       0.4063       2.2242
   2951.8352       7.8869       7.8163       9.5427      -0.5108      56.0563      27.8524      38.3303    -999.2500    -999.2500      60.6624      73.3187      65.4552       0.1320     543.9224       0.0061       2.3851       0.2886       2.0385
   2951.9875       8.3272       8.2718      10.7700      -0.5116      56.4914      27.2570      37.9968    -999.2500    -999.2500      72.8198      93.6507      73.4845       0.1302     538.7263       0.0065       2.4192       0.4700       1.8356
   2952.1399       7.9936       8.0876      10.7552      -0.4828      58.1086      26.7144      36.7219    -999.2500    -999.2500      75.0715     101.1585     -46.5407       0.1259     527.5834       0.0060       2.4208       0.6730       1.7768
   2952.2922       8.0406       8.1572      10.6567      -0.4949      59.3184      25.5944      34.6390    -999.2500    -999.2500      64.9248     108.8332    -999.2500       0.1235     509.4658       0.0053       2.3984       0.9385       1.6631
   2952.4446       7.8600       7.9252      11.3467      -0.5026      58.6774      24.8692      33.6977    -999.2500    -999.2500      13.1812    -999.2500    -999.2500       0.1271     507.2406       0.0053       2.4085       1.1217       1.5055
   2952.5972       8.4078       8.2656      12.5900      -0.5153      57.3072      24.3068    -999.2500    -999.2500    -999.2500    -999.2500    -999.2500    -999.2500       0.1289     486.4349       0.0055       2.4302       1.3762       1.3045
   2952.7495       8.3989       8.1358      13.4003      -0.4985      56.5407      24.5710    -999.2500    -999.2500    -999.2500    -999.2500    -999.2500    -999.2500       0.1281     463.0605       0.0056       2.4682       1.5705       1.2437
   2952.9019       8.4931       8.1878      13.1203      -0.5031      56.3085      24.9494    -999.2500    -999.2500    -999.2500    -999.2500    -999.2500    -999.2500       0.1262     466.3211       0.0055       2.4586       1.5528       1.3170
   2953.0542       8.5880       8.2432      11.6216      -0.5082      56.1994      25.8690    -999.2500    -999.2500    -999.2500    -999.2500    -999.2500    -999.2500       0.1242     470.1102       0.0059       2.4482       0.9631       1.5862
   2953.2068       8.8421       8.2971      11.1355      -0.5002      56.0999      26.2998    -999.2500    -999.2500    -999.2500    -999.2500    -999.2500    -999.2500       0.1245     452.0495       0.0062       2.4401       0.6791       1.6883
   2953.3591       8.8190       8.3503      12.2059      -0.5083      56.3253      26.3680    -999.2500    -999.2500    -999.2500    -999.2500    -999.2500    -999.2500       0.1279     470.2474       0.0069       2.3896       0.7369       1.5767
   2953.5115       8.4944       8.2976      13.8741      -0.4882      57.0646      26.1242    -999.2500    -999.2500    -999.2500    -999.2500    -999.2500    -999.2500       0.1303     496.9123       0.0075       2.3637       0.9574       1.3639
   2953.6638       7.9657       7.9291      15.6482      -0.4785      58.0399      25.8921    -999.2500    -999.2500    -999.2500    -999.2500    -999.2500    -999.2500       0.1327     566.7997       0.0087       2.3821       1.0002       1.1405
   2953.8164       8.0780       8.0382      16.3354      -0.4758      58.4637      25.8775    -999.2500    -999.2500    -999.2500    -999.2500    -999.2500    -999.2500       0.1360     540.6862       0.0090       2.4135       1.0624       1.0623
   2953.9688       8.4235       8.2097      15.0774      -0.4904      57.8887      25.8602    -999.2500    -999.2500    -999.2500    -999.2500    -999.2500    -999.2500       0.1345     523.2076       0.0080       2.4616       1.1052       1.2005
   2954.1211       8.7636       8.4466      13.3214      -0.5050      56.7623      25.7573    -999.2500    -999.2500    -999.2500    -999.2500    -999.2500    -999.2500       0.1316     607.5801       0.0071       2.4636       0.9737       1.3845
   2954.2734       8.6967       8.3214      11.3796      -0.5016      55.7102      25.6222    -999.2500    -999.2500    -999.2500    -999.2500    -999.2500    -999.2500       0.1276     500.1950       0.0063       2.4560       0.7457       1.5857
   2954.4258       8.5252       8.1200      10.5357      -0.4927      54.9842      25.4214    -999.2500    -999.2500    -999.2500    -999.2500    -999.2500    -999.2500       0.1258     455.1468       0.0059       2.4364       0.6338       1.6573
   2954.5784       8.4832       8.0197      10.2884      -0.4782      54.4207      24.8613    -999.2500    -999.2500    -999.2500    -999.2500    -999.2500    -999.2500       0.1272     493.6508       0.0060       2.4327       0.5532       1.6224
   2954.7307       8.3941       7.9707      11.2468      -0.4817      53.9553      24.6428    -999.2500    -999.2500    -999.2500    -999.2500    -999.2500    -999.2500       0.1272     608.3424       0.0062       2.4135       0.7454       1.4914
   2954.8831       8.5522       8.1477      13.5708      -0.4902      53.8651      25.2473    -999.2500    -999.2500    -999.2500    -999.2500    -999.2500    -999.2500       0.1282     488.6078       0.0069       2.4149       1.0978       1.3000
