#------------------------------------------------------------------------------
#
#   Created by  : [OpenWorks] Log Export Utility (LEXP)
#   Created on  : 2016-05-23 11:52:48
#   Project     : CANT971
#   User        : R5K
#   Interpreter : PEP
#
#------------------------------------------------------------------------------
~VERSION INFORMATION
VERS. 2.0 : CWLS Log ASCII Standard - version 2.0
WRAP.  NO : One line per depth step
~WELL INFORMATION
#MNEMONIC   .UNIT                                           VALUE :DESCRIPTION
#------------------------------------------------------------------------------
STRT        .M                                           688.5826 :START DEPTH
STOP        .M                                          3180.0178 :STOP DEPTH
STEP        .M                                             0.1524 :STEP
NULL        .                                           -999.2500 :NULL VALUE
COMP        .                                   PEMEX EXPL & PROD :COMPANY
WELL        .                                               2092D :WELL
FLD         .                                           CANTARELL :FIELD
LOC         .                                             UNKNOWN :LOCATION
CNTY        .                                      CD. DEL CARMEN :COUNTY
STAT        .                                            CAMPECHE :STATE
CTRY        .                                              MEXICO :COUNTRY
SRVC        .                                             UNKNOWN :SERVICE COMPANY
DATE        .                                             UNKNOWN :LOG DATE
UWI         .                                          3060000657 :UNIQUE WELL ID
XCOORD      .                                       601715.500000 :SURFACE X
YCOORD      .                                      2142373.650000 :SURFACE Y
LAT         .                                           19.374053 :LATITUDE
LON         .                                          -92.031447 :LONGITUDE
ELEV        .M                                            30.0000 :SURFACE ELEV
ELEV_TYPEF  .b/elec                                            KB :ELEV TYPE
~CURVE INFORMATION
#MNEMONIC.UNIT        API CODE       : CURVE DESCRIPTION
#------------------------------------------------------------------------------
DEPTH    .M                          : Measured Depth
CALI     .in          UNKNOWN        : CALI:UNKNOWN:rC:NONE:v0 (auto-composite)
CGR      .API         UNKNOWN        : CGR:UNKNOWN:rC:NONE:v0 (auto-composite)
DRHO     .g/cm3       UNKNOWN        : DRHO:UNKNOWN:rC:NONE:v0 (auto-composite)
DT       .us/ft       UNKNOWN        : DT:DT:rC:NONE:v0 (auto-composite)
GR       .API         UNKNOWN        : GR:UNKNOWN:rC:NONE:v0 (auto-composite)
ILD      .ohmm        UNKNOWN        : ILD:UNKNOWN:rC:NONE:v0 (auto-composite)
ILM      .ohmm        UNKNOWN        : ILM:UNKNOWN:rC:NONE:v0 (auto-composite)
LLD      .ohmm        UNKNOWN        : LLD:UNKNOWN:rC:NONE:v0 (auto-composite)
LLS      .ohmm        UNKNOWN        : LLS:UNKNOWN:rC:NONE:v0 (auto-composite)
MSFL     .ohmm        UNKNOWN        : MSFL:UNKNOWN:rC:NONE:v0 (auto-composite)
NPHI     .v/v_decimal UNKNOWN        : NPHI:PETROWORKS:rC:NONE:v1 
PEF      .b/elec      UNKNOWN        : PEF:UNKNOWN:rC:NONE:v0 (auto-composite)
POTA     .wtpercent   UNKNOWN        : POTA:UNKNOWN:rC:NONE:v0 (auto-composite)
RHOB     .g/cm3       UNKNOWN        : RHOB:UNKNOWN:rC:NONE:v0 (auto-composite)
SFLU     .ohmm       UNKNOWN        : SFLU:induccion:rC:NONE:v0 (auto-composite)
THOR     .ppm         UNKNOWN        : THOR:UNKNOWN:rC:NONE:v0 (auto-composite)
URAN     .ppm         UNKNOWN        : URAN:UNKNOWN:rC:NONE:v0 (auto-composite)
~A     DEPTH         CALI          CGR         DRHO           DT           GR          ILD          ILM          LLD          LLS         MSFL         NPHI          PEF         POTA         RHOB         SFLU         THOR         URAN
# ...
   2779.5105      10.6609       5.0642    -999.2500      55.2307      34.1078    -999.2500    -999.2500     359.8723      58.9178     151.3143       0.0709       4.9917       0.0016       2.7221    -999.2500       0.8326       3.2240
   2779.6631      10.0357       5.3642    -999.2500      54.9636      33.7645    -999.2500    -999.2500     442.6202     137.5686      92.2955       0.0792       5.3524       0.0017       2.7379    -999.2500       0.8626       3.1504
   2779.8154       9.3695       5.7657    -999.2500      54.8037      33.4050    -999.2500    -999.2500     515.5992     222.9034      23.9792       0.0852       5.7029       0.0019       2.7688    -999.2500       0.8865       3.0630
   2779.9678       9.8385       7.9482    -999.2500      55.0850      32.6811    -999.2500    -999.2500     670.6090     388.9573      11.6847       0.0797       6.0291       0.0023       2.8134    -999.2500       1.3186       2.7490
   2780.1201      10.4377      10.3348    -999.2500      55.5544      31.9155    -999.2500    -999.2500     835.0228     564.2648       5.8124       0.0693       6.3525       0.0028       2.8595    -999.2500       1.7974       2.4091
   2780.2725      10.6769       9.8172    -999.2500      56.3201      31.2468    -999.2500    -999.2500     536.5336    1134.6981     119.9466       0.0642       6.8108       0.0025       2.9452    -999.2500       1.8805       2.4040
   2780.4250      10.8773       8.9865    -999.2500      57.1557      30.5886    -999.2500    -999.2500     188.1465    1747.7234     247.0168       0.0606       7.2836       0.0021       3.0352    -999.2500       1.9210       2.4350
   2780.5774      10.8227       6.7023    -999.2500      58.1327      28.6987    -999.2500    -999.2500     221.0781    1565.4865     243.2690       0.0609       7.1584       0.0012       3.0264    -999.2500       1.5724       2.4893
   2780.7297      10.7403       4.2598    -999.2500      59.1126      26.6747    -999.2500    -999.2500     295.5178    1296.6819     225.2812       0.0628       6.9681       0.0003       3.0070    -999.2500       1.1813       2.5463
   2780.8821      10.8107       3.6589    -999.2500      58.2409      26.0152    -999.2500    -999.2500     695.3422    1166.1937     266.9154       0.0621       6.1566       0.0005       2.9668    -999.2500       0.9946       2.4733
   2781.0347      10.8981       3.2641    -999.2500      56.9358      25.5084    -999.2500    -999.2500    1131.5753    1051.1824     315.2211       0.0607       5.2754       0.0009       2.9243    -999.2500       0.8306       2.3859
   2781.1870      11.0368       3.5141    -999.2500      54.9213      26.5787    -999.2500    -999.2500    1168.1816    1072.3864     287.8431       0.0577       4.7172       0.0006       2.8773    -999.2500       0.9716       2.5077
   2781.3394      11.1812       3.8370    -999.2500      52.9054      27.8272    -999.2500    -999.2500    1159.6449    1108.9775     251.9156       0.0543       4.1954       0.0002       2.8299    -999.2500       1.1470       2.6531
   2781.4917      11.1892       5.4835    -999.2500      52.9117      31.0915    -999.2500    -999.2500    1141.4060    1126.2124     307.6266       0.0517       3.9201       0.0002       2.8097    -999.2500       1.6785       2.8750
   2781.6443      11.1817       7.2810    -999.2500      53.4854      34.5857    -999.2500    -999.2500    1122.0609    1141.2400     373.7875       0.0491       3.6729       0.0002       2.7927    -999.2500       2.2506       3.1057
   2781.7966      11.2320       6.1980    -999.2500      54.1229      33.1018    -999.2500    -999.2500    1115.8604    1113.9171     406.1347       0.0445       3.7058       0.0002       2.8081    -999.2500       1.9032       3.0270
   2781.9490      11.2884       4.8062    -999.2500      54.7442      31.0843    -999.2500    -999.2500    1111.0687    1082.0544     434.8573       0.0399       3.7688       0.0002       2.8271    -999.2500       1.4573       2.9151
   2782.1013      11.3444       3.5804    -999.2500      55.2192      29.0707    -999.2500    -999.2500    1088.6223    1026.2583     326.9367       0.0374       4.0446       0.0002       2.8213    -999.2500       1.0641       2.8153
   2782.2537      11.4004       2.3729    -999.2500      55.6358      27.0576    -999.2500    -999.2500    1064.2299     967.8240     203.9543       0.0357       4.3440       0.0002       2.8129    -999.2500       0.6768       2.7169
   2782.4062      11.5809       2.7566    -999.2500      55.9570      25.2221    -999.2500    -999.2500    1043.3030     940.5049     171.1788       0.0344       4.6564       0.0002       2.8444    -999.2500       0.7059       2.4848
   2782.5586      11.7754       3.3174    -999.2500      56.1325      23.4064    -999.2500    -999.2500    1022.7619     916.6487     148.4426       0.0333       4.9703       0.0002       2.8804    -999.2500       0.7814       2.2379
   2782.7109      11.5906       3.0586    -999.2500      55.8144      23.4292    -999.2500    -999.2500    1014.8335     960.5637     268.5665       0.0326       4.7396       0.0004       2.9249    -999.2500       0.7113       2.2647
   2782.8633      11.3632       2.7077    -999.2500      55.2786      23.6586    -999.2500    -999.2500    1008.3223    1012.0934     404.7422       0.0321       4.4477       0.0007       2.9704    -999.2500       0.6248       2.3221
   2783.0159      11.3091       2.5298    -999.2500      53.8856      24.4068    -999.2500    -999.2500     992.1428    1044.3783     296.8845       0.0289       4.1153       0.0005       2.9409    -999.2500       0.6649       2.4168
   2783.1682      11.2746       2.3715    -999.2500      52.4603      25.2138    -999.2500    -999.2500     974.8666    1074.4801     161.3461       0.0256       3.7782       0.0002       2.9030    -999.2500       0.7193       2.5157
   2783.3206      11.3936       2.4879    -999.2500      51.2938      25.9218    -999.2500    -999.2500    1053.5302    1095.6155     173.2454       0.0232       3.6146       0.0002       2.8644    -999.2500       0.7466       2.6005
   2783.4729      11.5305       2.6363    -999.2500      50.2899      26.6182    -999.2500    -999.2500    1143.3701    1115.7062     202.3205       0.0213       3.4712       0.0002       2.8258    -999.2500       0.7706       2.6838
   2783.6255      11.6035       3.5599    -999.2500      49.9511      26.9442    -999.2500    -999.2500    1525.8463    1138.0310     491.0107       0.0204       3.4223       0.0003       2.8274    -999.2500       0.9730       2.5564
   2783.7778      11.6694       4.5685    -999.2500      49.8525      27.2296    -999.2500    -999.2500    1940.4033    1160.6007     808.1617       0.0196       3.3838       0.0005       2.8334    -999.2500       1.1949       2.4060
   2783.9302      11.4096       4.7036    -999.2500      50.3310      26.6204    -999.2500    -999.2500    2271.9670    1174.4590     572.6738       0.0184       3.3962       0.0006       2.8443    -999.2500       1.2022       2.3667
   2784.0825      11.1137       4.7421    -999.2500      50.9408      25.9122    -999.2500    -999.2500    2594.3445    1187.3529     276.0134       0.0172       3.4142       0.0006       2.8558    -999.2500       1.1857       2.3397
   2784.2349      11.0737       4.9171    -999.2500      51.2118      25.7453    -999.2500    -999.2500    2705.8003    1174.7338     215.4566       0.0171       3.3949       0.0007       2.8592    -999.2500       1.2074       2.3096
   2784.3875      11.0622       5.1074    -999.2500      51.3100      25.6390    -999.2500    -999.2500    2793.6841    1159.2633     181.2862       0.0172       3.3714       0.0008       2.8617    -999.2500       1.2333       2.2791
   2784.5398      11.2618       4.6962    -999.2500      50.6537      24.7386    -999.2500    -999.2500    2809.5396    1164.1652     300.4035       0.0156       3.3497       0.0006       2.8494    -999.2500       1.1939       2.1895
   2784.6921      11.4857       4.2159    -999.2500      49.7945      23.7470    -999.2500    -999.2500    2817.1252    1171.4060     437.1205       0.0137       3.3282       0.0004       2.8355    -999.2500       1.1469       2.0930
