#------------------------------------------------------------------------------
#
#   Created by  : [OpenWorks] Log Export Utility (LEXP)
#   Created on  : 2016-05-23 11:55:51
#   Project     : CANT971
#   User        : R5K
#   Interpreter : PEP
#
#------------------------------------------------------------------------------
~VERSION INFORMATION
VERS. 2.0 : CWLS Log ASCII Standard - version 2.0
WRAP.  NO : One line per depth step
~WELL INFORMATION
#MNEMONIC   .UNIT                                           VALUE :DESCRIPTION
#------------------------------------------------------------------------------
STRT        .M                                           490.1183 :START DEPTH
STOP        .M                                          2794.5586 :STOP DEPTH
STEP        .M                                             0.1524 :STEP
NULL        .                                           -999.2500 :NULL VALUE
COMP        .                                   PEMEX EXPL & PROD :COMPANY
WELL        .                                                  41 :WELL
FLD         .                                           CANTARELL :FIELD
LOC         .                                             UNKNOWN :LOCATION
CNTY        .                                      CD. DEL CARMEN :COUNTY
STAT        .                                            CAMPECHE :STATE
CTRY        .                                              MEXICO :COUNTRY
SRVC        .                                             UNKNOWN :SERVICE COMPANY
DATE        .                                             UNKNOWN :LOG DATE
UWI         .                                          3060000463 :UNIQUE WELL ID
XCOORD      .                                       601713.000000 :SURFACE X
YCOORD      .                                      2142348.040000 :SURFACE Y
LAT         .                                           19.373822 :LATITUDE
LON         .                                          -92.031472 :LONGITUDE
ELEV        .M                                            24.0000 :SURFACE ELEV
ELEV_TYPE   .                                                  KB :ELEV TYPE
~CURVE INFORMATION
#MNEMONIC.UNIT        API CODE       : CURVE DESCRIPTION
#------------------------------------------------------------------------------
DEPTH    .M                          : Measured Depth
CALI     .inches      UNKNOWN        : CALI:Import:rC:NONE:v0 (auto-composite)
DRHO     .g/cm3       UNKNOWN        : DRHO:Import:rC:NONE:v0 (auto-composite)
DT       .us/ft       UNKNOWN        : DT:Import:rC:NONE:v0 (auto-composite)
GR       .API         UNKNOWN        : GR:Import:rC:NONE:v0 (auto-composite)
ILD      .ohm.m       UNKNOWN        : ILD:Import:rC:NONE:v0 (auto-composite)
LLD      .ohm.m       UNKNOWN        : LLD:Import:rC:NONE:v0 (auto-composite)
LLS      .ohm.m       UNKNOWN        : LLS:Import:rC:NONE:v0 (auto-composite)
NPHI     .v/v_decimal UNKNOWN        : NPHI:Import:rC:NONE:v0 (auto-composite)
PEF      .b/elec      UNKNOWN        : PEF:Import:rC:NONE:v0 (auto-composite)
RHOB     .g/cm3       UNKNOWN        : RHOB:Import:rC:NONE:v0 (auto-composite)
~A     DEPTH         CALI         DRHO           DT           GR          ILD          LLD          LLS         NPHI          PEF         RHOB
# ...
   2154.3262       8.6030       0.0060    -999.2500      80.3470    -999.2500      93.2180      55.2450       0.1158       3.9440       2.6190
   2154.4788       8.5385       0.0080    -999.2500      75.8433    -999.2500     103.0080      61.2717       0.1134       3.8655       2.6465
   2154.6311       8.4740       0.0100    -999.2500      71.3440    -999.2500     112.8040      67.3020       0.1101       3.7870       2.6740
   2154.7834       8.4020       0.0195    -999.2500      71.4080    -999.2500     126.6984      73.9231       0.1048       3.8210       2.7025
   2154.9358       8.3300       0.0290    -999.2500      71.4720    -999.2500     140.6030      80.5490       0.0994       3.8550       2.7310
   2155.0884       8.3300       0.0450    -999.2500      73.9199    -999.2500     159.5709      84.0605       0.0961       3.8230       2.7225
   2155.2407       8.3300       0.0610    -999.2500      76.3660    -999.2500     178.5550      87.5750       0.0933       3.7910       2.7140
   2155.3931       8.3300       0.0725    -999.2500      74.0673    -999.2500     177.5770      86.2981       0.0930       3.7380       2.6970
   2155.5454       8.3300       0.0840    -999.2500      71.7700    -999.2500     176.5980      85.0200       0.0930       3.6850       2.6800
   2155.6980       8.3380       0.0865    -999.2500      65.7450    -999.2500     160.7951      85.1099       0.0930       3.6760       2.6800
   2155.8503       8.3460       0.0890    -999.2500      59.7230    -999.2500     145.0000      85.2000       0.0930       3.6670       2.6800
   2156.0027       8.3720       0.0895    -999.2500      55.7718    -999.2500     146.1072      83.2287       0.0930       3.6405       2.6800
   2156.1550       8.3980       0.0900    -999.2500      51.8220    -999.2500     147.2140      81.2550       0.0930       3.6140       2.6800
   2156.3074       8.4190       0.0950    -999.2500      51.8910    -999.2500     151.2850      76.5769       0.0929       3.5275       2.6835
   2156.4600       8.4400       0.1000    -999.2500      51.9600    -999.2500     155.3550      71.9000       0.0927       3.4410       2.6870
   2156.6123       8.4400       0.0975    -999.2500      50.8164    -999.2500     151.4748      72.5265       0.0920       3.3305       2.6995
   2156.7646       8.4400       0.0950    -999.2500      49.6730    -999.2500     147.5950      73.1530       0.0912       3.2200       2.7120
   2156.9170       8.4400       0.0985    -999.2500      45.6875    -999.2500     134.3006      77.3140       0.0893       3.2260       2.7410
   2157.0696       8.4400       0.1020    -999.2500      41.7020    -999.2500     121.0060      81.4750       0.0870       3.2320       2.7700
   2157.2219       8.4400       0.0970    -999.2500      42.6537    -999.2500     134.8276      91.3253       0.0815       3.2585       2.7660
   2157.3743       8.4400       0.0920    -999.2500      43.6040    -999.2500     148.6510     101.1770       0.0761       3.2850       2.7620
   2157.5266       8.4400       0.0785    -999.2500      46.4834    -999.2500     142.9642      96.9725       0.0761       3.3255       2.7665
   2157.6792       8.4400       0.0650    -999.2500      49.3590    -999.2500     137.2760      92.7670       0.0771       3.3660       2.7710
   2157.8315       8.4455       0.0520    -999.2500      54.1319    -999.2500     117.2014      80.3119       0.0816       3.4245       2.7790
   2157.9839       8.4510       0.0390    -999.2500      58.8990    -999.2500      97.1190      67.8520       0.0872       3.4830       2.7870
   2158.1362       8.4760       0.0265    -999.2500      68.6203    -999.2500      77.9229      54.5399       0.0993       3.4450       2.7765
   2158.2886       8.5010       0.0140    -999.2500      78.3310    -999.2500      58.7170      41.2210       0.1109       3.4070       2.7660
   2158.4412       8.5275       0.0150    -999.2500      76.3761    -999.2500      62.6872      44.4195       0.1112       3.3075       2.7435
   2158.5935       8.5540       0.0160    -999.2500      74.4230    -999.2500      66.6600      47.6200       0.1101       3.2080       2.7210
   2158.7458       8.5570       0.0210    -999.2500      67.2170    -999.2500      78.0941      57.6742       0.1063       3.2975       2.7055
   2158.8982       8.5600       0.0260    -999.2500      60.0170    -999.2500      89.5370      67.7360       0.1021       3.3870       2.6900
   2159.0508       8.5600       0.0380    -999.2500      52.2782    -999.2500     102.0724      83.6409       0.0962       3.5964       2.6920
   2159.2031       8.5600       0.0500    -999.2500      44.5450    -999.2500     114.6190      99.5600       0.0903       3.8060       2.6940
   2159.3555       8.5600       0.0460    -999.2500      42.1438    -999.2500     125.5989      99.5525       0.0859       3.9319       2.7025
   2159.5078       8.5600       0.0420    -999.2500      39.7440    -999.2500     136.5900      99.5450       0.0819       4.0580       2.7110
   2159.6604       8.5600       0.0330    -999.2500      40.9838    -999.2500     146.2117      93.4166       0.0797       4.0100       2.7210
   2159.8127       8.5600       0.0240    -999.2500      42.2230    -999.2500     155.8290      87.2910       0.0777       3.9620       2.7310
   2159.9651       8.5695       0.0180    -999.2500      44.3209    -999.2500     142.6258      88.4132       0.0769       3.8495       2.7400
   2160.1174       8.5790       0.0120    -999.2500      46.4180    -999.2500     129.4270      89.5350       0.0759       3.7370       2.7490
   2160.2698       8.6080       0.0160    -999.2500      47.8281    -999.2500     130.0096      94.7336       0.0727       3.6205       2.7555
   2160.4224       8.6370       0.0200    -999.2500      49.2380    -999.2500     130.5920      99.9310       0.0696       3.5040       2.7620
   2160.5747       8.6930       0.0280    -999.2500      53.4022    -999.2500     137.9138     109.0179       0.0702       3.5130       2.7555
   2160.7271       8.7490       0.0360    -999.2500      57.5660    -999.2500     145.2350     118.1040       0.0715       3.5220       2.7490
   2160.8794       8.7485       0.0395    -999.2500      63.9004    -999.2500     164.4791     130.0283       0.0755       3.5890       2.7220
   2161.0320       8.7480       0.0430    -999.2500      70.2350    -999.2500     183.7240     141.9530       0.0793       3.6560       2.6950
   2161.1843       8.7305       0.0435    -999.2500      66.7725    -999.2500     212.9876     162.6043       0.0795       3.6495       2.6965
   2161.3367       8.7130       0.0440    -999.2500      63.3150    -999.2500     242.2560     183.2590       0.0791       3.6430       2.6980
   2161.4890       8.6740       0.0440    -999.2500      56.3269    -999.2500     288.7398     214.7994       0.0774       3.6050       2.7060
   2161.6416       8.6350       0.0440    -999.2500      49.3480    -999.2500     335.2370     246.3490       0.0755       3.5670       2.7140
   2161.7939       8.5735       0.0440    -999.2500      45.5472    -999.2500     401.3898     279.6291       0.0726       3.4975       2.7315
   2161.9463       8.5120       0.0440    -999.2500      41.7510    -999.2500     467.5700     312.9230       0.0696       3.4280       2.7490
   2162.0986       8.4210       0.0435    -999.2500      39.9641    -999.2500     536.6393     333.8723       0.0680       3.3345       2.7625
   2162.2510       8.3300       0.0430    -999.2500      38.1790    -999.2500     605.7460     354.8330       0.0664       3.2410       2.7760
   2162.4036       8.3300       0.0410    -999.2500      36.4007    -999.2500     661.3774     371.4015       0.0655       3.2620       2.7545
   2162.5559       8.3300       0.0390    -999.2500      34.6240    -999.2500     717.0460     387.9810       0.0645       3.2830       2.7330
   2162.7083       8.3440       0.0390    -999.2500      33.2514    -999.2500     715.9749     383.5103       0.0635       3.3705       2.7355
