#------------------------------------------------------------------------------
#
#   Created by  : [OpenWorks] Log Export Utility (LEXP)
#   Created on  : 2016-05-23 11:50:56
#   Project     : CANT971
#   User        : R5K
#   Interpreter : PEP
#
#------------------------------------------------------------------------------
~VERSION INFORMATION
VERS. 2.0 : CWLS Log ASCII Standard - version 2.0
WRAP.  NO : One line per depth step
~WELL INFORMATION
#MNEMONIC   .UNIT                                           VALUE :DESCRIPTION
#------------------------------------------------------------------------------
STRT        .M                                           679.7040 :START DEPTH
STOP        .M                                          2836.1641 :STOP DEPTH
STEP        .M                                             0.1524 :STEP
NULL        .                                           -999.2500 :NULL VALUE
COMP        .                                   PEMEX EXPL & PROD :COMPANY
WELL        .                                                1044 :WELL
FLD         .                                           CANTARELL :FIELD
LOC         .                                             UNKNOWN :LOCATION
CNTY        .                                      CD. DEL CARMEN :COUNTY
STAT        .                                            CAMPECHE :STATE
CTRY        .                                              MEXICO :COUNTRY
SRVC        .                                             UNKNOWN :SERVICE COMPANY
DATE        .                                             UNKNOWN :LOG DATE
UWI         .                                          3060000497 :UNIQUE WELL ID
XCOORD      .                                       596164.320000 :SURFACE X
YCOORD      .                                      2150609.730000 :SURFACE Y
LAT         .                                           19.448753 :LATITUDE
LON         .                                          -92.083884 :LONGITUDE
ELEV        .M                                            30.0000 :SURFACE ELEV
ELEV_TYPE   .                                                  KB :ELEV TYPE
~CURVE INFORMATION
#MNEMONIC.UNIT        API CODE       : CURVE DESCRIPTION
#------------------------------------------------------------------------------
DEPTH    .M                          : Measured Depth
CALI     .inches      UNKNOWN        : CALI:litodensidad:rC:NONE:v0 (auto-composite)
DRHO     .g/cm3       UNKNOWN        : DRHO:litodensidad:rC:NONE:v0 (auto-composite)
DT       .us/ft       UNKNOWN        : DT:DT:rC:NONE:v0 (auto-composite)
GR       .API         UNKNOWN        : GR:UNKNOWN:rC:NONE:v0 (auto-composite)
ILD      .ohm.m       UNKNOWN        : ILD:UNKNOWN:rC:NONE:v0 (auto-composite)
ILM      .ohm.m       UNKNOWN        : ILM:UNKNOWN:rC:NONE:v0 (auto-composite)
LLD      .ohm.m       UNKNOWN        : LLD:UNKNOWN:rC:NONE:v0 (auto-composite)
LLS      .ohm.m       UNKNOWN        : LLS:UNKNOWN:rC:NONE:v0 (auto-composite)
MSFL     .ohm.m       UNKNOWN        : MSFL:UNKNOWN:rC:NONE:v0 (auto-composite)
NPHI     .v/v_decimal UNKNOWN        : NPHI:NPHI:rC:NONE:v0 (auto-composite)
PEF      .b/elec      UNKNOWN        : PEF:UNKNOWN:rC:NONE:v0 (auto-composite)
RHOB     .g/cm3       UNKNOWN        : RHOB:UNKNOWN:rC:NONE:v0 (auto-composite)
~A     DEPTH         CALI         DRHO           DT           GR          ILD          ILM          LLD          LLS         MSFL         NPHI          PEF         RHOB
# ...
   2742.5903       9.6600       0.0990      82.4210     128.6440    -999.2500    -999.2500       5.2221       4.7460       3.5099       0.3007       3.7240       2.4170
   2742.7427       9.9307       0.0945      89.9560     129.5924    -999.2500    -999.2500       5.1752       4.6617       3.5403       0.3004       3.6501       2.4090
   2742.8953      10.2020       0.0900      97.5050     130.5380    -999.2500    -999.2500       5.1282       4.5773       3.5708       0.3000       3.5760       2.4010
   2743.0476      10.5457       0.0945      99.8812     127.5703    -999.2500    -999.2500       5.1498       4.5510       3.5742       0.3089       3.4152       2.3560
   2743.2000      10.8900       0.0990     102.2620     124.6110    -999.2500    -999.2500       5.1714       4.5246       3.5776       0.3178       3.2540       2.3110
   2743.3523      10.9994       0.1045      98.3476     125.5378    -999.2500    -999.2500       5.1731       4.4939       3.5742       0.3331       3.1626       2.2665
   2743.5049      11.1090       0.1100      94.4250     126.4620    -999.2500    -999.2500       5.1748       4.4631       3.5707       0.3484       3.0710       2.2220
   2743.6572      11.1619       0.1080      92.0167     124.4013    -999.2500    -999.2500       5.1150       4.3916       3.5198       0.3418       3.0855       2.2460
   2743.8096      11.2150       0.1060      89.6030     122.3460    -999.2500    -999.2500       5.0552       4.3199       3.4688       0.3351       3.1000       2.2700
   2743.9619      11.5266       0.1035      91.2266     120.5343    -999.2500    -999.2500       4.9542       4.2216       3.4262       0.3366       3.1949       2.2920
   2744.1143      11.8390       0.1010      92.8540     118.7270    -999.2500    -999.2500       4.8530       4.1230       3.3835       0.3381       3.2900       2.3140
   2744.2668      12.2173       0.1155      95.4674     121.0767    -999.2500    -999.2500       4.7670       4.0391       3.3346       0.3476       3.3645       2.3215
   2744.4192      12.5960       0.1300      98.0830     123.4210    -999.2500    -999.2500       4.6810       3.9552       3.2857       0.3572       3.4390       2.3290
   2744.5715      12.5510       0.1620      98.7847     125.9383    -999.2500    -999.2500       4.6317       3.9000       3.2406       0.3663       3.3710       2.3245
   2744.7239      12.5060       0.1940      99.4870     128.4500    -999.2500    -999.2500       4.5824       3.8447       3.1954       0.3753       3.3030       2.3200
   2744.8765      12.2332       0.2200      98.1632     129.3369    -999.2500    -999.2500       4.5570       3.8118       3.2007       0.3773       3.2245       2.3080
   2745.0288      11.9600       0.2460      96.8380     130.2220    -999.2500    -999.2500       4.5317       3.7789       3.2061       0.3793       3.1460       2.2960
   2745.1812      11.6402       0.2335      96.1374     130.6039    -999.2500    -999.2500       4.5067       3.7570       3.2791       0.3752       3.2090       2.2910
   2745.3335      11.3200       0.2210      95.4360     130.9850    -999.2500    -999.2500       4.4817       3.7349       3.3521       0.3712       3.2720       2.2860
   2745.4861      11.4184       0.1710      93.8746     131.6656    -999.2500    -999.2500       4.4457       3.7164       3.4648       0.3581       3.3754       2.2900
   2745.6384      11.5170       0.1210      92.3110     132.3450    -999.2500    -999.2500       4.4097       3.6978       3.5776       0.3450       3.4790       2.2940
   2745.7908      11.3456       0.0755      88.2795     129.9269    -999.2500    -999.2500       4.3736       3.6899       3.6897       0.3397       3.3171       2.2575
   2745.9431      11.1740       0.0300      84.2420     127.5130    -999.2500    -999.2500       4.3374       3.6820       3.8019       0.3343       3.1550       2.2210
   2746.0955      11.0941       0.0385      80.4990     124.2804    -999.2500    -999.2500       4.2974       3.6736       3.8560       0.3338       3.1915       2.2425
   2746.2480      11.0140       0.0470      76.7500     121.0530    -999.2500    -999.2500       4.2574       3.6653       3.9103       0.3332       3.2280       2.2640
   2746.4004      10.9635       0.0635      77.2421     121.0660    -999.2500    -999.2500       4.2079       3.6438       3.8801       0.3336       3.3064       2.2495
   2746.5527      10.9130       0.0800      77.7350     121.0790    -999.2500    -999.2500       4.1584       3.6222       3.8498       0.3339       3.3850       2.2350
   2746.7051      10.9255       0.0935      79.3470     123.4665    -999.2500    -999.2500       4.0991       3.5861       3.7828       0.3393       3.3335       2.1801
   2746.8577      10.9380       0.1070      80.9620     125.8470    -999.2500    -999.2500       4.0398       3.5498       3.7155       0.3446       3.2820       2.1250
   2747.0100      10.9969       0.1200      84.9275     125.7504    -999.2500    -999.2500       3.9766       3.5078       3.6366       0.3510       3.2880       2.1415
   2747.1624      11.0560       0.1330      88.9010     125.6540    -999.2500    -999.2500       3.9132       3.4658       3.5575       0.3574       3.2940       2.1580
   2747.3147      11.1354       0.1400      93.9331     123.8966    -999.2500    -999.2500       3.8762       3.4507       3.5310       0.3526       3.3639       2.2129
   2747.4673      11.2150       0.1470      98.9760     122.1440    -999.2500    -999.2500       3.8390       3.4357       3.5044       0.3477       3.4340       2.2680
   2747.6196      11.3595       0.1620      97.4240     119.9622    -999.2500    -999.2500       3.8394       3.4640       3.5506       0.3379       3.4919       2.3239
   2747.7720      11.5040       0.1770      95.8710     117.7860    -999.2500    -999.2500       3.8398       3.4925       3.5969       0.3280       3.5500       2.3800
   2747.9243      11.7679       0.2135      89.5929     116.6681    -999.2500    -999.2500       3.8544       3.5399       3.6551       0.3172       3.6394       2.4619
   2748.0767      12.0320       0.2500      83.3100     115.5530    -999.2500    -999.2500       3.8690       3.5874       3.7135       0.3064       3.7290       2.5440
   2748.2292      11.8361       0.2375      80.8861     118.5074    -999.2500    -999.2500       3.8876       3.6382       3.8155       0.3151       3.5366       2.5025
   2748.3816      11.6400       0.2250      78.4600     121.4550    -999.2500    -999.2500       3.9062       3.6890       3.9175       0.3238       3.3440       2.4610
   2748.5339      11.7115       0.1960      79.9422     122.0116    -999.2500    -999.2500       3.9049       3.7241       4.0122       0.3368       3.0776       2.3566
   2748.6863      11.7830       0.1670      81.4260     122.5670    -999.2500    -999.2500       3.9036       3.7594       4.1071       0.3498       2.8110       2.2520
   2748.8389      11.6546       0.1460      80.1412     120.1395    -999.2500    -999.2500       3.9284       3.8234       4.1584       0.3472       2.8905       2.2660
   2748.9912      11.5260       0.1250      78.8550     117.7170    -999.2500    -999.2500       3.9532       3.8875       4.2098       0.3445       2.9700       2.2800
   2749.1436      11.2787       0.1210      75.6660     115.9994    -999.2500    -999.2500       3.9999       3.9763       4.1841       0.3383       3.1024       2.3290
   2749.2959      11.0310       0.1170      72.4730     114.2850    -999.2500    -999.2500       4.0467       4.0653       4.1583       0.3321       3.2350       2.3780
   2749.4485      10.9126       0.1265      69.3672     114.6789    -999.2500    -999.2500       4.0576       4.1140       4.0379       0.3267       3.2070       2.3935
   2749.6008      10.7940       0.1360      66.2570     115.0720    -999.2500    -999.2500       4.0685       4.1627       3.9174       0.3213       3.1790       2.4090
   2749.7532      10.8864       0.1440      67.2428     116.3280    -999.2500    -999.2500       4.0071       4.1226       3.7946       0.3133       3.1285       2.3950
