#------------------------------------------------------------------------------
#
#   Created by  : [OpenWorks] Log Export Utility (LEXP)
#   Created on  : 2016-05-23 11:56:05
#   Project     : CANT971
#   User        : R5K
#   Interpreter : PEP
#
#------------------------------------------------------------------------------
~VERSION INFORMATION
VERS. 2.0 : CWLS Log ASCII Standard - version 2.0
WRAP.  NO : One line per depth step
~WELL INFORMATION
#MNEMONIC   .UNIT                                           VALUE :DESCRIPTION
#------------------------------------------------------------------------------
STRT        .M                                          1100.3549 :START DEPTH
STOP        .M                                          2766.5439 :STOP DEPTH
STEP        .M                                             0.1524 :STEP
NULL        .                                           -999.2500 :NULL VALUE
COMP        .                                   PEMEX EXPL & PROD :COMPANY
WELL        .                                                  43 :WELL
FLD         .                                           CANTARELL :FIELD
LOC         .                                             UNKNOWN :LOCATION
CNTY        .                                      CD. DEL CARMEN :COUNTY
STAT        .                                            CAMPECHE :STATE
CTRY        .                                              MEXICO :COUNTRY
SRVC        .                                             UNKNOWN :SERVICE COMPANY
DATE        .                                             UNKNOWN :LOG DATE
UWI         .                                          3060000465 :UNIQUE WELL ID
XCOORD      .                                       601717.960000 :SURFACE X
YCOORD      .                                      2142346.560000 :SURFACE Y
LAT         .                                           19.373808 :LATITUDE
LON         .                                          -92.031425 :LONGITUDE
ELEV        .M                                            24.0000 :SURFACE ELEV
ELEV_TYPE   .                                                  KB :ELEV TYPE
~CURVE INFORMATION
#MNEMONIC.UNIT        API CODE       : CURVE DESCRIPTION
#------------------------------------------------------------------------------
DEPTH    .M                          : Measured Depth
CAL      .inches      UNKNOWN        : CAL:UNKNOWN:rC:NONE:v0 (auto-composite)
CALI     .in          UNKNOWN        : CALI:UNKNOWN:rC:NONE:v0 (auto-composite)
CNL      .v/v_decimal UNKNOWN        : CNL:UNKNOWN:rC:NONE:v0 (auto-composite)
DT       .us/ft       UNKNOWN        : DT:DT:rC:NONE:v0 (auto-composite)
GR       .API         UNKNOWN        : GR:UNKNOWN:rC:NONE:v0 (auto-composite)
ILD      .ohmm        UNKNOWN        : ILD:UNKNOWN:rC:NONE:v0 (auto-composite)
ILM      .ohmm        UNKNOWN        : ILM:UNKNOWN:rC:NONE:v0 (auto-composite)
LLD      .ohmm        UNKNOWN        : LLD:UNKNOWN:rC:NONE:v0 (auto-composite)
LLS      .ohmm        UNKNOWN        : LLS:UNKNOWN:rC:NONE:v0 (auto-composite)
NPHI     .v/v_decimal UNKNOWN        : NPHI:UNKNOWN:rC:NONE:v0 (auto-composite)
PEF      .b/elec      UNKNOWN        : PEF:UNKNOWN:rC:NONE:v0 (auto-composite)
RHOB     .g/cm3       UNKNOWN        : RHOB:UNKNOWN:rC:NONE:v0 (auto-composite)
~A     DEPTH          CAL         CALI          CNL           DT           GR          ILD          ILM          LLD          LLS         NPHI          PEF         RHOB
# ...
   1992.8092      10.4440      10.4440       3.0560      46.6670      15.2038    -999.2500    -999.2500   17153.2031    1136.9042       2.6212       3.3484       2.8215
   1992.9617      10.4440      10.4440       2.4440      46.6670      16.0126    -999.2500    -999.2500   17149.2070    1128.6082       1.8958       3.1605       2.8185
   1993.1140      10.4440      10.4439       1.8383      46.5868      16.8739    -999.2500    -999.2500   17099.5234    1112.7628       1.2730       3.0140       2.8141
   1993.2665      10.4440      10.4434       1.2997      46.0313      17.9790    -999.2500    -999.2500   16837.8555    1061.8907       1.1266       3.0590       2.8036
   1993.4188      10.4440      10.4374       1.2966      45.5560      18.8877    -999.2500    -999.2500   16348.7725    1004.3978       1.0131       3.1264       2.7930
   1993.5713      10.4426      10.4054       1.2126      45.5560      18.8802    -999.2500    -999.2500   14798.2549     916.0018       1.0536       3.2988       2.7815
   1993.7236      10.4395      10.3560       1.0365      45.9539      18.6834    -999.2500    -999.2500   13048.8857     833.4545       1.1074       3.4329       2.7720
   1993.8761      10.3281      10.2247       1.1542      48.7109      17.5929    -999.2500    -999.2500   10360.6602     778.5201       1.2242       3.3868       2.7720
   1994.0284      10.2074      10.1461       1.3023      51.0696      16.7888    -999.2500    -999.2500    7831.8037     726.2148       1.3193       3.3862       2.7725
   1994.1809      10.1452      10.3075       1.3145      51.0666      17.2869    -999.2500    -999.2500    6027.3545     685.8594       1.3153       3.5925       2.7749
   1994.3333      10.1903      10.4372       1.5388      50.7469      17.6415    -999.2500    -999.2500    4389.1172     645.8386       1.2841       3.7237       2.7787
   1994.4857      10.3244      10.4217       1.9393      48.5485      17.3367    -999.2500    -999.2500    3514.9834     607.3563       1.1282       3.5093       2.7882
   1994.6381      10.3939      10.3933       1.5971      46.6670      16.8690    -999.2500    -999.2500    2723.2644     571.6200       1.0000       3.3334       2.7993
   1994.7904      10.4219      10.3049       1.2422      46.6670      15.6485    -999.2500    -999.2500    2312.6611     548.5827       1.0000       3.3354       2.8178
   1994.9429      10.3536      10.2507       1.0661      46.7429      14.7522    -999.2500    -999.2500    1937.2404     522.3846       1.0000       3.3460       2.8330
   1995.0952      10.2914      10.3566       1.0000      47.2693      15.3725    -999.2500    -999.2500    1726.3855     481.4018       1.0000       3.3970       2.8330
   1995.2477      10.2329      10.4437       1.0000      47.7196      16.4357    -999.2500    -999.2500    1554.7140     440.7474       1.0000       3.4620       2.8324
   1995.4000      10.3593      10.4422       1.0000      47.7171      19.5831    -999.2500    -999.2500    1567.4196     401.6387       1.0000       3.5933       2.8289
   1995.5525      10.4415      10.4219       1.0000      47.6928      22.0769    -999.2500    -999.2500    1597.8508     371.1150       1.0000       3.7167       2.8238
   1995.7048      10.4342      10.3160       1.0000      47.5393      21.5931    -999.2500    -999.2500    1709.0253     379.6978       1.0000       3.8042       2.8118
   1995.8573      10.3419      10.2318       1.0000      47.2740      20.7907    -999.2500    -999.2500    1906.2368     394.8495       1.0000       3.8701       2.7994
   1996.0096      10.2223      10.2473       1.0000      46.3480      18.5280    -999.2500    -999.2500    2497.6650     440.0993       1.0000       3.8371       2.7849
   1996.1621      10.2265      10.2756       1.0000      45.5560      16.6708    -999.2500    -999.2500    2972.7021     477.2767       1.0005       3.7677       2.7736
   1996.3145      10.2576      10.3636       1.0000      45.5560      16.6923    -999.2500    -999.2500    2908.3486     477.0443       1.0035       3.5293       2.7771
   1996.4669      10.3253      10.4330       1.0000      45.5564      16.7762    -999.2500    -999.2500    2819.5496     476.0558       1.0144       3.3336       2.7831
   1996.6193      10.3858      10.4160       1.0095      45.5589      17.1509    -999.2500    -999.2500    2616.7903     471.5420       1.0618       3.3371       2.8006
   1996.7716      10.4257      10.3667       1.0443      45.5848      17.7491    -999.2500    -999.2500    2416.5029     463.3777       1.1185       3.3552       2.8143
   1996.9241      10.3531      10.1652       1.2149      45.7498      19.4017    -999.2500    -999.2500    2227.8721     437.9984       1.2182       3.4419       2.8103
   1997.0764      10.2516      10.0005       1.3000      45.9519      20.6468    -999.2500    -999.2500    2043.1385     408.1626       1.3000       3.5561       2.8050
   1997.2289      10.1211      10.0029       1.3000      46.3734      20.0418    -999.2500    -999.2500    1876.0995     358.0938       1.3000       3.7949       2.7940
   1997.3812      10.0489      10.0235       1.3000      46.9624      19.2060    -999.2500    -999.2500    1715.6255     317.0565       1.3016       3.9881       2.7838
   1997.5337      10.0026      10.1269       1.3000      48.5444      17.3106    -999.2500    -999.2500    1585.2960     317.4902       1.3106       3.9716       2.7773
   1997.6860      10.0141      10.2092       1.3000      49.8252      15.8060    -999.2500    -999.2500    1480.5157     318.8552       1.3727       3.9484       2.7708
   1997.8385      10.0873      10.1932       1.3216      49.3207      16.1164    -999.2500    -999.2500    1494.3932     324.5457       1.6816       3.8945       2.7644
   1997.9908      10.2049      10.1651       1.3588      48.8894      16.5750    -999.2500    -999.2500    1492.9611     332.7859       1.8800       3.8431       2.7599
   1998.1433      10.1484      10.0807       1.6905      48.8924      17.7266    -999.2500    -999.2500    1420.0033     352.9376       1.5622       3.8042       2.7649
   1998.2957      10.0846      10.0285       1.8198      48.9220      18.2191    -999.2500    -999.2500    1320.9850     367.5457       1.3119       3.7540       2.7716
   1998.4480      10.0297      10.1288       1.4321      49.1090      15.5974    -999.2500    -999.2500    1098.8046     355.9546       1.3801       3.6513       2.7867
   1998.6005      10.0556      10.2020       1.3161      49.3550      13.4903    -999.2500    -999.2500     887.4773     340.7881       1.4808       3.5749       2.7988
   1998.7528      10.1230      10.1520       1.3448      49.9515      13.7251    -999.2500    -999.2500     725.5296     309.3548       1.7296       3.6189       2.7978
   1998.9053      10.1773      10.1114       1.6021      50.5888      14.1592    -999.2500    -999.2500     594.5718     279.9495       1.9984       3.6517       2.7977
   1999.0576      10.1879      10.1134       1.8960      51.4688      15.5101    -999.2500    -999.2500     606.2169     259.8762       2.3593       3.6332       2.8017
   1999.2101      10.1270      10.1245       2.2502      52.2216      17.1940    -999.2500    -999.2500     626.5007     239.6270       2.6435       3.5927       2.8078
   1999.3624      10.1164      10.1780       2.4838      52.2186      20.4193    -999.2500    -999.2500     686.7720     218.5640       2.5730       3.4503       2.8238
   1999.5149      10.1289      10.2191       2.6280      52.1881      22.8977    -999.2500    -999.2500     755.6428     202.9924       2.4466       3.3502       2.8347
   1999.6672      10.1892      10.2026       2.3409      51.9951      21.8786    -999.2500    -999.2500     864.7766     213.1315       2.0577       3.4482       2.8217
   1999.8197      10.2184      10.1818       1.9518      51.7461      20.5376    -999.2500    -999.2500     966.1818     229.7001       1.7523       3.5118       2.8110
   1999.9720      10.2105      10.1407       1.4415      51.1661      17.6803    -999.2500    -999.2500    1031.1844     276.5517       1.8395       3.4136       2.8110
