#------------------------------------------------------------------------------
#
#   Created by  : [OpenWorks] Log Export Utility (LEXP)
#   Created on  : 2016-05-23 11:57:04
#   Project     : CANT971
#   User        : R5K
#   Interpreter : PEP
#
#------------------------------------------------------------------------------
~VERSION INFORMATION
VERS. 2.0 : CWLS Log ASCII Standard - version 2.0
WRAP.  NO : One line per depth step
~WELL INFORMATION
#MNEMONIC   .UNIT                                           VALUE :DESCRIPTION
#------------------------------------------------------------------------------
STRT        .M                                           125.9451 :START DEPTH
STOP        .M                                          3005.5432 :STOP DEPTH
STEP        .M                                             0.1524 :STEP
NULL        .                                           -999.2500 :NULL VALUE
COMP        .                                   PEMEX EXPL & PROD :COMPANY
WELL        .                                                 66A :WELL
FLD         .                                           CANTARELL :FIELD
LOC         .                                             UNKNOWN :LOCATION
CNTY        .                                      CD. DEL CARMEN :COUNTY
STAT        .                                            CAMPECHE :STATE
CTRY        .                                              MEXICO :COUNTRY
SRVC        .                                             UNKNOWN :SERVICE COMPANY
DATE        .                                             UNKNOWN :LOG DATE
UWI         .                                          3060000173 :UNIQUE WELL ID
XCOORD      .                                       599692.990000 :SURFACE X
YCOORD      .                                      2143036.380000 :SURFACE Y
LAT         .                                           19.380143 :LATITUDE
LON         .                                          -92.050669 :LONGITUDE
ELEV        .M                                            26.7400 :SURFACE ELEV
ELEV_TYPE   .                                                  KB :ELEV TYPE
~CURVE INFORMATION
#MNEMONIC.UNIT        API CODE       : CURVE DESCRIPTION
#------------------------------------------------------------------------------
DEPTH    .M                          : Measured Depth
CALI     .UNKNOWN     UNKNOWN        : CALI:UNKNOWN:rC:NONE:v0 (auto-composite)
DT       .us/ft       UNKNOWN        : DT:DT:rC:NONE:v0 (auto-composite)
GR       .API         UNKNOWN        : GR:UNKNOWN:rC:NONE:v0 (auto-composite)
GR-ENT   .API         UNKNOWN        : GR-ENT:porosidad-entubado:rC:NONE:v0 (auto-composite)
GR-LWD   .UNKNOWN     UNKNOWN        : GR-LWD:GR-LWD:rC:NONE:v0 (auto-composite)
ILD      .UNKNOWN     UNKNOWN        : ILD:UNKNOWN:rC:NONE:v0 (auto-composite)
LLD      .UNKNOWN     UNKNOWN        : LLD:UNKNOWN:rC:NONE:v0 (auto-composite)
LLD-LWD  .UNKNOWN     UNKNOWN        : LLD-LWD:LLD-LWD:rC:NONE:v0 (auto-composite)
LLS      .UNKNOWN     UNKNOWN        : LLS:UNKNOWN:rC:NONE:v0 (auto-composite)
LLS-LWD  .UNKNOWN     UNKNOWN        : LLS-LWD:LLS-LWD:rC:NONE:v0 (auto-composite)
MSFL     .UNKNOWN     UNKNOWN        : MSFL:UNKNOWN:rC:NONE:v0 (auto-composite)
MSFL-LWD .UNKNOWN     UNKNOWN        : MSFL-LWD:MSFL-LWD:rC:NONE:v0 (auto-composite)
NPHI     .v/v_decimal UNKNOWN        : NPHI:PETROWORKS:rC:NONE:v1 
NPHI-ENT .UNKNOWN     UNKNOWN        : NPHI-ENT:porosidad-entubado:rC:NONE:v0 (auto-composite)
RHOB     .g/cm3       UNKNOWN        : RHOB:UNKNOWN:rC:NONE:v0 (auto-composite)
~A     DEPTH         CALI           DT           GR       GR-ENT       GR-LWD          ILD          LLD      LLD-LWD          LLS      LLS-LWD         MSFL     MSFL-LWD         NPHI     NPHI-ENT         RHOB
# ...
   2224.0359       6.1616      72.3422      54.8217      39.1155      38.0231    -999.2500    5128.6221     305.8751     855.2202     165.9870      44.9174      43.6271       0.1400       0.2022       2.5692
   2224.1882       6.1743      73.0578      55.8718      40.7516      34.6281    -999.2500    5154.0664     297.9313     783.3547     166.2403      38.3804      55.4842       0.1392       0.1917       2.5743
   2224.3408       6.1773      71.8344      53.9861      41.4939      32.4392    -999.2500    4466.0264     334.4015     660.1944     156.9295      40.8563      47.2599       0.1378       0.1809       2.5780
   2224.4932       6.1790      71.4219      50.2197      41.8464      34.7556    -999.2500    3665.8228     381.7510     535.1570     183.5661      38.0417      45.1793       0.1375       0.1959       2.5822
   2224.6455       6.1790      72.1551      43.7967      41.1048      33.6891    -999.2500    2707.1726     704.1163     407.4680     485.2998      27.7534      46.2111       0.1387       0.2000       2.5805
   2224.7979       6.1930      73.2628      40.1186      38.9669      35.8234    -999.2500    1948.1951    1782.9900     309.5568    1742.0000      19.9619      58.1000       0.1402       0.1993       2.5761
   2224.9502       6.2265      74.9014      40.3580      37.0732      33.8451    -999.2500    1474.1667    1852.0795     254.1413    1844.4065      15.7337      59.3246       0.1420       0.1915       2.5635
   2225.1028       6.2427      76.0743      39.9653      34.6209      30.4287    -999.2500    1103.0798     457.4260     207.4670     378.5869      13.8556      27.5089       0.1451       0.1770       2.5618
   2225.2551       6.2347      76.5890      38.6672      32.6624      30.8239    -999.2500     879.4233     149.2400     173.3118      57.8106      15.3433      22.8674       0.1496       0.1522       2.5455
   2225.4075       6.2008      76.4193      37.9100      30.1657      35.4287    -999.2500     708.9785     107.7424     144.4180      55.6241      19.0517      23.5666       0.1570       0.1366       2.5386
   2225.5598       6.1308      75.2853      37.9100      28.8329      34.1724    -999.2500     613.0204     414.6685     122.8893     363.0682      25.8687      38.0556       0.1682       0.1283       2.5379
   2225.7124       6.0245      73.8867      38.2452      27.7450      31.5780    -999.2500     547.1626     858.4479     113.6887     816.0206      39.3097      51.5331       0.1737       0.1337       2.4962
   2225.8647       5.8676      72.1141      39.0512      27.6107      28.4850    -999.2500     523.5897    1155.1776     121.8067     752.9186      62.0562      47.5373       0.1730       0.1501       2.4925
   2226.0171       5.7760      69.6244      39.6511      28.2450      28.3443    -999.2500     580.5683     666.1646     151.9424     299.9692      71.4049      40.4512       0.1687       0.1964       2.4937
   2226.1694       5.7760      66.1239      39.9584      29.5179      26.9404    -999.2500     751.8618     283.2654     213.3244     112.4840      61.7400      31.2578       0.1602       0.2186       2.5241
   2226.3218       5.7760      64.4175      40.4480      31.3356      24.2290    -999.2500    1335.8546     348.7345     365.8317     150.8204      51.9346      35.1995       0.1493       0.1979       2.5525
   2226.4744       5.7760      65.2493      41.1972      32.7102      32.7971    -999.2500    2507.6206     271.4930     648.1213     102.6525      41.9289      29.1348       0.1354       0.1510       2.5864
   2226.6267       5.7727      65.6753      42.1247      33.8396      36.9543    -999.2500    2970.9963     183.7919     729.6242      77.4480      32.7917      26.1743       0.1238       0.1304       2.5947
   2226.7791       5.7647      65.5288      43.3069      33.1512      35.2028    -999.2500    2421.8674     389.3612     524.1421     212.7510      24.8958      34.0835       0.1158       0.1217       2.6090
   2226.9314       5.7539      65.2403      44.3729      32.6009      35.4830    -999.2500    1838.0607     826.9651     344.8911     556.4870      19.3967      33.9632       0.1144       0.1220       2.5697
   2227.0840       5.7394      64.7506      45.2763      32.0198      37.8704    -999.2500    1205.8076     438.6956     202.2854     191.2653      17.2459      26.1766       0.1229       0.1221       2.5655
   2227.2363       5.7310      64.7067      46.3856      32.4852      38.9582    -999.2500     873.5532     288.1310     120.8709      73.5098      18.5551      23.0720       0.1318       0.1232       2.5538
   2227.3887       5.7310      65.2920      47.7855      34.3831      40.6147    -999.2500     964.6778     263.8856     125.8138      50.6802      24.7474      18.1653       0.1406       0.1261       2.5651
   2227.5410       5.7310      66.2935      49.4280      36.2404      39.2715    -999.2500    1440.2484    1019.0466     199.3388     393.7285      32.0660      21.7949       0.1454       0.1333       2.5684
   2227.6936       5.7310      67.8846      51.4141      38.9794      35.4047    -999.2500    2460.3113    1150.5491     369.9971     740.0879      40.9796      23.6089       0.1440       0.1393       2.5985
   2227.8459       5.7310      69.3943      52.5404      40.6312      28.3940    -999.2500    3765.3101     209.1033     670.1996     152.6921      47.2424      15.3033       0.1357       0.1427       2.6134
   2227.9983       5.7310      70.7892      52.4444      41.8263      28.4700    -999.2500    5475.3047    1410.9800    1154.5310    1296.5300      49.7373      57.7300       0.1202       0.1462       2.6265
   2228.1506       5.7310      71.2130      52.8548      41.9570      28.1497    -999.2500    6216.0679    1724.7234    1532.2998    1244.8660      48.4932      57.3584       0.1074       0.1506       2.6398
   2228.3030       5.7310      70.2606      53.9876      41.9453      29.1174    -999.2500    5574.2881     250.2235    1758.0643     108.5239      41.9158       9.8936       0.0991       0.1508       2.6536
   2228.4556       5.7310      69.3428      55.3217      42.2789      27.3225    -999.2500    4888.3662     255.3522    1850.7087      34.1315      40.0182      13.3350       0.0949       0.1449       2.6611
   2228.6079       5.7310      68.4736      56.9385      42.9705      25.7683    -999.2500    4140.4941     778.8191    1756.5270      55.9780      44.6887      20.6522       0.0955       0.1316       2.6627
   2228.7603       5.7310      67.4793      58.2357      43.7269      24.7784    -999.2500    3495.3145    1420.5450    1644.1777      65.4931      49.6761      20.6202       0.0981       0.1290       2.6730
   2228.9126       5.7310      66.3074      59.0829      44.4474      23.9333    -999.2500    2994.7712    1580.2618    1506.2408      71.8503      55.1097      20.1785       0.1031       0.1327       2.6659
   2229.0652       5.7310      65.4067      58.8200      44.5082      22.9276    -999.2500    2600.2437     439.7313    1401.5610      42.8540      62.2402      15.8891       0.1082       0.1309       2.6632
   2229.2175       5.7310      64.8895      56.9883      44.0779      25.3792    -999.2500    2355.5657     462.2057    1343.8889      56.6600      71.7691      19.2342       0.1133       0.1246       2.6230
   2229.3699       5.7310      64.2420      54.0513      42.7117      32.8095    -999.2500    2159.5022    1660.9169    1303.9526     103.5432      84.6217      35.9730       0.1172       0.1198       2.6052
   2229.5222       5.7310      63.4109      49.5464      40.0297      32.4348    -999.2500    2032.3986    1260.6313    1289.1749      84.5913     102.1891      32.3617       0.1194       0.1163       2.5967
   2229.6748       5.7310      62.1187      46.2788      37.6278      31.0104    -999.2500    1936.2800     435.6125    1287.9829      62.5218     111.6924      20.9646       0.1194       0.1163       2.6182
   2229.8271       5.7310      60.1745      44.7844      34.2959      33.6283    -999.2500    1884.5638    1674.0933    1306.2595     638.0001     109.6397      22.1834       0.1162       0.1171       2.6312
