#------------------------------------------------------------------------------
#
#   Created by  : [OpenWorks] Log Export Utility (LEXP)
#   Created on  : 2016-05-23 11:55:46
#   Project     : CANT971
#   User        : R5K
#   Interpreter : PEP
#
#------------------------------------------------------------------------------
~VERSION INFORMATION
VERS. 2.0 : CWLS Log ASCII Standard - version 2.0
WRAP.  NO : One line per depth step
~WELL INFORMATION
#MNEMONIC   .UNIT                                           VALUE :DESCRIPTION
#------------------------------------------------------------------------------
STRT        .M                                           325.5260 :START DEPTH
STOP        .M                                          2414.9299 :STOP DEPTH
STEP        .M                                             0.1524 :STEP
NULL        .                                           -999.2500 :NULL VALUE
COMP        .                                   PEMEX EXPL & PROD :COMPANY
WELL        .                                                   4 :WELL
FLD         .                                           CANTARELL :FIELD
LOC         .                                             UNKNOWN :LOCATION
CNTY        .                                      CD. DEL CARMEN :COUNTY
STAT        .                                            CAMPECHE :STATE
CTRY        .                                              MEXICO :COUNTRY
SRVC        .                                             UNKNOWN :SERVICE COMPANY
DATE        .                                             UNKNOWN :LOG DATE
UWI         .                                          3060000140 :UNIQUE WELL ID
XCOORD      .                                       598455.270000 :SURFACE X
YCOORD      .                                      2145027.190000 :SURFACE Y
LAT         .                                           19.398194 :LATITUDE
LON         .                                          -92.062351 :LONGITUDE
ELEV        .M                                            26.5400 :SURFACE ELEV
ELEV_TYPE   .                                                  KB :ELEV TYPE
~CURVE INFORMATION
#MNEMONIC.UNIT        API CODE       : CURVE DESCRIPTION
#------------------------------------------------------------------------------
DEPTH    .M                          : Measured Depth
CALI     .inches      UNKNOWN        : CALI:Import:rC:NONE:v0 (auto-composite)
CGR      .API         UNKNOWN        : CGR:Import:rC:NONE:v0 (auto-composite)
DRHO     .g/cm3       UNKNOWN        : DRHO:Import:rC:NONE:v0 (auto-composite)
DT       .us/ft       UNKNOWN        : DT:Import:rC:NONE:v0 (auto-composite)
GR       .API         UNKNOWN        : GR:Import:rC:NONE:v0 (auto-composite)
ILD      .ohm.m       UNKNOWN        : ILD:Import:rC:NONE:v0 (auto-composite)
LLD      .ohm.m       UNKNOWN        : LLD:Import:rC:NONE:v0 (auto-composite)
LLS      .ohm.m       UNKNOWN        : LLS:Import:rC:NONE:v0 (auto-composite)
MSFL     .ohm.m       UNKNOWN        : MSFL:Import:rC:NONE:v0 (auto-composite)
NPHI     .v/v_decimal UNKNOWN        : NPHI:Import:rC:NONE:v0 (auto-composite)
POTA     .wtpercent   UNKNOWN        : POTA:Import:rC:NONE:v0 (auto-composite)
RHOB     .g/cm3       UNKNOWN        : RHOB:Import:rC:NONE:v0 (auto-composite)
THOR     .ppm         UNKNOWN        : THOR:Import:rC:NONE:v0 (auto-composite)
URAN     .ppm         UNKNOWN        : URAN:Import:rC:NONE:v0 (auto-composite)
~A     DEPTH         CALI          CGR         DRHO           DT           GR          ILD          LLD          LLS         MSFL         NPHI         POTA         RHOB         THOR         URAN
# ...
   2136.9524       9.2090    -999.2500       0.0940      78.7720      40.5420    -999.2500       5.2950       5.1840       4.6420       0.3109    -999.2500       2.4610    -999.2500    -999.2500
   2137.1047       9.3577    -999.2500       0.0690      81.8312      39.2149    -999.2500       4.2132       4.1628       4.4362       0.3174    -999.2500       2.4069    -999.2500    -999.2500
   2137.2571       9.5060    -999.2500       0.0440      84.8780      37.8890    -999.2500       3.1340       3.1440       4.2310       0.3080    -999.2500       2.3530    -999.2500    -999.2500
   2137.4097       9.4409    -999.2500       0.0185      79.8842      34.4428    -999.2500       4.0741       3.8894      16.4382       0.2415    -999.2500       2.4206    -999.2500    -999.2500
   2137.5620       9.3760    -999.2500      -0.0070      74.9100      30.9990    -999.2500       5.0120       4.6330      28.6170       0.1780    -999.2500       2.4880    -999.2500    -999.2500
   2137.7144       9.3440    -999.2500       0.0005      69.3294      28.8389    -999.2500      13.4322      11.5511      24.0520       0.1258    -999.2500       2.5521    -999.2500    -999.2500
   2137.8667       9.3120    -999.2500       0.0080      63.7700      26.6800    -999.2500      21.8340      18.4540      19.4970       0.0843    -999.2500       2.6160    -999.2500    -999.2500
   2138.0193       9.3240    -999.2500       0.0020      64.5675      28.2426    -999.2500      20.9731      18.0681      18.2117       0.0825    -999.2500       2.6020    -999.2500    -999.2500
   2138.1716       9.3360    -999.2500      -0.0040      65.3620      29.8020    -999.2500      20.1140      17.6830      16.9290       0.0838    -999.2500       2.5880    -999.2500    -999.2500
   2138.3240       9.3310    -999.2500      -0.0035      70.4375      32.6142    -999.2500      16.2151      14.4388      11.9657       0.0965    -999.2500       2.5695    -999.2500    -999.2500
   2138.4763       9.3260    -999.2500      -0.0030      75.4950      35.4210    -999.2500      12.3300      11.2010       7.0120       0.1141    -999.2500       2.5510    -999.2500    -999.2500
   2138.6289       9.3430    -999.2500       0.0035      84.3166      40.4231    -999.2500       8.5340       7.7799       4.0708       0.1497    -999.2500       2.4929    -999.2500    -999.2500
   2138.7812       9.3600    -999.2500       0.0100      93.0940      45.4160    -999.2500       4.7510       4.3650       1.1350       0.1884    -999.2500       2.4350    -999.2500    -999.2500
   2138.9336       9.5608    -999.2500      -0.0080     101.3928      44.3916    -999.2500       3.5275       3.2771       1.2856       0.2385    -999.2500       2.3734    -999.2500    -999.2500
   2139.0859       9.7610    -999.2500      -0.0260     109.6510      43.3690    -999.2500       2.3080       2.1910       1.4360       0.2700    -999.2500       2.3120    -999.2500    -999.2500
   2139.2383       9.9303    -999.2500      -0.0240     100.8180      41.5846    -999.2500       2.7883       2.6208       7.9426       0.2307    -999.2500       2.3546    -999.2500    -999.2500
   2139.3909      10.0990    -999.2500      -0.0220      92.0270      39.8030    -999.2500       3.2670       3.0500      14.4390       0.1861    -999.2500       2.3970    -999.2500    -999.2500
   2139.5432       9.8166    -999.2500      -0.0040      77.6933      38.0723    -999.2500      11.2196       9.3706      54.8892       0.1217    -999.2500       2.4957    -999.2500    -999.2500
   2139.6956       9.5350    -999.2500       0.0140      63.4260      36.3440    -999.2500      19.1480      15.6820      95.2810       0.0692    -999.2500       2.5940    -999.2500    -999.2500
   2139.8479       9.4118    -999.2500       0.0320      65.1248      36.7197    -999.2500      16.7595      14.5187      55.6599       0.0625    -999.2500       2.5905    -999.2500    -999.2500
   2140.0005       9.2890    -999.2500       0.0500      66.8160      37.0950    -999.2500      14.3780      13.3570      16.0910       0.0642    -999.2500       2.5870    -999.2500    -999.2500
   2140.1528       9.2895    -999.2500       0.0465      73.2752      39.6865    -999.2500       9.7310       9.0895      25.7290       0.0980    -999.2500       2.5359    -999.2500    -999.2500
   2140.3052       9.2900    -999.2500       0.0430      79.7060      42.2750    -999.2500       5.0970       4.8340      35.3400       0.1238    -999.2500       2.4850    -999.2500    -999.2500
   2140.4575       9.3346    -999.2500       0.0220      78.1036      44.1280    -999.2500       5.5726       5.2130      41.3345       0.1181    -999.2500       2.4950    -999.2500    -999.2500
   2140.6101       9.3790    -999.2500       0.0010      76.5080      45.9790    -999.2500       6.0470       5.5910      47.3130       0.1110    -999.2500       2.5050    -999.2500    -999.2500
   2140.7625       9.3705    -999.2500       0.0075      70.9555      40.9932    -999.2500      15.6402      13.7384      32.1773       0.0984    -999.2500       2.5491    -999.2500    -999.2500
   2140.9148       9.3620    -999.2500       0.0140      65.4260      36.0120    -999.2500      25.2090      21.8650      17.0800       0.0949    -999.2500       2.5930    -999.2500    -999.2500
   2141.0671       9.3910    -999.2500       0.0210      69.8038      36.1786    -999.2500      24.2148      21.0976       9.0758       0.1273    -999.2500       2.5404    -999.2500    -999.2500
   2141.2195       9.4200    -999.2500       0.0280      74.1640      36.3450    -999.2500      23.2230      20.3320       1.0910       0.1674    -999.2500       2.4880    -999.2500    -999.2500
   2141.3721       9.9766    -999.2500       0.0065      87.0160      41.0078    -999.2500      15.2484      13.4806       1.3938       0.2379    -999.2500       2.3894    -999.2500    -999.2500
   2141.5244      10.5320    -999.2500      -0.0150      99.8180      45.6600    -999.2500       7.2920       6.6450       1.6960       0.2902    -999.2500       2.2910    -999.2500    -999.2500
   2141.6768      10.8138    -999.2500      -0.0240      97.9460      47.8273    -999.2500       5.2218       4.7875       2.3587       0.2690    -999.2500       2.3200    -999.2500    -999.2500
   2141.8291      11.0950    -999.2500      -0.0330      96.0810      49.9900    -999.2500       3.1560       2.9340       3.0200       0.2426    -999.2500       2.3490    -999.2500    -999.2500
   2141.9817      10.5484    -999.2500      -0.0255      86.7801      49.2487    -999.2500       4.6791       4.0687       8.2463       0.1957    -999.2500       2.4106    -999.2500    -999.2500
   2142.1340      10.0030    -999.2500      -0.0180      77.5130      48.5090    -999.2500       6.1990       5.2010      13.4620       0.1507    -999.2500       2.4720    -999.2500    -999.2500
   2142.2864       9.7571    -999.2500      -0.0130      69.6827      44.9871    -999.2500      10.8802       9.1573      19.7140       0.1138    -999.2500       2.5256    -999.2500    -999.2500
   2142.4387       9.5120    -999.2500      -0.0080      61.8800      41.4720    -999.2500      15.5450      13.1060      25.9540       0.0815    -999.2500       2.5790    -999.2500    -999.2500
   2142.5913       9.4694    -999.2500      -0.0040      61.9422      39.2340    -999.2500      24.8122      21.2858      60.1481       0.0677    -999.2500       2.6005    -999.2500    -999.2500
   2142.7437       9.4270    -999.2500       0.0000      62.0040      37.0000    -999.2500      34.0480      29.4510      94.2810       0.0569    -999.2500       2.6220    -999.2500    -999.2500
   2142.8960       9.4085    -999.2500       0.0025      61.9639      37.0390    -999.2500      31.5429      27.7991      69.7116       0.0587    -999.2500       2.6250    -999.2500    -999.2500
   2143.0483       9.3900    -999.2500       0.0050      61.9240      37.0780    -999.2500      29.0460      26.1500      45.1830       0.0613    -999.2500       2.6280    -999.2500    -999.2500
   2143.2007       9.4115    -999.2500       0.0190      63.0426      39.0120    -999.2500      26.5331      23.9488      33.1923       0.0671    -999.2500       2.6185    -999.2500    -999.2500
