#------------------------------------------------------------------------------
#
#   Created by  : [OpenWorks] Log Export Utility (LEXP)
#   Created on  : 2016-05-23 11:52:51
#   Project     : CANT971
#   User        : R5K
#   Interpreter : PEP
#
#------------------------------------------------------------------------------
~VERSION INFORMATION
VERS. 2.0 : CWLS Log ASCII Standard - version 2.0
WRAP.  NO : One line per depth step
~WELL INFORMATION
#MNEMONIC   .UNIT                                           VALUE :DESCRIPTION
#------------------------------------------------------------------------------
STRT        .M                                           691.4386 :START DEPTH
STOP        .M                                          2836.4685 :STOP DEPTH
STEP        .M                                             0.1524 :STEP
NULL        .                                           -999.2500 :NULL VALUE
COMP        .                                   PEMEX EXPL & PROD :COMPANY
WELL        .                                                2094 :WELL
FLD         .                                           CANTARELL :FIELD
LOC         .                                             UNKNOWN :LOCATION
CNTY        .                                      CD. DEL CARMEN :COUNTY
STAT        .                                            CAMPECHE :STATE
CTRY        .                                              MEXICO :COUNTRY
SRVC        .                                             UNKNOWN :SERVICE COMPANY
DATE        .                                             UNKNOWN :LOG DATE
UWI         .                                          3060000525 :UNIQUE WELL ID
XCOORD      .                                       601711.170000 :SURFACE X
YCOORD      .                                      2142342.970000 :SURFACE Y
LAT         .                                           19.373776 :LATITUDE
LON         .                                          -92.031490 :LONGITUDE
ELEV        .M                                            24.0000 :SURFACE ELEV
ELEV_TYPE   .                                                  KB :ELEV TYPE
~CURVE INFORMATION
#MNEMONIC.UNIT        API CODE       : CURVE DESCRIPTION
#------------------------------------------------------------------------------
DEPTH    .M                          : Measured Depth
CALI     .in          UNKNOWN        : CALI:registros:rC:NONE:v0 (auto-composite)
DRHO     .g/cm3       UNKNOWN        : DRHO:registros:rC:NONE:v0 (auto-composite)
DT       .us/ft       UNKNOWN        : DT:registros:rC:NONE:v0 (auto-composite)
GR       .API         UNKNOWN        : GR:registros:rC:NONE:v0 (auto-composite)
ILD      .ohm.m       UNKNOWN        : ILD:registros:rC:NONE:v0 (auto-composite)
ILM      .ohm.m       UNKNOWN        : ILM:registros:rC:NONE:v0 (auto-composite)
LLD      .ohm.m       UNKNOWN        : LLD:registros:rC:NONE:v0 (auto-composite)
LLS      .ohm.m       UNKNOWN        : LLS:registros:rC:NONE:v0 (auto-composite)
MSFL     .ohm.m       UNKNOWN        : MSFL:registros:rC:NONE:v0 (auto-composite)
NPHI     .v/v_decimal UNKNOWN        : NPHI:registros:rC:NONE:v0 (auto-composite)
PEF      .b/elec      UNKNOWN        : PEF:registros:rC:NONE:v0 (auto-composite)
RHOB     .g/cm3       UNKNOWN        : RHOB:registros:rC:NONE:v0 (auto-composite)
~A     DEPTH         CALI         DRHO           DT           GR          ILD          ILM          LLD          LLS         MSFL         NPHI          PEF         RHOB
# ...
   2381.2498       8.5395       0.0295      52.9959      41.5027    -999.2500    -999.2500       7.1122       6.4709      98.4652       0.0290       3.6254       2.7365
   2381.4021       8.5452       0.0344      50.7210      39.8880    -999.2500    -999.2500       6.9180       5.9690     158.0630       0.0287       3.6963       2.7488
   2381.5547       8.5565       0.0380      51.7391      34.3879    -999.2500    -999.2500      25.6108      10.3766     103.7343       0.0286       3.7135       2.7630
   2381.7070       8.5610       0.0409      54.2899      28.9330    -999.2500    -999.2500      44.1500      14.7480      49.7660       0.0294       3.6835       2.7729
   2381.8594       8.5430       0.0435      57.3885      26.6563    -999.2500    -999.2500      75.5341      42.6917     556.9077       0.0325       3.5896       2.7700
   2382.0117       8.5285       0.0467      58.9372      24.3980    -999.2500    -999.2500     106.6640      70.4090    1060.7500       0.0345       3.4740       2.7625
   2382.1643       8.5454       0.0515      56.0664      24.5601    -999.2500    -999.2500      57.5121      38.0169     553.3995       0.0308       3.3681       2.7560
   2382.3167       9.0117       0.0581      52.1273      24.7210    -999.2500    -999.2500       8.7520       5.8830      49.2890       0.0251       3.2727       2.7156
   2382.4690      10.5828       0.0675      49.9182      25.5006    -999.2500    -999.2500       5.6885       3.3676     554.5814       0.0190       3.1940       2.5882
   2382.6213      12.1384       0.0778      48.9651      26.2740    -999.2500    -999.2500       2.6490       0.8720    1055.9060       0.0200       3.1478       2.4628
   2382.7737      12.5476       0.0875      49.4400      26.4497    -999.2500    -999.2500      10.9897       2.6760     953.7190       0.0429       3.1669       2.4300
   2382.9263      12.4034       0.0962      51.0415      26.6240    -999.2500    -999.2500      19.2660       4.4660     852.3210       0.0701       3.2582       2.4422
   2383.0786      12.0113       0.1030      54.0679      27.6604    -999.2500    -999.2500      46.1748       5.6656     469.1333       0.0890       3.4671       2.4754
   2383.2310      11.5159       0.1042      56.4504      28.6890    -999.2500    -999.2500      72.8790       6.8560      88.8590       0.0988       3.6125       2.5075
   2383.3833      11.0076       0.0930      55.7791      36.1368    -999.2500    -999.2500      39.9653       5.5079     106.8889       0.0903       3.4763       2.5155
   2383.5359      10.5031       0.0840      53.9254      43.5290    -999.2500    -999.2500       7.3500       4.1720     124.7840       0.0787       3.2666       2.5229
   2383.6882      10.0199       0.0930      52.1034      42.0109    -999.2500    -999.2500       5.5414       2.3398     451.6794       0.0760       3.1521       2.5530
   2383.8406       9.6262       0.1111      50.8588      40.5040    -999.2500    -999.2500       3.7490       0.5240     776.1710       0.0754       3.1131       2.5903
   2383.9929       9.4392       0.1345      51.0473      38.6608    -999.2500    -999.2500       3.5647       0.4110    1257.8080       0.0723       3.1718       2.6234
   2384.1455       9.3168       0.1585      52.1349      36.8310    -999.2500    -999.2500       3.3820       0.2990    1735.9659       0.0677       3.3040       2.6531
   2384.2979       9.1523       0.1785      54.0987      33.4696    -999.2500    -999.2500       2.3294       0.5772    1868.4536       0.0610       3.5266       2.6780
   2384.4502       8.9879       0.1961      55.7897      30.1320    -999.2500    -999.2500       1.2860       0.8530    2000.0000       0.0557       3.7076       2.6995
   2384.6025       8.8666       0.2115      55.9023      26.6114    -999.2500    -999.2500       2.4404       0.6034    1498.8545       0.0562       3.6886       2.7175
   2384.7549       8.7937       0.2220      55.4338      23.1210    -999.2500    -999.2500       3.5850       0.3560    1001.2040       0.0616       3.5765       2.7201
   2384.9075       8.8029       0.2220      55.0373      23.8571    -999.2500    -999.2500       2.4552       0.3058    1048.7836       0.0753       3.4233       2.6866
   2385.0598       8.8250       0.2132      54.6449      24.5870    -999.2500    -999.2500       1.3350       0.2560    1096.0370       0.0883       3.2920       2.6497
   2385.2122       8.7976       0.1920      54.1870      24.0262    -999.2500    -999.2500       0.9454       0.2068    1549.5433       0.0913       3.2595       2.6405
   2385.3645       8.7297       0.1694      53.7110      23.4700    -999.2500    -999.2500       0.5590       0.1580    2000.0000       0.0890       3.2874       2.6490
   2385.5171       8.6062       0.1555      53.2520      29.1186    -999.2500    -999.2500       2.6516       1.8203    2000.0000       0.0815       3.3739       2.6759
   2385.6694       8.5135       0.1486      52.7040      34.7210    -999.2500    -999.2500       4.7270       3.4690    2000.0000       0.0726       3.4599       2.7012
   2385.8218       8.5584       0.1510      51.9032      36.0383    -999.2500    -999.2500      87.0964      30.4710    2000.0000       0.0647       3.4855       2.7035
   2385.9741       8.6299       0.1629      50.7964      37.3450    -999.2500    -999.2500     168.8010      57.2550    2000.0000       0.0591       3.4819       2.6939
   2386.1267       8.6325       0.1905      49.1281      32.1920    -999.2500    -999.2500     111.2018      38.0036    2000.0000       0.0591       3.4620       2.6760
   2386.2791       8.6314       0.2224      47.9477      27.0800    -999.2500    -999.2500      54.0600      18.9050    2000.0000       0.0606       3.4286       2.6608
   2386.4314       8.6894       0.2500      48.6134      29.5838    -999.2500    -999.2500     136.8468      44.7887    2000.0000       0.0608       3.3756       2.6610
   2386.5837       8.7321       0.2695      49.8129      32.0680    -999.2500    -999.2500     218.9860      70.4700    2000.0000       0.0595       3.3244       2.6740
   2386.7361       8.6741       0.2720      50.5831      30.9005    -999.2500    -999.2500     134.0720      43.4812     996.2400       0.0556       3.2980       2.7059
   2386.8887       8.5824       0.2611      51.0907      29.7420    -999.2500    -999.2500      49.8110      16.7000       0.2000       0.0500       3.3201       2.7221
   2387.0410       8.5022       0.2320      51.3337      27.6395    -999.2500    -999.2500      26.2794       9.3582    -999.2500       0.0422       3.4467       2.6771
   2387.1934       8.4515       0.2056      51.5987      25.5530    -999.2500    -999.2500       2.9260       2.0720    -999.2500       0.0364       3.5445       2.6239
   2387.3457       8.4689       0.2050      52.1894      24.9628    -999.2500    -999.2500       1.7457       1.1659    -999.2500       0.0388       3.4587       2.6105
   2387.4983       8.4932       0.2083      52.3316      24.3770    -999.2500    -999.2500       0.5760       0.2680    -999.2500       0.0423       3.3370       2.6330
   2387.6506       8.4671       0.1965      50.9477      23.1515    -999.2500    -999.2500       2.1053       0.2424    -999.2500       0.0413       3.3040       2.7118
   2387.8030       8.4316       0.1777      49.4145      21.9350    -999.2500    -999.2500       3.6210       0.2170    -999.2500       0.0391       3.3219       2.7905
   2387.9553       8.4220       0.1555      49.0010      23.2141    -999.2500    -999.2500     193.9327       4.9844    -999.2500       0.0386       3.3884       2.8115
   2388.1079       8.4240       0.1298      49.1449      24.4840    -999.2500    -999.2500     382.5720       9.7100    -999.2500       0.0390       3.4734       2.7998
   2388.2603       8.4315       0.0980      49.6766      22.1538    -999.2500    -999.2500     191.1836       4.9484    -999.2500       0.0407       3.5598       2.7576
   2388.4126       8.4476       0.0724      51.0976      19.8400    -999.2500    -999.2500       1.4520       0.2280    -999.2500       0.0425       3.6081       2.7124
