#------------------------------------------------------------------------------
#
#   Created by  : [OpenWorks] Log Export Utility (LEXP)
#   Created on  : 2016-05-23 11:50:53
#   Project     : CANT971
#   User        : R5K
#   Interpreter : PEP
#
#------------------------------------------------------------------------------
~VERSION INFORMATION
VERS. 2.0 : CWLS Log ASCII Standard - version 2.0
WRAP.  NO : One line per depth step
~WELL INFORMATION
#MNEMONIC   .UNIT                                           VALUE :DESCRIPTION
#------------------------------------------------------------------------------
STRT        .M                                           494.4622 :START DEPTH
STOP        .M                                          2707.4626 :STOP DEPTH
STEP        .M                                             0.1524 :STEP
NULL        .                                           -999.2500 :NULL VALUE
COMP        .                                   PEMEX EXPL & PROD :COMPANY
WELL        .                                                1042 :WELL
FLD         .                                           CANTARELL :FIELD
LOC         .                                             UNKNOWN :LOCATION
CNTY        .                                      CD. DEL CARMEN :COUNTY
STAT        .                                            CAMPECHE :STATE
CTRY        .                                              MEXICO :COUNTRY
SRVC        .                                             UNKNOWN :SERVICE COMPANY
DATE        .                                             UNKNOWN :LOG DATE
UWI         .                                          3060000495 :UNIQUE WELL ID
XCOORD      .                                       596162.680000 :SURFACE X
YCOORD      .                                      2150604.600000 :SURFACE Y
LAT         .                                           19.448706 :LATITUDE
LON         .                                          -92.083900 :LONGITUDE
ELEV        .M                                            30.0000 :SURFACE ELEV
ELEV_TYPE   .                                                  KB :ELEV TYPE
~CURVE INFORMATION
#MNEMONIC.UNIT        API CODE       : CURVE DESCRIPTION
#------------------------------------------------------------------------------
DEPTH    .M                          : Measured Depth
CALI     .inches      UNKNOWN        : CALI:litodensidad:rC:NONE:v0 (auto-composite)
DT       .us/ft       UNKNOWN        : DT:DT:rC:NONE:v0 (auto-composite)
GR       .API         UNKNOWN        : GR:GR-Load:rC:NONE:v0 (auto-composite)
ILD      .ohmm        UNKNOWN        : ILD:UNKNOWN:rC:NONE:v0 (auto-composite)
LLD      .ohmm        UNKNOWN        : LLD:UNKNOWN:rC:NONE:v0 (auto-composite)
LLS      .ohmm        UNKNOWN        : LLS:UNKNOWN:rC:NONE:v0 (auto-composite)
MSFL     .ohmm        UNKNOWN        : MSFL:UNKNOWN:rC:NONE:v0 (auto-composite)
NPHI     .v/v_decimal UNKNOWN        : NPHI:NPHI:rC:NONE:v0 (auto-composite)
~A     DEPTH         CALI           DT           GR          ILD          LLD          LLS         MSFL         NPHI
# ...
   2082.3179    -999.2500    -999.2500      23.2022       0.2000    1065.0513     922.2363      31.8111       0.1262
   2082.4702    -999.2500    -999.2500      24.1952       0.2000    1366.7024    1165.5499      23.6129       0.1198
   2082.6226    -999.2500    -999.2500      25.8295       0.2000    1740.7614    1463.8824      19.3044       0.1136
   2082.7751    -999.2500    -999.2500      25.7367       0.2000    2180.9014    1812.4270      18.5459       0.1053
   2082.9275    -999.2500    -999.2500      23.9110       0.2000    2462.9849    2005.0240      18.8323       0.0951
   2083.0798    -999.2500    -999.2500      22.6804       0.2000    2603.0837    2057.5315      20.0571       0.0935
   2083.2322    -999.2500    -999.2500      22.0452       0.2000    2382.0483    1823.2290      34.3811       0.1006
   2083.3848    -999.2500    -999.2500      22.9027       0.2000    1843.7411    1336.9517      60.2132       0.1033
   2083.5371    -999.2500    -999.2500      25.2586       0.2000    1286.0096     897.8717      91.2651       0.1017
   2083.6895    -999.2500    -999.2500      24.7237       0.2000     711.5893     499.3430     126.8016       0.0956
   2083.8418    -999.2500    -999.2500      21.2957       0.2000     463.0286     322.9894     108.0059       0.0853
   2083.9941    -999.2500    -999.2500      20.1737       0.2000     488.2591     333.3100      43.5598       0.0772
   2084.1467    -999.2500    -999.2500      21.3676       0.2000     878.4980     550.2559      21.8103       0.0713
   2084.2991    -999.2500    -999.2500      22.6155       0.2000    1568.6378     936.9706      35.1416       0.0676
   2084.4514    -999.2500    -999.2500      23.9175       0.2000    2015.1892    1176.1096      57.5702       0.0659
   2084.6038    -999.2500    -999.2500      24.0316       0.2000    2264.7656    1295.9132      87.3553       0.0652
   2084.7563    -999.2500    -999.2500      22.9522       0.2000    2172.5225    1263.4762      75.7058       0.0652
   2084.9087    -999.2500    -999.2500      22.0712       0.2000    1810.0087    1110.6652      31.2947       0.0656
   2085.0610    -999.2500    -999.2500      21.3890       0.2000    1562.5603     998.1562      12.3738       0.0664
   2085.2134    -999.2500    -999.2500      22.3176       0.2000    1404.0669     916.8042      13.1590       0.0646
   2085.3660    -999.2500    -999.2500      24.8655       0.2000    1156.5511     766.1357      22.7919       0.0602
   2085.5183    -999.2500    -999.2500      24.6803       0.2000     841.7505     563.0763      39.1122       0.0554
   2085.6707    -999.2500    -999.2500      21.7556       0.2000     594.2064     406.7664      47.8038       0.0503
   2085.8230    -999.2500    -999.2500      21.3264       0.2000     396.3574     284.9994      50.8588       0.0459
   2085.9753    -999.2500    -999.2500      23.4071       0.2000     292.1241     222.0713      49.0354       0.0423
   2086.1279    -999.2500    -999.2500      25.0354       0.2000     255.5084     201.6420      43.6883       0.0450
   2086.2803    -999.2500    -999.2500      26.2098       0.2000     210.6443     173.2164      42.2056       0.0539
   2086.4326    -999.2500    -999.2500      26.4201       0.2000     159.9182     139.1078      43.4691       0.0646
   2086.5850    -999.2500    -999.2500      25.6665       0.2000     116.1753     105.6818      43.9503       0.0773
   2086.7375    -999.2500    -999.2500      26.5783       0.2000      77.2830      72.7300      43.8881       0.0933
   2086.8899    -999.2500    -999.2500      29.1613       0.2000      63.5311      61.3374      53.1132       0.1126
   2087.0422    -999.2500    -999.2500      30.4045       0.2000      66.8453      64.5799      68.6428       0.1189
   2087.1946    -999.2500    -999.2500      30.3076       0.2000      77.1102      72.3370      62.0383       0.1122
   2087.3472    -999.2500    -999.2500      29.2728       0.2000      91.9860      83.0888      40.7513       0.1033
   2087.4995    -999.2500    -999.2500      27.2966       0.2000     127.0730     105.6214      28.2807       0.0920
   2087.6519    -999.2500    -999.2500      25.6436       0.2000     175.2600     135.7899      21.5243       0.0927
   2087.8042    -999.2500    -999.2500      24.3142       0.2000     178.3134     133.3706      21.4357       0.1053
   2087.9565    -999.2500    -999.2500      24.4960       0.2000     152.5936     110.1763      25.5977       0.1215
   2088.1091    -999.2500    -999.2500      26.1956       0.2000     124.4045      86.9135      24.9954       0.1410
   2088.2615    -999.2500    -999.2500      29.2038       0.2000      94.6776      63.6078      21.4260       0.1595
   2088.4138    -999.2500    -999.2500      33.5224       0.2000     139.1272      85.3760      16.1227       0.1769
   2088.5662    -999.2500    -999.2500      33.5856       0.2000     228.6990     134.5628       9.7646       0.1923
   2088.7188    -999.2500    -999.2500      29.3725       0.2000    1027.6226     846.1799       9.6908       0.2057
   2088.8711    -999.2500    -999.2500      25.9323       0.2000    2247.9680    1951.3430      13.3504       0.2168
   2089.0234    -999.2500    -999.2500      23.2665       0.2000    2427.6680    2017.3046      30.0401       0.2257
   2089.1758    -999.2500    -999.2500      22.8399       0.2000    2003.6593    1480.3948      54.2889       0.2230
   2089.3284    -999.2500    -999.2500      24.6646       0.2000    1389.4176     948.0992      59.4003       0.2087
   2089.4807    -999.2500    -999.2500      25.4629       0.2000     666.6771     418.4355      53.5967       0.1869
   2089.6331    -999.2500    -999.2500      25.2325       0.2000     394.3420     242.4716      39.2174       0.1578
   2089.7854    -999.2500    -999.2500      26.1543       0.2000     372.7898     263.4458      20.0634       0.1367
   2089.9377    -999.2500    -999.2500      28.2351       0.2000     374.1427     279.2864      21.1354       0.1235
   2090.0903    -999.2500    -999.2500      32.9420       0.2000     387.9439     292.3371      33.1999       0.1188
   2090.2427    -999.2500    -999.2500      40.2827       0.2000    1097.6802     738.2318      33.7945       0.1227
   2090.3950    -999.2500    -999.2500      42.5061       0.2000    2176.5239    1413.6968      28.3058       0.1192
   2090.5474    -999.2500    -999.2500      39.6123       0.2000    2266.2175    1506.6647      42.8033       0.1085
   2090.7000    -999.2500    -999.2500      37.5885       0.2000    1844.0251    1298.1897      67.6436       0.1063
   2090.8523    -999.2500    -999.2500      36.4376       0.2000    1295.5308     947.6589     122.3021       0.1127
   2091.0046    -999.2500    -999.2500      34.5179       0.2000     683.2739     525.4127     192.0140       0.1176
   2091.1570    -999.2500    -999.2500      31.8290       0.2000     418.4088     345.4929     145.4825       0.1210
   2091.3096    -999.2500    -999.2500      29.1831       0.2000     325.8382     285.7588      41.2982       0.1242
   2091.4619    -999.2500    -999.2500      26.5801       0.2000    2354.6338    3288.7473      11.1078       0.1272
   2091.6143    -999.2500    -999.2500      23.7744       0.2000    5409.4507    7773.0547      16.7053       0.1315
   2091.7666    -999.2500    -999.2500      20.7657       0.2000   18840.8809   26744.7090      18.7331       0.1370
   2091.9189    -999.2500    -999.2500      19.5762       0.2000   37165.4688   52547.9609      19.0775       0.1370
   2092.0715    -999.2500    -999.2500      20.2139       0.2000   45318.3086   61679.4531     105.3332       0.1314
   2092.2239    -999.2500    -999.2500      21.5293       0.2000   48795.7227   63147.8047     231.0778       0.1161
   2092.3762    -999.2500    -999.2500      23.5235       0.2000   43674.7539   56517.7031     446.0199       0.0913
   2092.5286    -999.2500    -999.2500      24.4324       0.2000   34702.3086   46260.0547     700.9163       0.0870
   2092.6812    -999.2500    -999.2500      24.2509       0.2000   22240.4102   30060.9961     523.2141       0.1032
