#------------------------------------------------------------------------------
#
#   Created by  : [OpenWorks] Log Export Utility (LEXP)
#   Created on  : 2016-05-23 11:55:55
#   Project     : CANT971
#   User        : R5K
#   Interpreter : PEP
#
#------------------------------------------------------------------------------
~VERSION INFORMATION
VERS. 2.0 : CWLS Log ASCII Standard - version 2.0
WRAP.  NO : One line per depth step
~WELL INFORMATION
#MNEMONIC   .UNIT                                           VALUE :DESCRIPTION
#------------------------------------------------------------------------------
STRT        .M                                          1803.5016 :START DEPTH
STOP        .M                                          3154.9849 :STOP DEPTH
STEP        .M                                             0.1524 :STEP
NULL        .                                           -999.2500 :NULL VALUE
COMP        .                                             UNKNOWN :COMPANY
WELL        .                                             418D-ST :WELL
FLD         .                                             UNKNOWN :FIELD
LOC         .                                             UNKNOWN :LOCATION
CNTY        .                                             UNKNOWN :COUNTY
STAT        .                                             UNKNOWN :STATE
CTRY        .                                             UNKNOWN :COUNTRY
SRVC        .                                             UNKNOWN :SERVICE COMPANY
DATE        .                                             UNKNOWN :LOG DATE
UWI         .                                             418D-ST :UNIQUE WELL ID
XCOORD      .                                       597130.010000 :SURFACE X
YCOORD      .                                      2144879.410000 :SURFACE Y
LAT         .                                           19.396924 :LATITUDE
LON         .                                          -92.074978 :LONGITUDE
ELEV        .M                                             0.0000 :SURFACE ELEV
ELEV_TYPE   .                                                  NA :ELEV TYPE
~CURVE INFORMATION
#MNEMONIC.UNIT        API CODE       : CURVE DESCRIPTION
#------------------------------------------------------------------------------
DEPTH    .M                          : Measured Depth
CALI     .inches      UNKNOWN        : CALI:PETROWORKS:rC:NONE:v1 
CGR      .API         UNKNOWN        : CGR:PETROWORKS:rC:NONE:v1 
DRHO     .g/cm3       UNKNOWN        : DRHO:PETROWORKS:rC:NONE:v1 
DT       .us/ft       UNKNOWN        : DT:PETROWORKS:rC:NONE:v1 
GR       .API         UNKNOWN        : GR:PETROWORKS:rC:NONE:v3 
ILD      .ohm.m       UNKNOWN        : ILD:registros:rC:NONE:v0 (auto-composite)
ILM      .ohm.m       UNKNOWN        : ILM:registros:rC:NONE:v0 (auto-composite)
LLD      .ohm.m       UNKNOWN        : LLD:PETROWORKS:rC:NONE:v2 
LLS      .ohm.m       UNKNOWN        : LLS:PETROWORKS:rC:NONE:v2 
MSFL     .ohm.m       UNKNOWN        : MSFL:PETROWORKS:rC:NONE:v1 
NPHI     .v/v_decimal UNKNOWN        : NPHI:PETROWORKS:rC:NONE:v1 
PEF      .b/elec      UNKNOWN        : PEF:PETROWORKS:rC:NONE:v1 
POTA     .wtpercent   UNKNOWN        : POTA:PETROWORKS:rC:NONE:v1 
RHOB     .g/cm3       UNKNOWN        : RHOB:PETROWORKS:rC:NONE:v1 
THOR     .ppm         UNKNOWN        : THOR:PETROWORKS:rC:NONE:v1 
URAN     .ppm         UNKNOWN        : URAN:PETROWORKS:rC:NONE:v1 
~A     DEPTH         CALI          CGR         DRHO           DT           GR          ILD          ILM          LLD          LLS         MSFL         NPHI          PEF         POTA         RHOB         THOR         URAN
# ...
   2553.4619      15.1406      19.5158       0.0144      55.1000      42.0908    -999.2500    -999.2500      30.0923      18.8880      36.0000       0.1065       3.3945       0.0061       2.7323       3.1022       3.1438
   2553.6145      15.1328      16.5179       0.0188      85.1000      37.8232    -999.2500    -999.2500      34.7613      21.2429      27.9375       0.1069       3.1777       0.0049       2.7180       2.7428       2.9670
   2553.7668      15.0391      20.7029      -0.0008      80.3000      45.7097    -999.2500    -999.2500      35.5101      21.8619      34.9688       0.1537       3.1250       0.0077       2.3659       2.7293       3.4824
   2553.9192      15.4531      56.6985      -0.0065     101.2000      85.3620    -999.2500    -999.2500      21.7485      14.0024      34.0625       0.2818       3.2012       0.0227       2.1935       6.8399       3.9917
   2554.0715      15.4453      67.8088      -0.0067     102.4000      99.9447    -999.2500    -999.2500      11.1482       6.8904       4.5547       0.4077       3.3535       0.0274       2.0899       8.0644       4.4752
   2554.2239      15.3203      75.8371       0.0043      94.0000     112.9391    -999.2500    -999.2500       5.5086       3.5600       1.3369       0.4944       3.5098       0.0287       2.2084       9.8465       5.1668
   2554.3765      15.4688      72.9846       0.0175      68.4000     108.5465    -999.2500    -999.2500       4.1431       2.7931       1.1865       0.3948       3.3828       0.0276       2.3862       9.4792       4.9523
   2554.5288      19.2344      64.1149       0.0145      74.9000      91.8388    -999.2500    -999.2500       3.8595       2.7210       2.2852       0.2485       3.4531       0.0267       2.5988       7.3059       3.8608
   2554.6812      23.5938      55.7454       0.0179      51.7000      78.8456    -999.2500    -999.2500       4.3250       2.9132      38.2500       0.0875       3.4414       0.0237       2.7433       6.1223       3.2169
   2554.8335      24.0156      37.1023       0.0078      53.4000      49.7073    -999.2500    -999.2500       6.0971       4.1122      30.3750       0.0425       3.4277       0.0173       2.7640       3.4292       1.7554
   2554.9861      14.9688      27.8781       0.0044      60.5000      37.2858    -999.2500    -999.2500       9.0250       6.2281      41.0938       0.0643       3.4063       0.0128       2.7692       2.6392       1.3101
   2555.1384      14.1016      20.6520       0.0027      59.6000      30.0084    -999.2500    -999.2500      10.0830       7.1882      38.0000       0.0575       3.5957       0.0090       2.7698       2.1603       1.3030
   2555.2908      14.0859      21.0495       0.0062      78.9000      31.0621    -999.2500    -999.2500      12.0792       8.6226      32.7813       0.0498       3.7813       0.0092       2.7506       2.2260       1.3944
   2555.4431      14.1484      18.9258       0.0096      56.0000      28.2083    -999.2500    -999.2500      26.9506      18.6778      76.5625       0.0566       3.8652       0.0084       2.7248       1.9263       1.2927
   2555.5957      14.2422      27.3324       0.0109      58.9000      43.4109    -999.2500    -999.2500      32.4563      21.2490      59.6563       0.0607       3.8203       0.0121       2.7149       2.7883       2.2391
   2555.7480      14.3750      28.3702       0.0137      60.7000      45.5345    -999.2500    -999.2500      30.1009      20.3027      46.4375       0.0571       3.7695       0.0124       2.7380       2.9657       2.3903
   2555.9004      14.5469      25.8846       0.0252      57.7000      42.3096    -999.2500    -999.2500      28.6704      19.2863       8.0391       0.0376       3.6387       0.0114       2.7829       2.6955       2.2873
   2556.0527      14.6563      20.8150       0.0194      55.3000      37.1657    -999.2500    -999.2500      26.5789      17.6817      92.8750       0.0268       3.6719       0.0082       2.7971       2.5621       2.2770
   2556.2051      14.2891      20.1955       0.0093      52.8000      36.8151    -999.2500    -999.2500      31.1248      19.4262      80.5625       0.0262       3.6738       0.0079       2.7975       2.5285       2.3144
   2556.3577      14.4766      18.2473       0.0052      37.2000      34.5323    -999.2500    -999.2500      45.7978      26.6854      61.0313       0.0271       3.6230       0.0072       2.7910       2.2502       2.2679
   2556.5100      14.4453      18.9781       0.0050      37.4000      36.8929    -999.2500    -999.2500      60.4283      34.1193      65.7500       0.0299       3.6035       0.0075       2.7893       2.3098       2.4948
   2556.6624      14.2188      17.2502       0.0078      38.4000      35.3460    -999.2500    -999.2500      62.7948      36.1172      69.1875       0.0323       3.6074       0.0069       2.7885       2.0897       2.5200
   2556.8147      14.1328      16.8940       0.0090      52.6000      35.4874    -999.2500    -999.2500      61.5211      35.5594      69.5000       0.0363       3.7793       0.0068       2.7847       2.0011       2.5893
   2556.9673      14.5391      16.6631       0.0101      55.3000      35.3535    -999.2500    -999.2500      59.5782      34.8463      76.7500       0.0398       3.7500       0.0069       2.7751       1.9068       2.6028
   2557.1196      14.6953      15.8989       0.0108      55.8000      33.8913    -999.2500    -999.2500      52.7298      31.8452      84.6875       0.0420       3.7422       0.0071       2.7541       1.6102       2.5056
   2557.2720      14.5000      17.7212       0.0113      35.7000      36.5019    -999.2500    -999.2500      49.4196      29.9761      85.1875       0.0436       3.7051       0.0078       2.7455       1.8468       2.6154
   2557.4243      14.3438      19.9247       0.0173      36.3000      40.8778    -999.2500    -999.2500      50.6007      30.4062      85.1875       0.0480       3.7148       0.0085       2.7412       2.1850       2.9179
   2557.5769      14.2813      18.9944       0.0273      36.3000      39.6477    -999.2500    -999.2500      50.7871      30.6187      41.2813       0.0542       3.6738       0.0080       2.7410       2.1217       2.8762
   2557.7292      14.1875      19.2675       0.0199      57.5000      40.1912    -999.2500    -999.2500      50.5590      30.2806      37.3125       0.0669       3.5781       0.0081       2.7326       2.1710       2.9138
   2557.8816      14.3594      16.6022       0.0131      56.9000      36.0150    -999.2500    -999.2500      52.5707      31.3661      38.5000       0.0702       3.5469       0.0067       2.7379       1.9894       2.7034
   2558.0339      14.7031      17.9478       0.0105      58.6000      30.3830    -999.2500    -999.2500      55.6960      33.2725      38.6875       0.0709       3.6445       0.0078       2.7639       1.9095       1.7317
   2558.1863      14.7500      17.1128       0.0022      47.3000      29.1007    -999.2500    -999.2500      59.7441      35.7743      39.4688       0.0635       3.7773       0.0076       2.7669       1.7470       1.6694
   2558.3389      14.7109      14.1774      -0.0041      58.3000      25.4923    -999.2500    -999.2500      61.9956      36.9855      60.6875       0.0610       3.8262       0.0061       2.7570       1.5409       1.5757
   2558.4912      14.5547      12.9429      -0.0044      57.8000      23.8533    -999.2500    -999.2500      63.5163      38.5415      72.4375       0.0607       3.7148       0.0053       2.7288       1.5202       1.5194
   2558.6436      14.3281      12.1496      -0.0022      59.8000      22.5418    -999.2500    -999.2500      63.7595      39.0244      62.7813       0.0655       3.5039       0.0048       2.7105       1.4945       1.4472
   2558.7959      14.1641      16.9009      -0.0014      62.1000      29.8879    -999.2500    -999.2500      56.6954      35.9261      35.3125       0.0661       3.5605       0.0051       2.6952       2.7539       1.8086
   2558.9485      14.0859      18.1732       0.0024      60.4000      31.5912    -999.2500    -999.2500      55.2835      34.9200      35.3438       0.0669       3.6504       0.0056       2.6985       2.9096       1.8686
