#------------------------------------------------------------------------------
#
#   Created by  : [OpenWorks] Log Export Utility (LEXP)
#   Created on  : 2016-05-23 11:50:56
#   Project     : CANT971
#   User        : R5K
#   Interpreter : PEP
#
#------------------------------------------------------------------------------
~VERSION INFORMATION
VERS. 2.0 : CWLS Log ASCII Standard - version 2.0
WRAP.  NO : One line per depth step
~WELL INFORMATION
#MNEMONIC   .UNIT                                           VALUE :DESCRIPTION
#------------------------------------------------------------------------------
STRT        .M                                           679.7040 :START DEPTH
STOP        .M                                          2836.1641 :STOP DEPTH
STEP        .M                                             0.1524 :STEP
NULL        .                                           -999.2500 :NULL VALUE
COMP        .                                   PEMEX EXPL & PROD :COMPANY
WELL        .                                                1044 :WELL
FLD         .                                           CANTARELL :FIELD
LOC         .                                             UNKNOWN :LOCATION
CNTY        .                                      CD. DEL CARMEN :COUNTY
STAT        .                                            CAMPECHE :STATE
CTRY        .                                              MEXICO :COUNTRY
SRVC        .                                             UNKNOWN :SERVICE COMPANY
DATE        .                                             UNKNOWN :LOG DATE
UWI         .                                          3060000497 :UNIQUE WELL ID
XCOORD      .                                       596164.320000 :SURFACE X
YCOORD      .                                      2150609.730000 :SURFACE Y
LAT         .                                           19.448753 :LATITUDE
LON         .                                          -92.083884 :LONGITUDE
ELEV        .M                                            30.0000 :SURFACE ELEV
ELEV_TYPE   .                                                  KB :ELEV TYPE
~CURVE INFORMATION
#MNEMONIC.UNIT        API CODE       : CURVE DESCRIPTION
#------------------------------------------------------------------------------
DEPTH    .M                          : Measured Depth
CALI     .inches      UNKNOWN        : CALI:litodensidad:rC:NONE:v0 (auto-composite)
DRHO     .g/cm3       UNKNOWN        : DRHO:litodensidad:rC:NONE:v0 (auto-composite)
DT       .us/ft       UNKNOWN        : DT:DT:rC:NONE:v0 (auto-composite)
GR       .API         UNKNOWN        : GR:UNKNOWN:rC:NONE:v0 (auto-composite)
ILD      .ohm.m       UNKNOWN        : ILD:UNKNOWN:rC:NONE:v0 (auto-composite)
ILM      .ohm.m       UNKNOWN        : ILM:UNKNOWN:rC:NONE:v0 (auto-composite)
LLD      .ohm.m       UNKNOWN        : LLD:UNKNOWN:rC:NONE:v0 (auto-composite)
LLS      .ohm.m       UNKNOWN        : LLS:UNKNOWN:rC:NONE:v0 (auto-composite)
MSFL     .ohm.m       UNKNOWN        : MSFL:UNKNOWN:rC:NONE:v0 (auto-composite)
NPHI     .v/v_decimal UNKNOWN        : NPHI:NPHI:rC:NONE:v0 (auto-composite)
PEF      .b/elec      UNKNOWN        : PEF:UNKNOWN:rC:NONE:v0 (auto-composite)
RHOB     .g/cm3       UNKNOWN        : RHOB:UNKNOWN:rC:NONE:v0 (auto-composite)
~A     DEPTH         CALI         DRHO           DT           GR          ILD          ILM          LLD          LLS         MSFL         NPHI          PEF         RHOB
# ...
   2493.8735       5.5590       0.1570      97.0750     111.3440    -999.2500    -999.2500       3.6248       3.4468       6.6038       0.3962       2.9020       1.9780
   2494.0259       6.0725       0.1495      93.9005     106.5974    -999.2500    -999.2500       3.7149       3.6037       6.9696       0.4161       2.8361       2.0080
   2494.1785       6.5870       0.1420      90.7200     101.8570    -999.2500    -999.2500       3.8051       3.7609       7.3361       0.4360       2.7700       2.0380
   2494.3308       7.6479       0.1060      85.0507     100.5542    -999.2500    -999.2500       4.1059       4.0837       8.2082       0.3823       2.7795       2.1294
   2494.4832       8.7110       0.0700      79.3700      99.2550    -999.2500    -999.2500       4.4073       4.4073       9.0821       0.3286       2.7890       2.2210
   2494.6355       9.0991       0.0775      82.7584      98.6237    -999.2500    -999.2500       4.8282       4.8275       9.7663       0.2877       2.8374       2.2779
   2494.7881       9.4880       0.0850      86.1540      97.9940    -999.2500    -999.2500       5.2501       5.2485      10.4519       0.2468       2.8860       2.3350
   2494.9404       9.4535       0.1025      84.5413     100.5643    -999.2500    -999.2500       5.5668       5.5915      11.0439       0.2538       2.9374       2.3904
   2495.0928       9.4190       0.1200      82.9250     103.1280    -999.2500    -999.2500       5.8843       5.9353      11.6372       0.2609       2.9890       2.4460
   2495.2451       9.1608       0.1160      81.3254     107.9208    -999.2500    -999.2500       6.3750       6.5016      12.3877       0.2440       2.8736       2.5159
   2495.3975       8.9020       0.1120      79.7220     112.7020    -999.2500    -999.2500       6.8669       7.0693      13.1399       0.2271       2.7580       2.5860
   2495.5500       9.1057       0.1020      80.8206     111.2794    -999.2500    -999.2500       8.0836       8.4376      16.4241       0.2070       2.6791       2.5416
   2495.7024       9.3100       0.0920      81.9220     109.8600    -999.2500    -999.2500       9.3034       9.8093      19.7166       0.1869       2.6000       2.4970
   2495.8547       9.1212       0.0840      83.9403     103.0146    -999.2500    -999.2500      11.9657      12.6525      28.2923       0.1954       2.5735       2.4361
   2496.0071       8.9320       0.0760      85.9640      96.1840    -999.2500    -999.2500      14.6352      15.5031      36.8906       0.2039       2.5470       2.3750
   2496.1597       8.7173       0.0695      85.8017      88.9311    -999.2500    -999.2500      17.7276      18.8108      43.7652       0.2242       2.5315       2.3475
   2496.3120       8.5020       0.0630      85.6390      81.6930    -999.2500    -999.2500      20.8286      22.1276      50.6589       0.2446       2.5160       2.3200
   2496.4644       8.4306       0.0495      83.1461      78.2857    -999.2500    -999.2500      22.5592      24.0667      52.7249       0.2373       2.5574       2.3245
   2496.6167       8.3590       0.0360      80.6460      74.8850    -999.2500    -999.2500      24.2948      26.0114      54.7969       0.2300       2.5990       2.3290
   2496.7693       8.3251       0.0265      77.9501      75.8063    -999.2500    -999.2500      24.6983      26.6058      50.9544       0.1925       2.5775       2.3530
   2496.9216       8.2910       0.0170      75.2460      76.7260    -999.2500    -999.2500      25.1030      27.2020      47.1002       0.1548       2.5560       2.3770
   2497.0740       8.2785       0.0145      78.8643      76.3592    -999.2500    -999.2500      25.7494      28.0508      47.0597       0.1698       2.4726       2.3500
   2497.2263       8.2660       0.0120      82.4940      75.9930    -999.2500    -999.2500      26.3978      28.9024      47.0190       0.1849       2.3890       2.3230
   2497.3787       8.2660       0.0120      84.9091      72.1535    -999.2500    -999.2500      28.8559      31.5726      58.0638       0.1968       2.3551       2.3055
   2497.5312       8.2660       0.0120      87.3320      68.3200    -999.2500    -999.2500      31.3221      34.2515      69.1447       0.2088       2.3210       2.2880
   2497.6836       8.2660       0.0165      86.5159      68.6512    -999.2500    -999.2500      33.0539      36.1486      76.4647       0.2133       2.3505       2.2820
   2497.8359       8.2660       0.0210      85.6970      68.9820    -999.2500    -999.2500      34.7916      38.0522      83.8095       0.2179       2.3800       2.2760
   2497.9883       8.2660       0.0235      82.1579      72.0665    -999.2500    -999.2500      34.2793      37.5553      83.4753       0.2089       2.4799       2.2985
   2498.1409       8.2660       0.0260      78.6120      75.1470    -999.2500    -999.2500      33.7660      37.0575      83.1406       0.1998       2.5800       2.3210
   2498.2932       8.2660       0.0245      75.7474      78.8742    -999.2500    -999.2500      30.5166      33.6320      71.0486       0.1816       2.5760       2.3650
   2498.4456       8.2660       0.0230      72.8770      82.5910    -999.2500    -999.2500      27.2605      30.1996      58.9319       0.1633       2.5720       2.4090
   2498.5979       8.2660       0.0195      75.4752      84.8475    -999.2500    -999.2500      24.1419      26.8397      46.7444       0.1693       2.5081       2.3850
   2498.7505       8.2660       0.0160      78.0790      87.0980    -999.2500    -999.2500      21.0166      23.4725      34.5305       0.1754       2.4440       2.3610
   2498.9028       8.2660       0.0130      81.3298      86.9623    -999.2500    -999.2500      19.9461      22.1886      30.2513       0.1888       2.3841       2.3106
   2499.0552       8.2660       0.0100      84.5880      86.8270    -999.2500    -999.2500      18.8731      20.9017      25.9624       0.2023       2.3240       2.2600
   2499.2075       8.2610       0.0090      85.4415      84.1193    -999.2500    -999.2500      19.2343      21.1296      26.0497       0.2111       2.3490       2.2610
   2499.3599       8.2560       0.0080      86.2970      81.4180    -999.2500    -999.2500      19.5964      21.3580      26.1373       0.2199       2.3740       2.2620
   2499.5125       8.2141       0.0105      86.5352      79.7161    -999.2500    -999.2500      20.1332      21.7659      26.5802       0.2178       2.3321       2.2560
   2499.6648       8.1720       0.0130      86.7740      78.0180    -999.2500    -999.2500      20.6715      22.1749      27.0243       0.2156       2.2900       2.2500
   2499.8171       8.1985       0.0155      86.7086      79.3905    -999.2500    -999.2500      20.9662      22.2652      26.8693       0.2139       2.2945       2.2515
   2499.9695       8.2250       0.0180      86.6430      80.7600    -999.2500    -999.2500      21.2617      22.3557      26.7140       0.2121       2.2990       2.2530
   2500.1221       8.2425       0.0160      86.3150      80.5538    -999.2500    -999.2500      21.5234      22.3737      26.4214       0.2097       2.3235       2.2615
   2500.2744       8.2600       0.0140      85.9860      80.3480    -999.2500    -999.2500      21.7859      22.3917      26.1280       0.2072       2.3480       2.2700
   2500.4268       8.2630       0.0150      85.6959      79.9376    -999.2500    -999.2500      22.3119      22.6344      26.1020       0.2083       2.3640       2.2670
   2500.5791       8.2660       0.0160      85.4050      79.5280    -999.2500    -999.2500      22.8394      22.8779      26.0759       0.2093       2.3800       2.2640
   2500.7317       8.2660       0.0205      85.4474      79.1907    -999.2500    -999.2500      23.4968      23.2930      26.3250       0.2135       2.3585       2.2645
   2500.8840       8.2660       0.0250      85.4900      78.8540    -999.2500    -999.2500      24.1562      23.7094      26.5750       0.2176       2.3370       2.2650
   2501.0364       8.2660       0.0230      85.6393      79.5406    -999.2500    -999.2500      24.6614      24.0371      26.9105       0.2205       2.3105       2.2685
