#------------------------------------------------------------------------------
#
#   Created by  : [OpenWorks] Log Export Utility (LEXP)
#   Created on  : 2016-05-23 11:57:21
#   Project     : CANT971
#   User        : R5K
#   Interpreter : PEP
#
#------------------------------------------------------------------------------
~VERSION INFORMATION
VERS. 2.0 : CWLS Log ASCII Standard - version 2.0
WRAP.  NO : One line per depth step
~WELL INFORMATION
#MNEMONIC   .UNIT                                           VALUE :DESCRIPTION
#------------------------------------------------------------------------------
STRT        .M                                           117.7290 :START DEPTH
STOP        .M                                          2309.5459 :STOP DEPTH
STEP        .M                                             0.1524 :STEP
NULL        .                                           -999.2500 :NULL VALUE
COMP        .                                   PEMEX EXPL & PROD :COMPANY
WELL        .                                                  7A :WELL
FLD         .                                           CANTARELL :FIELD
LOC         .                                             UNKNOWN :LOCATION
CNTY        .                                      CD. DEL CARMEN :COUNTY
STAT        .                                            CAMPECHE :STATE
CTRY        .                                              MEXICO :COUNTRY
SRVC        .                                             UNKNOWN :SERVICE COMPANY
DATE        .                                             UNKNOWN :LOG DATE
UWI         .                                          3060000143 :UNIQUE WELL ID
XCOORD      .                                       603360.310000 :SURFACE X
YCOORD      .                                      2145096.320000 :SURFACE Y
LAT         .                                           19.398572 :LATITUDE
LON         .                                          -92.015639 :LONGITUDE
ELEV        .M                                            27.1400 :SURFACE ELEV
ELEV_TYPE   .                                                  KB :ELEV TYPE
~CURVE INFORMATION
#MNEMONIC.UNIT        API CODE       : CURVE DESCRIPTION
#------------------------------------------------------------------------------
DEPTH    .M                          : Measured Depth
CALI     .in          UNKNOWN        : CALI:resistivos:rC:NONE:v0 (auto-composite)
DRHO     .g/cm3       UNKNOWN        : DRHO:PETROWORKS:rC:NONE:v2 
DT       .us/ft       UNKNOWN        : DT:DT:rC:NONE:v0 (auto-composite)
GR       .API         UNKNOWN        : GR:UNKNOWN:rC:NONE:v0 (auto-composite)
ILD      .ohmm        UNKNOWN        : ILD:resistivos:rC:NONE:v0 (auto-composite)
LLD      .ohm.m       UNKNOWN        : LLD:UNKNOWN:rC:NONE:v0 (auto-composite)
LLS      .ohm.m       UNKNOWN        : LLS:UNKNOWN:rC:NONE:v0 (auto-composite)
MSFL     .ohm.m       UNKNOWN        : MSFL:UNKNOWN:rC:NONE:v0 (auto-composite)
NPHI     .v/v_decimal     UNKNOWN        : NPHI:PETROWORKS:rC:NONE:v1 
RHOB     .g/cm3       UNKNOWN        : RHOB:UNKNOWN:rC:NONE:v0 (auto-composite)
SN       .ohm.m       UNKNOWN        : SN:UNKNOWN:rC:NONE:v0 (auto-composite)
~A     DEPTH         CALI         DRHO           DT           GR          ILD          LLD          LLS         MSFL         NPHI         RHOB           SN
# ...
   1480.7946       8.7575       0.1022      87.5660      36.0348       2.9675    -999.2500    -999.2500    -999.2500       0.2797       2.3600       3.6869
   1480.9470       8.7525       0.1118      87.8980      35.7019       2.9245    -999.2500    -999.2500    -999.2500       0.2849       2.3600       3.6202
   1481.0994       8.7517       0.1216      88.5638      35.4267       2.8990    -999.2500    -999.2500    -999.2500       0.2898       2.3600       3.4850
   1481.2518       8.7552       0.1229      89.5633      35.2089       2.8910    -999.2500    -999.2500    -999.2500       0.2920       2.3600       3.2817
   1481.4042       8.7727       0.1211      91.2217      35.2749       2.8326    -999.2500    -999.2500    -999.2500       0.2937       2.3600       3.1817
   1481.5566       8.8042       0.1211      93.5392      35.6246       2.7241    -999.2500    -999.2500    -999.2500       0.2908       2.3600       3.1852
   1481.7090       8.8168       0.1218      96.5240      35.7669       2.6833    -999.2500    -999.2500    -999.2500       0.2877       2.3600       3.2261
   1481.8615       8.8103       0.1126     100.1763      35.7004       2.7098    -999.2500    -999.2500    -999.2500       0.2830       2.3600       3.3046
   1482.0138       8.8020       0.0999     101.6651      35.5837       2.7970    -999.2500    -999.2500    -999.2500       0.2778       2.3575       3.4094
   1482.1663       8.7920       0.0858     100.9961      35.4164       2.9445    -999.2500    -999.2500    -999.2500       0.2685       2.3525       3.5408
   1482.3186       8.7803       0.0711     100.3118      35.1992       3.1323    -999.2500    -999.2500    -999.2500       0.2596       2.3550       3.6868
   1482.4709       8.7668       0.0741      99.6124      34.9315       3.3603    -999.2500    -999.2500    -999.2500       0.2530       2.3650       3.8477
   1482.6234       8.7632       0.0829      98.6681      34.4288       3.5833    -999.2500    -999.2500    -999.2500       0.2479       2.3675       4.0132
   1482.7758       8.7697       0.0950      97.4796      33.6924       3.8013    -999.2500    -999.2500    -999.2500       0.2554       2.3625       4.1830
   1482.9282       8.7747       0.1081      96.1888      32.9684       3.9985    -999.2500    -999.2500    -999.2500       0.2633       2.3600       4.3045
   1483.0806       8.7782       0.1154      94.7959      32.2567       4.1750    -999.2500    -999.2500    -999.2500       0.2756       2.3600       4.3774
   1483.2330       8.7750       0.1210      94.2001      32.1183       4.3074    -999.2500    -999.2500    -999.2500       0.2862       2.3617       4.4255
   1483.3854       8.7650       0.1168      94.4001      32.5559       4.3959    -999.2500    -999.2500    -999.2500       0.2814       2.3652       4.4484
   1483.5378       8.7650       0.1098      94.1620      33.2675       4.4042    -999.2500    -999.2500    -999.2500       0.2760       2.3695       4.4451
   1483.6902       8.7750       0.1045      93.4865      34.2561       4.3327    -999.2500    -999.2500    -999.2500       0.2659       2.3745       4.4151
   1483.8427       8.7825       0.0998      92.6865      35.7107       4.2321    -999.2500    -999.2500    -999.2500       0.2563       2.3777       4.4199
   1483.9950       8.7875       0.0984      91.7620      37.6382       4.1026    -999.2500    -999.2500    -999.2500       0.2506       2.3792       4.4600
   1484.1475       8.7850       0.0979      91.5884      38.5830       3.9922    -999.2500    -999.2500    -999.2500       0.2455       2.3800       4.4477
   1484.2998       8.7750       0.0965      92.1649      38.5490       3.9007    -999.2500    -999.2500    -999.2500       0.2468       2.3800       4.3832
   1484.4521       8.7717       0.0947      92.6918      38.3373       3.7851    -999.2500    -999.2500    -999.2500       0.2481       2.3783       4.2543
   1484.6046       8.7752       0.0936      93.1693      37.9482       3.6456    -999.2500    -999.2500    -999.2500       0.2505       2.3748       4.0610
   1484.7570       8.7802       0.0927      93.6773      37.5654       3.4710    -999.2500    -999.2500    -999.2500       0.2530       2.3698       3.8509
   1484.9094       8.7867       0.0903      94.2158      37.1891       3.2614    -999.2500    -999.2500    -999.2500       0.2565       2.3633       3.6240
   1485.0618       8.7850       0.0875      95.0150      37.2034       3.0810    -999.2500    -999.2500    -999.2500       0.2600       2.3600       3.4158
   1485.2142       8.7750       0.0855      96.0750      37.6120       2.9295    -999.2500    -999.2500    -999.2500       0.2636       2.3600       3.2264
   1485.3666       8.7775       0.0836      97.2037      38.3718       2.7973    -999.2500    -999.2500    -999.2500       0.2668       2.3617       3.0885
   1485.5190       8.7925       0.0815      98.4012      39.4884       2.6843    -999.2500    -999.2500    -999.2500       0.2660       2.3653       3.0027
   1485.6714       8.7925       0.0794      98.7089      40.4136       2.5633    -999.2500    -999.2500    -999.2500       0.2650       2.3678       2.9755
   1485.8239       8.7775       0.0786      98.1267      41.1485       2.4343    -999.2500    -999.2500    -999.2500       0.2623       2.3693       3.0065
   1485.9762       8.7700       0.0781      97.2042      41.8268       2.3870    -999.2500    -999.2500    -999.2500       0.2595       2.3717       3.0410
   1486.1287       8.7700       0.0783      95.9422      42.4485       2.4210    -999.2500    -999.2500    -999.2500       0.2562       2.3752       3.0790
   1486.2810       8.7735       0.0786      94.9336      42.9694       2.4698    -999.2500    -999.2500    -999.2500       0.2530       2.3777       3.1309
   1486.4333       8.7805       0.0771      94.1776      43.3891       2.5333    -999.2500    -999.2500    -999.2500       0.2507       2.3792       3.1969
   1486.5858       8.7872       0.0753      93.8751      43.3775       2.6036    -999.2500    -999.2500    -999.2500       0.2484       2.3800       3.2732
   1486.7382       8.7937       0.0738      94.0251      42.9302       2.6806    -999.2500    -999.2500    -999.2500       0.2468       2.3800       3.3602
   1486.8906       8.7977       0.0723      94.0499      42.4840       2.7541    -999.2500    -999.2500    -999.2500       0.2452       2.3800       3.4354
   1487.0430       8.7992       0.0730      93.9500      42.0390       2.8241    -999.2500    -999.2500    -999.2500       0.2432       2.3800       3.4985
   1487.1954       8.8000       0.0742      94.2002      41.6875       2.8843    -999.2500    -999.2500    -999.2500       0.2413       2.3800       3.5100
   1487.3478       8.8000       0.0775      94.8002      41.4291       2.9348    -999.2500    -999.2500    -999.2500       0.2386       2.3800       3.4700
   1487.5002       8.8000       0.0813      95.0480      41.3172       2.9530    -999.2500    -999.2500    -999.2500       0.2362       2.3800       3.4575
   1487.6526       8.8000       0.0805      94.9440      41.3517       2.9390    -999.2500    -999.2500    -999.2500       0.2369       2.3800       3.4725
   1487.8051       8.8000       0.0786      94.7302      41.6189       2.8992    -999.2500    -999.2500    -999.2500       0.2378       2.3817       3.4541
   1487.9574       8.8000       0.0764      94.4067      42.1200       2.8337    -999.2500    -999.2500    -999.2500       0.2404       2.3852       3.4021
   1488.1099       8.8000       0.0741      94.0967      42.7200       2.7567    -999.2500    -999.2500    -999.2500       0.2430       2.3877       3.3266
   1488.2622       8.8000       0.0732      93.8002      43.4202       2.6682    -999.2500    -999.2500    -999.2500       0.2467       2.3892       3.2271
   1488.4146       8.8000       0.0727      93.4572      44.1392       2.5859    -999.2500    -999.2500    -999.2500       0.2504       2.3850       3.1258
   1488.5670       8.8000       0.0731      93.0677      44.8772       2.5099    -999.2500    -999.2500    -999.2500       0.2540       2.3750       3.0225
