#------------------------------------------------------------------------------
#
#   Created by  : [OpenWorks] Log Export Utility (LEXP)
#   Created on  : 2016-05-23 11:50:40
#   Project     : CANT971
#   User        : R5K
#   Interpreter : PEP
#
#------------------------------------------------------------------------------
~VERSION INFORMATION
VERS. 2.0 : CWLS Log ASCII Standard - version 2.0
WRAP.  NO : One line per depth step
~WELL INFORMATION
#MNEMONIC   .UNIT                                           VALUE :DESCRIPTION
#------------------------------------------------------------------------------
STRT        .M                                           697.2303 :START DEPTH
STOP        .M                                          3650.8948 :STOP DEPTH
STEP        .M                                             0.1524 :STEP
NULL        .                                           -999.2500 :NULL VALUE
COMP        .                                   PEMEX EXPL & PROD :COMPANY
WELL        .                                                1026 :WELL
FLD         .                                           CANTARELL :FIELD
LOC         .                                             UNKNOWN :LOCATION
CNTY        .                                      CD. DEL CARMEN :COUNTY
STAT        .                                            CAMPECHE :STATE
CTRY        .                                              MEXICO :COUNTRY
SRVC        .                                             UNKNOWN :SERVICE COMPANY
DATE        .                                             UNKNOWN :LOG DATE
UWI         .                                          3060000491 :UNIQUE WELL ID
XCOORD      .                                       596159.330000 :SURFACE X
YCOORD      .                                      2150607.710000 :SURFACE Y
LAT         .                                           19.448735 :LATITUDE
LON         .                                          -92.083932 :LONGITUDE
ELEV        .M                                            30.0000 :SURFACE ELEV
ELEV_TYPE   .                                                  KB :ELEV TYPE
~CURVE INFORMATION
#MNEMONIC.UNIT        API CODE       : CURVE DESCRIPTION
#------------------------------------------------------------------------------
DEPTH    .M                          : Measured Depth
CALI     .inches      UNKNOWN        : CALI:registros:rC:NONE:v0 (auto-composite)
DRHO     .g/cm3       UNKNOWN        : DRHO:registros:rC:NONE:v0 (auto-composite)
DT       .us/ft       UNKNOWN        : DT:registros:rC:NONE:v0 (auto-composite)
GR       .API         UNKNOWN        : GR:registros:rC:NONE:v0 (auto-composite)
ILD      .ohm.m       UNKNOWN        : ILD:registros:rC:NONE:v0 (auto-composite)
ILM      .ohm.m       UNKNOWN        : ILM:registros:rC:NONE:v0 (auto-composite)
LLD      .ohm.m       UNKNOWN        : LLD:registros:rC:NONE:v0 (auto-composite)
LLS      .ohm.m       UNKNOWN        : LLS:registros:rC:NONE:v0 (auto-composite)
MSFL     .ohm.m       UNKNOWN        : MSFL:registros:rC:NONE:v0 (auto-composite)
NPHI     .v/v_decimal UNKNOWN        : NPHI:registros:rC:NONE:v0 (auto-composite)
PEF      .b/elec      UNKNOWN        : PEF:registros:rC:NONE:v0 (auto-composite)
RHOB     .g/cm3       UNKNOWN        : RHOB:registros:rC:NONE:v0 (auto-composite)
~A     DEPTH         CALI         DRHO           DT           GR          ILD          ILM          LLD          LLS         MSFL         NPHI          PEF         RHOB
# ...
   3272.1807      10.4920       0.0350      52.7812      42.1170    -999.2500    -999.2500     539.1764     509.7631       6.6173       0.0401       3.2495       2.7280
   3272.3330      10.4840       0.0270      53.2500      42.0780    -999.2500    -999.2500     501.7980     483.1350       4.5940       0.0465       3.2530       2.7070
   3272.4856      10.4855       0.0270      53.1875      40.4707    -999.2500    -999.2500     429.0270     419.2270       5.0840       0.0470       3.4049       2.7070
   3272.6379      10.4870       0.0270      53.1250      38.8610    -999.2500    -999.2500     356.2630     355.3250       5.5740       0.0467       3.5570       2.7070
   3272.7903      10.6299       0.0325      53.2499      35.4178    -999.2500    -999.2500     283.8331     287.2906       5.5165       0.0436       3.5545       2.7145
   3272.9426      10.7730       0.0380      53.3750      31.9690    -999.2500    -999.2500     211.4010     219.2540       5.4590       0.0405       3.5520       2.7220
   3273.0950      10.7725       0.0445      53.1560      32.0280    -999.2500    -999.2500     196.7267     205.7171       3.6916       0.0405       3.4576       2.7165
   3273.2476      10.7720       0.0510      52.9370      32.0870    -999.2500    -999.2500     182.0500     192.1780       1.9240       0.0412       3.3630       2.7110
   3273.3999      10.6675       0.0635      53.0620      38.8027    -999.2500    -999.2500     167.7120     179.1614       5.4683       0.0482       3.3825       2.7125
   3273.5522      10.5630       0.0760      53.1870      45.5310    -999.2500    -999.2500     153.3930     166.1620       9.0080       0.0556       3.4020       2.7140
   3273.7046      10.5635       0.0755      51.0004      45.5080    -999.2500    -999.2500     153.7777     166.4382       8.9660       0.0611       3.3231       2.7135
   3273.8572      10.5640       0.0750      48.8130      45.4850    -999.2500    -999.2500     154.1620     166.7140       8.9240       0.0661       3.2440       2.7130
   3274.0095      10.5920       0.0530      48.8450      44.5897    -999.2500    -999.2500     168.5022     176.9450       7.2871       0.0665       3.2460       2.7390
   3274.1619      10.6200       0.0310      48.8770      43.6940    -999.2500    -999.2500     182.8270     187.1650       5.6520       0.0657       3.2480       2.7650
   3274.3142      10.6665       0.0315      49.9606      39.0620    -999.2500    -999.2500     246.4900     244.9992       5.6695       0.0583       3.4469       2.7645
   3274.4668      10.7130       0.0320      51.0450      34.4270    -999.2500    -999.2500     310.0930     302.7790       5.6870       0.0508       3.6460       2.7640
   3274.6191      10.7825       0.0375      55.1774      30.8634    -999.2500    -999.2500     308.8650     301.6450       6.7714       0.0505       3.6420       2.7505
   3274.7715      10.8520       0.0430      59.3130      27.2970    -999.2500    -999.2500     307.6380     300.5120       7.8550       0.0528       3.6380       2.7370
   3274.9238      10.7465       0.0859      59.2710      27.3465    -999.2500    -999.2500     275.4719     270.5226       5.6522       0.0735       3.4531       2.7295
   3275.0762      10.6410       0.1290      59.2290      27.3960    -999.2500    -999.2500     243.3280     240.5540       3.4510       0.0944       3.2680       2.7220
   3275.2288      10.8634       0.1280      56.9592      28.7878    -999.2500    -999.2500     222.5176     218.8038       4.0967       0.0963       3.3899       2.7100
   3275.3811      11.0860       0.1270      54.6870      30.1810    -999.2500    -999.2500     201.7190     197.0660       4.7420       0.0962       3.5120       2.6980
   3275.5334      10.7462       0.1070      55.0618      31.2594    -999.2500    -999.2500     150.0481     148.0892       3.2492       0.0954       3.4925       2.6915
   3275.6858      10.4060       0.0870      55.4370      32.3390    -999.2500    -999.2500      98.4000      99.1340       1.7570       0.0933       3.4730       2.6850
   3275.8384      10.4065       0.0436      55.3750      67.9281    -999.2500    -999.2500      98.4665      99.2115       1.7845       0.0793       3.4990       2.6855
   3275.9907      10.4070       0.0000      55.3130     103.5630    -999.2500    -999.2500      98.5330      99.2890       1.8120       0.0656       3.5250       2.6860
   3276.1431      10.4225       0.0000      55.3465     103.2457    -999.2500    -999.2500     101.1817     102.1963       7.1370       0.0665       3.4011       2.6820
   3276.2954      10.4380       0.0000      55.3800     102.9280    -999.2500    -999.2500     103.8300     105.1030      12.4610       0.0687       3.2770       2.6780
   3276.4480      10.4465       0.0005      57.0637      94.2926    -999.2500    -999.2500     133.0809     133.3644       9.9864       0.0671       3.3834       2.6785
   3276.6003      10.4550       0.0010      58.7500      85.6440    -999.2500    -999.2500     162.3300     161.6240       7.5120       0.0654       3.4900       2.6790
   3276.7527      10.5634       0.0095      57.7194      60.8721    -999.2500    -999.2500     170.4638     168.1713       7.6660       0.0662       3.4885       2.6685
   3276.9050      10.6720       0.0180      56.6870      36.0590    -999.2500    -999.2500     178.5980     174.7190       7.8200       0.0668       3.4870       2.6580
   3277.0574      10.6675       0.0255      56.6995      33.3834    -999.2500    -999.2500     191.2378     181.9608       7.2361       0.0635       3.4211       2.6610
   3277.2100      10.6630       0.0330      56.7120      30.7030    -999.2500    -999.2500     203.8800     189.2040       6.6520       0.0600       3.3550       2.6640
   3277.3623      10.5615       0.0330      57.7623      30.7405    -999.2500    -999.2500     203.1580     188.5216       8.2490       0.0597       3.4509       2.6640
   3277.5146      10.4600       0.0330      58.8130      30.7780    -999.2500    -999.2500     202.4370     187.8400       9.8440       0.0606       3.5470       2.6640
   3277.6670      10.4095       0.0305      56.5320      31.6263    -999.2500    -999.2500     187.9761     174.0870       9.7700       0.0689       3.5450       2.6395
   3277.8196      10.3590       0.0280      54.2500      32.4750    -999.2500    -999.2500     173.5320     160.3500       9.6960       0.0772       3.5430       2.6150
   3277.9719      10.3605       0.0445      54.2915      33.5947    -999.2500    -999.2500     165.0131     148.9371       7.2727       0.0775       3.4316       2.6820
   3278.1243      10.3620       0.0610      54.3330      34.7150    -999.2500    -999.2500     156.5030     137.5360       4.8520       0.0755       3.3200       2.7490
   3278.2766      10.5050       0.0435      55.5721      36.8723    -999.2500    -999.2500     158.0927     138.9031       5.2662       0.0628       3.3220       2.7240
   3278.4292      10.6480       0.0260      56.8120      39.0310    -999.2500    -999.2500     159.6810     140.2690       5.6800       0.0499       3.3240       2.6990
   3278.5815      10.6445       0.0330      65.7149      38.8866    -999.2500    -999.2500     245.1756     211.8432       5.6270       0.0474       3.3845       2.7190
   3278.7339      10.6410       0.0400      74.6250      38.7420    -999.2500    -999.2500     330.6030     283.3610       5.5740       0.0459       3.4450       2.7390
   3278.8862      10.6440       0.0275      74.2607      34.5994    -999.2500    -999.2500     330.3919     283.1154       5.8846       0.0424       3.3096       2.7190
   3279.0386      10.6470       0.0150      73.8960      30.4530    -999.2500    -999.2500     330.1810     282.8700       6.1950       0.0385       3.1740       2.6990
   3279.1912      10.7220       0.0155      60.0804      34.1150    -999.2500    -999.2500     323.0616     275.7206       5.1187       0.0344       3.1825       2.7160
   3279.3435      10.7970       0.0160      46.2500      37.7810    -999.2500    -999.2500     315.9460     268.5750       4.0430       0.0307       3.1910       2.7330
