#------------------------------------------------------------------------------
#
#   Created by  : [OpenWorks] Log Export Utility (LEXP)
#   Created on  : 2016-05-11 12:45:47
#   Project     : CANT971
#   User        : R5K
#   Interpreter : PEP
#
#------------------------------------------------------------------------------
~VERSION INFORMATION
VERS. 2.0 : CWLS Log ASCII Standard - version 2.0
WRAP.  NO : One line per depth step
~WELL INFORMATION
#MNEMONIC   .UNIT                                           VALUE :DESCRIPTION
#------------------------------------------------------------------------------
STRT        .M                                           801.4664 :START DEPTH
STOP        .M                                          3402.1724 :STOP DEPTH
STEP        .M                                             0.1524 :STEP
NULL        .                                           -999.2500 :NULL VALUE
COMP        .                                   PEMEX EXPL & PROD :COMPANY
WELL        .                                        CANTARELL-85 :WELL
FLD         .                                           CANTARELL :FIELD
LOC         .                                             UNKNOWN :LOCATION
CNTY        .                                      CD. DEL CARMEN :COUNTY
STAT        .                                            CAMPECHE :STATE
CTRY        .                                              MEXICO :COUNTRY
SRVC        .                                             UNKNOWN :SERVICE COMPANY
DATE        .                                             UNKNOWN :LOG DATE
UWI         .                                          3060000185 :UNIQUE WELL ID
XCOORD      .                                       604541.690000 :SURFACE X
YCOORD      .                                      2141649.620000 :SURFACE Y
LAT         .                                           19.367365 :LATITUDE
LON         .                                          -92.004578 :LONGITUDE
ELEV        .M                                            30.0000 :SURFACE ELEV
ELEV_TYPE   .                                                  KB :ELEV TYPE
~CURVE INFORMATION
#MNEMONIC.UNIT        API CODE       : CURVE DESCRIPTION
#------------------------------------------------------------------------------
DEPTH    .M                          : Measured Depth
CALI     .inches      UNKNOWN        : CALI:Import:rC:NONE:v0 (auto-composite)
DRHO     .g/cm3       UNKNOWN        : DRHO:Import:rC:NONE:v0 (auto-composite)
DT       .us/ft       UNKNOWN        : DT:Import:rC:NONE:v0 (auto-composite)
GR       .API         UNKNOWN        : GR:Import:rC:NONE:v0 (auto-composite)
ILD      .ohm.m       UNKNOWN        : ILD:Import:rC:NONE:v0 (auto-composite)
ILM      .ohm.m       UNKNOWN        : ILM:Import:rC:NONE:v0 (auto-composite)
NPHI     .v/v_decimal UNKNOWN        : NPHI:Import:rC:NONE:v0 (auto-composite)
RHOB     .g/cm3       UNKNOWN        : RHOB:Import:rC:NONE:v0 (auto-composite)
SN       .ohm.m       UNKNOWN        : SN:Import:rC:NONE:v0 (auto-composite)
SP       .mV          UNKNOWN        : SP:Import:rC:NONE:v0 (auto-composite)
~A     DEPTH         CALI         DRHO           DT           GR          ILD          ILM         NPHI         RHOB           SN           SP
# ...
   3225.2361       6.3800      -0.0361      68.0011       8.4003    1717.9941    -999.2500      -1.1624       2.0738    -999.2500    -999.2500
   3225.3884       6.3800      -0.0331      68.0135       8.2505    1719.9402    -999.2500      -1.1649       2.0808    -999.2500    -999.2500
   3225.5408       6.3800      -0.0330      67.9897       8.2460    1725.6790    -999.2500      -1.1771       2.0805    -999.2500    -999.2500
   3225.6931       6.3800      -0.0330      67.9652       8.2460    1731.5359    -999.2500      -1.1896       2.0800    -999.2500    -999.2500
   3225.8455       6.3800      -0.0374      68.0608       8.7782    1731.7180    -999.2500      -1.1900       2.0766    -999.2500    -999.2500
   3225.9980       6.3800      -0.0419      68.1603       9.3274    1731.7180    -999.2500      -1.1900       2.0731    -999.2500    -999.2500
   3226.1504       6.3800      -0.0415      68.0792       9.1521    1731.7180    -999.2500      -1.1866       2.0677    -999.2500    -999.2500
   3226.3027       6.3800      -0.0410      67.9922       8.9529    1731.7180    -999.2500      -1.1831       2.0622    -999.2500    -999.2500
   3226.4551       6.3800      -0.0391      68.0375       9.4054    1731.7180    -999.2500      -1.1719       2.0620    -999.2500    -999.2500
   3226.6077       6.3800      -0.0371      68.0872       9.8813    1731.7180    -999.2500      -1.1604       2.0620    -999.2500    -999.2500
   3226.7600       6.3921      -0.0312      68.0527       9.0704    1732.6897    -999.2500      -1.1552       2.0722    -999.2500    -999.2500
   3226.9124       6.4046      -0.0252      68.0153       8.2213    1733.6902    -999.2500      -1.1503       2.0827    -999.2500    -999.2500
   3227.0647       6.4021      -0.0260      68.0140       8.2930    1736.6416    -999.2500      -1.1646       2.0820    -999.2500    -999.2500
   3227.2173       6.3991      -0.0270      68.0140       8.3929    1739.6528    -999.2500      -1.1795       2.0810    -999.2500    -999.2500
   3227.3696       6.3869      -0.0299      68.0232       8.3839    1735.8591    -999.2500      -1.1800       2.0752    -999.2500    -999.2500
   3227.5220       6.3744      -0.0329      68.0328       8.3714    1731.8506    -999.2500      -1.1800       2.0692    -999.2500    -999.2500
   3227.6743       6.3522      -0.0272      68.0601       8.0206    1732.6764    -999.2500      -1.1800       2.0700    -999.2500    -999.2500
   3227.8267       6.3297      -0.0212      68.0880       7.6583    1733.6675    -999.2500      -1.1800       2.0710    -999.2500    -999.2500
   3227.9792       6.3290      -0.0210      68.0890       7.7661    1736.6285    -999.2500      -1.1790       2.0739    -999.2500    -999.2500
   3228.1316       6.3290      -0.0210      68.0890       7.8905    1739.6589    -999.2500      -1.1780       2.0769    -999.2500    -999.2500
   3228.2839       6.3290      -0.0229      68.0890       8.2650    1739.7450    -999.2500      -1.1693       2.0765    -999.2500    -999.2500
   3228.4363       6.3290      -0.0249      68.0890       8.6468    1739.7450    -999.2500      -1.1603       2.0760    -999.2500    -999.2500
   3228.5889       6.3169      -0.0313      68.0769       8.7249    1735.8538    -999.2500      -1.1624       2.0687    -999.2500    -999.2500
   3228.7412       6.3044      -0.0378      68.0645       8.7938    1731.8452    -999.2500      -1.1649       2.0612    -999.2500    -999.2500
   3228.8936       6.3098      -0.0375      68.0791       8.5056    1731.7180    -999.2500      -1.1732       2.0625    -999.2500    -999.2500
   3229.0459       6.3158      -0.0370      68.0948       8.2058    1731.7180    -999.2500      -1.1817       2.0640    -999.2500    -999.2500
   3229.1985       6.3344      -0.0355      68.1890       8.2202    1739.4806    -999.2500      -1.1907       2.0722    -999.2500    -999.2500
   3229.3508       6.3534      -0.0340      68.2856       8.2452    1747.5046    -999.2500      -1.1997       2.0807    -999.2500    -999.2500
   3229.5032       6.3540      -0.0301      68.2739       8.3914    1739.9924    -999.2500      -1.1986       2.0805    -999.2500    -999.2500
   3229.6555       6.3540      -0.0261      68.2583       8.5418    1731.9426    -999.2500      -1.1971       2.0800    -999.2500    -999.2500
   3229.8079       6.3540      -0.0279      68.2033       8.0605    1731.7180    -999.2500      -1.1888       2.0761    -999.2500    -999.2500
   3229.9604       6.3540      -0.0299      68.1467       7.5612    1731.7180    -999.2500      -1.1803       2.0721    -999.2500    -999.2500
   3230.1128       6.3419      -0.0281      68.0815       7.5639    1739.4984    -999.2500      -1.1834       2.0730    -999.2500    -999.2500
   3230.2651       6.3294      -0.0261      68.0163       7.5824    1747.5223    -999.2500      -1.1870       2.0740    -999.2500    -999.2500
   3230.4175       6.3290      -0.0260      68.0232       7.7157    1743.8860    -999.2500      -1.2079       2.0803    -999.2500    -999.2500
   3230.5701       6.3290      -0.0260      68.0330       7.8526    1739.8738    -999.2500      -1.2293       2.0868    -999.2500    -999.2500
   3230.7224       6.3319      -0.0318      68.1087       8.3354    1739.7450    -999.2500      -1.2266       2.0739    -999.2500    -999.2500
   3230.8748       6.3349      -0.0378      68.1864       8.8297    1739.7450    -999.2500      -1.2230       2.0604    -999.2500    -999.2500
   3231.0271       6.3476      -0.0331      68.1861       8.7791    1735.8561    -999.2500      -1.2104       2.0707    -999.2500    -999.2500
   3231.1797       6.3606      -0.0281      68.1828       8.7100    1731.8347    -999.2500      -1.1974       2.0817    -999.2500    -999.2500
   3231.3320       6.3702      -0.0280      68.0890       8.1926    1732.6896    -999.2500      -1.1927       2.0820    -999.2500    -999.2500
   3231.4844       6.3797      -0.0280      67.9924       7.6619    1733.6901    -999.2500      -1.1882       2.0820    -999.2500    -999.2500
   3231.6367       6.3800      -0.0295      68.0253       7.6702    1740.5699    -999.2500      -1.1832       2.0791    -999.2500    -999.2500
   3231.7891       6.3800      -0.0310      68.0625       7.6952    1747.6310    -999.2500      -1.1781       2.0761    -999.2500    -999.2500
   3231.9417       6.3800      -0.0305      68.0155       7.8528    1747.8116    -999.2500      -1.1547       2.0765    -999.2500    -999.2500
   3232.0940       6.3800      -0.0300      67.9657       8.0146    1747.7742    -999.2500      -1.1308       2.0770    -999.2500    -999.2500
   3232.2463       6.3553      -0.0281      67.9761       8.7327    1747.8092    -999.2500      -1.1334       2.0794    -999.2500    -999.2500
   3232.3987       6.3298      -0.0261      67.9888       9.4699    1747.8468    -999.2500      -1.1370       2.0819    -999.2500    -999.2500
   3232.5513       6.3353      -0.0236      68.0375       9.3497    1740.0361    -999.2500      -1.1579       2.0844    -999.2500    -999.2500
   3232.7036       6.3418      -0.0211      68.0871       9.1993    1731.9487    -999.2500      -1.1793       2.0869    -999.2500    -999.2500
   3232.8560       6.3604      -0.0229      68.0405       9.3407    1731.7180    -999.2500      -1.1800       2.0807    -999.2500    -999.2500
   3233.0083       6.3794      -0.0249      67.9912       9.4906    1731.7180    -999.2500      -1.1800       2.0742    -999.2500    -999.2500
   3233.1609       6.3674      -0.0245      68.1223       9.0835    1731.7180    -999.2500      -1.1800       2.0764    -999.2500    -999.2500
   3233.3132       6.3544      -0.0240      68.2592       8.6595    1731.7180    -999.2500      -1.1800       2.0789    -999.2500    -999.2500
   3233.4656       6.3540      -0.0255      68.2310       8.6581    1735.6019    -999.2500      -1.1790       2.0790    -999.2500    -999.2500
   3233.6179       6.3540      -0.0270      68.1965       8.6706    1739.6138    -999.2500      -1.1779       2.0790    -999.2500    -999.2500
