#------------------------------------------------------------------------------
#
#   Created by  : [OpenWorks] Log Export Utility (LEXP)
#   Created on  : 2016-05-23 11:51:27
#   Project     : CANT971
#   User        : R5K
#   Interpreter : PEP
#
#------------------------------------------------------------------------------
~VERSION INFORMATION
VERS. 2.0 : CWLS Log ASCII Standard - version 2.0
WRAP.  NO : One line per depth step
~WELL INFORMATION
#MNEMONIC   .UNIT                                           VALUE :DESCRIPTION
#------------------------------------------------------------------------------
STRT        .M                                           294.1315 :START DEPTH
STOP        .M                                          1758.8479 :STOP DEPTH
STEP        .M                                             0.1524 :STEP
NULL        .                                           -999.2500 :NULL VALUE
COMP        .                                   PEMEX EXPL & PROD :COMPANY
WELL        .                                                1084 :WELL
FLD         .                                           CANTARELL :FIELD
LOC         .                                             UNKNOWN :LOCATION
CNTY        .                                      CD. DEL CARMEN :COUNTY
STAT        .                                            CAMPECHE :STATE
CTRY        .                                              MEXICO :COUNTRY
SRVC        .                                             UNKNOWN :SERVICE COMPANY
DATE        .                                             UNKNOWN :LOG DATE
UWI         .                                          3060000213 :UNIQUE WELL ID
XCOORD      .                                       596992.320000 :SURFACE X
YCOORD      .                                      2148289.820000 :SURFACE Y
LAT         .                                           19.427749 :LATITUDE
LON         .                                          -92.076116 :LONGITUDE
ELEV        .M                                            27.5000 :SURFACE ELEV
ELEV_TYPE   .                                                  KB :ELEV TYPE
~CURVE INFORMATION
#MNEMONIC.UNIT        API CODE       : CURVE DESCRIPTION
#------------------------------------------------------------------------------
DEPTH    .M                          : Measured Depth
CALI     .in          UNKNOWN        : CALI:registros:rC:NONE:v0 (auto-composite)
DRHO     .g/cm3       UNKNOWN        : DRHO:registros:rC:NONE:v0 (auto-composite)
DT       .us/ft       UNKNOWN        : DT:registros:rC:NONE:v0 (auto-composite)
GR       .api         UNKNOWN        : GR:registros:rC:NONE:v0 (auto-composite)
ILD      .ohmm        UNKNOWN        : ILD:registros:rC:NONE:v0 (auto-composite)
NPHI     .v/v_decimal UNKNOWN        : NPHI:registros:rC:NONE:v0 (auto-composite)
RHOB     .g/cm3       UNKNOWN        : RHOB:registros:rC:NONE:v0 (auto-composite)
~A     DEPTH         CALI         DRHO           DT           GR          ILD         NPHI         RHOB
# ...
   1127.3022      18.6680       0.2785     136.6465      74.8608       1.7300    -999.2500       2.2835
   1127.4547      18.6850       0.2700     134.3400      75.9400       1.7300    -999.2500       2.2600
   1127.6071      18.6975       0.2700     136.0009      75.8214       1.7300    -999.2500       2.2600
   1127.7595      18.7100       0.2700     137.6570      75.7030       1.7300    -999.2500       2.2600
   1127.9119      18.7000       0.2700     143.1056      75.2152       1.7275    -999.2500       2.2615
   1128.0643      18.6900       0.2700     148.5390      74.7280       1.7250    -999.2500       2.2630
   1128.2167      18.6900       0.2685     150.9337      74.2592       1.7095    -999.2500       2.2665
   1128.3691      18.6900       0.2670     153.3200      73.7910       1.6940    -999.2500       2.2700
   1128.5215      18.6900       0.2620     152.1826      73.6789       1.6625    -999.2500       2.2685
   1128.6740      18.6900       0.2570     151.0500      73.5670       1.6310    -999.2500       2.2670
   1128.8263      18.6885       0.2435     151.7639      73.2907       1.5975    -999.2500       2.2610
   1128.9788      18.6870       0.2300     152.4750      73.0150       1.5640    -999.2500       2.2550
   1129.1311      18.6795       0.2350     157.7227      71.2154       1.5340    -999.2500       2.2425
   1129.2834      18.6720       0.2400     162.9500      69.4200       1.5040    -999.2500       2.2300
   1129.4359      18.6460       0.2350     162.1886      69.5356       1.4770    -999.2500       2.2350
   1129.5883      18.6200       0.2300     161.4300      69.6510       1.4500    -999.2500       2.2400
   1129.7407      18.6225       0.2300     158.3043      70.1320       1.4540    -999.2500       2.2350
   1129.8931      18.6250       0.2300     155.1900      70.6120       1.4580    -999.2500       2.2300
   1130.0455      18.6340       0.2315     156.1016      72.5078       1.4765    -999.2500       2.2300
   1130.1979      18.6430       0.2330     157.0100      74.4000       1.4950    -999.2500       2.2300
   1130.3503      18.6565       0.2405     162.7447      74.2018       1.5255    -999.2500       2.2325
   1130.5027      18.6700       0.2480     168.4600      74.0040       1.5560    -999.2500       2.2350
   1130.6552      18.6500       0.2605     167.6306      73.0402       1.5820    -999.2500       2.2450
   1130.8075      18.6300       0.2730     166.8040      72.0780       1.6080    -999.2500       2.2550
   1130.9600      18.6300       0.2765     162.9254      70.5778       1.6240    -999.2500       2.2625
   1131.1123      18.6300       0.2800     159.0590      69.0800       1.6400    -999.2500       2.2700
   1131.2646      18.6315       0.2775     154.3624      69.4207       1.6385    -999.2500       2.2700
   1131.4171      18.6330       0.2750     149.6800      69.7610       1.6370    -999.2500       2.2700
   1131.5695      18.6365       0.2660     149.6800      71.1764       1.6270    -999.2500       2.2685
   1131.7219      18.6400       0.2570     149.6800      72.5900       1.6170    -999.2500       2.2670
   1131.8743      18.6400       0.2435     149.6800      72.5885       1.5935    -999.2500       2.2585
   1132.0267      18.6400       0.2300     149.6800      72.5870       1.5700    -999.2500       2.2500
   1132.1791      18.6455       0.2400     149.3814      72.3499       1.5450    -999.2500       2.2500
   1132.3315      18.6510       0.2500     149.0840      72.1130       1.5200    -999.2500       2.2500
   1132.4839      18.6755       0.2450     147.2182      70.5752       1.5200    -999.2500       2.2515
   1132.6364      18.7000       0.2400     145.3600      69.0400       1.5200    -999.2500       2.2530
   1132.7887      18.6950       0.2415     145.6060      69.0770       1.5240    -999.2500       2.2565
   1132.9410      18.6900       0.2430     145.8510      69.1140       1.5280    -999.2500       2.2600
   1133.0935      18.6900       0.2490     146.5869      69.3277       1.5430    -999.2500       2.2550
   1133.2458      18.6900       0.2550     147.3200      69.5410       1.5580    -999.2500       2.2500
   1133.3983      18.6950       0.2625     146.6508      70.0110       1.5715    -999.2500       2.2600
   1133.5507      18.7000       0.2700     145.9840      70.4800       1.5850    -999.2500       2.2700
   1133.7031      18.7150       0.2685     143.8822      70.4420       1.5950    -999.2500       2.2650
   1133.8555      18.7300       0.2670     141.7880      70.4040       1.6050    -999.2500       2.2600
   1134.0079      18.7300       0.2620     140.8854      69.9731       1.6125    -999.2500       2.2600
   1134.1603      18.7300       0.2570     139.9860      69.5430       1.6200    -999.2500       2.2600
   1134.3127      18.7315       0.2485     138.4294      68.5256       1.6225    -999.2500       2.2600
   1134.4651      18.7330       0.2400     136.8780      67.5100       1.6250    -999.2500       2.2600
   1134.6176      18.7365       0.2415     133.0478      67.8243       1.6525    -999.2500       2.2500
   1134.7699      18.7400       0.2430     129.2300      68.1380       1.6800    -999.2500       2.2400
   1134.9222      18.7375       0.2480     129.5951      69.2809       1.6785    -999.2500       2.2425
   1135.0747      18.7350       0.2530     129.9590      70.4220       1.6770    -999.2500       2.2450
   1135.2271      18.7195       0.2565     134.7667      71.3206       1.6685    -999.2500       2.2540
   1135.3795      18.7040       0.2600     139.5600      72.2180       1.6600    -999.2500       2.2630
   1135.5319      18.3618       0.2615     138.5260      72.6443       1.6625    -999.2500       2.2680
   1135.6843      18.0190       0.2630     137.4950      73.0700       1.6650    -999.2500       2.2730
   1135.8367      15.9117       0.2680     133.7008      72.9149       1.6750    -999.2500       2.2780
   1135.9891      13.8000       0.2730     129.9200      72.7600       1.6850    -999.2500       2.2830
   1136.1415      13.9888       0.2815     131.3530      73.3453       1.6950    -999.2500       2.3015
   1136.2939      14.1780       0.2900     132.7800      73.9300       1.7050    -999.2500       2.3200
   1136.4463      15.0154       0.2850     131.3010      73.6349       1.7175    -999.2500       2.3185
   1136.5988      15.8540       0.2800     129.8280      73.3400       1.7300    -999.2500       2.3170
   1136.7511      16.9166       0.2800     124.4238      73.7753       1.7150    -999.2500       2.3085
   1136.9034      17.9800       0.2800     119.0410      74.2100       1.7000    -999.2500       2.3000
   1137.0559      18.3498       0.2850     114.2463      74.2050       1.7000    -999.2500       2.3000
   1137.2083      18.7200       0.2900     109.4700      74.2000       1.7000    -999.2500       2.3000
   1137.3607      18.6755       0.2850     109.6558      75.0809       1.7095    -999.2500       2.2900
   1137.5131      18.6310       0.2800     109.8410      75.9600       1.7190    -999.2500       2.2800
   1137.6655      18.1458       0.2800     118.9668      75.9195       1.7470    -999.2500       2.2815
   1137.8179      17.6600       0.2800     128.0600      75.8790       1.7750    -999.2500       2.2830
   1137.9703      17.7709       0.2800     128.0465      75.4091       1.7840    -999.2500       2.2890
   1138.1227      17.8820       0.2800     128.0330      74.9400       1.7930    -999.2500       2.2950
   1138.2751      18.2118       0.2825     127.1656      72.1976       1.7980    -999.2500       2.3040
   1138.4275      18.5420       0.2850     126.3010      69.4600       1.8030    -999.2500       2.3130
   1138.5800      18.6184       0.2975     121.7632      69.4985       1.8120    -999.2500       2.3215
   1138.7323      18.6950       0.3100     117.2400      69.5370       1.8210    -999.2500       2.3300
   1138.8846      18.7050       0.3060     118.1935      69.8322       1.8405    -999.2500       2.3260
