#------------------------------------------------------------------------------
#
#   Created by  : [OpenWorks] Log Export Utility (LEXP)
#   Created on  : 2016-05-23 11:55:55
#   Project     : CANT971
#   User        : R5K
#   Interpreter : PEP
#
#------------------------------------------------------------------------------
~VERSION INFORMATION
VERS. 2.0 : CWLS Log ASCII Standard - version 2.0
WRAP.  NO : One line per depth step
~WELL INFORMATION
#MNEMONIC   .UNIT                                           VALUE :DESCRIPTION
#------------------------------------------------------------------------------
STRT        .M                                          1803.5016 :START DEPTH
STOP        .M                                          3154.9849 :STOP DEPTH
STEP        .M                                             0.1524 :STEP
NULL        .                                           -999.2500 :NULL VALUE
COMP        .                                             UNKNOWN :COMPANY
WELL        .                                             418D-ST :WELL
FLD         .                                             UNKNOWN :FIELD
LOC         .                                             UNKNOWN :LOCATION
CNTY        .                                             UNKNOWN :COUNTY
STAT        .                                             UNKNOWN :STATE
CTRY        .                                             UNKNOWN :COUNTRY
SRVC        .                                             UNKNOWN :SERVICE COMPANY
DATE        .                                             UNKNOWN :LOG DATE
UWI         .                                             418D-ST :UNIQUE WELL ID
XCOORD      .                                       597130.010000 :SURFACE X
YCOORD      .                                      2144879.410000 :SURFACE Y
LAT         .                                           19.396924 :LATITUDE
LON         .                                          -92.074978 :LONGITUDE
ELEV        .M                                             0.0000 :SURFACE ELEV
ELEV_TYPE   .                                                  NA :ELEV TYPE
~CURVE INFORMATION
#MNEMONIC.UNIT        API CODE       : CURVE DESCRIPTION
#------------------------------------------------------------------------------
DEPTH    .M                          : Measured Depth
CALI     .inches      UNKNOWN        : CALI:PETROWORKS:rC:NONE:v1 
CGR      .API         UNKNOWN        : CGR:PETROWORKS:rC:NONE:v1 
DRHO     .g/cm3       UNKNOWN        : DRHO:PETROWORKS:rC:NONE:v1 
DT       .us/ft       UNKNOWN        : DT:PETROWORKS:rC:NONE:v1 
GR       .API         UNKNOWN        : GR:PETROWORKS:rC:NONE:v3 
ILD      .ohm.m       UNKNOWN        : ILD:registros:rC:NONE:v0 (auto-composite)
ILM      .ohm.m       UNKNOWN        : ILM:registros:rC:NONE:v0 (auto-composite)
LLD      .ohm.m       UNKNOWN        : LLD:PETROWORKS:rC:NONE:v2 
LLS      .ohm.m       UNKNOWN        : LLS:PETROWORKS:rC:NONE:v2 
MSFL     .ohm.m       UNKNOWN        : MSFL:PETROWORKS:rC:NONE:v1 
NPHI     .v/v_decimal UNKNOWN        : NPHI:PETROWORKS:rC:NONE:v1 
PEF      .b/elec      UNKNOWN        : PEF:PETROWORKS:rC:NONE:v1 
POTA     .wtpercent   UNKNOWN        : POTA:PETROWORKS:rC:NONE:v1 
RHOB     .g/cm3       UNKNOWN        : RHOB:PETROWORKS:rC:NONE:v1 
THOR     .ppm         UNKNOWN        : THOR:PETROWORKS:rC:NONE:v1 
URAN     .ppm         UNKNOWN        : URAN:PETROWORKS:rC:NONE:v1 
~A     DEPTH         CALI          CGR         DRHO           DT           GR          ILD          ILM          LLD          LLS         MSFL         NPHI          PEF         POTA         RHOB         THOR         URAN
# ...
   2700.0708      12.7891      10.0689       0.0129      50.2000      33.2849    -999.2500    -999.2500      75.7755      60.0569     191.7500       0.0280       3.9902       0.0030       2.8052       1.6472       3.2331
   2700.2231      13.0391      12.1583       0.0158      49.6000      36.9562    -999.2500    -999.2500      80.1038      64.4202     125.2500       0.0336       4.2148       0.0037       2.8042       1.9647       3.4534
   2700.3755      13.1797       9.8453       0.0119      51.1000      32.8828    -999.2500    -999.2500      71.2356      58.4543     132.3750       0.0355       4.0000       0.0028       2.7990       1.6747       3.2082
   2700.5281      13.2266      15.9535       0.0101      50.8000      41.3217    -999.2500    -999.2500      67.4807      56.3574      64.8750       0.0427       4.0000       0.0047       2.7981       2.6368       3.5328
   2700.6804      13.3281      16.2845       0.0104      52.9000      41.5326    -999.2500    -999.2500      62.8944      53.5507      93.0625       0.0429       3.8809       0.0047       2.8091       2.7448       3.5160
   2700.8328      13.3281      17.1284       0.0088      52.1000      42.5605    -999.2500    -999.2500      61.9004      52.8709      55.0313       0.0410       3.8145       0.0048       2.8155       2.9347       3.5417
   2700.9851      13.0938      15.9794       0.0068      52.7000      40.2401    -999.2500    -999.2500      61.8863      53.3310      96.8125       0.0290       3.8438       0.0046       2.8248       2.7104       3.3785
   2701.1377      12.8672      13.9514       0.0027      51.3000      35.3862    -999.2500    -999.2500      63.9401      55.6365     139.3750       0.0215       3.7793       0.0049       2.8301       1.9899       2.9850
   2701.2900      12.8516      12.3930       0.0012      31.2000      32.6456    -999.2500    -999.2500      65.2973      57.0031     226.7500       0.0182       3.9551       0.0046       2.8282       1.6419       2.8204
   2701.4424      12.9922      11.9282      -0.0017      30.7000      31.7887    -999.2500    -999.2500      60.5816      53.2553     285.0000       0.0170       4.0078       0.0042       2.8303       1.6871       2.7658
   2701.5947      13.1719      11.1790      -0.0041      48.2000      30.5841    -999.2500    -999.2500      58.0518      51.0225     129.8750       0.0154       4.1953       0.0035       2.8260       1.7578       2.7023
   2701.7471      13.3125      10.2461      -0.0063      48.6000      28.9313    -999.2500    -999.2500      56.1417      49.4799     142.5000       0.0115       4.0898       0.0030       2.8223       1.6937       2.6021
   2701.8997      13.3281      11.5551      -0.0057      49.2000      30.5275    -999.2500    -999.2500      59.1195      52.3191     399.0000       0.0108       3.9316       0.0034       2.8168       1.9336       2.6421
   2702.0520      13.3047      12.2047      -0.0057      48.8000      30.9365    -999.2500    -999.2500      66.4431      57.8040     668.5000       0.0136       3.8164       0.0039       2.8098       1.8975       2.6086
   2702.2043      13.1953      13.3618      -0.0032      48.9000      32.3813    -999.2500    -999.2500      77.8788      66.5646     270.7500       0.0196       3.9219       0.0042       2.8074       2.0960       2.6486
   2702.3567      13.0313      12.2138       0.0004      42.9000      30.4478    -999.2500    -999.2500     102.2923      83.4749     253.7500       0.0259       3.9844       0.0036       2.7994       2.0474       2.5393
   2702.5093      12.8750      11.6098       0.0035      49.4000      29.3767    -999.2500    -999.2500     126.1062     101.1685     270.5000       0.0278       3.8418       0.0027       2.7969       2.2389       2.4742
   2702.6616      12.7109      10.9314       0.0060      45.5000      27.9752    -999.2500    -999.2500     133.2178     105.5066     552.5000       0.0304       3.7051       0.0020       2.7983       2.3255       2.3735
   2702.8140      12.8047      12.0428       0.0055      51.2000      29.7121    -999.2500    -999.2500     153.3302     118.4180     415.7500       0.0339       3.5957       0.0025       2.7969       2.4681       2.4606
   2702.9663      13.0391      13.5689       0.0029      52.5000      31.9008    -999.2500    -999.2500     169.0214     126.9547      44.9063       0.0348       3.6973       0.0032       2.7953       2.5814       2.5529
   2703.1189      13.3203      12.9012      -0.0018      52.2000      30.5696    -999.2500    -999.2500     157.2816     120.6077     214.0000       0.0298       3.7246       0.0034       2.7893       2.3305       2.4605
   2703.2712      13.3281      10.7402      -0.0030      51.9000      25.1562    -999.2500    -999.2500     163.6416     123.0238     188.0000       0.0225       3.9063       0.0027       2.7857       2.0043       2.0076
   2703.4236      13.2344       8.8746      -0.0072      51.8000      21.5369    -999.2500    -999.2500     165.8845     122.6740    1450.0000       0.0186       3.9297       0.0034       2.7776       1.1560       1.7633
   2703.5759      13.0781       9.2228      -0.0069      52.8000      22.1437    -999.2500    -999.2500     158.7798     117.1681    1679.0000       0.0165       3.8027       0.0040       2.7772       0.9768       1.7994
   2703.7283      13.0391       8.9759      -0.0023      42.0000      21.7378    -999.2500    -999.2500     189.4049     136.9111      74.1875       0.0180       3.7617       0.0042       2.7765       0.8061       1.7772
   2703.8809      12.9297       2.7027       0.0032      51.4000      17.4125    -999.2500    -999.2500     194.2372     133.7346     805.5000       0.0200       3.7148       0.0009       2.7860       0.4096       2.0485
   2704.0332      12.8672       4.4135       0.0046      57.6000      24.4920    -999.2500    -999.2500     215.4961     137.4438      68.2500       0.0224       3.7305       0.0015       2.7838       0.6392       2.7961
   2704.1855      12.8906       4.1961       0.0111      49.7000      24.6497    -999.2500    -999.2500     256.3630     149.9244     329.5000       0.0251       3.6133       0.0013       2.7394       0.6809       2.8484
   2704.3379      13.0469       3.5294       0.0072      41.1000      23.8318    -999.2500    -999.2500     143.3244      91.1709      98.8125       0.0397       3.5215       0.0010       2.6886       0.6025       2.8273
   2704.4905      13.0313       3.8019       0.0035      54.4000      24.4301    -999.2500    -999.2500     133.8083      86.6979      15.4219       0.0438       3.7031       0.0013       2.6657       0.5458       2.8727
   2704.6428      14.1328       4.6347       0.0101      55.2000      25.7051    -999.2500    -999.2500     125.4056      81.6169     124.7500       0.0366       3.7246       0.0019       2.7210       0.5522       2.9343
   2704.7952      13.7031       2.8905       0.0149      56.8000      31.0946    -999.2500    -999.2500     112.2666      73.3568     290.0000       0.0256       3.6133       0.0001       2.7634       0.7954       3.9277
   2704.9475      13.6719       1.6124       0.0094      49.3000      28.9370    -999.2500    -999.2500     141.7512      86.0589    1413.0000       0.0327       3.4551      -0.0002       2.7712       0.5415       3.8052
   2705.1001      13.3516       1.8284       0.0122      52.6000      28.8405    -999.2500    -999.2500     113.6813      72.7710    1299.0000       0.0558       3.4883       0.0003       2.7537       0.3975       3.7617
   2705.2524      13.2266       3.5969       0.0133      51.3000      30.9660    -999.2500    -999.2500      90.3480      60.4464     385.5000       0.0813       3.6152       0.0012       2.7167       0.5411       3.8114
   2705.4048      14.2031      10.8634       0.0137      54.3000      37.8798    -999.2500    -999.2500      74.0819      53.4314     658.5000       0.1043       3.7578       0.0045       2.7022       1.2294       3.7623
   2705.5571      15.7422      17.8431       0.0145      60.5000      43.3577    -999.2500    -999.2500      53.5085      42.9236      47.1563       0.1136       3.8613       0.0076       2.7051       1.9542       3.5532
