#------------------------------------------------------------------------------
#
#   Created by  : [OpenWorks] Log Export Utility (LEXP)
#   Created on  : 2016-05-12 17:01:19
#   Project     : CANT971
#   User        : R5K
#   Interpreter : PEP
#
#------------------------------------------------------------------------------
~VERSION INFORMATION
VERS. 2.0 : CWLS Log ASCII Standard - version 2.0
WRAP.  NO : One line per depth step
~WELL INFORMATION
#MNEMONIC   .UNIT                                           VALUE :DESCRIPTION
#------------------------------------------------------------------------------
STRT        .M                                           300.0760 :START DEPTH
STOP        .M                                          2081.9368 :STOP DEPTH
STEP        .M                                             0.1524 :STEP
NULL        .                                           -999.2500 :NULL VALUE
COMP        .                                   PEMEX EXPL & PROD :COMPANY
WELL        .                                                  37 :WELL
FLD         .                                           CANTARELL :FIELD
LOC         .                                             UNKNOWN :LOCATION
CNTY        .                                      CD. DEL CARMEN :COUNTY
STAT        .                                            CAMPECHE :STATE
CTRY        .                                              MEXICO :COUNTRY
SRVC        .                                             UNKNOWN :SERVICE COMPANY
DATE        .                                             UNKNOWN :LOG DATE
UWI         .                                          3060000160 :UNIQUE WELL ID
XCOORD      .                                       602154.560000 :SURFACE X
YCOORD      .                                      2147169.070000 :SURFACE Y
LAT         .                                           19.417364 :LATITUDE
LON         .                                          -92.027009 :LONGITUDE
ELEV        .M                                            28.1700 :SURFACE ELEV
ELEV_TYPE   .                                                  KB :ELEV TYPE
~CURVE INFORMATION
#MNEMONIC.UNIT        API CODE       : CURVE DESCRIPTION
#------------------------------------------------------------------------------
DEPTH    .M                          : Measured Depth
CALI     .inches      UNKNOWN        : CALI:Import:rC:NONE:v0 (auto-composite)
DRHO     .g/cm3       UNKNOWN        : DRHO:Import:rC:NONE:v0 (auto-composite)
DT       .us/ft       UNKNOWN        : DT:Import:rC:NONE:v0 (auto-composite)
GR       .API         UNKNOWN        : GR:Import:rC:NONE:v0 (auto-composite)
ILD      .ohm.m       UNKNOWN        : ILD:Import:rC:NONE:v0 (auto-composite)
NPHI     .v/v_decimal UNKNOWN        : NPHI:Import:rC:NONE:v0 (auto-composite)
RHOB     .g/cm3       UNKNOWN        : RHOB:Import:rC:NONE:v0 (auto-composite)
~A     DEPTH         CALI         DRHO           DT           GR          ILD         NPHI         RHOB
# ...
   2013.3568       6.2430      -0.0120      58.9130      20.5900     670.4210       9.6210       2.6740
   2013.5092       6.2430      -0.0065      60.3244      20.3398     495.7802       9.9222       2.6860
   2013.6616       6.2430      -0.0010      61.7340      20.0900     321.3560      10.2230       2.6980
   2013.8140       6.2430       0.0050      64.4635      20.8899     949.1158      11.2726       2.6900
   2013.9664       6.2430       0.0110      67.1900      21.6890    1576.1760      12.3210       2.6820
   2014.1188       6.1909       0.0035      65.5147      20.9892    1061.4695      12.2400       2.6490
   2014.2712       6.1390      -0.0040      63.8410      20.2900     547.2720      12.1590       2.6160
   2014.4236       6.1911      -0.0080      62.1478      20.4902     470.1067      11.4794       2.6295
   2014.5759       6.2430      -0.0120      60.4560      20.6900     393.0080      10.8010       2.6430
   2014.7284       6.1909      -0.0050      61.9626      20.4382     290.7463      11.3226       2.6315
   2014.8807       6.1390       0.0020      63.4680      20.1870     188.5600      11.8430       2.6200
   2015.0332       6.1395      -0.0005      64.7864      19.0377     354.4647      12.4327       2.6135
   2015.1855       6.1400      -0.0030      66.1030      17.8910     520.1350      13.0210       2.6070
   2015.3380       6.1916      -0.0015      66.2276      19.0918    1063.3447      13.0110       2.6130
   2015.4904       6.2430       0.0000      66.3520      20.2900    1605.4210      13.0010       2.6190
   2015.6428       6.2430      -0.0005      65.7454      20.4902    1605.4210      13.0611       2.6240
   2015.7952       6.2430      -0.0010      65.1400      20.6900    1605.4210      13.1210       2.6290
   2015.9476       6.2430       0.0020      58.1541      21.1900     961.3267      12.6005       2.6635
   2016.1000       6.2430       0.0050      51.1810      21.6890     318.4150      12.0810       2.6980
   2016.2524       6.2430       0.0015      52.2514      21.5884     933.4656      12.1911       2.6920
   2016.4048       6.2430      -0.0020      53.3200      21.4880    1547.4640      12.3010       2.6860
   2016.5571       6.2430      -0.0035      59.4954      20.3881    1005.3818      12.4711       2.6810
   2016.7096       6.2430      -0.0050      65.6610      19.2900     464.1590      12.6410       2.6760
   2016.8619       6.1910      -0.0165      66.7693      18.8402     463.9263      12.7921       2.6550
   2017.0144       6.1390      -0.0280      67.8760      18.3910     463.6940      12.9430       2.6340
   2017.1667       6.1910      -0.0280      68.0276      19.0910     363.0398      13.4734       2.6045
   2017.3192       6.2430      -0.0280      68.1790      19.7900     262.5200      14.0030       2.5750
   2017.4716       6.2430      -0.0240      70.6915      19.1901     905.4266      14.7024       2.5755
   2017.6240       6.2430      -0.0200      73.2010      18.5910    1547.5560      15.4010       2.5760
   2017.7764       6.2685      -0.0150      73.1750      18.5410    1561.8738      15.2504       2.5525
   2017.9288       6.2940      -0.0100      73.1490      18.4910    1576.1760      15.1000       2.5290
   2018.0812       6.2685      -0.0080      70.0720      18.4930    1102.1820      14.7277       2.5545
   2018.2336       6.2430      -0.0060      66.9980      18.4950     628.6420      14.3560       2.5800
   2018.3860       6.1909       0.0045      64.9857      19.5934    1117.2350      12.9763       2.6180
   2018.5383       6.1390       0.0150      62.9750      20.6900    1605.4210      11.6000       2.6560
   2018.6908       6.1911       0.0115      62.1892      20.3386    1605.4740      11.4298       2.6605
   2018.8431       6.2430       0.0080      61.4040      19.9880    1605.5270      11.2600       2.6650
   2018.9956       6.2430      -0.0060      60.3737      18.8382    1627.9424      10.9602       2.6440
   2019.1479       6.2430      -0.0200      59.3440      17.6910    1650.3090      10.6610       2.6230
   2019.3004       6.2430      -0.0160      60.3086      18.1415    1627.8419      10.9818       2.6055
   2019.4528       6.2430      -0.0120      61.2720      18.5910    1605.4210      11.3020       2.5880
   2019.6052       6.2430      -0.0025      62.9977      18.1901    1605.3740      12.0732       2.5840
   2019.7576       6.2430       0.0070      64.7200      17.7900    1605.3270      12.8430       2.5800
   2019.9100       6.2685       0.0120      64.6459      16.7901    1553.4772      13.3725       2.5855
   2020.0624       6.2940       0.0170      64.5720      15.7920    1501.7209      13.9010       2.5910
   2020.2148       6.2685      -0.0030      63.6642      16.7423     939.9771      13.1103       2.5880
   2020.3672       6.2430      -0.0230      62.7580      17.6910     379.1770      12.3210       2.5850
   2020.5195       6.2425      -0.0225      63.9950      16.9409     978.1421      12.7428       2.5815
   2020.6720       6.2420      -0.0220      65.2300      16.1920    1576.1760      13.1640       2.5780
   2020.8243       6.1649      -0.0150      68.1396      16.7919    1342.5405      14.4539       2.5520
   2020.9768       6.0880      -0.0080      71.0450      17.3910    1109.2390      15.7420       2.5260
   2021.1292       6.1135      -0.0120      73.8013      17.1914     712.1116      15.9817       2.5340
   2021.2816       6.1390      -0.0160      76.5540      16.9920     315.5020      16.2210       2.5420
   2021.4340       6.2942      -0.0305      77.2689      17.1931     553.4157      16.0104       2.5325
   2021.5864       6.4490      -0.0450      77.9830      17.3940     791.0490      15.8000       2.5230
   2021.7388       6.2938      -0.0370      76.8989      18.3425    1169.4557      15.1797       2.5340
   2021.8912       6.1390      -0.0290      75.8160      19.2900    1547.4640      14.5600       2.5450
   2022.0436       6.1911      -0.0230      72.8931      19.2890    1499.2251      14.2202       2.5625
   2022.1960       6.2430      -0.0170      69.9730      19.2880    1451.0310      13.8810       2.5800
   2022.3484       6.2430      -0.0125      70.3466      18.1386    1499.2668      13.6007       2.5880
   2022.5007       6.2430      -0.0080      70.7200      16.9920    1547.4640      13.3210       2.5960
   2022.6532       6.2430      -0.0115      73.6490      17.4941     918.4935      13.4211       2.6040
   2022.8055       6.2430      -0.0150      76.5760      17.9950     290.4520      13.5210       2.6120
   2022.9580       6.2430      -0.0120      75.2896      18.9936     260.6039      13.4609       2.6080
   2023.1104       6.2430      -0.0090      74.0040      19.9900     230.8200      13.4010       2.6040
   2023.2628       6.2430      -0.0030      69.9015      19.6897     578.1833      13.6713       2.5910
   2023.4152       6.2430       0.0030      65.8040      19.3900     924.8430      13.9410       2.5780
   2023.5676       6.1910      -0.0060      65.4131      19.3400     551.2877      13.8499       2.5820
   2023.7200       6.1390      -0.0150      65.0230      19.2900     178.4420      13.7590       2.5860
   2023.8724       6.1910      -0.0155      66.3317      20.0407     204.7103      12.9288       2.5970
   2024.0248       6.2430      -0.0160      67.6380      20.7900     230.9320      12.1000       2.6080
   2024.1772       6.1910      -0.0145      67.5394      20.8901     272.3522      11.8998       2.6000
   2024.3296       6.1390      -0.0130      67.4410      20.9900     313.7040      11.7000       2.5920
   2024.4819       6.1390      -0.0140      66.0144      20.3895     945.4213      11.3297       2.6120
   2024.6344       6.1390      -0.0150      64.5900      19.7900    1576.1760      10.9600       2.6320
   2024.7867       6.1910      -0.0130      63.2150      21.1905     856.9431      10.5697       2.6305
   2024.9392       6.2430      -0.0110      61.8420      22.5890     138.7160      10.1800       2.6290
