#------------------------------------------------------------------------------
#
#   Created by  : [OpenWorks] Log Export Utility (LEXP)
#   Created on  : 2016-05-23 11:56:20
#   Project     : CANT971
#   User        : R5K
#   Interpreter : PEP
#
#------------------------------------------------------------------------------
~VERSION INFORMATION
VERS. 2.0 : CWLS Log ASCII Standard - version 2.0
WRAP.  NO : One line per depth step
~WELL INFORMATION
#MNEMONIC   .UNIT                                           VALUE :DESCRIPTION
#------------------------------------------------------------------------------
STRT        .M                                          1446.1469 :START DEPTH
STOP        .M                                          3739.7668 :STOP DEPTH
STEP        .M                                             0.1524 :STEP
NULL        .                                           -999.2500 :NULL VALUE
COMP        .                                             UNKNOWN :COMPANY
WELL        .                                               468-V :WELL
FLD         .                                             UNKNOWN :FIELD
LOC         .                                             UNKNOWN :LOCATION
CNTY        .                                             UNKNOWN :COUNTY
STAT        .                                             UNKNOWN :STATE
CTRY        .                                             UNKNOWN :COUNTRY
SRVC        .                                             UNKNOWN :SERVICE COMPANY
DATE        .                                             UNKNOWN :LOG DATE
UWI         .                                               468-V :UNIQUE WELL ID
XCOORD      .                                       598699.140000 :SURFACE X
YCOORD      .                                      2143301.650000 :SURFACE Y
LAT         .                                           19.382589 :LATITUDE
LON         .                                          -92.060118 :LONGITUDE
ELEV        .M                                             0.0000 :SURFACE ELEV
ELEV_TYPE   .                                                  NA :ELEV TYPE
~CURVE INFORMATION
#MNEMONIC.UNIT        API CODE       : CURVE DESCRIPTION
#------------------------------------------------------------------------------
DEPTH    .M                          : Measured Depth
CALI     .inches      UNKNOWN        : CALI:PETROWORKS:rC:NONE:v1 
DRHO     .g/cm3       UNKNOWN        : DRHO:PETROWORKS:rC:NONE:v1 
DT       .us/ft       UNKNOWN        : DT:sonico:rC:NONE:v0 (auto-composite)
GR       .API         UNKNOWN        : GR:PETROWORKS:rC:NONE:v1 
GR-LWD   .API         UNKNOWN        : GR-LWD:PETROWORKS:rC:NONE:v3 
ILD-LWD  .ohm.m       UNKNOWN        : ILD-LWD:PETROWORKS:rC:NONE:v3 
ILM-LWD  .UNKNOWN     UNKNOWN        : ILM-LWD:PETROWORKS:rC:NONE:v3 
NPHI     .v/v_decimal UNKNOWN        : NPHI:PETROWORKS:rC:NONE:v1 
PEF      .b/elec      UNKNOWN        : PEF:PETROWORKS:rC:NONE:v1 
RHOB     .g/cm3       UNKNOWN        : RHOB:PETROWORKS:rC:NONE:v1 
~A     DEPTH         CALI         DRHO           DT           GR       GR-LWD      ILD-LWD      ILM-LWD         NPHI          PEF         RHOB
# ...
   1830.1948    -999.2500    -999.2500    -999.2500    -999.2500      43.7889       0.9816       0.9305    -999.2500    -999.2500    -999.2500
   1830.3473    -999.2500    -999.2500    -999.2500    -999.2500      42.4588       1.0683       0.9883    -999.2500    -999.2500    -999.2500
   1830.4996    -999.2500    -999.2500    -999.2500    -999.2500      41.7500       1.2000       1.1100    -999.2500    -999.2500    -999.2500
   1830.6521    -999.2500    -999.2500    -999.2500    -999.2500      37.8491       1.3556       1.2379    -999.2500    -999.2500    -999.2500
   1830.8044    -999.2500    -999.2500    -999.2500    -999.2500      35.6598       1.5162       1.3884    -999.2500    -999.2500    -999.2500
   1830.9569    -999.2500    -999.2500    -999.2500    -999.2500      34.5530       1.7465       1.6495    -999.2500    -999.2500    -999.2500
   1831.1093    -999.2500    -999.2500    -999.2500    -999.2500      35.9655       1.9264       1.8464    -999.2500    -999.2500    -999.2500
   1831.2616    -999.2500    -999.2500    -999.2500    -999.2500      37.0855       2.0208       1.9470    -999.2500    -999.2500    -999.2500
   1831.4141    -999.2500    -999.2500    -999.2500    -999.2500      38.4151       2.0742       2.0242    -999.2500    -999.2500    -999.2500
   1831.5664    -999.2500    -999.2500    -999.2500    -999.2500      39.2458       2.1133       2.0566    -999.2500    -999.2500    -999.2500
   1831.7189    -999.2500    -999.2500    -999.2500    -999.2500      37.9861       2.1200       2.0900    -999.2500    -999.2500    -999.2500
   1831.8712       8.5225      -2.0474    -999.2500      33.4628      37.0975       2.1271       2.0971       0.2971      10.0399       1.1802
   1832.0237       8.5261      -2.0295    -999.2500      31.1065      35.7411       2.1176       2.1124       0.2803      10.0582       1.2024
   1832.1760       8.5237      -1.9713    -999.2500      28.7035      35.3406       2.1024       2.1200       0.2655      10.1254       1.2731
   1832.3285       8.5226      -1.9084    -999.2500      27.8492      35.3644    -999.2500    -999.2500       0.2673      10.2274       1.3131
   1832.4808       8.5253      -1.8633    -999.2500      25.9316      35.9460    -999.2500    -999.2500       0.2702      10.2407       1.2284
   1832.6333       8.5249      -1.8151    -999.2500      26.1929      37.3057    -999.2500    -999.2500       0.2693      10.0709       1.1125
   1832.7856       8.5103      -1.7225    -999.2500      29.2463      38.6073    -999.2500    -999.2500       0.2798       9.9884       1.1060
   1832.9381       8.5159      -1.6859    -999.2500      30.4602      37.9902    -999.2500    -999.2500       0.2926      10.1019       1.1550
   1833.0905       8.5145      -1.6926    -999.2500      28.3817      37.5618    -999.2500    -999.2500       0.2865      10.2174       1.1135
   1833.2428       8.5166      -1.6951    -999.2500      27.9834      36.6118    -999.2500    -999.2500       0.2681      10.4629       1.0399
   1833.3953       8.5261      -1.6853    -999.2500      28.8447      37.5008    -999.2500    -999.2500       0.2436      10.8099       1.0289
   1833.5476       8.5317      -1.6781    -999.2500      30.4312      37.4790    -999.2500    -999.2500       0.2300      10.9086       1.0630
   1833.7001       8.5326      -1.6738    -999.2500      33.3171      38.8900    -999.2500    -999.2500       0.1668      10.7377       1.0060
   1833.8524       8.5340      -1.6838    -999.2500      32.3521      38.5661    -999.2500    -999.2500       0.1435      10.5841       0.8505
   1834.0049       8.5350      -1.7059    -999.2500      29.4590      39.3638    -999.2500    -999.2500       0.1336      10.4764       0.6297
   1834.1572       8.5460      -1.7140    -999.2500      28.8177      39.3772    -999.2500    -999.2500       0.1355      10.4990       0.5992
   1834.3097       8.5465      -1.7365    -999.2500      29.1531      39.2925    -999.2500    -999.2500       0.1281      10.5768       0.5991
   1834.4620       8.5459      -1.7776    -999.2500      30.3829      39.4720    -999.2500    -999.2500       0.1048      10.6917       0.5613
   1834.6145       8.5419      -1.9125    -999.2500      31.6708      39.3885    -999.2500    -999.2500       0.0835      10.9759       0.4166
   1834.7668       8.5406      -2.0158    -999.2500      31.5125      39.5003    -999.2500    -999.2500       0.0793      11.1270       0.3242
   1834.9193       8.5356      -2.1432    -999.2500      30.1253      39.7571    -999.2500    -999.2500       0.0905      11.0450       0.2994
   1835.0717       8.5356      -2.1669    -999.2500      29.2852      39.5094    -999.2500    -999.2500       0.1152      10.6120       0.4321
   1835.2240       8.5345      -2.1517    -999.2500      29.3810      37.1893    -999.2500    -999.2500       0.1375      10.0410       0.6047
   1835.3765       8.5317      -2.1085    -999.2500      29.1467    -999.2500    -999.2500    -999.2500       0.1376       9.6503       0.6484
   1835.5288       8.5337      -2.0724    -999.2500      28.9301    -999.2500    -999.2500    -999.2500       0.1191       9.7085       0.5823
   1835.6813       8.5347      -2.0294    -999.2500      28.4225    -999.2500    -999.2500    -999.2500       0.0990       9.9080       0.5555
   1835.8336       8.5347      -1.9991    -999.2500      26.9727    -999.2500    -999.2500    -999.2500       0.0955      10.0367       0.5507
   1835.9861       8.5306      -1.9501    -999.2500      26.2352    -999.2500    -999.2500    -999.2500       0.0952      10.1246       0.5685
   1836.1384       8.5266      -1.8942    -999.2500      26.8760    -999.2500    -999.2500    -999.2500       0.0929      10.3545       0.6244
   1836.2909       8.5229      -1.8465    -999.2500      25.6442    -999.2500    -999.2500    -999.2500       0.0933      10.6963       0.7200
   1836.4432       8.5285      -1.8326    -999.2500      25.1924    -999.2500    -999.2500    -999.2500       0.0988      10.9170       0.8551
   1836.5957       8.5315      -1.8268    -999.2500      26.6899    -999.2500    -999.2500    -999.2500       0.1013      11.0663       0.9610
   1836.7480       8.5329      -1.8218    -999.2500      26.8038    -999.2500    -999.2500    -999.2500       0.0988      11.0054       0.9760
   1836.9004       8.5284      -1.8066    -999.2500      23.5842    -999.2500    -999.2500    -999.2500       0.1060      10.7136       1.0017
   1837.0529       8.5302      -1.7887    -999.2500      22.4016    -999.2500    -999.2500    -999.2500       0.1234      10.5454       1.1052
   1837.2052       8.5281      -1.7630    -999.2500      24.4297    -999.2500    -999.2500    -999.2500       0.1472      10.3898       1.2972
   1837.3577       8.5307      -1.7578    -999.2500      26.1956    -999.2500    -999.2500    -999.2500       0.1513      10.5015       1.3331
   1837.5100       8.5313      -1.7385    -999.2500      26.4724    -999.2500    -999.2500    -999.2500       0.1483      10.9485       1.3783
   1837.6625       8.5428      -1.7060    -999.2500      26.2051    -999.2500    -999.2500    -999.2500       0.1489      11.1844       1.4310
   1837.8148       8.5424      -1.6188    -999.2500      27.2599    -999.2500    -999.2500    -999.2500       0.1643      11.3780       1.5221
   1837.9673       8.5381      -1.5638    -999.2500      29.3343    -999.2500    -999.2500    -999.2500       0.1781      11.3373       1.5612
   1838.1196       8.5413      -1.4964    -999.2500      31.8494    -999.2500    -999.2500    -999.2500       0.1840      11.0760       1.6095
   1838.2721       8.5414      -1.4657    -999.2500      30.0934    -999.2500    -999.2500    -999.2500       0.1864      10.9553       1.6450
   1838.4244       8.5371      -1.4435    -999.2500      27.5444    -999.2500    -999.2500    -999.2500       0.1818      10.8587       1.6831
   1838.5769       8.5393      -1.4345    -999.2500      27.3318    -999.2500    -999.2500    -999.2500       0.1779      10.7112       1.7168
