#------------------------------------------------------------------------------
#
#   Created by  : [OpenWorks] Log Export Utility (LEXP)
#   Created on  : 2016-05-23 11:53:41
#   Project     : CANT971
#   User        : R5K
#   Interpreter : PEP
#
#------------------------------------------------------------------------------
~VERSION INFORMATION
VERS. 2.0 : CWLS Log ASCII Standard - version 2.0
WRAP.  NO : One line per depth step
~WELL INFORMATION
#MNEMONIC   .UNIT                                           VALUE :DESCRIPTION
#------------------------------------------------------------------------------
STRT        .M                                           901.1412 :START DEPTH
STOP        .M                                          2449.6777 :STOP DEPTH
STEP        .M                                             0.1524 :STEP
NULL        .                                           -999.2500 :NULL VALUE
COMP        .                                   PEMEX EXPL & PROD :COMPANY
WELL        .                                                  25 :WELL
FLD         .                                           CANTARELL :FIELD
LOC         .                                             UNKNOWN :LOCATION
CNTY        .                                      CD. DEL CARMEN :COUNTY
STAT        .                                            CAMPECHE :STATE
CTRY        .                                              MEXICO :COUNTRY
SRVC        .                                             UNKNOWN :SERVICE COMPANY
DATE        .                                             UNKNOWN :LOG DATE
UWI         .                                          3060000154 :UNIQUE WELL ID
XCOORD      .                                       603358.080000 :SURFACE X
YCOORD      .                                      2145091.420000 :SURFACE Y
LAT         .                                           19.398528 :LATITUDE
LON         .                                          -92.015660 :LONGITUDE
ELEV        .M                                            27.1400 :SURFACE ELEV
ELEV_TYPE   .                                                  KB :ELEV TYPE
~CURVE INFORMATION
#MNEMONIC.UNIT        API CODE       : CURVE DESCRIPTION
#------------------------------------------------------------------------------
DEPTH    .M                          : Measured Depth
CALI     .in          UNKNOWN        : CALI:registros:rC:NONE:v0 (auto-composite)
DRHO     .g/cm3       UNKNOWN        : DRHO:registros:rC:NONE:v0 (auto-composite)
DT       .us/ft       UNKNOWN        : DT:registros:rC:NONE:v0 (auto-composite)
GR       .api         UNKNOWN        : GR:registros:rC:NONE:v0 (auto-composite)
ILD      .ohmm        UNKNOWN        : ILD:registros:rC:NONE:v0 (auto-composite)
LLD      .ohmm        UNKNOWN        : LLD:registros:rC:NONE:v0 (auto-composite)
LLS      .ohmm        UNKNOWN        : LLS:registros:rC:NONE:v0 (auto-composite)
MSFL     .ohmm        UNKNOWN        : MSFL:registros:rC:NONE:v0 (auto-composite)
NPHI     .v/v_decimal UNKNOWN        : NPHI:registros:rC:NONE:v0 (auto-composite)
PEF      .b/elec      UNKNOWN        : PEF:registros:rC:NONE:v0 (auto-composite)
RHOB     .g/cm3       UNKNOWN        : RHOB:registros:rC:NONE:v0 (auto-composite)
~A     DEPTH         CALI         DRHO           DT           GR          ILD          LLD          LLS         MSFL         NPHI          PEF         RHOB
# ...
   1970.9893       6.4440      -0.0025      54.3419      20.0485    -999.2500     719.3373      31.6980      62.0292       0.0853       3.2215       2.6671
   1971.1416       6.4440      -0.0080      54.4140      19.3700    -999.2500     641.6160      31.6980      78.4570       0.0912       3.1490       2.6410
   1971.2941       6.4440      -0.0045      56.2619      19.1300    -999.2500     601.0096      30.3550      65.1784       0.1005       3.2215       2.6231
   1971.4464       6.4440      -0.0010      58.1150      18.8890    -999.2500     560.2230      29.0060      51.8410       0.1099       3.2940       2.6050
   1971.5989       6.5000      -0.0005      62.0262      19.3430    -999.2500     616.7791      29.0235      45.3927       0.1225       3.3085       2.5970
   1971.7512       6.5560       0.0000      65.9490      19.7990    -999.2500     673.5930      29.0410      38.9150       0.1352       3.3230       2.5890
   1971.9037       6.5400       0.0045      74.2797      18.5409    -999.2500     683.3736      32.1128      44.5897       0.1366       3.2440       2.5930
   1972.0560       6.5240       0.0090      82.6360      17.2780    -999.2500     693.2000      35.1990      50.2910       0.1379       3.1650       2.5970
   1972.2085       6.4840       0.0254      94.0457      16.7099    -999.2500     714.3112      38.0621      35.2667       0.1342       3.0825       2.6199
   1972.3608       6.4440       0.0420     105.4920      16.1400    -999.2500     735.5240      40.9390      20.1700       0.1304       3.0000       2.6430
   1972.5132       6.4440       0.0380     101.7502      17.2277    -999.2500     745.9852      38.3020      26.5393       0.1205       3.0000       2.6779
   1972.6656       6.4440       0.0340      97.9960      18.3190    -999.2500     756.4980      35.6520      32.9400       0.1107       3.0000       2.7130
   1972.8180       6.4440       0.0216      92.7376      18.0704    -999.2500     723.4043      33.1059      31.7430       0.1006       3.0535       2.7364
   1972.9705       6.4440       0.0090      87.4610      17.8210    -999.2500     690.1430      30.5470      30.5400       0.0905       3.1070       2.7600
   1973.1228       6.4440       0.0005      95.9877      18.4134    -999.2500     600.4877      29.8578      35.0568       0.0961       3.0995       2.7376
   1973.2753       6.4440      -0.0080     104.5450      19.0080    -999.2500     510.3670      29.1650      39.5970       0.1016       3.0920       2.7150
   1973.4276       6.4650      -0.0010     113.2034      19.0639    -999.2500     425.1242      30.4281      41.4580       0.1096       3.0240       2.6906
   1973.5801       6.4860       0.0060     121.8870      19.1200    -999.2500     339.4280      31.6980      43.3290       0.1176       2.9560       2.6660
   1973.7324       6.5190       0.0010     116.1254      18.4503    -999.2500     286.3440      29.6321      40.4982       0.1219       2.9565       2.6610
   1973.8849       6.5520      -0.0040     110.3510      17.7780    -999.2500     232.9710      27.5550      37.6520       0.1262       2.9570       2.6560
   1974.0372       6.5975      -0.0075     101.6897      17.7780    -999.2500     208.4673      25.6488      36.5765       0.1316       3.0205       2.6425
   1974.1896       6.6430      -0.0110      93.0080      17.7780    -999.2500     183.8270      23.7320      35.4950       0.1371       3.0840       2.6290
   1974.3420       6.6545      -0.0165      89.8349      18.8867    -999.2500     201.9937      23.5046      26.5056       0.1398       3.1495       2.6101
   1974.4944       6.6660      -0.0220      86.6540      20.0000    -999.2500     220.2640      23.2760      17.4650       0.1425       3.2150       2.5910
   1974.6469       6.6805      -0.0175      93.0277      19.5819    -999.2500     229.6400      22.3503      15.8226       0.1317       3.2185       2.6199
   1974.7992       6.6950      -0.0130      99.4180      19.1620    -999.2500     239.0630      21.4200      14.1720       0.1209       3.2220       2.6490
   1974.9517       6.7595      -0.0055     107.0925      17.6488    -999.2500     223.5492      19.8484      26.4563       0.1088       3.2220       2.6864
   1975.1040       6.8240       0.0020     114.7880      16.1290    -999.2500     207.9680      18.2700      38.7940       0.0968       3.2220       2.7240
   1975.2565       6.9655       0.0060     110.4872      16.5945    -999.2500     182.6326      18.0285      47.8134       0.0985       3.1850       2.7190
   1975.4088       7.1070       0.0100     106.1740      17.0620    -999.2500     157.1840      17.7860      56.8730       0.1001       3.1480       2.7140
   1975.5613       7.4200       0.0055      95.3976      17.8849    -999.2500     136.6417      19.2082      52.9505       0.1133       3.1305       2.6711
   1975.7136       7.7330       0.0010      84.5890      18.7110    -999.2500     116.0050      20.6370      49.0100       0.1264       3.1130       2.6280
   1975.8661       7.7185       0.0010      94.3304      19.9715    -999.2500     125.3484      21.3942      41.3147       0.1432       3.0520       2.5966
   1976.0184       7.7040       0.0010     104.1020      21.2360    -999.2500     134.7360      22.1550      33.5830       0.1601       2.9910       2.5650
   1976.1708       7.4190       0.0095     108.3102      26.7022    -999.2500     153.5195      21.9694      32.4278       0.1681       2.9400       2.5510
   1976.3232       7.1340       0.0180     112.5320      32.1860    -999.2500     172.3940      21.7830      31.2670       0.1761       2.8890       2.5370
   1976.4756       7.0165       0.0255     109.7097      36.0630    -999.2500     206.8963      20.5630      33.2311       0.1797       2.9190       2.5539
   1976.6281       6.8990       0.0330     106.8780      39.9530    -999.2500     241.5700      19.3370      35.2050       0.1833       2.9490       2.5710
   1976.7804       6.8105       0.0186     103.9616      41.0855    -999.2500     272.8239      20.2641      39.3843       0.1721       3.0150       2.6054
   1976.9329       6.7220       0.0040     101.0350      42.2220    -999.2500     304.2370      21.1960      43.5850       0.1608       3.0810       2.6400
   1977.0852       6.6425      -0.0035      91.9409      37.9597    -999.2500     310.5345      29.5133      40.4023       0.1476       3.3181       2.6480
   1977.2377       6.5630      -0.0110      82.8140      33.6820    -999.2500     316.8650      37.8740      37.2030       0.1344       3.5550       2.6560
   1977.3900       6.5035      -0.0100      82.8604      29.6950    -999.2500     303.3875      41.1079      34.8408       0.1206       3.4544       2.6704
   1977.5425       6.4440      -0.0090      82.9070      25.6930    -999.2500     289.8380      44.3590      32.4660       0.1067       3.3540       2.6850
   1977.6948       6.4440      -0.0070      73.4727      27.7490    -999.2500     263.4762      42.2922      34.5219       0.0969       3.2259       2.6925
   1977.8473       6.4440      -0.0050      64.0170      29.8130    -999.2500     236.9700      40.2140      36.5890       0.0870       3.0980       2.7000
   1977.9996       6.4440      -0.0080      62.3375      41.4732    -999.2500     229.5538      37.8307      42.0696       0.0874       3.1600       2.6945
   1978.1520       6.4440      -0.0110      60.6540      53.1800    -999.2500     222.0960      35.4340      47.5810       0.0877       3.2220       2.6890
   1978.3044       6.4440      -0.0135      59.4695      70.3941    -999.2500     204.5497      33.7374      58.5341       0.0888       3.1755       2.6935
   1978.4568       6.4440      -0.0160      58.2820      87.6790    -999.2500     186.9030      32.0310      69.5500       0.0899       3.1290       2.6980
   1978.6093       6.4440      -0.0135      56.4449      93.4044    -999.2500     163.4053      31.8649      66.4184       0.0915       3.0645       2.7075
   1978.7616       6.4440      -0.0110      54.6030      99.1540    -999.2500     139.7890      31.6980      63.2710       0.0930       3.0000       2.7170
