#------------------------------------------------------------------------------
#
#   Created by  : [OpenWorks] Log Export Utility (LEXP)
#   Created on  : 2016-05-23 11:52:25
#   Project     : CANT971
#   User        : R5K
#   Interpreter : PEP
#
#------------------------------------------------------------------------------
~VERSION INFORMATION
VERS. 2.0 : CWLS Log ASCII Standard - version 2.0
WRAP.  NO : One line per depth step
~WELL INFORMATION
#MNEMONIC   .UNIT                                           VALUE :DESCRIPTION
#------------------------------------------------------------------------------
STRT        .M                                           940.1293 :START DEPTH
STOP        .M                                          2672.0029 :STOP DEPTH
STEP        .M                                             0.1524 :STEP
NULL        .                                           -999.2500 :NULL VALUE
COMP        .                                   PEMEX EXPL & PROD :COMPANY
WELL        .                                               2071D :WELL
FLD         .                                           CANTARELL :FIELD
LOC         .                                             UNKNOWN :LOCATION
CNTY        .                                      CD. DEL CARMEN :COUNTY
STAT        .                                            CAMPECHE :STATE
CTRY        .                                              MEXICO :COUNTRY
SRVC        .                                             UNKNOWN :SERVICE COMPANY
DATE        .                                             UNKNOWN :LOG DATE
UWI         .                                          3060000679 :UNIQUE WELL ID
XCOORD      .                                       601713.940000 :SURFACE X
YCOORD      .                                      2142372.000000 :SURFACE Y
LAT         .                                           19.374038 :LATITUDE
LON         .                                          -92.031462 :LONGITUDE
ELEV        .M                                            30.0000 :SURFACE ELEV
ELEV_TYPEF  .b/elec                                            KB :ELEV TYPE
~CURVE INFORMATION
#MNEMONIC.UNIT        API CODE       : CURVE DESCRIPTION
#------------------------------------------------------------------------------
DEPTH    .M                          : Measured Depth
CALI     .in          UNKNOWN        : CALI:UNKNOWN:rC:NONE:v0 (auto-composite)
DRHO     .g/cm3       UNKNOWN        : DRHO:UNKNOWN:rC:NONE:v0 (auto-composite)
DT       .us/ft       UNKNOWN        : DT:DT:rC:NONE:v0 (auto-composite)
GR       .API         UNKNOWN        : GR:UNKNOWN:rC:NONE:v0 (auto-composite)
ILD      .ohmm        UNKNOWN        : ILD:UNKNOWN:rC:NONE:v0 (auto-composite)
ILM      .ohmm        UNKNOWN        : ILM:UNKNOWN:rC:NONE:v0 (auto-composite)
LLD      .ohmm        UNKNOWN        : LLD:UNKNOWN:rC:NONE:v0 (auto-composite)
LLS      .ohmm        UNKNOWN        : LLS:UNKNOWN:rC:NONE:v0 (auto-composite)
MSFL     .ohmm        UNKNOWN        : MSFL:UNKNOWN:rC:NONE:v0 (auto-composite)
NPHI     .v/v_decimal UNKNOWN        : NPHI:UNKNOWN:rC:NONE:v0 (auto-composite)
PEF      .b/elec      UNKNOWN        : PEF:UNKNOWN:rC:NONE:v0 (auto-composite)
RHOB     .g/cm3       UNKNOWN        : RHOB:UNKNOWN:rC:NONE:v0 (auto-composite)
~A     DEPTH         CALI         DRHO           DT           GR          ILD          ILM          LLD          LLS         MSFL         NPHI          PEF         RHOB
# ...
   2381.2236      10.6240       0.0335      56.6795      39.3550    -999.2500    -999.2500     811.4896     387.1004       0.4165       0.0188       3.2245       2.8100
   2381.3762      10.6120       0.0340      62.7570      38.3220    -999.2500    -999.2500     772.6170     368.5870       0.4080       0.0193       3.2320       2.8140
   2381.5286      10.6200       0.0365      58.9507      36.7386    -999.2500    -999.2500     764.8578     365.9254       0.4035       0.0183       3.2785       2.8070
   2381.6809      10.6280       0.0390      55.1490      35.1570    -999.2500    -999.2500     757.1080     363.2670       0.3990       0.0173       3.3250       2.8000
   2381.8333      10.6360       0.0395      52.2700      33.3354    -999.2500    -999.2500     800.9323     388.4991       0.3900       0.0166       3.3305       2.7970
   2381.9858      10.6440       0.0400      49.3940      31.5100    -999.2500    -999.2500     844.8500     413.7850       0.3810       0.0159       3.3360       2.7940
   2382.1382      10.6320       0.0445      50.6776      31.8452    -999.2500    -999.2500     850.2426     419.4977       0.3870       0.0152       3.3200       2.8065
   2382.2905      10.6200       0.0490      51.9600      32.1800    -999.2500    -999.2500     855.6300     425.2050       0.3930       0.0145       3.3040       2.8190
   2382.4429      10.6436       0.0470      56.4483      33.9810    -999.2500    -999.2500     774.4048     385.3312       0.3679       0.0153       3.3200       2.8205
   2382.5952      10.6670       0.0450      60.9330      35.7720    -999.2500    -999.2500     693.6350     345.6810       0.3430       0.0160       3.3360       2.8220
   2382.7478      10.6755       0.0440      60.5919      41.2967    -999.2500    -999.2500     606.0397     302.7656       0.3560       0.0183       3.3170       2.8175
   2382.9001      10.6840       0.0430      60.2510      46.8000    -999.2500    -999.2500     518.7850     260.0170       0.3690       0.0206       3.2980       2.8130
   2383.0525      10.7115       0.0415      55.9233      54.5022    -999.2500    -999.2500     495.3983     247.4559       0.3630       0.0251       3.3300       2.8020
   2383.2048      10.7390       0.0400      51.5980      62.2000    -999.2500    -999.2500     472.0250     234.9020       0.3570       0.0296       3.3620       2.7910
   2383.3574      10.7270       0.0385      54.9897      60.9732    -999.2500    -999.2500     534.2095     263.8854       0.3775       0.0286       3.3370       2.7845
   2383.5098      10.7150       0.0370      58.3800      59.7430    -999.2500    -999.2500     596.5660     292.9490       0.3980       0.0276       3.3120       2.7780
   2383.6621      10.7035       0.0320      54.6089      54.4269    -999.2500    -999.2500     727.9262     347.9449       0.4095       0.0243       3.2785       2.7820
   2383.8145      10.6920       0.0270      50.8390      49.1210    -999.2500    -999.2500     859.0340     402.8350       0.4210       0.0210       3.2450       2.7860
   2383.9670      10.6800       0.0300      51.7706      44.3920    -999.2500    -999.2500     913.0120     419.4170       0.3974       0.0188       3.2340       2.7935
   2384.1194      10.6680       0.0330      52.7020      39.6940    -999.2500    -999.2500     966.6350     435.8900       0.3740       0.0166       3.2230       2.8010
   2384.2717      10.6600       0.0385      54.6756      37.4729    -999.2500    -999.2500     890.5590     395.5417       0.3670       0.0155       3.2621       2.8090
   2384.4241      10.6520       0.0440      56.6490      35.2590    -999.2500    -999.2500     814.7310     355.3250       0.3600       0.0144       3.3010       2.8170
   2384.5764      10.7075       0.0515      57.8830      34.3765    -999.2500    -999.2500     826.8381     359.6934       0.3720       0.0147       3.3305       2.8310
   2384.7290      10.7630       0.0590      59.1170      33.4940    -999.2500    -999.2500     838.9460     364.0620       0.3840       0.0151       3.3600       2.8450
   2384.8813      10.7670       0.0545      57.4592      33.6434    -999.2500    -999.2500     915.7833     394.7581       0.3790       0.0172       3.2831       2.8410
   2385.0337      10.7710       0.0500      55.8010      33.7930    -999.2500    -999.2500     992.7580     425.5090       0.3740       0.0194       3.2060       2.8370
   2385.1860      10.7830       0.0455      55.1501      31.8622    -999.2500    -999.2500    1037.4723     439.9169       0.3825       0.0236       3.1589       2.8205
   2385.3386      10.7950       0.0410      54.5000      29.9370    -999.2500    -999.2500    1082.0570     454.2830       0.3910       0.0277       3.1120       2.8040
   2385.4910      10.7629       0.0395      53.7776      30.8342    -999.2500    -999.2500    1098.6263     458.2714       0.3689       0.0307       3.1336       2.7890
   2385.6433      10.7310       0.0380      53.0560      31.7260    -999.2500    -999.2500    1115.0970     462.2360       0.3470       0.0337       3.1550       2.7740
   2385.7957      10.7630       0.0370      55.8044      37.0025    -999.2500    -999.2500    1099.9375     455.9197       0.3790       0.0314       3.1865       2.7680
   2385.9482      10.7950       0.0360      58.5500      42.2650    -999.2500    -999.2500    1084.8180     449.6200       0.4110       0.0292       3.2180       2.7620
   2386.1006      10.7910       0.0415      56.7027      45.6125    -999.2500    -999.2500    1045.8027     430.1506       0.3955       0.0253       3.2740       2.7810
   2386.2529      10.7870       0.0470      54.8570      48.9570    -999.2500    -999.2500    1006.8230     410.6990       0.3800       0.0214       3.3300       2.8000
   2386.4053      10.7910       0.0420      56.2741      47.0493    -999.2500    -999.2500     951.3400     385.2732       0.3745       0.0201       3.2940       2.8035
   2386.5576      10.7950       0.0370      57.6900      45.1370    -999.2500    -999.2500     895.7230     359.7860       0.3690       0.0187       3.2580       2.8070
   2386.7102      10.7870       0.0345      59.9598      43.1443    -999.2500    -999.2500     849.2886     337.4176       0.3890       0.0214       3.2350       2.8015
   2386.8625      10.7790       0.0320      62.2280      41.1530    -999.2500    -999.2500     802.8850     315.0640       0.4090       0.0240       3.2120       2.7960
   2387.0149      10.8547       0.0300      64.5091      39.7909    -999.2500    -999.2500     821.9939     320.1024       0.3995       0.0255       3.1884       2.7900
   2387.1672      10.9300       0.0280      66.7890      38.4360    -999.2500    -999.2500     841.0010     325.1140       0.3900       0.0270       3.1650       2.7840
   2387.3198      10.8899       0.0315      62.6877      37.0154    -999.2500    -999.2500     883.9344     337.3486       0.3790       0.0289       3.1820       2.7800
   2387.4722      10.8500       0.0350      58.5880      35.6000    -999.2500    -999.2500     926.7130     349.5390       0.3680       0.0307       3.1990       2.7760
   2387.6245      10.8730       0.0380      56.5602      36.3286    -999.2500    -999.2500     893.7263     334.2678       0.4225       0.0329       3.2160       2.7720
   2387.7769      10.8960       0.0410      54.5330      37.0570    -999.2500    -999.2500     860.7490     319.0010       0.4770       0.0350       3.2330       2.7680
   2387.9294      10.9285       0.0455      55.5746      37.7784    -999.2500    -999.2500     821.6481     306.8201       0.4445       0.0385       3.2455       2.7645
   2388.0818      10.9610       0.0500      56.6160      38.5020    -999.2500    -999.2500     782.4280     294.6020       0.4120       0.0419       3.2580       2.7610
   2388.2341      10.9210       0.0520      57.3330      39.4638    -999.2500    -999.2500     795.2585     299.7702       0.3950       0.0464       3.2285       2.7505
   2388.3865      10.8810       0.0540      58.0500      40.4240    -999.2500    -999.2500     808.0680     304.9300       0.3780       0.0509       3.1990       2.7400
