#------------------------------------------------------------------------------
#
#   Created by  : [OpenWorks] Log Export Utility (LEXP)
#   Created on  : 2016-05-23 11:55:46
#   Project     : CANT971
#   User        : R5K
#   Interpreter : PEP
#
#------------------------------------------------------------------------------
~VERSION INFORMATION
VERS. 2.0 : CWLS Log ASCII Standard - version 2.0
WRAP.  NO : One line per depth step
~WELL INFORMATION
#MNEMONIC   .UNIT                                           VALUE :DESCRIPTION
#------------------------------------------------------------------------------
STRT        .M                                           292.5192 :START DEPTH
STOP        .M                                          2727.7188 :STOP DEPTH
STEP        .M                                             0.1524 :STEP
NULL        .                                           -999.2500 :NULL VALUE
COMP        .                                   PEMEX EXPL & PROD :COMPANY
WELL        .                                                  39 :WELL
FLD         .                                           CANTARELL :FIELD
LOC         .                                             UNKNOWN :LOCATION
CNTY        .                                      CD. DEL CARMEN :COUNTY
STAT        .                                            CAMPECHE :STATE
CTRY        .                                              MEXICO :COUNTRY
SRVC        .                                             UNKNOWN :SERVICE COMPANY
DATE        .                                             UNKNOWN :LOG DATE
UWI         .                                          3060000161 :UNIQUE WELL ID
XCOORD      .                                       603360.280000 :SURFACE X
YCOORD      .                                      2145098.760000 :SURFACE Y
LAT         .                                           19.398594 :LATITUDE
LON         .                                          -92.015639 :LONGITUDE
ELEV        .M                                            27.1400 :SURFACE ELEV
ELEV_TYPE   .                                                  KB :ELEV TYPE
~CURVE INFORMATION
#MNEMONIC.UNIT        API CODE       : CURVE DESCRIPTION
#------------------------------------------------------------------------------
DEPTH    .M                          : Measured Depth
CALI     .inches      UNKNOWN        : CALI:Import:rC:NONE:v0 (auto-composite)
DRHO     .g/cm3       UNKNOWN        : DRHO:Import:rC:NONE:v0 (auto-composite)
DT       .us/ft       UNKNOWN        : DT:Import:rC:NONE:v0 (auto-composite)
GR       .API         UNKNOWN        : GR:Import:rC:NONE:v0 (auto-composite)
ILD      .ohm.m       UNKNOWN        : ILD:Import:rC:NONE:v0 (auto-composite)
LLD      .ohm.m       UNKNOWN        : LLD:Import:rC:NONE:v0 (auto-composite)
LLS      .ohm.m       UNKNOWN        : LLS:Import:rC:NONE:v0 (auto-composite)
MSFL     .ohm.m       UNKNOWN        : MSFL:Import:rC:NONE:v0 (auto-composite)
NPHI     .v/v_decimal UNKNOWN        : NPHI:Import:rC:NONE:v0 (auto-composite)
RHOB     .g/cm3       UNKNOWN        : RHOB:Import:rC:NONE:v0 (auto-composite)
~A     DEPTH         CALI         DRHO           DT           GR          ILD          LLD          LLS         MSFL         NPHI         RHOB
    292.5192       0.0000       0.0000      40.0000       0.0000       0.2000       0.2000       0.2000       0.2000      -0.1500       2.0000
    292.6716       0.0000       0.0000      40.0000       0.0000       0.2000       0.2000       0.2000       0.2000      -0.1500       2.0000
    292.8240       0.0000       0.0000      40.0000       0.0000       0.2000       0.2000       0.2000       0.2000      -0.1500       2.0000
    292.9764       0.0000       0.0000      40.0000       0.0000       0.2000       0.2000       0.2000       0.2000      -0.1500       2.0000
    293.1288       0.0000       0.0000      40.0000       0.0000       0.2000       0.2000       0.2000       0.2000      -0.1500       2.0000
    293.2812       0.0000       0.0000      40.0000       0.0000       0.2000       0.2000       0.2000       0.2000      -0.1500       2.0000
    293.4336       0.0000       0.0000      40.0000       0.0000       0.2000       0.2000       0.2000       0.2000      -0.1500       2.0000
    293.5860       0.0000       0.0000      40.0000       0.0000       0.2000       0.2000       0.2000       0.2000      -0.1500       2.0000
    293.7384       0.0000       0.0000      40.0000       0.0000       0.2000       0.2000       0.2000       0.2000      -0.1500       2.0000
    293.8908       0.0000       0.0000      40.0000       0.0000       0.2000       0.2000       0.2000       0.2000      -0.1500       2.0000
    294.0432       0.0000       0.0000      40.0000       0.0000       0.2000       0.2000       0.2000       0.2000      -0.1500       2.0000
    294.1956       0.0000       0.0000      40.0000       0.0000       0.2000       0.2000       0.2000       0.2000      -0.1500       2.0000
    294.3480       0.0000       0.0000      40.0000       0.0000       0.2000       0.2000       0.2000       0.2000      -0.1500       2.0000
    294.5004       0.0000       0.0000      40.0000       0.0000       0.2000       0.2000       0.2000       0.2000      -0.1500       2.0000
    294.6528       0.0000       0.0000      40.0000       0.0000       0.2000       0.2000       0.2000       0.2000      -0.1500       2.0000
    294.8052       0.0000       0.0000      40.0000       0.0000       0.2000       0.2000       0.2000       0.2000      -0.1500       2.0000
    294.9576       0.0000       0.0000      40.0000       0.0000       0.2000       0.2000       0.2000       0.2000      -0.1500       2.0000
    295.1100       0.0000       0.0000      40.0000       0.0000       0.2000       0.2000       0.2000       0.2000      -0.1500       2.0000
    295.2624       0.0000       0.0000      40.0000       0.0000       0.2000       0.2000       0.2000       0.2000      -0.1500       2.0000
    295.4148       0.0000       0.0000      40.0000       0.0000       0.2000       0.2000       0.2000       0.2000      -0.1500       2.0000
    295.5672       0.0000       0.0000      40.0000       0.0000       0.2000       0.2000       0.2000       0.2000      -0.1500       2.0000
    295.7196       0.0000       0.0000      40.0000       0.0000       0.2000       0.2000       0.2000       0.2000      -0.1500       2.0000
    295.8720       0.0000       0.0000      40.0000      13.2463       0.2000       0.2000       0.2000       0.2000      -0.1500       2.0000
    296.0244       0.0000       0.0000      40.0000      27.1681       0.2000       0.2000       0.2000       0.2000      -0.1500       2.0000
    296.1768       0.0000       0.0000      40.0000      40.6231       0.2000       0.2000       0.2000       0.2000      -0.1500       2.0000
    296.3292       0.0000       0.0000      40.0000      54.0535       0.2000       0.2000       0.2000       0.2000      -0.1500       2.0000
    296.4816       0.0000       0.0000      40.0000      53.7670       0.2000       0.2000       0.2000       0.2000      -0.1500       2.0000
    296.6340       0.0000       0.0000      40.0000      52.8396       0.2000       0.2000       0.2000       0.2000      -0.1500       2.0000
    296.7864       0.0000       0.0000      40.0000      52.6602       0.2000       0.2000       0.2000       0.2000      -0.1500       2.0000
    296.9388       0.0000       0.0000      40.0000      52.5168       0.2000       0.2000       0.2000       0.2000      -0.1500       2.0000
    297.0912       0.0000       0.0000      40.0000      52.8630       0.2000       0.2000       0.2000       0.2000      -0.1500       2.0000
    297.2436       0.0000       0.0000      40.0000      53.2300       0.2000       0.2000       0.2000       0.2000      -0.1500       2.0000
    297.3960       0.0000       0.0000      40.0000      53.7968       0.2000       0.2000       0.2000       0.2000      -0.1500       2.0000
    297.5484       0.0000       0.0000      40.0000      54.3709       0.2000       0.2000       0.2000       0.2000      -0.1500       2.0000
    297.7008       0.0000       0.0000      40.0000      54.8652       0.2000       0.2000       0.2000       0.2000      -0.1500       2.0000
    297.8532       0.0000       0.0000      40.0000      55.3565       0.2000       0.2000       0.2000       0.2000      -0.1500       2.0000
    298.0056       0.0000       0.0000      40.0000      55.9822       0.2000       0.2000       0.2000       0.2000      -0.1500       2.0000
    298.1580       0.0000       0.0000      40.0000      56.6123       0.2000       0.2000       0.2000       0.2000      -0.1500       2.0000
    298.3104       0.0000       0.0000      40.0000      56.9370       0.2000       0.2000       0.2000       0.2000      -0.1500       2.0000
    298.4628       0.0000       0.0000      40.0000      57.2513       0.2000       0.2000       0.2000       0.2000      -0.1500       2.0000
    298.6152       0.0000       0.0000      40.0000      56.9266       0.2000       0.2000       0.2000       0.2000      -0.1500       2.0000
    298.7676       0.0000       0.0000      40.0000      56.5837       0.2000       0.2000       0.2000       0.2000      -0.1500       2.0000
    298.9200       0.0000       0.0000      40.0000      56.9590       0.2000       0.2000       0.2000       0.2000      -0.1500       2.0000
    299.0724       0.0000       0.0000      40.0000      57.3508       0.2000       0.2000       0.2000       0.2000      -0.1500       2.0000
    299.2248       0.0000       0.0000      40.0000      57.4848       0.2000       0.2000       0.2000       0.2000      -0.1500       2.0000
    299.3772       0.0000       0.0000      40.0000      57.6126       0.2000       0.2000       0.2000       0.2000      -0.1500       2.0000
    299.5296       0.0000       0.0000      40.0000      57.2604       0.2000       0.2000       0.2000       0.2000      -0.1500       2.0000
    299.6820       0.0000       0.0000      40.0000      56.8991       0.2000       0.2000       0.2000       0.2000      -0.1500       2.0000
    299.8344       0.0000       0.0000      40.0000      57.0964       0.2000       0.2000       0.2000       0.2000      -0.1500       2.0000
    299.9868       0.0000       0.0000      40.0000      57.3050       0.2000       0.2000       0.2000       0.2000      -0.1500       2.0000
    300.1392       0.0000       0.0000      40.0000      57.9053       0.2000       0.2000       0.2000       0.2000      -0.1500       2.0000
    300.2916       0.0000       0.0000      40.0000      58.5170       0.2000       0.2000       0.2000       0.2000      -0.1500       2.0000
    300.4440       0.0000       0.0000      40.0000      58.6690       0.2000       0.2000       0.2000       0.2000      -0.1500       2.0000
    300.5964       0.0000       0.0000      40.0000      58.8240       0.2000       0.2000       0.2000       0.2000      -0.1500       2.0000
    300.7488       0.0000       0.0000      40.0000      58.3101       0.2000       0.2000       0.2000       0.2000      -0.1500       2.0000
    300.9012       0.0000       0.0000      40.0000      57.7880       0.2000       0.2000       0.2000       0.2000      -0.1500       2.0000
