#------------------------------------------------------------------------------
#
#   Created by  : [OpenWorks] Log Export Utility (LEXP)
#   Created on  : 2016-05-23 11:56:12
#   Project     : CANT971
#   User        : R5K
#   Interpreter : PEP
#
#------------------------------------------------------------------------------
~VERSION INFORMATION
VERS. 2.0 : CWLS Log ASCII Standard - version 2.0
WRAP.  NO : One line per depth step
~WELL INFORMATION
#MNEMONIC   .UNIT                                           VALUE :DESCRIPTION
#------------------------------------------------------------------------------
STRT        .M                                           365.7604 :START DEPTH
STOP        .M                                          2883.8655 :STOP DEPTH
STEP        .M                                             0.1524 :STEP
NULL        .                                           -999.2500 :NULL VALUE
COMP        .                                   PEMEX EXPL & PROD :COMPANY
WELL        .                                                  44 :WELL
FLD         .                                           CANTARELL :FIELD
LOC         .                                             UNKNOWN :LOCATION
CNTY        .                                      CD. DEL CARMEN :COUNTY
STAT        .                                            CAMPECHE :STATE
CTRY        .                                              MEXICO :COUNTRY
SRVC        .                                             UNKNOWN :SERVICE COMPANY
DATE        .                                             UNKNOWN :LOG DATE
UWI         .                                          3060000162 :UNIQUE WELL ID
XCOORD      .                                       599695.380000 :SURFACE X
YCOORD      .                                      2143038.730000 :SURFACE Y
LAT         .                                           19.380164 :LATITUDE
LON         .                                          -92.050646 :LONGITUDE
ELEV        .M                                            26.7400 :SURFACE ELEV
ELEV_TYPE   .                                                  KB :ELEV TYPE
~CURVE INFORMATION
#MNEMONIC.UNIT        API CODE       : CURVE DESCRIPTION
#------------------------------------------------------------------------------
DEPTH    .M                          : Measured Depth
CALI     .inches      UNKNOWN        : CALI:registros:rC:NONE:v0 (auto-composite)
CGR      .API         UNKNOWN        : CGR:registros:rC:NONE:v0 (auto-composite)
DRHO     .g/cm3       UNKNOWN        : DRHO:registros:rC:NONE:v0 (auto-composite)
DT       .UNKNOWN     UNKNOWN        : DT:registros:rC:NONE:v0 (auto-composite)
GR       .API         UNKNOWN        : GR:registros:rC:NONE:v0 (auto-composite)
ILD      .ohm.m       UNKNOWN        : ILD:registros:rC:NONE:v0 (auto-composite)
LLD      .ohm.m       UNKNOWN        : LLD:registros:rC:NONE:v0 (auto-composite)
LLS      .ohm.m       UNKNOWN        : LLS:registros:rC:NONE:v0 (auto-composite)
MSFL     .ohm.m       UNKNOWN        : MSFL:registros:rC:NONE:v0 (auto-composite)
NPHI     .UNKNOWN     UNKNOWN        : NPHI:registros:rC:NONE:v0 (auto-composite)
PEF      .b/elec      UNKNOWN        : PEF:registros:rC:NONE:v0 (auto-composite)
POTA     .wtpercent   UNKNOWN        : POTA:registros:rC:NONE:v0 (auto-composite)
RHOB     .g/cm3       UNKNOWN        : RHOB:registros:rC:NONE:v0 (auto-composite)
THOR     .ppm         UNKNOWN        : THOR:registros:rC:NONE:v0 (auto-composite)
URAN     .ppm         UNKNOWN        : URAN:registros:rC:NONE:v0 (auto-composite)
~A     DEPTH         CALI          CGR         DRHO           DT           GR          ILD          LLD          LLS         MSFL         NPHI          PEF         POTA         RHOB         THOR         URAN
# ...
   1798.1680      10.3232    -999.2500       0.0194      73.0659      30.3539    -999.2500       4.7732       6.6317       9.8677       0.1172    -999.2500    -999.2500       2.5764    -999.2500    -999.2500
   1798.3204      10.1170    -999.2500       0.0100      73.3300      30.7600    -999.2500       5.4120       7.4370       9.1920       0.1156    -999.2500    -999.2500       2.5530    -999.2500    -999.2500
   1798.4728      10.1598    -999.2500       0.0180      78.1196      33.4422    -999.2500       4.2325       5.9273       8.6599       0.1352    -999.2500    -999.2500       2.5349    -999.2500    -999.2500
   1798.6251      10.2020    -999.2500       0.0260      82.8890      36.1130    -999.2500       3.0580       4.4240       8.1300       0.1595    -999.2500    -999.2500       2.5170    -999.2500    -999.2500
   1798.7776      10.2236    -999.2500       0.0215      86.3616      38.3074    -999.2500       2.5469       3.7046       7.0115       0.1876    -999.2500    -999.2500       2.5170    -999.2500    -999.2500
   1798.9299      10.2450    -999.2500       0.0170      89.8060      40.4840    -999.2500       2.0400       2.9910       5.9020       0.2099    -999.2500    -999.2500       2.5170    -999.2500    -999.2500
   1799.0824      10.2591    -999.2500       0.0130      88.3815      39.8729    -999.2500       2.1486       3.1464       6.0851       0.1997    -999.2500    -999.2500       2.5230    -999.2500    -999.2500
   1799.2347      10.2730    -999.2500       0.0090      86.9740      39.2690    -999.2500       2.2560       3.3000       6.2660       0.1845    -999.2500    -999.2500       2.5290    -999.2500    -999.2500
   1799.3872      10.2499    -999.2500       0.0150      85.4614      38.5843    -999.2500       2.6594       3.8692       6.5488       0.1754    -999.2500    -999.2500       2.5406    -999.2500    -999.2500
   1799.5396      10.2270    -999.2500       0.0210      83.9630      37.9060    -999.2500       3.0590       4.4330       6.8290       0.1683    -999.2500    -999.2500       2.5520    -999.2500    -999.2500
   1799.6920      10.2592    -999.2500       0.0245      84.2043      38.4393    -999.2500       3.0364       4.4250       7.9037       0.1651    -999.2500    -999.2500       2.5641    -999.2500    -999.2500
   1799.8444      10.2910    -999.2500       0.0280      84.4440      38.9690    -999.2500       3.0140       4.4170       8.9710       0.1626    -999.2500    -999.2500       2.5760    -999.2500    -999.2500
   1799.9968      10.3091    -999.2500       0.0245      83.8865      38.5052    -999.2500       3.1713       4.6519       8.2803       0.1595    -999.2500    -999.2500       2.5690    -999.2500    -999.2500
   1800.1492      10.3270    -999.2500       0.0210      83.3310      38.0430    -999.2500       3.3280       4.8860       7.5920       0.1570    -999.2500    -999.2500       2.5620    -999.2500    -999.2500
   1800.3016      10.3451    -999.2500       0.0210      83.7797      37.7624    -999.2500       2.9732       4.3816       9.0209       0.1583    -999.2500    -999.2500       2.5479    -999.2500    -999.2500
   1800.4540      10.3630    -999.2500       0.0210      84.2250      37.4840    -999.2500       2.6210       3.8810      10.4390       0.1597    -999.2500    -999.2500       2.5340    -999.2500    -999.2500
   1800.6063      10.3514    -999.2500       0.0124      83.7222      37.7198    -999.2500       2.6839       4.0007       9.3071       0.1576    -999.2500    -999.2500       2.5179    -999.2500    -999.2500
   1800.7588      10.3400    -999.2500       0.0040      83.2250      37.9530    -999.2500       2.7460       4.1190       8.1880       0.1553    -999.2500    -999.2500       2.5020    -999.2500    -999.2500
   1800.9111      10.3591    -999.2500      -0.0005      83.9934      38.2433    -999.2500       2.5948       3.9015       8.8585       0.1556    -999.2500    -999.2500       2.4919    -999.2500    -999.2500
   1801.0636      10.3780    -999.2500      -0.0050      84.7550      38.5310    -999.2500       2.4450       3.6860       9.5230       0.1599    -999.2500    -999.2500       2.4820    -999.2500    -999.2500
   1801.2159      10.4334    -999.2500      -0.0020      86.6460      38.2486    -999.2500       2.2694       3.4312       6.1855       0.1811    -999.2500    -999.2500       2.4599    -999.2500    -999.2500
   1801.3684      10.4880    -999.2500       0.0010      88.5250      37.9680    -999.2500       2.0950       3.1780       2.8690       0.2000    -999.2500    -999.2500       2.4380    -999.2500    -999.2500
   1801.5208      10.4291    -999.2500      -0.0025      85.7022      36.0970    -999.2500       2.4988       3.7120       4.6995       0.1925    -999.2500    -999.2500       2.4536    -999.2500    -999.2500
   1801.6732      10.3710    -999.2500      -0.0060      82.8900      34.2330    -999.2500       2.9010       4.2440       6.5230       0.1760    -999.2500    -999.2500       2.4690    -999.2500    -999.2500
   1801.8256      10.3207    -999.2500      -0.0140      77.8070      29.9907    -999.2500       3.6940       5.3287      91.2903       0.1435    -999.2500    -999.2500       2.5042    -999.2500    -999.2500
   1801.9780      10.2710    -999.2500      -0.0220      72.7630      25.7810    -999.2500       4.4810       6.4050     175.4080       0.1091    -999.2500    -999.2500       2.5390    -999.2500    -999.2500
   1802.1304      10.1986    -999.2500      -0.0044      68.2682      26.4217    -999.2500       7.8307      11.0034     125.4271       0.0814    -999.2500    -999.2500       2.5943    -999.2500    -999.2500
   1802.2828      10.1270    -999.2500       0.0130      63.8250      27.0550    -999.2500      11.1420      15.5490      76.0200       0.0610    -999.2500    -999.2500       2.6490    -999.2500    -999.2500
   1802.4352      10.0983    -999.2500       0.0120      66.4719      30.2790    -999.2500       9.1907      12.8403      91.1444       0.0676    -999.2500    -999.2500       2.6309    -999.2500    -999.2500
   1802.5875      10.0700    -999.2500       0.0110      69.0950      33.4740    -999.2500       7.2570      10.1560     106.1330       0.0829    -999.2500    -999.2500       2.6130    -999.2500    -999.2500
   1802.7400      10.0896    -999.2500       0.0060      74.5401      34.5058    -999.2500       5.9197       8.2910      56.3093       0.1118    -999.2500    -999.2500       2.5828    -999.2500    -999.2500
   1802.8923      10.1090    -999.2500       0.0010      79.9500      35.5310    -999.2500       4.5910       6.4380       6.8080       0.1367    -999.2500    -999.2500       2.5530    -999.2500    -999.2500
   1803.0448      10.0828    -999.2500       0.0025      78.0001      34.9093    -999.2500       4.9317       6.8919       7.7098       0.1298    -999.2500    -999.2500       2.5671    -999.2500    -999.2500
   1803.1971      10.0570    -999.2500       0.0040      76.0580      34.2900    -999.2500       5.2710       7.3440       8.6080       0.1135    -999.2500    -999.2500       2.5810    -999.2500    -999.2500
   1803.3496      10.0288    -999.2500       0.0015      70.9485      28.3407    -999.2500       6.0736       8.4940      13.8546       0.0855    -999.2500    -999.2500       2.5986    -999.2500    -999.2500
   1803.5020      10.0010    -999.2500      -0.0010      65.8790      22.4380    -999.2500       6.8700       9.6350      19.0600       0.0566    -999.2500    -999.2500       2.6160    -999.2500    -999.2500
   1803.6544       9.9457    -999.2500       0.0071      61.1243      23.7014    -999.2500      11.5689      15.8105      52.6607       0.0350    -999.2500    -999.2500       2.6351    -999.2500    -999.2500
   1803.8068       9.8910    -999.2500       0.0150      56.4250      24.9500    -999.2500      16.2130      21.9140      85.8700       0.0221    -999.2500    -999.2500       2.6540    -999.2500    -999.2500
   1803.9592       9.9096    -999.2500       0.0945      61.3706      29.9067    -999.2500      12.6216      17.2773      68.2187       0.0407    -999.2500    -999.2500       2.6766    -999.2500    -999.2500
