#------------------------------------------------------------------------------
#
#   Created by  : [OpenWorks] Log Export Utility (LEXP)
#   Created on  : 2016-05-23 11:56:46
#   Project     : CANT971
#   User        : R5K
#   Interpreter : PEP
#
#------------------------------------------------------------------------------
~VERSION INFORMATION
VERS. 2.0 : CWLS Log ASCII Standard - version 2.0
WRAP.  NO : One line per depth step
~WELL INFORMATION
#MNEMONIC   .UNIT                                           VALUE :DESCRIPTION
#------------------------------------------------------------------------------
STRT        .M                                           170.6880 :START DEPTH
STOP        .M                                          2221.8396 :STOP DEPTH
STEP        .M                                             0.1524 :STEP
NULL        .                                           -999.2500 :NULL VALUE
COMP        .                                   PEMEX EXPL & PROD :COMPANY
WELL        .                                                  51 :WELL
FLD         .                                           CANTARELL :FIELD
LOC         .                                             UNKNOWN :LOCATION
CNTY        .                                      CD. DEL CARMEN :COUNTY
STAT        .                                            CAMPECHE :STATE
CTRY        .                                              MEXICO :COUNTRY
SRVC        .                                             UNKNOWN :SERVICE COMPANY
DATE        .                                             UNKNOWN :LOG DATE
UWI         .                                          3060000165 :UNIQUE WELL ID
XCOORD      .                                       599727.990000 :SURFACE X
YCOORD      .                                      2147220.270000 :SURFACE Y
LAT         .                                           19.417949 :LATITUDE
LON         .                                          -92.050116 :LONGITUDE
ELEV        .M                                            27.8000 :SURFACE ELEV
ELEV_TYPE   .                                                  KB :ELEV TYPE
~CURVE INFORMATION
#MNEMONIC.UNIT        API CODE       : CURVE DESCRIPTION
#------------------------------------------------------------------------------
DEPTH    .M                          : Measured Depth
CAL      .inches      UNKNOWN        : CAL:CAL-Load:rC:NONE:v0 (auto-composite)
DRHO     .UNKNOWN     UNKNOWN        : DRHO:DRHO-Load:rC:NONE:v0 (auto-composite)
DT       .us/ft       UNKNOWN        : DT:DT:rC:NONE:v0 (auto-composite)
GR       .UNKNOWN     UNKNOWN        : GR:GR-Load:rC:NONE:v0 (auto-composite)
ILD      .UNKNOWN     UNKNOWN        : ILD:ILD-Load:rC:NONE:v0 (auto-composite)
NPHI     .v/v_decimal UNKNOWN        : NPHI:NPHI:rC:NONE:v0 (auto-composite)
RHOB     .UNKNOWN     UNKNOWN        : RHOB:RHOB-Load:rC:NONE:v0 (auto-composite)
SN       .UNKNOWN     UNKNOWN        : SN:SN-Load:rC:NONE:v0 (auto-composite)
~A     DEPTH          CAL         DRHO           DT           GR          ILD         NPHI         RHOB           SN
# ...
    296.8752      14.3250      -0.0180     173.1740    -999.2500       1.0000    -999.2500       2.2200       1.0780
    297.0276      14.2790      -0.0030     171.6545    -999.2500       1.0105    -999.2500       2.2270       1.0740
    297.1800      14.2330       0.0120     170.1350    -999.2500       1.0210    -999.2500       2.2340       1.0700
    297.3324      14.1249       0.0270     175.4987    -999.2500       1.0335    -999.2500       2.2465       1.0685
    297.4848      14.0170       0.0420     180.8620    -999.2500       1.0460    -999.2500       2.2590       1.0670
    297.6372      13.8674       0.0325     176.5411    -999.2500       1.0610    -999.2500       2.2910       1.0765
    297.7896      13.7180       0.0230     172.2200    -999.2500       1.0760    -999.2500       2.3230       1.0860
    297.9420      13.8661      -0.0180     173.9935    -999.2500       1.0915    -999.2500       2.3105       1.1100
    298.0944      14.0140      -0.0590     175.7670    -999.2500       1.1070    -999.2500       2.2980       1.1340
    298.2468      14.0710      -0.0545     174.1094    -999.2500       1.0990    -999.2500       2.2810       1.1475
    298.3992      14.1280      -0.0500     172.4520    -999.2500       1.0910    -999.2500       2.2640       1.1610
    298.5516      14.1530      -0.0380     170.3910    -999.2500       1.0725    -999.2500       2.2545       1.1465
    298.7040      14.1780      -0.0260     168.3300    -999.2500       1.0540    -999.2500       2.2450       1.1320
    298.8564      14.2230      -0.0265     165.4247    -999.2500       1.0260    -999.2500       2.2400       1.1350
    299.0088      14.2680      -0.0270     162.5190    -999.2500       0.9980    -999.2500       2.2350       1.1380
    299.1612      14.3601      -0.0305     163.1850    -999.2500       0.9890    -999.2500       2.2275       1.1395
    299.3136      14.4520      -0.0340     163.8510    -999.2500       0.9800    -999.2500       2.2200       1.1410
    299.4660      14.3930      -0.0535     165.0110    -999.2500       1.0275    -999.2500       2.2355       1.1835
    299.6184      14.3340      -0.0730     166.1710    -999.2500       1.0750    -999.2500       2.2510       1.2260
    299.7708      14.2039      -0.0540     165.6350    -999.2500       1.2220    -999.2500       2.2605       1.4101
    299.9232      14.0740      -0.0350     165.0990    -999.2500       1.3690    -999.2500       2.2700       1.5940
    300.0756      13.9099       0.0025     166.5765    -999.2500       1.6881    -999.2500       2.2590       2.5573
    300.2280      13.7460       0.0400     168.0540    -999.2500       2.0070    -999.2500       2.2480       3.5200
    300.3804      13.7610       0.0290     163.0059    -999.2500       2.6456    -999.2500       2.2525       5.4731
    300.5328      13.7760       0.0180     157.9580    -999.2500       3.2840    -999.2500       2.2570       7.4250
    300.6852      13.8015       0.0140     152.1543    -999.2500       4.3308    -999.2500       2.2270       9.3042
    300.8376      13.8270       0.0100     146.3500    -999.2500       5.3770    -999.2500       2.1970      11.1820
    300.9900      13.8175       0.0035     144.6805    -999.2500       7.2675    -999.2500       2.2390      12.6274
    301.1424      13.8080      -0.0030     143.0110    -999.2500       9.1570    -999.2500       2.2810      14.0720
    301.2948      13.8230      -0.0010     148.6586    -999.2500       8.6014    -999.2500       2.3085      13.4448
    301.4472      13.8380       0.0010     154.3060    -999.2500       8.0460    -999.2500       2.3360      12.8180
    301.5996      14.1292       0.0020     162.7707    -999.2500       6.2245    -999.2500       2.3215      10.7688
    301.7520      14.4200       0.0030     171.2360    -999.2500       4.4040    -999.2500       2.3070       8.7210
    301.9044      14.4055       0.0005     169.7640    -999.2500       3.5067    -999.2500       2.2860       6.2673
    302.0568      14.3910      -0.0020     168.2920    -999.2500       2.6100    -999.2500       2.2650       3.8150
    302.2092      14.3375      -0.0075     165.4484    -999.2500       2.2144    -999.2500       2.2530       2.8097
    302.3616      14.2840      -0.0130     162.6050    -999.2500       1.8190    -999.2500       2.2410       1.8050
    302.5140      14.2990      -0.0090     157.3016    -999.2500       1.5464    -999.2500       2.2480       1.6119
    302.6664      14.3140      -0.0050     151.9980    -999.2500       1.2740    -999.2500       2.2550       1.4190
    302.8188      14.3635      -0.0025     158.6366    -999.2500       1.1370    -999.2500       2.2345       1.3625
    302.9712      14.4130       0.0000     165.2750    -999.2500       1.0000    -999.2500       2.2140       1.3060
    303.1236      14.4875       0.0100     165.1675    -999.2500       1.0025    -999.2500       2.2225       1.2725
    303.2760      14.5620       0.0200     165.0600    -999.2500       1.0050    -999.2500       2.2310       1.2390
    303.4284      14.5255       0.0075     163.3565    -999.2500       1.0205    -999.2500       2.2360       1.2285
    303.5808      14.4890      -0.0050     161.6530    -999.2500       1.0360    -999.2500       2.2410       1.2180
    303.7332      14.4220      -0.0015     164.6053    -999.2500       1.0530    -999.2500       2.2490       1.2105
    303.8856      14.3550       0.0020     167.5580    -999.2500       1.0700    -999.2500       2.2570       1.2030
    304.0380      14.3330       0.0050     161.9107    -999.2500       1.0885    -999.2500       2.2760       1.1950
    304.1904      14.3110       0.0080     156.2630    -999.2500       1.1070    -999.2500       2.2950       1.1870
    304.3428      14.2880      -0.0165     157.0055    -999.2500       1.1245    -999.2500       2.2935       1.1985
    304.4952      14.2650      -0.0410     157.7480    -999.2500       1.1420    -999.2500       2.2920       1.2100
    304.6476      14.2210      -0.0165     155.8366    -999.2500       1.1610    -999.2500       2.2850       1.2205
    304.8000      14.1770       0.0080     153.9250    -999.2500       1.1800    -999.2500       2.2780       1.2310
    304.9524      14.1460      -0.0035     156.4834    -999.2500       1.2020    -999.2500       2.2975       1.2480
    305.1048      14.1150      -0.0150     159.0420    -999.2500       1.2240    -999.2500       2.3170       1.2650
    305.2572      14.1375      -0.0220     149.7569    -999.2500       1.2360    -999.2500       2.3010       1.2600
    305.4096      14.1600      -0.0290     140.4720    -999.2500       1.2480    -999.2500       2.2850       1.2550
    305.5620      14.1750      -0.0265     141.1760    -999.2500       1.2500    -999.2500       2.2850       1.2630
    305.7144      14.1900      -0.0240     141.8800    -999.2500       1.2520    -999.2500       2.2850       1.2710
    305.8668      14.2325      -0.0345     143.1520    -999.2500       1.2465    -999.2500       2.2890       1.2620
    306.0192      14.2750      -0.0450     144.4240    -999.2500       1.2410    -999.2500       2.2930       1.2530
    306.1716      14.2655      -0.0380     145.1160    -999.2500       1.2295    -999.2500       2.3025       1.2440
    306.3240      14.2560      -0.0310     145.8080    -999.2500       1.2180    -999.2500       2.3120       1.2350
    306.4764      14.2660      -0.0235     145.2950    -999.2500       1.2120    -999.2500       2.3185       1.2305
    306.6288      14.2760      -0.0160     144.7820    -999.2500       1.2060    -999.2500       2.3250       1.2260
    306.7812      14.1980      -0.0075     144.5025    -999.2500       1.2045    -999.2500       2.3175       1.2190
    306.9336      14.1200       0.0010     144.2230    -999.2500       1.2030    -999.2500       2.3100       1.2120
    307.0860      14.2386       0.0160     144.1425    -999.2500       1.2015    -999.2500       2.2930       1.2185
    307.2384      14.3570       0.0310     144.0620    -999.2500       1.2000    -999.2500       2.2760       1.2250
