#------------------------------------------------------------------------------
#
#   Created by  : [OpenWorks] Log Export Utility (LEXP)
#   Created on  : 2016-05-23 11:55:58
#   Project     : CANT971
#   User        : R5K
#   Interpreter : PEP
#
#------------------------------------------------------------------------------
~VERSION INFORMATION
VERS. 2.0 : CWLS Log ASCII Standard - version 2.0
WRAP.  NO : One line per depth step
~WELL INFORMATION
#MNEMONIC   .UNIT                                           VALUE :DESCRIPTION
#------------------------------------------------------------------------------
STRT        .M                                           646.6334 :START DEPTH
STOP        .M                                          2755.8494 :STOP DEPTH
STEP        .M                                             0.1524 :STEP
NULL        .                                           -999.2500 :NULL VALUE
COMP        .                                   PEMEX EXPL & PROD :COMPANY
WELL        .                                                  42 :WELL
FLD         .                                           CANTARELL :FIELD
LOC         .                                             UNKNOWN :LOCATION
CNTY        .                                      CD. DEL CARMEN :COUNTY
STAT        .                                            CAMPECHE :STATE
CTRY        .                                              MEXICO :COUNTRY
SRVC        .                                             UNKNOWN :SERVICE COMPANY
DATE        .                                             UNKNOWN :LOG DATE
UWI         .                                          3060000464 :UNIQUE WELL ID
XCOORD      .                                       599690.710000 :SURFACE X
YCOORD      .                                      2143036.470000 :SURFACE Y
LAT         .                                           19.380144 :LATITUDE
LON         .                                          -92.050691 :LONGITUDE
ELEV        .M                                            26.7400 :SURFACE ELEV
ELEV_TYPE   .                                                  KB :ELEV TYPE
~CURVE INFORMATION
#MNEMONIC.UNIT        API CODE       : CURVE DESCRIPTION
#------------------------------------------------------------------------------
DEPTH    .M                          : Measured Depth
CALI     .inches      UNKNOWN        : CALI:Import:rC:NONE:v0 (auto-composite)
DRHO     .g/cm3       UNKNOWN        : DRHO:Import:rC:NONE:v0 (auto-composite)
DT       .us/ft       UNKNOWN        : DT:Import:rC:NONE:v0 (auto-composite)
GR       .API         UNKNOWN        : GR:Import:rC:NONE:v0 (auto-composite)
ILD      .ohm.m       UNKNOWN        : ILD:Import:rC:NONE:v0 (auto-composite)
ILM      .ohm.m       UNKNOWN        : ILM:Import:rC:NONE:v0 (auto-composite)
LLD      .ohm.m       UNKNOWN        : LLD:Import:rC:NONE:v0 (auto-composite)
LLS      .ohm.m       UNKNOWN        : LLS:Import:rC:NONE:v0 (auto-composite)
MSFL     .ohm.m       UNKNOWN        : MSFL:Import:rC:NONE:v0 (auto-composite)
NPHI     .v/v_decimal UNKNOWN        : NPHI:Import:rC:NONE:v0 (auto-composite)
PEF      .b/elec      UNKNOWN        : PEF:Import:rC:NONE:v0 (auto-composite)
RHOB     .g/cm3       UNKNOWN        : RHOB:Import:rC:NONE:v0 (auto-composite)
~A     DEPTH         CALI         DRHO           DT           GR          ILD          ILM          LLD          LLS         MSFL         NPHI          PEF         RHOB
# ...
   2672.9438       8.7580       0.0090      51.8818      25.1841    -999.2500    -999.2500    5498.2144    2093.6428    -999.2500       0.0169       5.9759       2.7755
   2673.0962       8.7580       0.0090      51.5750      24.5570    -999.2500    -999.2500    5304.6079    1597.5380    -999.2500       0.0149       6.6350       2.7680
   2673.2485       8.7580       0.0090      50.3043      24.1073    -999.2500    -999.2500    4853.6006    2200.0923    -999.2500       0.0130       6.7445       2.7790
   2673.4009       8.7580       0.0090      49.0350      23.6560    -999.2500    -999.2500    4403.0840    2801.9910    -999.2500       0.0114       6.8540       2.7900
   2673.5535       8.7580       0.0085      47.9890      25.9311    -999.2500    -999.2500    6330.3208    3791.2471    -999.2500       0.0107       6.4576       2.8010
   2673.7058       8.7580       0.0080      46.9440      28.2150    -999.2500    -999.2500    8255.7041    4779.5518    -999.2500       0.0106       6.0610       2.8120
   2673.8582       8.7580       0.0055      46.9900      28.5793    -999.2500    -999.2500    8167.8325    4897.8364    -999.2500       0.0113       5.8701       2.7965
   2674.0105       8.7580       0.0030      47.0360      28.9450    -999.2500    -999.2500    8080.0342    5016.0220    -999.2500       0.0125       5.6790       2.7810
   2674.1628       8.7580      -0.0005      47.6382      28.3392    -999.2500    -999.2500    6912.9155    4578.7661    -999.2500       0.0142       5.7735       2.7530
   2674.3154       8.7580      -0.0040      48.2400      27.7310    -999.2500    -999.2500    5746.6260    4141.8208    -999.2500       0.0157       5.8680       2.7250
   2674.4678       8.7600      -0.0050      48.9527      27.0569    -999.2500    -999.2500    4206.1538    3168.0442    -999.2500       0.0161       6.1099       2.7330
   2674.6201       8.7620      -0.0060      49.6650      26.3800    -999.2500    -999.2500    2666.5840    2194.8379    -999.2500       0.0159       6.3520       2.7410
   2674.7725       8.8010      -0.0065      49.9693      25.6700    -999.2500    -999.2500    3074.7009    1828.1971    -999.2500       0.0157       5.9697       2.7395
   2674.9250       8.8400      -0.0070      50.2730      24.9570    -999.2500    -999.2500    3481.9771    1462.3120    -999.2500       0.0163       5.5870       2.7380
   2675.0774       8.8665      -0.0060      49.3246      24.7979    -999.2500    -999.2500    3460.8530    1469.0050    -999.2500       0.0198       5.1463       2.7370
   2675.2297       8.8930      -0.0050      48.3780      24.6380    -999.2500    -999.2500    3439.7700    1475.6851    -999.2500       0.0246       4.7050       2.7360
   2675.3821       8.8995      -0.0035      48.5952      29.1242    -999.2500    -999.2500    2271.0149    1051.1893    -999.2500       0.0302       4.6620       2.7395
   2675.5347       8.9060      -0.0020      48.8120      33.6310    -999.2500    -999.2500    1104.3750     627.4620    -999.2500       0.0352       4.6190       2.7430
   2675.6870       8.9060      -0.0010      50.1767      43.1166    -999.2500    -999.2500     639.4658     382.5669    -999.2500       0.0380       4.8588       2.7415
   2675.8394       8.9060       0.0000      51.5390      52.6470    -999.2500    -999.2500     175.3390     138.0840    -999.2500       0.0393       5.0990       2.7400
   2675.9917       8.9035       0.0005      51.9148      53.6471    -999.2500    -999.2500     297.2520     213.4262    -999.2500       0.0385       5.0485       2.7310
   2676.1440       8.9010       0.0010      52.2900      54.6520    -999.2500    -999.2500     418.9750     288.6510    -999.2500       0.0368       4.9980       2.7220
   2676.2966       8.8985       0.0005      51.4694      47.4564    -999.2500    -999.2500     683.2928     479.0483    -999.2500       0.0339       4.6923       2.7220
   2676.4490       8.8960       0.0000      50.6500      40.2250    -999.2500    -999.2500     947.2320     669.1730    -999.2500       0.0305       4.3860       2.7220
   2676.6013       8.8955      -0.0005      49.9470      37.7483    -999.2500    -999.2500     773.5204     587.6476    -999.2500       0.0263       4.2971       2.7445
   2676.7537       8.8950      -0.0010      49.2450      35.2590    -999.2500    -999.2500     600.0360     506.2290    -999.2500       0.0226       4.2080       2.7670
   2676.9062       8.8930      -0.0015      49.4656      41.6394    -999.2500    -999.2500     510.7002     363.9049    -999.2500       0.0211       5.3653       2.7595
   2677.0586       8.8910      -0.0020      49.6860      48.0430    -999.2500    -999.2500     421.4700     221.7490    -999.2500       0.0203       6.5230       2.7520
   2677.2109       8.9760       0.0095      50.0612      46.8777    -999.2500    -999.2500     516.8019     335.0594    -999.2500       0.0194       9.9451       2.6990
   2677.3633       9.0610       0.0210      50.4360      45.7080    -999.2500    -999.2500     612.0330     448.2500    -999.2500       0.0188      13.3690       2.6460
   2677.5159       9.1950       0.0305      51.1343      38.2954    -999.2500    -999.2500     965.3490     588.1837    -999.2500       0.0191      13.1866       2.6030
   2677.6682       9.3290       0.0400      51.8320      30.8540    -999.2500    -999.2500    1318.3361     727.9870    -999.2500       0.0215      13.0040       2.5600
   2677.8206       9.4055       0.0430      52.0046      28.2727    -999.2500    -999.2500    1592.5436     699.2769    -999.2500       0.0300      13.0120       2.5710
   2677.9729       9.4820       0.0460      52.1770      25.6810    -999.2500    -999.2500    1866.5300     670.5900    -999.2500       0.0395      13.0200       2.5820
   2678.1252       9.5375       0.0295      51.2762      25.5049    -999.2500    -999.2500    1768.3452     614.2419    -999.2500       0.0463      11.6801       2.5995
   2678.2778       9.5930       0.0130      50.3760      25.3280    -999.2500    -999.2500    1670.2271     557.9320    -999.2500       0.0499      10.3390       2.6170
   2678.4302       9.4281      -0.0010      50.3920      25.1379    -999.2500    -999.2500    1776.8846     658.6254    -999.2500       0.0466       8.2991       2.6375
   2678.5825       9.2630      -0.0150      50.4080      24.9470    -999.2500    -999.2500    1883.4830     759.2630    -999.2500       0.0411       6.2570       2.6580
   2678.7349       9.0381      -0.0160      50.5296      24.5658    -999.2500    -999.2500    3146.7542     951.2249    -999.2500       0.0361       6.3629       2.6875
   2678.8875       8.8130      -0.0170      50.6510      24.1830    -999.2500    -999.2500    4407.4609    1142.7970    -999.2500       0.0322       6.4690       2.7170
   2679.0398       8.8540      -0.0160      51.0714      24.0852    -999.2500    -999.2500    5118.7578    1289.6558    -999.2500       0.0316       7.4699       2.7320
   2679.1921       8.8950      -0.0150      51.4910      23.9870    -999.2500    -999.2500    5828.7012    1436.2350    -999.2500       0.0314       8.4720       2.7470
   2679.3445       8.8610      -0.0150      51.3774      24.1017    -999.2500    -999.2500    5164.6465    1377.5198    -999.2500       0.0302       7.4642       2.7460
   2679.4971       8.8270      -0.0150      51.2640      24.2170    -999.2500    -999.2500    4501.7729    1318.9091    -999.2500       0.0289       6.4550       2.7450
   2679.6494       8.7995      -0.0140      49.7693      25.3024    -999.2500    -999.2500    4029.6804    1261.0098    -999.2500       0.0281       5.9529       2.7515
   2679.8018       8.7720      -0.0130      48.2770      26.3930    -999.2500    -999.2500    3558.3679    1203.2061    -999.2500       0.0285       5.4500       2.7580
   2679.9541       8.7650      -0.0125      48.8670      31.8766    -999.2500    -999.2500    3319.4043    1178.4851    -999.2500       0.0319       5.2032       2.7605
   2680.1064       8.7580      -0.0120      49.4560      37.3870    -999.2500    -999.2500    3080.8059    1153.8020    -999.2500       0.0367       4.9560       2.7630
