#------------------------------------------------------------------------------
#
#   Created by  : [OpenWorks] Log Export Utility (LEXP)
#   Created on  : 2016-05-23 11:50:52
#   Project     : CANT971
#   User        : R5K
#   Interpreter : PEP
#
#------------------------------------------------------------------------------
~VERSION INFORMATION
VERS. 2.0 : CWLS Log ASCII Standard - version 2.0
WRAP.  NO : One line per depth step
~WELL INFORMATION
#MNEMONIC   .UNIT                                           VALUE :DESCRIPTION
#------------------------------------------------------------------------------
STRT        .M                                           540.4100 :START DEPTH
STOP        .M                                          3242.0049 :STOP DEPTH
STEP        .M                                             0.1524 :STEP
NULL        .                                           -999.2500 :NULL VALUE
COMP        .                                   PEMEX EXPL & PROD :COMPANY
WELL        .                                                1041 :WELL
FLD         .                                           CANTARELL :FIELD
LOC         .                                             UNKNOWN :LOCATION
CNTY        .                                      CD. DEL CARMEN :COUNTY
STAT        .                                            CAMPECHE :STATE
CTRY        .                                              MEXICO :COUNTRY
SRVC        .                                             UNKNOWN :SERVICE COMPANY
DATE        .                                             UNKNOWN :LOG DATE
UWI         .                                          3060000494 :UNIQUE WELL ID
XCOORD      .                                       596162.660000 :SURFACE X
YCOORD      .                                      2150607.940000 :SURFACE Y
LAT         .                                           19.448736 :LATITUDE
LON         .                                          -92.083900 :LONGITUDE
ELEV        .M                                            30.0000 :SURFACE ELEV
ELEV_TYPE   .                                                  KB :ELEV TYPE
~CURVE INFORMATION
#MNEMONIC.UNIT        API CODE       : CURVE DESCRIPTION
#------------------------------------------------------------------------------
DEPTH    .M                          : Measured Depth
CALI     .inches      UNKNOWN        : CALI:litodensidad:rC:NONE:v0 (auto-composite)
DRHO     .g/cm3      UNKNOWN        : DRHO:DRHO-Load:rC:NONE:v0 (auto-composite)
DT       .us/ft       UNKNOWN        : DT:DT:rC:NONE:v0 (auto-composite)
GR       .API         UNKNOWN        : GR:GR-Load:rC:NONE:v0 (auto-composite)
ILD      .ohmm        UNKNOWN        : ILD:ILD-Load:rC:NONE:v0 (auto-composite)
ILM      .ohmm        UNKNOWN        : ILM:ILM-Load:rC:NONE:v0 (auto-composite)
LLD      .ohmm        UNKNOWN        : LLD:LLD-Load:rC:NONE:v0 (auto-composite)
LLS      .ohmm        UNKNOWN        : LLS:LLS-Load:rC:NONE:v0 (auto-composite)
MSFL     .ohmm        UNKNOWN        : MSFL:MSFL-Load:rC:NONE:v0 (auto-composite)
NPHI     .v/v_decimal UNKNOWN        : NPHI:NPHI-Load:rC:NONE:v0 (auto-composite)
PEF      .b/elec      UNKNOWN        : PEF:PEF-Load:rC:NONE:v0 (auto-composite)
RHOB     .g/cm3       UNKNOWN        : RHOB:RHOB-Load:rC:NONE:v0 (auto-composite)
~A     DEPTH         CALI         DRHO           DT           GR          ILD          ILM          LLD          LLS         MSFL         NPHI          PEF         RHOB
# ...
   3100.7300       6.4310    -999.2500    -999.2500      54.3379    -999.2500    -999.2500      30.3960      32.7455      56.7184       0.0487    -999.2500    -999.2500
   3100.8823       6.5103    -999.2500    -999.2500      52.8689    -999.2500    -999.2500      36.6155      39.3495     520.6832       0.0371    -999.2500    -999.2500
   3101.0347       6.7574    -999.2500    -999.2500      48.5445    -999.2500    -999.2500      57.1530      61.0942     311.2140       0.0284    -999.2500    -999.2500
   3101.1873       6.8065    -999.2500    -999.2500      41.6170    -999.2500    -999.2500     102.8791     108.3187     934.5626       0.0220    -999.2500    -999.2500
   3101.3396       6.5887    -999.2500    -999.2500      33.2409    -999.2500    -999.2500     244.4270     250.6793     904.7463       0.0180    -999.2500    -999.2500
   3101.4919       6.4031    -999.2500    -999.2500      26.7637    -999.2500    -999.2500     517.2710     530.9097     558.5649       0.0170    -999.2500    -999.2500
   3101.6443       6.5398    -999.2500    -999.2500      22.3730    -999.2500    -999.2500     680.8224     701.4528     575.0988       0.0170    -999.2500    -999.2500
   3101.7969       6.7506    -999.2500    -999.2500      18.7545    -999.2500    -999.2500     704.1658     723.8774     749.5737       0.0170    -999.2500    -999.2500
   3101.9492       6.7401    -999.2500    -999.2500      15.3488    -999.2500    -999.2500     728.5267     744.0406     668.7744       0.0177    -999.2500    -999.2500
   3102.1016       6.4953    -999.2500    -999.2500      14.3849    -999.2500    -999.2500     685.4044     703.6265     614.1736       0.0200    -999.2500    -999.2500
   3102.2539       6.4048    -999.2500    -999.2500      15.4022    -999.2500    -999.2500     385.5630     394.3548     243.6888       0.0237    -999.2500    -999.2500
   3102.4065       6.5984    -999.2500    -999.2500      19.3266    -999.2500    -999.2500     195.1144     195.8183     508.6494       0.0290    -999.2500    -999.2500
   3102.5588       6.7836    -999.2500    -999.2500      26.9338    -999.2500    -999.2500     101.0194     101.4956     267.5722       0.0383    -999.2500    -999.2500
   3102.7112       6.7619    -999.2500    -999.2500      37.6835    -999.2500    -999.2500      49.8979      50.2167     184.1440       0.0519    -999.2500    -999.2500
   3102.8635       6.5131    -999.2500    -999.2500      52.7400    -999.2500    -999.2500      33.7884      32.9808      96.2280       0.0716    -999.2500    -999.2500
   3103.0159       6.3957    -999.2500    -999.2500      67.8081    -999.2500    -999.2500      25.7139      24.4923      15.9923       0.0876    -999.2500    -999.2500
   3103.1685       6.6018    -999.2500    -999.2500      78.2558    -999.2500    -999.2500      22.9467      21.1807      82.3489       0.0907    -999.2500    -999.2500
   3103.3208       6.8364    -999.2500    -999.2500      80.8425    -999.2500    -999.2500      27.3140      23.5025      63.0427       0.0873    -999.2500    -999.2500
   3103.4731       6.8463    -999.2500    -999.2500      77.5249    -999.2500    -999.2500      25.2419      22.1731      18.0080       0.0820    -999.2500    -999.2500
   3103.6255       6.6046    -999.2500    -999.2500      74.2391    -999.2500    -999.2500      22.2671      20.5580      71.8209       0.0807    -999.2500    -999.2500
   3103.7781       6.4049    -999.2500    -999.2500      71.9667    -999.2500    -999.2500      22.3236      21.0641      39.3647       0.0810    -999.2500    -999.2500
   3103.9304       6.4679    -999.2500    -999.2500      70.2607    -999.2500    -999.2500      22.0320      21.3041      25.8722       0.0817    -999.2500    -999.2500
   3104.0828       6.6511    -999.2500    -999.2500      68.7622    -999.2500    -999.2500      25.1735      23.6800      37.0477       0.0827    -999.2500    -999.2500
   3104.2351       6.8106    -999.2500    -999.2500      68.7806    -999.2500    -999.2500      32.4342      29.2290      40.0579       0.0817    -999.2500    -999.2500
   3104.3875       6.7421    -999.2500    -999.2500      70.1793    -999.2500    -999.2500      34.9049      31.3336      31.9639       0.0830    -999.2500    -999.2500
   3104.5400       6.5130    -999.2500    -999.2500      72.0739    -999.2500    -999.2500      33.9613      30.5342      34.8461       0.0867    -999.2500    -999.2500
   3104.6924       6.3794    -999.2500    -999.2500      71.5773    -999.2500    -999.2500      31.7737      28.1594      27.1398       0.0933    -999.2500    -999.2500
   3104.8447       6.4529    -999.2500    -999.2500      70.5324    -999.2500    -999.2500      27.3651      23.7012      12.1068       0.1006    -999.2500    -999.2500
   3104.9971       6.6356    -999.2500    -999.2500      69.3324    -999.2500    -999.2500      22.2638      19.0438      19.2003       0.1089    -999.2500    -999.2500
   3105.1497       6.7954    -999.2500    -999.2500      66.3618    -999.2500    -999.2500      19.2674      16.5014      14.4568       0.1153    -999.2500    -999.2500
   3105.3020       6.7535    -999.2500    -999.2500      61.9052    -999.2500    -999.2500      19.7091      16.6081      29.2787       0.1110    -999.2500    -999.2500
   3105.4543       6.4887    -999.2500    -999.2500      57.3597    -999.2500    -999.2500      19.5228      16.3987      32.2319       0.1001    -999.2500    -999.2500
   3105.6067       6.4035    -999.2500    -999.2500      54.6174    -999.2500    -999.2500      21.5206      17.7535      16.3703       0.0920    -999.2500    -999.2500
   3105.7593       6.5984    -999.2500    -999.2500      52.7727    -999.2500    -999.2500      27.2291      21.7250      29.9428       0.0874    -999.2500    -999.2500
   3105.9116       6.7677    -999.2500    -999.2500      51.7667    -999.2500    -999.2500      23.1706      18.6771      21.3517       0.0840    -999.2500    -999.2500
   3106.0640       6.7478    -999.2500    -999.2500      52.1176    -999.2500    -999.2500      19.4741      15.8796      23.6987       0.0817    -999.2500    -999.2500
   3106.2163       6.8318    -999.2500    -999.2500      54.2537    -999.2500    -999.2500      19.3341      15.9965      44.3926       0.0797    -999.2500    -999.2500
   3106.3687       6.6195    -999.2500    -999.2500      55.9925    -999.2500    -999.2500      18.8335      15.9876      38.1168       0.0757    -999.2500    -999.2500
   3106.5212       6.6211    -999.2500    -999.2500      55.8324    -999.2500    -999.2500      24.6826      20.0347      44.5371       0.0687    -999.2500    -999.2500
   3106.6736       6.7821    -999.2500    -999.2500      53.2439    -999.2500    -999.2500      38.7583      30.4936      41.2076       0.0607    -999.2500    -999.2500
   3106.8259       6.7303    -999.2500    -999.2500      48.5556    -999.2500    -999.2500      51.0510      40.5875      57.4162       0.0540    -999.2500    -999.2500
   3106.9783       6.5265    -999.2500    -999.2500      44.0304    -999.2500    -999.2500      58.0942      46.9398     195.9448       0.0513    -999.2500    -999.2500
   3107.1309       6.4138    -999.2500    -999.2500      40.3011    -999.2500    -999.2500      60.9253      50.0058     130.9482       0.0523    -999.2500    -999.2500
   3107.2832       6.5724    -999.2500    -999.2500      38.4081    -999.2500    -999.2500      61.3411      50.9151     126.8496       0.0543    -999.2500    -999.2500
   3107.4355       6.7616    -999.2500    -999.2500      36.9693    -999.2500    -999.2500      59.3914      49.7634      86.4897       0.0563    -999.2500    -999.2500
   3107.5879       6.7334    -999.2500    -999.2500      36.0960    -999.2500    -999.2500      55.9732      47.6268      54.9780       0.0577    -999.2500    -999.2500
   3107.7405       6.5338    -999.2500    -999.2500      36.1222    -999.2500    -999.2500      54.0510      46.9684      49.5714       0.0567    -999.2500    -999.2500
   3107.8928       6.4346    -999.2500    -999.2500      38.2300    -999.2500    -999.2500      57.1681      50.4506     112.3748       0.0540    -999.2500    -999.2500
