#------------------------------------------------------------------------------
#
#   Created by  : [OpenWorks] Log Export Utility (LEXP)
#   Created on  : 2016-05-12 17:01:25
#   Project     : CANT971
#   User        : R5K
#   Interpreter : PEP
#
#------------------------------------------------------------------------------
~VERSION INFORMATION
VERS. 2.0 : CWLS Log ASCII Standard - version 2.0
WRAP.  NO : One line per depth step
~WELL INFORMATION
#MNEMONIC   .UNIT                                           VALUE :DESCRIPTION
#------------------------------------------------------------------------------
STRT        .M                                           310.6675 :START DEPTH
STOP        .M                                          2665.7046 :STOP DEPTH
STEP        .M                                             0.1524 :STEP
NULL        .                                           -999.2500 :NULL VALUE
COMP        .                                   PEMEX EXPL & PROD :COMPANY
WELL        .                                                 77A :WELL
FLD         .                                           CANTARELL :FIELD
LOC         .                                             UNKNOWN :LOCATION
CNTY        .                                      CD. DEL CARMEN :COUNTY
STAT        .                                            CAMPECHE :STATE
CTRY        .                                              MEXICO :COUNTRY
SRVC        .                                             UNKNOWN :SERVICE COMPANY
DATE        .                                             UNKNOWN :LOG DATE
UWI         .                                          3060000181 :UNIQUE WELL ID
XCOORD      .                                       602151.310000 :SURFACE X
YCOORD      .                                      2147165.430000 :SURFACE Y
LAT         .                                           19.417331 :LATITUDE
LON         .                                          -92.027040 :LONGITUDE
ELEV        .M                                            28.1700 :SURFACE ELEV
ELEV_TYPE   .                                                  KB :ELEV TYPE
~CURVE INFORMATION
#MNEMONIC.UNIT        API CODE       : CURVE DESCRIPTION
#------------------------------------------------------------------------------
DEPTH    .M                          : Measured Depth
CALI     .inches      UNKNOWN        : CALI:UNKNOWN:rC:NONE:v0 (auto-composite)
DRHO     .UNKNOWN     UNKNOWN        : DRHO:PETROWORKS:rC:NONE:v1 
DT       .us/ft       UNKNOWN        : DT:DT:rC:NONE:v0 (auto-composite)
GR       .API         UNKNOWN        : GR:UNKNOWN:rC:NONE:v0 (auto-composite)
ILD      .UNKNOWN     UNKNOWN        : ILD:UNKNOWN:rC:NONE:v0 (auto-composite)
LLD      .ohm.m       UNKNOWN        : LLD:UNKNOWN:rC:NONE:v0 (auto-composite)
LLS      .ohm.m       UNKNOWN        : LLS:UNKNOWN:rC:NONE:v0 (auto-composite)
MSFL     .ohm.m       UNKNOWN        : MSFL:UNKNOWN:rC:NONE:v0 (auto-composite)
NPHI     .v/v_decimal UNKNOWN        : NPHI:PETROWORKS:rC:NONE:v1 
RHOB     .UNKNOWN     UNKNOWN        : RHOB:PETROWORKS:rC:NONE:v1 
SP       .UNKNOWN     UNKNOWN        : SP:UNKNOWN:rC:NONE:v0 (auto-composite)
~A     DEPTH         CALI         DRHO           DT           GR          ILD          LLD          LLS         MSFL         NPHI         RHOB           SP
# ...
   2466.2131       8.7790       0.0263      58.3133      36.4416      44.7411     200.4189     233.5670    -999.2500       0.1449       2.6927      10.8250
   2466.3655       8.7790       0.0246      58.3258      38.7730      44.1174     296.2314     254.3246    -999.2500       0.1432       2.6836      10.8250
   2466.5178       8.7807       0.0185      58.7633      40.7143      43.7570     383.9979     273.6666    -999.2500       0.1375       2.6860      10.8210
   2466.6704       8.8068       0.0143      59.6251      37.1573      47.1071     359.3173     273.2257    -999.2500       0.1280       2.7048      10.7609
   2466.8228       8.8301       0.0113      59.7672      33.6934      50.4729     340.7828     277.5395    -999.2500       0.1158       2.7228      10.7008
   2466.9751       8.8170       0.0094      59.1930      31.4622      54.0463     403.0123     344.3316    -999.2500       0.1010       2.7269      10.6406
   2467.1274       8.8040       0.0099      58.9108      29.5196      56.5421     468.8196     406.6733    -999.2500       0.0952       2.7155      10.5896
   2467.2800       8.7910       0.0139      58.9203      31.0990      45.8895     577.9631     415.1087    -999.2500       0.0983       2.6883      10.6497
   2467.4324       8.7790       0.0190      60.1406      32.9515      35.9300     670.5674     413.1063    -999.2500       0.1091       2.6497      10.7196
   2467.5847       8.7790       0.0233      62.5670      37.8902      33.8016     577.5370     293.9515    -999.2500       0.1276       2.6033      10.8996
   2467.7371       8.7790       0.0208      63.5726      42.2650      31.7418     479.2095     181.3566    -999.2500       0.1366       2.5521      11.0640
   2467.8894       8.7790       0.0074      63.1673      40.7107      30.4041     325.5370     137.2994    -999.2500       0.1361       2.4981      11.0640
   2468.0420       8.7790      -0.0021      61.9047      38.9390      30.6808     183.2552      97.0963    -999.2500       0.1348       2.4584      11.0640
   2468.1943       8.7790       0.0025      59.7880      35.0313      46.8186     152.2005      94.5262    -999.2500       0.1327       2.4442      11.0640
   2468.3467       8.7790       0.0136      57.2072      31.5411      62.3825     123.8494      91.8455    -999.2500       0.1287       2.4521      11.0582
   2468.4990       8.7790       0.0257      54.1655      31.9672      72.5623     120.7148      88.1332    -999.2500       0.1229       2.4789      10.9980
   2468.6516       8.7817       0.0407      52.0930      32.4419      81.2787     116.7549      83.8077    -999.2500       0.1108       2.5220      10.9318
   2468.8040       8.8077       0.0596      50.9865      33.3444      77.0936     105.5604      74.1053    -999.2500       0.0926       2.5790      10.8120
   2468.9563       8.8323       0.0642      50.1420      33.8807      73.7226      94.4196      64.8636    -999.2500       0.0739       2.6276      10.6985
   2469.1086       8.8449       0.0430      49.5578      31.3738      77.1170      83.7229      59.4300    -999.2500       0.0549       2.6533      10.6384
   2469.2612       8.8546       0.0172      49.5642      29.2746      82.5813      73.8989      54.3712    -999.2500       0.0463       2.6733      10.5850
   2469.4136       8.8420       0.0005      50.1600      30.3777     104.3000      70.8931      52.2403    -999.2500       0.0482       2.6987      10.5850
   2469.5659       8.8310      -0.0082      51.7951      31.5134     128.1438      68.3792      51.0250    -999.2500       0.0533       2.7117      10.5921
   2469.7183       8.8310      -0.0099      54.4639      32.8922     167.7957      69.5068      56.5874    -999.2500       0.0615       2.7017      10.6523
   2469.8706       8.8310      -0.0065      58.4449      34.1217     200.9051      73.2060      66.5669    -999.2500       0.0705       2.6823      10.7050
   2470.0232       8.8310       0.0006      63.7354      34.2971     187.8138      94.9789     107.5913    -999.2500       0.0804       2.6625      10.7050
   2470.1755       8.8343       0.0088      66.1503      34.1388     171.3789     130.6208     159.0387    -999.2500       0.0894       2.6461      10.6973
   2470.3279       8.8598       0.0165      65.7040      31.7070     132.1632     260.3239     281.1762    -999.2500       0.0975       2.6354      10.6371
   2470.4802       8.8751       0.0224      64.1725      29.5799      97.5293     405.5104     400.3845    -999.2500       0.1001       2.6142      10.5930
   2470.6328       8.8235       0.0258      61.5576      29.4295      92.6262     650.7236     500.6690    -999.2500       0.0974       2.5735      10.6532
   2470.7852       8.7790       0.0282      57.6054      29.3314      89.3104     895.8293     594.8568    -999.2500       0.0907       2.5420      10.7134
   2470.9375       8.7790       0.0303      52.3219      29.5570      95.8204    1140.2720     651.4642    -999.2500       0.0800       2.5360      10.7735
   2471.0898       8.7828       0.0285      49.9912      29.5869     100.8736    1339.1158     683.2881    -999.2500       0.0763       2.5535      10.8336
   2471.2424       8.8088       0.0211      50.5915      28.4587      97.3097    1269.3710     569.1306    -999.2500       0.0794       2.5923      10.8933
   2471.3948       8.8348       0.0119      53.0997      27.4172      94.1151    1144.3563     441.8181    -999.2500       0.0910       2.6320      10.9530
   2471.5471       8.8604       0.0032      57.5083      26.8662      93.0104     707.8004     240.3534    -999.2500       0.1111       2.6614      11.0131
   2471.6995       8.8820      -0.0023      59.5237      26.4348     101.2072     315.4587      66.1333    -999.2500       0.1195       2.6911      11.0640
   2471.8518       8.8820      -0.0034      59.1624      26.6604     160.4605     164.8608      40.8727    -999.2500       0.1162       2.7270      11.0640
   2472.0044       8.8820      -0.0034      58.0405      26.8260     227.3382      36.6989      19.1319    -999.2500       0.1072       2.7531      11.0640
   2472.1567       8.8820      -0.0042      56.1608      26.6756     334.3488      26.1837      15.8473    -999.2500       0.0924       2.7613      11.0640
   2472.3091       8.8820      -0.0070      53.5300      26.1317     412.8856      17.2093      13.2910    -999.2500       0.0878       2.7553      11.0640
   2472.4614       8.8820      -0.0126      50.1530      23.5997     347.5294      15.9919      14.4016    -999.2500       0.0932       2.7373      11.0640
   2472.6140       8.8820      -0.0140      49.7554      21.3716     289.8830      15.6599      16.7193    -999.2500       0.1084       2.7124      11.0435
   2472.7664       8.8820      -0.0080      52.3283      20.6195     269.6825      19.6129      24.8790    -999.2500       0.1333       2.6832      10.9237
   2472.9187       8.8820      -0.0034      59.2071      20.0619     250.4498      27.3094      40.8248    -999.2500       0.1658       2.6544      10.8250
   2473.0710       8.8820      -0.0045      70.3663      20.4128     235.7390      52.4365      93.0255    -999.2500       0.2057       2.6280      10.8250
   2473.2236       8.9033      -0.0051      75.6015      21.0325     219.6551     113.8614     168.7748    -999.2500       0.2230       2.6155      10.8358
   2473.3760       9.0205      -0.0023      74.9272      22.8611     197.3928     338.0558     350.1228    -999.2500       0.2177       2.6218      10.8955
   2473.5283       9.1112       0.0017      73.1560      24.1404     175.3567     557.7632     474.5567    -999.2500       0.1982       2.6324      10.9552
   2473.6807       9.0851       0.0058      70.2937      23.0123     154.3129     757.8704     350.3775    -999.2500       0.1646       2.6403      11.0153
   2473.8330       9.0465       0.0068      67.3262      22.0233     131.9275     850.5974     234.2521    -999.2500       0.1483       2.6381      11.0870
   2473.9856       8.9553       0.0036      64.2535      21.6222     103.8712     490.9234     152.0583    -999.2500       0.1490       2.6227      11.2074
