#------------------------------------------------------------------------------
#
#   Created by  : [OpenWorks] Log Export Utility (LEXP)
#   Created on  : 2016-05-23 11:56:05
#   Project     : CANT971
#   User        : R5K
#   Interpreter : PEP
#
#------------------------------------------------------------------------------
~VERSION INFORMATION
VERS. 2.0 : CWLS Log ASCII Standard - version 2.0
WRAP.  NO : One line per depth step
~WELL INFORMATION
#MNEMONIC   .UNIT                                           VALUE :DESCRIPTION
#------------------------------------------------------------------------------
STRT        .M                                          1100.3549 :START DEPTH
STOP        .M                                          2766.5439 :STOP DEPTH
STEP        .M                                             0.1524 :STEP
NULL        .                                           -999.2500 :NULL VALUE
COMP        .                                   PEMEX EXPL & PROD :COMPANY
WELL        .                                                  43 :WELL
FLD         .                                           CANTARELL :FIELD
LOC         .                                             UNKNOWN :LOCATION
CNTY        .                                      CD. DEL CARMEN :COUNTY
STAT        .                                            CAMPECHE :STATE
CTRY        .                                              MEXICO :COUNTRY
SRVC        .                                             UNKNOWN :SERVICE COMPANY
DATE        .                                             UNKNOWN :LOG DATE
UWI         .                                          3060000465 :UNIQUE WELL ID
XCOORD      .                                       601717.960000 :SURFACE X
YCOORD      .                                      2142346.560000 :SURFACE Y
LAT         .                                           19.373808 :LATITUDE
LON         .                                          -92.031425 :LONGITUDE
ELEV        .M                                            24.0000 :SURFACE ELEV
ELEV_TYPE   .                                                  KB :ELEV TYPE
~CURVE INFORMATION
#MNEMONIC.UNIT        API CODE       : CURVE DESCRIPTION
#------------------------------------------------------------------------------
DEPTH    .M                          : Measured Depth
CAL      .inches      UNKNOWN        : CAL:UNKNOWN:rC:NONE:v0 (auto-composite)
CALI     .in          UNKNOWN        : CALI:UNKNOWN:rC:NONE:v0 (auto-composite)
CNL      .v/v_decimal UNKNOWN        : CNL:UNKNOWN:rC:NONE:v0 (auto-composite)
DT       .us/ft       UNKNOWN        : DT:DT:rC:NONE:v0 (auto-composite)
GR       .API         UNKNOWN        : GR:UNKNOWN:rC:NONE:v0 (auto-composite)
ILD      .ohmm        UNKNOWN        : ILD:UNKNOWN:rC:NONE:v0 (auto-composite)
ILM      .ohmm        UNKNOWN        : ILM:UNKNOWN:rC:NONE:v0 (auto-composite)
LLD      .ohmm        UNKNOWN        : LLD:UNKNOWN:rC:NONE:v0 (auto-composite)
LLS      .ohmm        UNKNOWN        : LLS:UNKNOWN:rC:NONE:v0 (auto-composite)
NPHI     .v/v_decimal UNKNOWN        : NPHI:UNKNOWN:rC:NONE:v0 (auto-composite)
PEF      .b/elec      UNKNOWN        : PEF:UNKNOWN:rC:NONE:v0 (auto-composite)
RHOB     .g/cm3       UNKNOWN        : RHOB:UNKNOWN:rC:NONE:v0 (auto-composite)
~A     DEPTH          CAL         CALI          CNL           DT           GR          ILD          ILM          LLD          LLS         NPHI          PEF         RHOB
# ...
   2504.8733    -999.2500      11.3800    -999.2500      61.0089      30.3739    -999.2500    -999.2500     124.1476      54.2694       7.1488       3.5287       2.7154
   2505.0256    -999.2500      11.2686    -999.2500      60.0463      30.5968    -999.2500    -999.2500     123.3195      71.3410       5.5849       3.4822       2.7179
   2505.1780    -999.2500      11.1790    -999.2500      58.0964      30.7193    -999.2500    -999.2500     121.9298      85.3293       4.3305       3.4440       2.7229
   2505.3306    -999.2500      11.1899    -999.2500      50.3105      30.3793    -999.2500    -999.2500     117.9532      85.1126       4.5018       3.4440       2.7388
   2505.4829    -999.2500      11.2108    -999.2500      43.6579      29.8499    -999.2500    -999.2500     112.7176      83.7640       4.8766       3.4457       2.7516
   2505.6353    -999.2500      11.2780    -999.2500      43.6639      28.4335    -999.2500    -999.2500     101.5828      77.1115       6.2048       3.4552       2.7496
   2505.7876    -999.2500      11.3306    -999.2500      43.7262      26.8159    -999.2500    -999.2500      93.0233      71.9377       7.2711       3.4710       2.7465
   2505.9399    -999.2500      11.3171    -999.2500      44.1218      24.2910    -999.2500    -999.2500      96.0840      73.4350       7.1562       3.5150       2.7386
   2506.0925    -999.2500      11.2966    -999.2500      45.3691      22.3637    -999.2500    -999.2500     101.6816      76.1113       6.9679       3.5615       2.7325
   2506.2449    -999.2500      11.2447    -999.2500      51.6249      23.1482    -999.2500    -999.2500     118.7930      84.1379       6.4465       3.6194       2.7349
   2506.3972    -999.2500      11.1960    -999.2500      56.7802      24.3731    -999.2500    -999.2500     138.8710      93.5011       5.9037       3.6652       2.7365
   2506.5496    -999.2500      11.1626    -999.2500      55.4177      27.6302    -999.2500    -999.2500     172.6399     109.0329       5.2620       3.6552       2.7335
   2506.7021    -999.2500      11.1311    -999.2500      54.2534      30.2323    -999.2500    -999.2500     211.4288     128.6936       4.6424       3.6374       2.7310
   2506.8545    -999.2500      11.1091    -999.2500      54.2564      29.7940    -999.2500    -999.2500     273.5230     167.5229       4.1256       3.5835       2.7310
   2507.0068    -999.2500      11.0830    -999.2500      54.2877      29.1100    -999.2500    -999.2500     321.4516     198.0646       3.8525       3.5111       2.7320
   2507.1592    -999.2500      11.0375    -999.2500      54.4868      27.2782    -999.2500    -999.2500     303.2260     189.9031       4.7171       3.3526       2.7375
   2507.3118    -999.2500      11.0000    -999.2500      54.8833      25.9137    -999.2500    -999.2500     278.9559     179.3594       5.4246       3.2220       2.7451
   2507.4641    -999.2500      11.0000    -999.2500      56.4431      26.7438    -999.2500    -999.2500     226.2885     157.6241       5.3941       3.2220       2.7626
   2507.6165    -999.2500      11.0000    -999.2500      57.7187      28.0268    -999.2500    -999.2500     185.5542     140.0312       5.2236       3.2276       2.7780
   2507.7688    -999.2500      11.0000    -999.2500      57.3076      31.3803    -999.2500    -999.2500     199.3873     141.3811       4.4135       3.2585       2.7835
   2507.9211    -999.2500      11.0019    -999.2500      56.9561      34.6964    -999.2500    -999.2500     208.8276     144.6857       3.7496       3.3024       2.7886
   2508.0737    -999.2500      11.0124    -999.2500      56.9571      37.8400    -999.2500    -999.2500     198.0628     156.9809       3.7586       3.4053       2.7921
   2508.2261    -999.2500      11.0363    -999.2500      57.0177      40.7245    -999.2500    -999.2500     183.2890     165.9200       3.7966       3.4959       2.7960
   2508.3784    -999.2500      11.1222    -999.2500      57.4275      42.4098    -999.2500    -999.2500     149.9659     159.3309       3.9685       3.5288       2.8015
   2508.5308    -999.2500      11.1918    -999.2500      57.7174      43.9607    -999.2500    -999.2500     115.8860     148.7401       4.3344       3.5265       2.8053
   2508.6833    -999.2500      11.1848    -999.2500      57.2993      44.8866    -999.2500    -999.2500      78.2839     119.5241       5.6033       3.3597       2.8013
   2508.8357    -999.2500      11.1731    -999.2500      56.9427      46.0894    -999.2500    -999.2500      47.3212      90.8289       6.5992       3.2220       2.7957
   2508.9880    -999.2500      11.1390    -999.2500      56.9477      48.6034    -999.2500    -999.2500      47.7925      64.5992       6.3024       3.2220       2.7827
   2509.1404    -999.2500      11.1110    -999.2500      56.9977      51.1293    -999.2500    -999.2500      48.9884      43.2080       5.8197       3.2200       2.7723
   2509.2930    -999.2500      11.1110    -999.2500      57.3133      53.7097    -999.2500    -999.2500      53.4870      43.8692       4.4898       3.2090       2.7738
   2509.4453    -999.2500      11.1090    -999.2500      57.8712      55.6849    -999.2500    -999.2500      56.2536      45.2978       3.4204       3.1920       2.7774
   2509.5977    -999.2500      11.0980    -999.2500      59.8528      54.8857    -999.2500    -999.2500      51.0798      50.2447       3.5453       3.1476       2.7909
   2509.7500    -999.2500      11.0811    -999.2500      63.4446      53.4359    -999.2500    -999.2500      47.1014      54.0043       3.7542       3.1133       2.8019
   2509.9023    -999.2500      11.0366    -999.2500      76.5645      48.9854    -999.2500    -999.2500      48.6355      52.2889       4.3499       3.1263       2.8014
   2510.0549    -999.2500      11.0000    -999.2500      87.7769      44.0170    -999.2500    -999.2500      51.0508      50.9062       4.8201       3.1347       2.7997
   2510.2073    -999.2500      11.0000    -999.2500      87.7694      36.6197    -999.2500    -999.2500      57.5995      51.0836       4.7011       3.1217       2.7922
   2510.3596    -999.2500      11.0000    -999.2500      87.2566      30.5459    -999.2500    -999.2500      64.9604      51.5313       4.4968       3.1110       2.7867
   2510.5120    -999.2500      11.0000    -999.2500      83.7503      30.7169    -999.2500    -999.2500      76.1540      53.2540       3.8896       3.1110       2.7907
   2510.6646    -999.2500      11.0000    -999.2500      80.7536      30.7812    -999.2500    -999.2500      85.3153      55.5809       3.4026       3.1151       2.7979
   2510.8169    -999.2500      11.0000    -999.2500      80.7576      30.3608    -999.2500    -999.2500      85.2448      60.6517       3.4616       3.1375       2.8194
   2510.9692    -999.2500      11.0000    -999.2500      81.3932      29.4059    -999.2500    -999.2500      84.4946      66.0583       3.5676       3.1796       2.8361
   2511.1216    -999.2500      11.0000    -999.2500      85.7738      26.0081    -999.2500    -999.2500      80.6384      72.9998       3.8882       3.3109       2.8311
   2511.2742    -999.2500      10.9902    -999.2500      89.5163      23.7080    -999.2500    -999.2500      77.7570      76.4805       4.5277       3.4016       2.8235
   2511.4265    -999.2500      10.9347    -999.2500      89.4978      26.5088    -999.2500    -999.2500      79.4058      63.8795       6.6493       3.3031       2.8035
   2511.5789    -999.2500      10.8890    -999.2500      89.3099      30.5422    -999.2500    -999.2500      82.6625      53.7374       8.3782       3.2261       2.7839
   2511.7312    -999.2500      10.8890    -999.2500      88.1294      40.3374    -999.2500    -999.2500      93.4359      55.0903       8.2712       3.2496       2.7664
   2511.8835    -999.2500      10.8890    -999.2500      83.9377      48.3018    -999.2500    -999.2500     107.3587      57.4078       8.1059       3.2834       2.7515
   2512.0361    -999.2500      10.8890    -999.2500      61.9791      47.6566    -999.2500    -999.2500     136.0924      64.2613       7.6662       3.3656       2.7485
