#------------------------------------------------------------------------------
#
#   Created by  : [OpenWorks] Log Export Utility (LEXP)
#   Created on  : 2016-05-23 11:55:37
#   Project     : CANT971
#   User        : R5K
#   Interpreter : PEP
#
#------------------------------------------------------------------------------
~VERSION INFORMATION
VERS. 2.0 : CWLS Log ASCII Standard - version 2.0
WRAP.  NO : One line per depth step
~WELL INFORMATION
#MNEMONIC   .UNIT                                           VALUE :DESCRIPTION
#------------------------------------------------------------------------------
STRT        .M                                           299.0628 :START DEPTH
STOP        .M                                          2570.8896 :STOP DEPTH
STEP        .M                                             0.1524 :STEP
NULL        .                                           -999.2500 :NULL VALUE
COMP        .                                   PEMEX EXPL & PROD :COMPANY
WELL        .                                                  31 :WELL
FLD         .                                           CANTARELL :FIELD
LOC         .                                             UNKNOWN :LOCATION
CNTY        .                                      CD. DEL CARMEN :COUNTY
STAT        .                                            CAMPECHE :STATE
CTRY        .                                              MEXICO :COUNTRY
SRVC        .                                             UNKNOWN :SERVICE COMPANY
DATE        .                                             UNKNOWN :LOG DATE
UWI         .                                          3060000157 :UNIQUE WELL ID
XCOORD      .                                       599727.810000 :SURFACE X
YCOORD      .                                      2147216.930000 :SURFACE Y
LAT         .                                           19.417919 :LATITUDE
LON         .                                          -92.050118 :LONGITUDE
ELEV        .M                                            27.8000 :SURFACE ELEV
ELEV_TYPE   .                                                  KB :ELEV TYPE
~CURVE INFORMATION
#MNEMONIC.UNIT        API CODE       : CURVE DESCRIPTION
#------------------------------------------------------------------------------
DEPTH    .M                          : Measured Depth
CALI     .inches      UNKNOWN        : CALI:Import:rC:NONE:v0 (auto-composite)
DRHO     .g/cm3       UNKNOWN        : DRHO:Import:rC:NONE:v0 (auto-composite)
DT       .us/ft       UNKNOWN        : DT:Import:rC:NONE:v0 (auto-composite)
GR       .API         UNKNOWN        : GR:Import:rC:NONE:v0 (auto-composite)
ILD      .ohm.m       UNKNOWN        : ILD:Import:rC:NONE:v0 (auto-composite)
LLD      .ohm.m       UNKNOWN        : LLD:Import:rC:NONE:v0 (auto-composite)
LLS      .ohm.m       UNKNOWN        : LLS:Import:rC:NONE:v0 (auto-composite)
MSFL     .ohm.m       UNKNOWN        : MSFL:Import:rC:NONE:v0 (auto-composite)
NPHI     .v/v_decimal UNKNOWN        : NPHI:Import:rC:NONE:v0 (auto-composite)
RHOB     .g/cm3       UNKNOWN        : RHOB:Import:rC:NONE:v0 (auto-composite)
~A     DEPTH         CALI         DRHO           DT           GR          ILD          LLD          LLS         MSFL         NPHI         RHOB
# ...
   2475.3347       6.5781       0.0407    -999.2500      31.0039    -999.2500     110.7392     115.3139       9.8624       0.0727       2.7679
   2475.4873       6.5850       0.0538    -999.2500      32.6100    -999.2500     112.9180      86.3777      13.2506       0.0690       2.7791
   2475.6396       6.6021       0.0523    -999.2500      31.9221    -999.2500     117.5119      87.5736      26.6037       0.0661       2.8136
   2475.7920       6.6191       0.0514    -999.2500      30.7165    -999.2500     122.5162      89.3356      38.2750       0.0628       2.8438
   2475.9443       6.6361       0.0549    -999.2500      25.7712    -999.2500     130.4839      95.2472      37.6172       0.0584       2.8418
   2476.0969       6.6519       0.0625    -999.2500      21.5429    -999.2500     139.7885     105.4714      37.3308       0.0550       2.8387
   2476.2493       6.6589       0.0996    -999.2500      22.3809    -999.2500     158.4022     146.1680      39.6680       0.0545       2.8282
   2476.4016       6.6651       0.1317    -999.2500      24.2107    -999.2500     174.0754     181.3741      41.6939       0.0560       2.8167
   2476.5540       6.6661       0.1292    -999.2500      32.9009    -999.2500     169.7008     178.6038      41.5668       0.0588       2.7987
   2476.7063       6.6670       0.1237    -999.2500      40.4713    -999.2500     164.0499     174.8080      41.3460       0.0641       2.7782
   2476.8589       6.6670       0.0982    -999.2500      40.4577    -999.2500     149.8773     164.0665      40.4910       0.0725       2.7406
   2477.0112       6.6664       0.0761    -999.2500      40.3195    -999.2500     135.3022     152.6004      38.5932       0.0794       2.7081
   2477.1636       6.6619       0.0771    -999.2500      39.3536    -999.2500     118.0935     136.3278      29.7779       0.0811       2.7091
   2477.3159       6.6558       0.0795    -999.2500      38.0975    -999.2500     100.1541     120.2746      22.1455       0.0802       2.7112
   2477.4685       6.6398       0.0910    -999.2500      34.9808    -999.2500      77.5295     105.6464      22.2015       0.0784       2.7202
   2477.6208       6.6212       0.1003    -999.2500      31.7563    -999.2500      58.1435      90.7693      22.3497       0.0754       2.7303
   2477.7732       6.5861       0.0947    -999.2500      27.8537    -999.2500      58.8383      74.3059      23.0847       0.0708       2.7473
   2477.9255       6.5560       0.0910    -999.2500      24.1210    -999.2500      60.1794      60.4777      24.2000       0.0652       2.7649
   2478.0781       6.5560       0.0986    -999.2500      21.4354    -999.2500      65.4506      62.8890      27.6596       0.0586       2.7860
   2478.2305       6.5566       0.1049    -999.2500      18.9238    -999.2500      72.5434      66.8136      35.6398       0.0504       2.8039
   2478.3828       6.5606       0.1044    -999.2500      17.4641    -999.2500      90.5039      79.8854      70.9446       0.0401       2.8034
   2478.5352       6.5669       0.1036    -999.2500      16.0106    -999.2500     111.5216      96.5595     100.5118       0.0322       2.8018
   2478.6875       6.5869       0.1006    -999.2500      14.5938    -999.2500     150.4362     134.5950      96.0546       0.0300       2.7933
   2478.8401       6.6169       0.0970    -999.2500      13.4263    -999.2500     200.6645     188.6039      94.8029       0.0303       2.7787
   2478.9924       6.7040       0.0900    -999.2500      13.6916    -999.2500     315.8993     335.5704     112.2058       0.0310       2.7286
   2479.1448       6.7777       0.0827    -999.2500      14.0827    -999.2500     413.2527     459.4557     127.0049       0.0320       2.6882
   2479.2971       6.7757       0.0742    -999.2500      15.1830    -999.2500     409.7378     451.4925     126.9303       0.0335       2.7027
   2479.4497       6.7719       0.0625    -999.2500      17.0113    -999.2500     404.4973     441.2632     126.6775       0.0353       2.7148
   2479.6021       6.7578       0.0324    -999.2500      22.8727    -999.2500     389.8157     418.4816     125.4250       0.0375       2.7138
   2479.7544       6.7408       0.0072    -999.2500      27.8201    -999.2500     373.3456     394.8059     123.7552       0.0407       2.7120
   2479.9067       6.7073       0.0082    -999.2500      27.7951    -999.2500     347.2631     366.2666     119.8151       0.0451       2.7055
   2480.0593       6.6693       0.0099    -999.2500      27.7624    -999.2500     320.8320     338.4483     113.1698       0.0485       2.6979
   2480.2117       6.6077       0.0160    -999.2500      27.6888    -999.2500     292.5599     314.4848      92.0646       0.0493       2.6844
   2480.3640       6.5560       0.0226    -999.2500      27.3666    -999.2500     262.4169     286.8296      76.3691       0.0486       2.6672
   2480.5164       6.5560       0.0326    -999.2500      25.7384    -999.2500     222.5633     239.7845      89.0870       0.0475       2.6312
   2480.6687       6.5560       0.0425    -999.2500      24.3931    -999.2500     189.6175     200.7077      97.4378       0.0461       2.6012
   2480.8213       6.5560       0.0515    -999.2500      24.4912    -999.2500     191.9147     202.7641      83.2452       0.0442       2.6027
   2480.9736       6.5567       0.0600    -999.2500      24.6485    -999.2500     195.5471     206.0778      71.4932       0.0415       2.6054
   2481.1260       6.5607       0.0660    -999.2500      25.1025    -999.2500     205.8769     215.7714      72.1265       0.0379       2.6139
   2481.2783       6.5675       0.0737    -999.2500      25.6306    -999.2500     218.1763     227.3453      76.7851       0.0351       2.6245
   2481.4309       6.5880       0.0897    -999.2500      26.5242    -999.2500     240.0805     248.1937     101.2988       0.0345       2.6456
   2481.5833       6.6116       0.1028    -999.2500      27.6542    -999.2500     268.7623     275.3971     120.8577       0.0352       2.6732
   2481.7356       6.6501       0.1018    -999.2500      29.9313    -999.2500     329.9564     333.4305     116.3800       0.0368       2.7328
   2481.8879       6.6961       0.1000    -999.2500      31.6018    -999.2500     378.9966     380.3617     114.0384       0.0396       2.7814
   2482.0403       6.7778       0.0940    -999.2500      30.3769    -999.2500     370.6784     374.3106     121.8911       0.0437       2.7779
   2482.1929       6.8437       0.0874    -999.2500      29.3945    -999.2500     358.7305     365.1077     127.3056       0.0492       2.7728
   2482.3452       6.8362       0.0784    -999.2500      29.5387    -999.2500     329.9273     341.1061     121.2720       0.0558       2.7603
   2482.4976       6.8244       0.0695    -999.2500      29.7790    -999.2500     293.7531     314.6224     113.2177       0.0630       2.7473
   2482.6499       6.7934       0.0610    -999.2500      30.4582    -999.2500     223.8919     276.6705      95.8269       0.0703       2.7323
   2482.8025       6.7592       0.0524    -999.2500      31.2274    -999.2500     166.8787     234.6627      76.7209       0.0771       2.7164
   2482.9548       6.7106       0.0434    -999.2500      32.4008    -999.2500     167.0459     174.2111      49.8154       0.0827       2.6963
   2483.1072       6.6604       0.0327    -999.2500      33.5990    -999.2500     168.1613     125.0909      28.2211       0.0872       2.6806
   2483.2595       6.6028       0.0147    -999.2500      34.9076    -999.2500     173.4314     126.1541      30.1489       0.0902       2.6841
   2483.4121       6.5560       0.0000    -999.2500      36.2889    -999.2500     177.6322     130.0364      30.9841       0.0924       2.6947
   2483.5645       6.5560       0.0000    -999.2500      37.9879    -999.2500     177.2187     146.2113      27.0555       0.0941       2.7357
   2483.7168       6.5568       0.0001    -999.2500      40.4967    -999.2500     176.5443     159.2774      23.9698       0.0960       2.7686
