#------------------------------------------------------------------------------
#
#   Created by  : [OpenWorks] Log Export Utility (LEXP)
#   Created on  : 2016-05-23 11:55:56
#   Project     : CANT971
#   User        : R5K
#   Interpreter : PEP
#
#------------------------------------------------------------------------------
~VERSION INFORMATION
VERS. 2.0 : CWLS Log ASCII Standard - version 2.0
WRAP.  NO : One line per depth step
~WELL INFORMATION
#MNEMONIC   .UNIT                                           VALUE :DESCRIPTION
#------------------------------------------------------------------------------
STRT        .M                                          3767.4790 :START DEPTH
STOP        .M                                          5548.2729 :STOP DEPTH
STEP        .M                                             0.1524 :STEP
NULL        .                                           -999.2500 :NULL VALUE
COMP        .                                             UNKNOWN :COMPANY
WELL        .                                            418D-ST2 :WELL
FLD         .                                             UNKNOWN :FIELD
LOC         .                                             UNKNOWN :LOCATION
CNTY        .                                             UNKNOWN :COUNTY
STAT        .                                             UNKNOWN :STATE
CTRY        .                                             UNKNOWN :COUNTRY
SRVC        .                                             UNKNOWN :SERVICE COMPANY
DATE        .                                             UNKNOWN :LOG DATE
UWI         .                                            418D-ST2 :UNIQUE WELL ID
XCOORD      .                                       597130.010000 :SURFACE X
YCOORD      .                                      2144879.410000 :SURFACE Y
LAT         .                                           19.396924 :LATITUDE
LON         .                                          -92.074978 :LONGITUDE
ELEV        .M                                             0.0000 :SURFACE ELEV
ELEV_TYPE   .                                                  NA :ELEV TYPE
~CURVE INFORMATION
#MNEMONIC.UNIT        API CODE       : CURVE DESCRIPTION
#------------------------------------------------------------------------------
DEPTH    .M                          : Measured Depth
CALI     .inches      UNKNOWN        : CALI:PETROWORKS:rC:NONE:v1 
CGR      .API         UNKNOWN        : CGR:PETROWORKS:rC:NONE:v2 
DRHO     .g/cm3       UNKNOWN        : DRHO:PETROWORKS:rC:NONE:v1 
DT       .us/ft       UNKNOWN        : DT:PETROWORKS:rC:NONE:v2 
GR       .API         UNKNOWN        : GR:PETROWORKS:rC:NONE:v2 
ILD      .ohm.m       UNKNOWN        : ILD:PETROWORKS:rC:NONE:v2 
ILM      .ohm.m       UNKNOWN        : ILM:PETROWORKS:rC:NONE:v2 
NPHI     .v/v_decimal UNKNOWN        : NPHI:PETROWORKS:rC:NONE:v3 
PEF      .b/elec      UNKNOWN        : PEF:PETROWORKS:rC:NONE:v1 
POTA     .wtpercent   UNKNOWN        : POTA:PETROWORKS:rC:NONE:v2 
RHOB     .UNKNOWN     UNKNOWN        : RHOB:PETROWORKS:rC:NONE:v1 
THOR     .ppm         UNKNOWN        : THOR:PETROWORKS:rC:NONE:v2 
URAN     .ppm         UNKNOWN        : URAN:PETROWORKS:rC:NONE:v2 
~A     DEPTH         CALI          CGR         DRHO           DT           GR          ILD          ILM         NPHI          PEF         POTA         RHOB         THOR         URAN
# ...
   5101.8936       6.3511       9.9431       0.0066      51.1227      28.4588     158.8347      95.1476       0.0612       5.1877       0.0039       2.6585       1.1261       2.5226
   5102.0459       6.3091      10.2010       0.0060      50.0386      28.8341     178.9618     105.0670       0.0612       5.2591       0.0041       2.6596       1.1241       2.5385
   5102.1982       6.2913      10.5455       0.0100      48.9871      29.4972     191.0843     114.2540       0.0616       5.1864       0.0044       2.6909       1.0827       2.5820
   5102.3506       6.2954      10.5734       0.0119      48.2098      30.0580     183.9532     121.7237       0.0620       5.0568       0.0045       2.7185       1.0636       2.6545
   5102.5029       6.3119      10.2723       0.0093      48.5142      30.8585     154.8556     121.7833       0.0625       4.9255       0.0043       2.7213       1.0404       2.8046
   5102.6553       6.3178      10.8004       0.0081      48.9431      32.1510     134.3776     122.3864       0.0612       4.8394       0.0048       2.7164       0.9703       2.9088
   5102.8076       6.2768      13.3941       0.0107      48.5820      34.3750     134.3937     132.7894       0.0562       4.8767       0.0065       2.7137       0.8808       2.8584
   5102.9600       6.2435      15.0816       0.0133      47.9693      35.9165     156.0371     145.6154       0.0507       4.9964       0.0077       2.7135       0.7832       2.8386
   5103.1128       6.2642      14.8493       0.0156      47.2780      36.5188     245.1056     178.5221       0.0448       5.1439       0.0078       2.7269       0.6738       2.9523
   5103.2651       6.2806      14.6888       0.0187      47.0209      37.2885     299.1317     198.3011       0.0399       5.1588       0.0078       2.7481       0.6090       3.0790
   5103.4175       6.2761      17.9251       0.0247      47.3988      45.5639     238.1831     181.7681       0.0341       4.9480       0.0094       2.7781       0.8248       3.7655
   5103.5698       6.2752      21.1630       0.0278      47.7659      53.8302     186.5076     164.6562       0.0285       4.7586       0.0111       2.8023       0.9853       4.4506
   5103.7222       6.2755      21.4473       0.0217      47.5367      54.5792     356.4758     205.7371       0.0242       4.6871       0.0113       2.8097       0.9747       4.5139
   5103.8745       6.2741      21.0563       0.0136      46.8287      52.8755     607.6818     250.5881       0.0216       4.6681       0.0109       2.8106       1.0442       4.3350
   5104.0269       6.2758      19.5347       0.0095      45.4555      49.0569    1619.7671     315.2241       0.0209       4.7206       0.0092       2.8125       1.4457       4.0221
   5104.1792       6.2804      18.7491       0.0101      44.7691      46.3074    2365.0085     358.4102       0.0214       4.7954       0.0080       2.8167       1.8333       3.7546
   5104.3320       6.2816      17.9370       0.0201      45.3322      44.7465    1852.7834     370.5317       0.0246       4.8423       0.0076       2.8231       1.7722       3.6525
   5104.4844       6.2819      13.8481       0.0311      46.2612      40.6045    1260.9738     365.1031       0.0335       4.8560       0.0062       2.8187       1.1832       3.6453
   5104.6367       6.2783      10.7926       0.0303      48.2790      37.6987    1274.5443     355.3245       0.0433       4.8788       0.0051       2.7984       0.7900       3.6657
   5104.7891       6.2824      10.1657       0.0222      50.1521      37.2407    1553.4961     352.5582       0.0551       5.0420       0.0048       2.7414       0.7560       3.6887
   5104.9414       6.2892       9.9853       0.0154      52.2409      37.1167    1979.9131     357.2244       0.0636       5.2980       0.0047       2.6964       0.7384       3.6964
   5105.0938       6.2893      10.0223       0.0067      53.1842      36.8511    1932.1788     361.2164       0.0681       5.7121       0.0048       2.6914       0.6977       3.6552
   5105.2461       6.3009       9.7981      -0.0016      52.2504      35.9769    1316.3561     364.6905       0.0721       6.0059       0.0047       2.6949       0.6653       3.5666
   5105.3984       6.2897       9.3185      -0.0018      50.8213      33.9398    1048.5537     362.6870       0.0754       5.8001       0.0042       2.7084       0.7932       3.3544
   5105.5508       6.2662       9.2723       0.0029      48.7334      32.6159    1293.3438     341.3452       0.0778       5.4450       0.0039       2.7173       0.9241       3.1804
   5105.7036       6.2563       9.7550       0.0051      47.6035      32.6485    1669.4370     324.5909       0.0822       5.3606       0.0041       2.6986       0.9728       3.1190
   5105.8560       6.2555      10.0846       0.0016      47.5479      32.8779    1982.3315     323.8611       0.0869       5.5678       0.0043       2.6722       0.9827       3.1054
   5106.0083       6.2599      10.4011      -0.0070      47.1777      33.4284    3057.5110     342.5418       0.0817       5.8520       0.0045       2.6588       0.9798       3.1373
   5106.1606       6.2429      10.5913      -0.0113      46.4612      33.8763    8078.5068     375.9130       0.0729       5.8488       0.0046       2.6673       1.0068       3.1723
   5106.3130       6.2274      10.8125      -0.0035      45.4847      34.1298   16863.1035     433.4703       0.0557       5.3737       0.0045       2.7116       1.1174       3.1767
   5106.4653       6.2280      11.1250       0.0086      45.1421      34.3372   20000.0000     499.7583       0.0381       4.9621       0.0044       2.7554       1.2606       3.1624
   5106.6177       6.2287      11.4091       0.0222      45.8877      34.6735   20000.0000     684.9272       0.0280       4.8712       0.0044       2.7832       1.3558       3.1695
   5106.7700       6.2504      11.5874       0.0314      46.7785      35.2711   20000.0000     856.8113       0.0239       4.9057       0.0045       2.7965       1.4014       3.2266
   5106.9224       6.2827      12.8176       0.0314      47.6301      41.7095   20000.0000     875.2587       0.0252       4.9720       0.0056       2.7958       1.3982       3.9363
   5107.0752       6.2945      14.4418       0.0280      47.7961      52.5163   20000.0000     775.4362       0.0283       5.0099       0.0077       2.7907       1.3952       5.1873
   5107.2275       6.2996      17.7563       0.0218      47.5369      70.4749   20000.0000     625.1047       0.0355       5.0699       0.0092       2.7762       1.2993       7.1824
   5107.3799       6.3060      19.2884       0.0161      47.5702      82.6935   20000.0000     562.9020       0.0440       5.1691       0.0098       2.7555       1.0433       8.6383
   5107.5322       6.3182      18.4697       0.0115      48.4963      83.0075   20000.0000     596.3202       0.0559       5.3019       0.0091       2.7191       0.8417       8.7926
   5107.6846       6.3287      15.9754       0.0103      49.3747      65.0646   20000.0000     641.5959       0.0693       5.4017       0.0063       2.6803       0.9490       6.6879
   5107.8369       6.3377      12.1188       0.0111      50.2432      44.1212   20000.0000     654.0653       0.0756       5.4320       0.0042       2.6614       0.9847       4.3599
   5107.9893       6.3363       9.6822       0.0085      50.6383      34.1185   20000.0000     624.2624       0.0785       5.3978       0.0039       2.6526       0.9015       3.3292
   5108.1416       6.3154       9.2517       0.0036      50.6229      30.7167   20000.0000     535.5351       0.0805       5.3226       0.0041       2.6453       0.9222       2.9244
   5108.2944       6.3031       9.7269      -0.0004      50.5926      31.0404   20000.0000     466.8733       0.0800       5.2011       0.0043       2.6424       0.9641       2.9037
   5108.4468       6.3055       9.9229      -0.0024      50.7467      31.6294   20000.0000     400.0491       0.0778       5.0970       0.0045       2.6444       0.9171       2.9573
