#------------------------------------------------------------------------------
#
#   Created by  : [OpenWorks] Log Export Utility (LEXP)
#   Created on  : 2016-05-23 11:50:53
#   Project     : CANT971
#   User        : R5K
#   Interpreter : PEP
#
#------------------------------------------------------------------------------
~VERSION INFORMATION
VERS. 2.0 : CWLS Log ASCII Standard - version 2.0
WRAP.  NO : One line per depth step
~WELL INFORMATION
#MNEMONIC   .UNIT                                           VALUE :DESCRIPTION
#------------------------------------------------------------------------------
STRT        .M                                           494.4622 :START DEPTH
STOP        .M                                          2707.4626 :STOP DEPTH
STEP        .M                                             0.1524 :STEP
NULL        .                                           -999.2500 :NULL VALUE
COMP        .                                   PEMEX EXPL & PROD :COMPANY
WELL        .                                                1042 :WELL
FLD         .                                           CANTARELL :FIELD
LOC         .                                             UNKNOWN :LOCATION
CNTY        .                                      CD. DEL CARMEN :COUNTY
STAT        .                                            CAMPECHE :STATE
CTRY        .                                              MEXICO :COUNTRY
SRVC        .                                             UNKNOWN :SERVICE COMPANY
DATE        .                                             UNKNOWN :LOG DATE
UWI         .                                          3060000495 :UNIQUE WELL ID
XCOORD      .                                       596162.680000 :SURFACE X
YCOORD      .                                      2150604.600000 :SURFACE Y
LAT         .                                           19.448706 :LATITUDE
LON         .                                          -92.083900 :LONGITUDE
ELEV        .M                                            30.0000 :SURFACE ELEV
ELEV_TYPE   .                                                  KB :ELEV TYPE
~CURVE INFORMATION
#MNEMONIC.UNIT        API CODE       : CURVE DESCRIPTION
#------------------------------------------------------------------------------
DEPTH    .M                          : Measured Depth
CALI     .inches      UNKNOWN        : CALI:litodensidad:rC:NONE:v0 (auto-composite)
DT       .us/ft       UNKNOWN        : DT:DT:rC:NONE:v0 (auto-composite)
GR       .API         UNKNOWN        : GR:GR-Load:rC:NONE:v0 (auto-composite)
ILD      .ohmm        UNKNOWN        : ILD:UNKNOWN:rC:NONE:v0 (auto-composite)
LLD      .ohmm        UNKNOWN        : LLD:UNKNOWN:rC:NONE:v0 (auto-composite)
LLS      .ohmm        UNKNOWN        : LLS:UNKNOWN:rC:NONE:v0 (auto-composite)
MSFL     .ohmm        UNKNOWN        : MSFL:UNKNOWN:rC:NONE:v0 (auto-composite)
NPHI     .v/v_decimal UNKNOWN        : NPHI:NPHI:rC:NONE:v0 (auto-composite)
~A     DEPTH         CALI           DT           GR          ILD          LLD          LLS         MSFL         NPHI
# ...
   2250.5674    -999.2500    -999.2500      18.9728       0.2000     768.3115     427.1302      50.6182       0.0873
   2250.7200    -999.2500    -999.2500      19.6210       0.2000     688.8845     400.2983      45.0849       0.0891
   2250.8723    -999.2500    -999.2500      17.3747       0.2000     581.1296     344.0700      39.5054       0.0946
   2251.0247    -999.2500    -999.2500      15.7005       0.2000     474.4580     285.2128      33.7162       0.1088
   2251.1770    -999.2500    -999.2500      14.5990       0.2000     369.2269     222.8605      27.6484       0.1314
   2251.3293    -999.2500    -999.2500      14.8825       0.2000     295.2435     179.1735      28.8518       0.1481
   2251.4819    -999.2500    -999.2500      16.5571       0.2000     261.8765     159.7482      39.5063       0.1588
   2251.6343    -999.2500    -999.2500      17.2629       0.2000     252.6174     155.4458      45.9620       0.1601
   2251.7866    -999.2500    -999.2500      16.9985       0.2000     273.9962     170.3627      47.0816       0.1520
   2251.9390    -999.2500    -999.2500      16.6627       0.2000     303.1371     190.5160      42.7353       0.1456
   2252.0916    -999.2500    -999.2500      16.2550       0.2000     341.9236     217.1764      31.5970       0.1409
   2252.2439    -999.2500    -999.2500      15.7826       0.2000     374.7168     239.8374      22.8894       0.1333
   2252.3962    -999.2500    -999.2500      15.2454       0.2000     400.2275     257.6388      17.1354       0.1228
   2252.5486    -999.2500    -999.2500      14.4442       0.2000     399.4518     257.5435      12.6584       0.1134
   2252.7009    -999.2500    -999.2500      13.3779       0.2000     367.4422     236.1835       9.6985       0.1052
   2252.8535    -999.2500    -999.2500      12.8944       0.2000     321.3183     204.4787      10.1405       0.1003
   2253.0059    -999.2500    -999.2500      12.9954       0.2000     258.6877     160.6757      14.5607       0.0986
   2253.1582    -999.2500    -999.2500      13.3073       0.2000     213.9968     129.0137      21.2696       0.0947
   2253.3105    -999.2500    -999.2500      13.8315       0.2000     189.8238     111.2374      30.5959       0.0885
   2253.4631    -999.2500    -999.2500      14.3847       0.2000     188.7465     106.6050      35.9271       0.0798
   2253.6155    -999.2500    -999.2500      14.9669       0.2000     213.5026     116.6744      36.7895       0.0685
   2253.7678    -999.2500    -999.2500      15.4442       0.2000     257.2621     135.5699      33.0746       0.0632
   2253.9202    -999.2500    -999.2500      15.8159       0.2000     321.8100     164.1205      24.3524       0.0638
   2254.0728    -999.2500    -999.2500      16.6549       0.2000     373.8408     187.2691      20.0088       0.0669
   2254.2251    -999.2500    -999.2500      17.9628       0.2000     412.4795     204.6378      20.3500       0.0727
   2254.3774    -999.2500    -999.2500      18.0362       0.2000     440.8486     217.0975      22.0642       0.0792
   2254.5298    -999.2500    -999.2500      16.8742       0.2000     458.4023     224.3872      25.2245       0.0864
   2254.6821    -999.2500    -999.2500      16.0993       0.2000     473.2776     228.6622      26.1325       0.0872
   2254.8347    -999.2500    -999.2500      15.7132       0.2000     485.3942     229.8320      24.7206       0.0815
   2254.9871    -999.2500    -999.2500      15.5200       0.2000     487.8117     227.6911      86.8795       0.0801
   2255.1394    -999.2500    -999.2500      15.5200       0.2000     480.4579     222.2149     213.0834       0.0828
   2255.2917    -999.2500    -999.2500      15.6495       0.2000     465.1147     215.0871     399.7734       0.0862
   2255.4443    -999.2500    -999.2500      15.9091       0.2000     441.8994     206.3318     646.0641       0.0901
   2255.5967    -999.2500    -999.2500      16.5501       0.2000     424.7819     201.9993     578.4224       0.0934
   2255.7490    -999.2500    -999.2500      17.5732       0.2000     413.5413     201.9292     208.2298       0.0959
   2255.9014    -999.2500    -999.2500      17.5304       0.2000     401.9236     202.8033      34.2238       0.0982
   2256.0540    -999.2500    -999.2500      16.4165       0.2000     389.9485     204.5732      46.3324       0.1004
   2256.2063    -999.2500    -999.2500      16.3301       0.2000     370.6739     200.2271      53.7988       0.1068
   2256.3586    -999.2500    -999.2500      17.2732       0.2000     344.6266     190.2063      56.9580       0.1173
   2256.5110    -999.2500    -999.2500      16.6471       0.2000     313.6516     177.3492      48.6621       0.1215
   2256.6633    -999.2500    -999.2500      14.4433       0.2000     278.2049     161.9185      29.9713       0.1195
   2256.8159    -999.2500    -999.2500      13.5846       0.2000     239.4371     143.3306      24.5534       0.1165
   2256.9683    -999.2500    -999.2500      14.0744       0.2000     197.7220     121.9408      30.9151       0.1126
   2257.1206    -999.2500    -999.2500      14.8431       0.2000     160.6003     101.4064      35.3650       0.1086
   2257.2729    -999.2500    -999.2500      15.8925       0.2000     127.4654      81.6146      38.1558       0.1046
   2257.4255    -999.2500    -999.2500      16.8868       0.2000      99.9857      65.4213     234.3221       0.1051
   2257.5779    -999.2500    -999.2500      17.8259       0.2000      77.3060      52.2824     594.6243       0.1102
   2257.7302    -999.2500    -999.2500      16.9347       0.2000      69.6858      48.5885     626.9590       0.1159
   2257.8826    -999.2500    -999.2500      14.2012       0.2000      74.6465      52.7851     385.3047       0.1220
   2258.0352    -999.2500    -999.2500      13.5108       0.2000     102.0358      69.7836     211.4028       0.1270
   2258.1875    -999.2500    -999.2500      14.8708       0.2000     147.7475      97.2402      92.8496       0.1309
   2258.3398    -999.2500    -999.2500      15.1153       0.2000     181.6543     116.0566      40.3432       0.1324
   2258.4922    -999.2500    -999.2500      14.2437       0.2000     206.1311     127.9711      40.5954       0.1313
   2258.6445    -999.2500    -999.2500      13.5597       0.2000     217.2892     131.3918      36.6249       0.1264
   2258.7971    -999.2500    -999.2500      13.0640       0.2000     218.0448     128.1784      29.3562       0.1176
   2258.9495    -999.2500    -999.2500      12.8989       0.2000     222.3694     127.5898      32.3800       0.1145
   2259.1018    -999.2500    -999.2500      13.0648       0.2000     229.4193     129.0056      43.2635       0.1169
   2259.2542    -999.2500    -999.2500      14.0820       0.2000     233.8333     130.3834      49.9675       0.1172
   2259.4067    -999.2500    -999.2500      15.9542       0.2000     236.2665     131.7326      53.5309       0.1155
   2259.5591    -999.2500    -999.2500      16.3579       0.2000     231.0310     129.2745      49.1156       0.1139
   2259.7114    -999.2500    -999.2500      15.2909       0.2000     220.1618     124.0194      38.8391       0.1125
   2259.8638    -999.2500    -999.2500      13.8998       0.2000     200.5950     113.2143      30.4266       0.1375
   2260.0164    -999.2500    -999.2500      12.1832       0.2000     174.7824      98.4238      23.3525       0.1888
   2260.1687    -999.2500    -999.2500      12.3343       0.2000     165.9547      92.2450      21.9360       0.2633
   2260.3210    -999.2500    -999.2500      14.3569       0.2000     169.0483      92.1107      24.4906       0.3608
   2260.4734    -999.2500    -999.2500      15.1391       0.2000     208.4344     109.7528      26.3862       0.4027
   2260.6257    -999.2500    -999.2500      14.6739       0.2000     272.7162     139.5890      27.8297       0.3896
   2260.7783    -999.2500    -999.2500      14.7073       0.2000     311.6731     159.4133      28.6172       0.3703
   2260.9307    -999.2500    -999.2500      15.2406       0.2000     333.6534     172.5262      28.9648       0.3450
