#------------------------------------------------------------------------------
#
#   Created by  : [OpenWorks] Log Export Utility (LEXP)
#   Created on  : 2016-05-23 11:55:49
#   Project     : CANT971
#   User        : R5K
#   Interpreter : PEP
#
#------------------------------------------------------------------------------
~VERSION INFORMATION
VERS. 2.0 : CWLS Log ASCII Standard - version 2.0
WRAP.  NO : One line per depth step
~WELL INFORMATION
#MNEMONIC   .UNIT                                           VALUE :DESCRIPTION
#------------------------------------------------------------------------------
STRT        .M                                           773.4315 :START DEPTH
STOP        .M                                          2865.1216 :STOP DEPTH
STEP        .M                                             0.1524 :STEP
NULL        .                                           -999.2500 :NULL VALUE
COMP        .                                             UNKNOWN :COMPANY
WELL        .                                                408D :WELL
FLD         .                                             UNKNOWN :FIELD
LOC         .                                             UNKNOWN :LOCATION
CNTY        .                                             UNKNOWN :COUNTY
STAT        .                                             UNKNOWN :STATE
CTRY        .                                             UNKNOWN :COUNTRY
SRVC        .                                             UNKNOWN :SERVICE COMPANY
DATE        .                                             UNKNOWN :LOG DATE
UWI         .                                                408D :UNIQUE WELL ID
XCOORD      .                                       597130.770000 :SURFACE X
YCOORD      .                                      2144867.260000 :SURFACE Y
LAT         .                                           19.396814 :LATITUDE
LON         .                                          -92.074972 :LONGITUDE
ELEV        .M                                             0.0000 :SURFACE ELEV
ELEV_TYPE   .                                                  KB :ELEV TYPE
~CURVE INFORMATION
#MNEMONIC.UNIT        API CODE       : CURVE DESCRIPTION
#------------------------------------------------------------------------------
DEPTH    .M                          : Measured Depth
CALI     .inches      UNKNOWN        : CALI:litodensidad:rC:NONE:v0 (auto-composite)
CGR      .API         UNKNOWN        : CGR:PETROWORKS:rC:NONE:v1 
DRHO     .g/cm3       UNKNOWN        : DRHO:litodensidad:rC:NONE:v0 (auto-composite)
DT       .us/ft       UNKNOWN        : DT:PETROWORKS:rC:NONE:v1 
GR       .API         UNKNOWN        : GR:PETROWORKS:rC:NONE:v3 
GR-LWD   .UNKNOWN     UNKNOWN        : GR-LWD:resistivos-LWD:rC:NONE:v0 (auto-composite)
LLD      .ohm.m       UNKNOWN        : LLD:PETROWORKS:rC:NONE:v1 
LLD-LWD  .UNKNOWN     UNKNOWN        : LLD-LWD:resistivos-LWD:rC:NONE:v0 (auto-composite)
LLS      .UNKNOWN     UNKNOWN        : LLS:PETROWORKS:rC:NONE:v1 
LLS-LWD  .UNKNOWN     UNKNOWN        : LLS-LWD:resistivos-LWD:rC:NONE:v0 (auto-composite)
MSFL     .UNKNOWN     UNKNOWN        : MSFL:PETROWORKS:rC:NONE:v1 
MSFL-LWD .UNKNOWN     UNKNOWN        : MSFL-LWD:resistivos-LWD:rC:NONE:v0 (auto-composite)
NPHI     .v/v_decimal UNKNOWN        : NPHI:PETROWORKS:rC:NONE:v3 
PEF      .UNKNOWN     UNKNOWN        : PEF:litodensidad:rC:NONE:v0 (auto-composite)
POTA     .wtpercent   UNKNOWN        : POTA:PETROWORKS:rC:NONE:v1 
RHOB     .g/cm3       UNKNOWN        : RHOB:litodensidad:rC:NONE:v0 (auto-composite)
THOR     .ppm         UNKNOWN        : THOR:PETROWORKS:rC:NONE:v1 
URAN     .ppm         UNKNOWN        : URAN:PETROWORKS:rC:NONE:v1 
~A     DEPTH         CALI          CGR         DRHO           DT           GR       GR-LWD          LLD      LLD-LWD          LLS      LLS-LWD         MSFL     MSFL-LWD         NPHI          PEF         POTA         RHOB         THOR         URAN
# ...
   1975.4103    -999.2500      11.6585    -999.2500     100.7009      45.3175      45.2340       1.0740       1.0730       1.1710       1.1690       1.4727       1.4710       0.2486    -999.2500       0.0028    -999.2500       2.1298       0.4827
   1975.5627    -999.2500      13.5674    -999.2500      95.7754      44.2505      44.1880       1.1839       1.1830       1.4031       1.4010       1.6583       1.6570       0.2379    -999.2500       0.0031    -999.2500       2.5634       0.3945
   1975.7151    -999.2500      13.7842    -999.2500      95.0111      44.9813      44.8700       1.2557       1.2550       1.5105       1.5100       1.7325       1.7330       0.2345    -999.2500       0.0031    -999.2500       2.6186       0.3657
   1975.8676    -999.2500      15.3195    -999.2500      95.4923      47.4153      47.3240       1.2774       1.2780       1.4971       1.4980       1.6869       1.6880       0.2537    -999.2500       0.0034    -999.2500       2.9668       0.3062
   1976.0199    -999.2500      17.2688    -999.2500      99.1413      51.1356      51.0510       1.1426       1.1450       1.3077       1.3110       1.4637       1.4670       0.2811    -999.2500       0.0040    -999.2500       3.2283       0.2125
   1976.1724    -999.2500      18.1397    -999.2500     104.2209      55.3041      55.4030       0.9339       0.9360       1.0118       1.0150       1.1374       1.1400       0.3091    -999.2500       0.0043    -999.2500       3.3155       0.2966
   1976.3247    -999.2500      19.5554    -999.2500     108.8267      57.7464      57.8150       0.8568       0.8560       0.8332       0.8340       0.9395       0.9400       0.3224    -999.2500       0.0048    -999.2500       3.4712       0.1582
   1976.4772    -999.2500      17.6492    -999.2500     109.4907      57.1291      57.1720       0.9392       0.9380       0.8243       0.8240       0.9574       0.9570       0.3101    -999.2500       0.0046    -999.2500       2.9731       0.3398
   1976.6295    -999.2500      18.4090    -999.2500     107.5320      55.4257      55.4640       1.0352       1.0350       0.9045       0.9040       1.0886       1.0870       0.3011    -999.2500       0.0049    -999.2500       3.0796       0.3660
   1976.7819    -999.2500      17.9709    -999.2500     108.1891      54.9358      54.7100       1.0168       1.0170       0.9716       0.9710       1.1675       1.1670       0.2904    -999.2500       0.0051    -999.2500       2.8138       0.5141
   1976.9343    -999.2500      17.8658    -999.2500     109.4791      57.0586      57.0300       0.9083       0.9100       0.9554       0.9560       1.1261       1.1270       0.2950    -999.2500       0.0051    -999.2500       2.7546       0.5452
   1977.0867    -999.2500      17.7681    -999.2500     109.0079      59.8171      60.1010       0.7961       0.7970       0.8820       0.8830       1.0423       1.0430       0.3144    -999.2500       0.0051    -999.2500       2.7275       0.5617
   1977.2391    -999.2500      15.5503    -999.2500     110.4758      59.5554      59.5870       0.7788       0.7780       0.8380       0.8380       0.9990       0.9990       0.3347    -999.2500       0.0050    -999.2500       2.0810       0.6498
   1977.3915    -999.2500      14.8015    -999.2500     107.4489      56.8681      56.8850       0.8291       0.8290       0.8533       0.8530       1.0227       1.0220       0.3522    -999.2500       0.0048    -999.2500       1.9345       0.7343
   1977.5439    -999.2500      12.1321    -999.2500     104.5469      53.9082      53.9470       0.9201       0.9190       0.9315       0.9300       1.1217       1.1200       0.3231    -999.2500       0.0044    -999.2500       1.3464       0.8527
   1977.6963    -999.2500      11.8925    -999.2500     100.8586      50.4613      50.5900       1.0734       1.0720       1.0882       1.0860       1.3075       1.3050       0.2834    -999.2500       0.0038    -999.2500       1.5816       0.6908
   1977.8488    -999.2500      10.4369    -999.2500      90.1670      46.5660      46.5710       1.2240       1.2230       1.2871       1.2850       1.5319       1.5300       0.2476    -999.2500       0.0033    -999.2500       1.4040       0.5459
   1978.0011    -999.2500      10.1970    -999.2500      95.1174      43.6202      43.3900       1.3100       1.3100       1.4425       1.4420       1.7050       1.7050       0.2429    -999.2500       0.0029    -999.2500       1.5580       0.5346
   1978.1536    -999.2500      10.0628    -999.2500      92.3450      42.7288      42.7140       1.3649       1.3640       1.5251       1.5250       1.7694       1.7690       0.2615    -999.2500       0.0028    -999.2500       1.6230       0.5307
   1978.3059    -999.2500      10.5228    -999.2500      90.6271      42.9669      43.0290       1.4062       1.4060       1.5576       1.5580       1.7743       1.7740       0.2819    -999.2500       0.0028    -999.2500       1.7451       0.6978
   1978.4584    -999.2500      11.0882    -999.2500      89.8125      42.8106      42.7760       1.4410       1.4410       1.5600       1.5600       1.7581       1.7580       0.2957    -999.2500       0.0028    -999.2500       1.9350       0.6195
   1978.6107    -999.2500      10.7250    -999.2500      89.8000      42.9679      42.8540       1.4938       1.4930       1.5603       1.5600       1.7580       1.7580       0.2981    -999.2500       0.0025    -999.2500       1.9915       0.7585
   1978.7631    -999.2500      10.6800    -999.2500      91.0796      43.9089      43.9990       1.5408       1.5400       1.5704       1.5700       1.7704       1.7700       0.2921    -999.2500       0.0023    -999.2500       2.1076       0.5846
   1978.9155    -999.2500      11.4411    -999.2500      91.4936      43.4477      43.6050       1.5837       1.5830       1.6083       1.6080       1.8149       1.8140       0.2770    -999.2500       0.0021    -999.2500       2.4284       0.4531
   1979.0679    -999.2500      12.5229    -999.2500      92.8780      41.2397      41.1810       1.6328       1.6320       1.6604       1.6600       1.8788       1.8780       0.2590    -999.2500       0.0021    -999.2500       2.7795       0.2887
   1979.2203    -999.2500      12.6931    -999.2500      92.1129      39.9076      39.8360       1.6013       1.6020       1.6599       1.6600       1.8758       1.8770       0.2456    -999.2500       0.0023    -999.2500       2.7275       0.2765
   1979.3727    -999.2500      11.1045    -999.2500      92.0016      40.5384      40.4670       1.5284       1.5290       1.5973       1.5980       1.7982       1.7990       0.2502    -999.2500       0.0022    -999.2500       2.2909       0.4962
   1979.5251    -999.2500      11.6179    -999.2500      91.4097      42.3274      42.2980       1.4962       1.4960       1.5412       1.5420       1.7256       1.7260       0.2648    -999.2500       0.0023    -999.2500       2.3641       0.5257
   1979.6775    -999.2500      12.0781    -999.2500      93.2699      44.0009      44.0610       1.4637       1.4640       1.4801       1.4810       1.6645       1.6650       0.2712    -999.2500       0.0025    -999.2500       2.4182       0.4900
   1979.8300    -999.2500      14.0600    -999.2500      97.7304      44.7699      44.7570       1.3953       1.3960       1.3931       1.3940       1.5741       1.5750       0.2814    -999.2500       0.0029    -999.2500       2.8496       0.4514
   1979.9823    -999.2500      15.5801    -999.2500      97.3080      45.8080      45.7710       1.3159       1.3170       1.3105       1.3110       1.4818       1.4830       0.2922    -999.2500       0.0032    -999.2500       3.1440       0.4234
   1980.1348    -999.2500      15.8357    -999.2500     100.0565      47.3338      47.3150       1.2858       1.2860       1.3078       1.3070       1.4686       1.4680       0.3074    -999.2500       0.0029    -999.2500       3.4003       0.4527
   1980.2871    -999.2500      17.4554    -999.2500     106.8899      49.2629      49.1370       1.2455       1.2460       1.3094       1.3100       1.4604       1.4610       0.3100    -999.2500       0.0035    -999.2500       3.5447       0.3753
