#------------------------------------------------------------------------------
#
#   Created by  : [OpenWorks] Log Export Utility (LEXP)
#   Created on  : 2016-05-23 11:56:24
#   Project     : CANT971
#   User        : R5K
#   Interpreter : PEP
#
#------------------------------------------------------------------------------
~VERSION INFORMATION
VERS. 2.0 : CWLS Log ASCII Standard - version 2.0
WRAP.  NO : One line per depth step
~WELL INFORMATION
#MNEMONIC   .UNIT                                           VALUE :DESCRIPTION
#------------------------------------------------------------------------------
STRT        .M                                           741.4294 :START DEPTH
STOP        .M                                          2768.5020 :STOP DEPTH
STEP        .M                                             0.1524 :STEP
NULL        .                                           -999.2500 :NULL VALUE
COMP        .                                             UNKNOWN :COMPANY
WELL        .                                                 470 :WELL
FLD         .                                             UNKNOWN :FIELD
LOC         .                                             UNKNOWN :LOCATION
CNTY        .                                             UNKNOWN :COUNTY
STAT        .                                             UNKNOWN :STATE
CTRY        .                                             UNKNOWN :COUNTRY
SRVC        .                                             UNKNOWN :SERVICE COMPANY
DATE        .                                             UNKNOWN :LOG DATE
UWI         .                                                 470 :UNIQUE WELL ID
XCOORD      .                                       598706.890000 :SURFACE X
YCOORD      .                                      2143306.000000 :SURFACE Y
LAT         .                                           19.382628 :LATITUDE
LON         .                                          -92.060044 :LONGITUDE
ELEV        .M                                             0.0000 :SURFACE ELEV
ELEV_TYPE   .                                                  NA :ELEV TYPE
~CURVE INFORMATION
#MNEMONIC.UNIT        API CODE       : CURVE DESCRIPTION
#------------------------------------------------------------------------------
DEPTH    .M                          : Measured Depth
CALI     .inches      UNKNOWN        : CALI:litodensidad:rC:NONE:v0 (auto-composite)
CGR      .API         UNKNOWN        : CGR:PETROWORKS:rC:NONE:v1 
DRHO     .g/cm3       UNKNOWN        : DRHO:litodensidad:rC:NONE:v0 (auto-composite)
DT       .us/ft       UNKNOWN        : DT:PETROWORKS:rC:NONE:v1 
GR       .API         UNKNOWN        : GR:PETROWORKS:rC:NONE:v8 
ILD      .ohm.m       UNKNOWN        : ILD:PETROWORKS:rC:NONE:v1 
ILM      .ohm.m       UNKNOWN        : ILM:PETROWORKS:rC:NONE:v1 
LLD      .ohm.m       UNKNOWN        : LLD:resistivos:rC:NONE:v0 (auto-composite)
LLS      .ohm.m       UNKNOWN        : LLS:resistivos:rC:NONE:v0 (auto-composite)
MSFL     .ohm.m       UNKNOWN        : MSFL:resistivos:rC:NONE:v0 (auto-composite)
NPHI     .v/v_decimal UNKNOWN        : NPHI:PETROWORKS:rC:NONE:v1 
PEF      .UNKNOWN     UNKNOWN        : PEF:litodensidad:rC:NONE:v0 (auto-composite)
POTA     .wtpercent   UNKNOWN        : POTA:PETROWORKS:rC:NONE:v1 
RHOB     .g/cm3       UNKNOWN        : RHOB:litodensidad:rC:NONE:v0 (auto-composite)
THOR     .ppm         UNKNOWN        : THOR:PETROWORKS:rC:NONE:v1 
URAN     .ppm         UNKNOWN        : URAN:PETROWORKS:rC:NONE:v1 
~A     DEPTH         CALI          CGR         DRHO           DT           GR          ILD          ILM          LLD          LLS         MSFL         NPHI          PEF         POTA         RHOB         THOR         URAN
# ...
   2292.0994    -999.2500       9.6660    -999.2500    -999.2500      14.2653    2000.0000     218.8263    -999.2500    -999.2500    -999.2500       0.0725    -999.2500       0.0034    -999.2500       0.5957       1.0909
   2292.2520    -999.2500       6.5582    -999.2500    -999.2500      13.7433     222.3536     269.1737    -999.2500    -999.2500    -999.2500       0.0666    -999.2500       0.0017    -999.2500       0.6479       1.0371
   2292.4043    -999.2500       6.4895    -999.2500    -999.2500      12.9459    2000.0000     254.8751    -999.2500    -999.2500    -999.2500       0.0536    -999.2500       0.0015    -999.2500       0.7084       1.0026
   2292.5566    -999.2500       9.7888    -999.2500    -999.2500      12.0534     194.1778     265.0546    -999.2500    -999.2500    -999.2500       0.0509    -999.2500       0.0027    -999.2500       0.9270       1.2793
   2292.7090    -999.2500      15.1910    -999.2500    -999.2500      10.6090     183.9859     255.6322    -999.2500    -999.2500    -999.2500       0.0509    -999.2500       0.0043    -999.2500       1.3818       1.2154
   2292.8613    -999.2500      13.9818    -999.2500    -999.2500       8.7142     111.9750     237.8797    -999.2500    -999.2500    -999.2500       0.0536    -999.2500       0.0039    -999.2500       1.2615       1.1211
   2293.0139    -999.2500      14.6586    -999.2500    -999.2500       9.5584     119.3367     297.6233    -999.2500    -999.2500    -999.2500       0.0468    -999.2500       0.0045    -999.2500       1.1883       0.5328
   2293.1663    -999.2500      13.0448    -999.2500    -999.2500       9.5645    2000.0000     254.1221    -999.2500    -999.2500    -999.2500       0.0391    -999.2500       0.0040    -999.2500       1.0580       0.5890
   2293.3186    -999.2500      11.9795    -999.2500    -999.2500       9.6323     126.5516     261.8429    -999.2500    -999.2500    -999.2500       0.0357    -999.2500       0.0035    -999.2500       1.0448       0.7141
   2293.4709    -999.2500      11.0227    -999.2500    -999.2500      10.8716     217.9786     181.1023    -999.2500    -999.2500    -999.2500       0.0437    -999.2500       0.0029    -999.2500       1.0629       0.7916
   2293.6235    -999.2500       9.9949    -999.2500    -999.2500      13.9526      98.9690     149.2373    -999.2500    -999.2500    -999.2500       0.0474    -999.2500       0.0027    -999.2500       0.9353       0.7836
   2293.7759    -999.2500       5.0529    -999.2500    -999.2500      15.1086    2000.0000     196.6708    -999.2500    -999.2500    -999.2500       0.0521    -999.2500       0.0004    -999.2500       0.8667       0.9235
   2293.9282    -999.2500       4.4746    -999.2500    -999.2500      18.6242    2000.0000     181.9070    -999.2500    -999.2500    -999.2500       0.0456    -999.2500       0.0002    -999.2500       0.8396       0.9362
   2294.0806    -999.2500       3.5897    -999.2500    -999.2500      19.7343    2000.0000     169.7760    -999.2500    -999.2500    -999.2500       0.0458    -999.2500      -0.0003    -999.2500       0.8447       0.9576
   2294.2332    -999.2500       3.3697    -999.2500    -999.2500      17.6608     222.3320      72.1928    -999.2500    -999.2500    -999.2500       0.0560    -999.2500      -0.0004    -999.2500       0.8608       0.8752
   2294.3855    -999.2500       3.5984    -999.2500    -999.2500      16.3633     142.0591      54.3171    -999.2500    -999.2500    -999.2500       0.0721    -999.2500       0.0002    -999.2500       0.6507       0.7968
   2294.5378    -999.2500       1.5239    -999.2500    -999.2500      16.7737    2000.0000      60.2779    -999.2500    -999.2500    -999.2500       0.0909    -999.2500      -0.0006    -999.2500       0.5469       0.6857
   2294.6902    -999.2500       2.1365    -999.2500    -999.2500      16.9050     128.9480      30.2481    -999.2500    -999.2500    -999.2500       0.1006    -999.2500      -0.0001    -999.2500       0.4990       0.6962
   2294.8425    -999.2500       3.0843    -999.2500    -999.2500      19.8560    2000.0000      23.9733    -999.2500    -999.2500    -999.2500       0.1016    -999.2500       0.0004    -999.2500       0.4782       0.6566
   2294.9951    -999.2500       3.8152    -999.2500    -999.2500      25.5592    2000.0000      16.1552    -999.2500    -999.2500    -999.2500       0.1124    -999.2500       0.0006    -999.2500       0.5389       0.5584
   2295.1475    -999.2500       4.7224    -999.2500    -999.2500      24.3849     200.0311      15.0065    -999.2500    -999.2500    -999.2500       0.1402    -999.2500       0.0005    -999.2500       0.7873       0.4920
   2295.2998    -999.2500       6.4390    -999.2500    -999.2500      22.6835     268.6343      20.1357    -999.2500    -999.2500    -999.2500       0.1903    -999.2500       0.0011    -999.2500       0.8699       0.4947
   2295.4521    -999.2500      12.4056    -999.2500    -999.2500      15.7466     152.7520      27.2729    -999.2500    -999.2500    -999.2500       0.2022    -999.2500       0.0032    -999.2500       1.2248       0.2760
   2295.6047    -999.2500      12.3707    -999.2500    -999.2500      16.1364      94.3115      30.1816    -999.2500    -999.2500    -999.2500       0.1712    -999.2500       0.0036    -999.2500       1.0592       0.2654
   2295.7571    -999.2500      14.9494    -999.2500    -999.2500      10.2499     103.3182      38.6256    -999.2500    -999.2500    -999.2500       0.1264    -999.2500       0.0037    -999.2500       1.5835       0.5387
   2295.9094    -999.2500      14.8648    -999.2500    -999.2500       8.9804      86.4384      55.8150    -999.2500    -999.2500    -999.2500       0.1179    -999.2500       0.0038    -999.2500       1.5085       0.4803
   2296.0618    -999.2500      14.0000    -999.2500    -999.2500       8.7545      80.7382      68.5155    -999.2500    -999.2500    -999.2500       0.1542    -999.2500       0.0036    -999.2500       1.4124       0.3611
   2296.2144    -999.2500      13.4914    -999.2500    -999.2500       9.4464      65.6997      80.0619    -999.2500    -999.2500    -999.2500       0.1900    -999.2500       0.0036    -999.2500       1.2870       0.2833
   2296.3667    -999.2500      13.9393    -999.2500    -999.2500       9.8832      78.7971     102.6744    -999.2500    -999.2500    -999.2500       0.2023    -999.2500       0.0043    -999.2500       1.1222       0.2796
   2296.5190    -999.2500      13.4933    -999.2500    -999.2500      12.6479      74.1906     128.0151    -999.2500    -999.2500    -999.2500       0.1756    -999.2500       0.0038    -999.2500       1.2049       0.3365
   2296.6714    -999.2500      15.3828    -999.2500    -999.2500      12.5713      68.4366     155.9581    -999.2500    -999.2500    -999.2500       0.1711    -999.2500       0.0047    -999.2500       1.2202       0.4412
   2296.8237    -999.2500      15.9620    -999.2500    -999.2500       8.7726      65.3938     186.0314    -999.2500    -999.2500    -999.2500       0.1722    -999.2500       0.0062    -999.2500       0.7389       0.9467
   2296.9763    -999.2500      15.0342    -999.2500    -999.2500      10.8431      87.0340     254.1221    -999.2500    -999.2500    -999.2500       0.1794    -999.2500       0.0059    -999.2500       0.6795       0.9224
   2297.1287    -999.2500      13.5397    -999.2500    -999.2500      11.9158      80.2425     316.8489    -999.2500    -999.2500    -999.2500       0.1701    -999.2500       0.0053    -999.2500       0.6316       0.9020
   2297.2810    -999.2500       7.6392    -999.2500    -999.2500      12.1506      82.0122     429.6796    -999.2500    -999.2500    -999.2500       0.1671    -999.2500       0.0024    -999.2500       0.5864       0.7997
   2297.4333    -999.2500       8.0441    -999.2500    -999.2500      11.5410      91.1589     463.9384    -999.2500    -999.2500    -999.2500       0.1631    -999.2500       0.0025    -999.2500       0.6373       0.7982
   2297.5859    -999.2500       9.1789    -999.2500    -999.2500      10.3215      71.0840     543.8026    -999.2500    -999.2500    -999.2500       0.1577    -999.2500       0.0025    -999.2500       0.8722       0.1056
