#------------------------------------------------------------------------------
#
#   Created by  : [OpenWorks] Log Export Utility (LEXP)
#   Created on  : 2015-10-01 09:50:16
#   Project     : CANT971
#   User        : R5K
#   Interpreter : PEP
#
#------------------------------------------------------------------------------
~VERSION INFORMATION
VERS. 2.0 : CWLS Log ASCII Standard - version 2.0
WRAP.  NO : One line per depth step
~WELL INFORMATION
#MNEMONIC   .UNIT                                           VALUE :DESCRIPTION
#------------------------------------------------------------------------------
STRT        .M                                           352.7300 :START DEPTH
STOP        .M                                          2346.8840 :STOP DEPTH
STEP        .M                                             0.1524 :STEP
NULL        .                                           -999.2500 :NULL VALUE
COMP        .                                   PEMEX EXPL & PROD :COMPANY
WELL        .                                        CANTARELL-64 :WELL
FLD         .                                           CANTARELL :FIELD
LOC         .                                             UNKNOWN :LOCATION
CNTY        .                                      CD. DEL CARMEN :COUNTY
STAT        .                                            CAMPECHE :STATE
CTRY        .                                              MEXICO :COUNTRY
SRVC        .                                             UNKNOWN :SERVICE COMPANY
DATE        .                                             UNKNOWN :LOG DATE
UWI         .                                          3060000172 :UNIQUE WELL ID
XCOORD      .                                       599695.280000 :SURFACE X
YCOORD      .                                      2143036.290000 :SURFACE Y
LAT         .                                           19.380142 :LATITUDE
LON         .                                          -92.050647 :LONGITUDE
ELEV        .M                                            26.7400 :SURFACE ELEV
ELEV_TYPE   .                                                  KB :ELEV TYPE
~CURVE INFORMATION
#MNEMONIC.UNIT        API CODE       : CURVE DESCRIPTION
#------------------------------------------------------------------------------
DEPTH    .M                          : Measured Depth
CALI     .inches      UNKNOWN        : CALI:UNKNOWN:rC:NONE:v0 (auto-composite)
DRHO     .g/cm3       UNKNOWN        : DRHO:UNKNOWN:rC:NONE:v0 (auto-composite)
DT       .us/ft       UNKNOWN        : DT:DT:rC:NONE:v0 (auto-composite)
GR       .API         UNKNOWN        : GR:GR-Load:rC:NONE:v0 (auto-composite)
ILD      .ohm.m       UNKNOWN        : ILD:ILD-Load:rC:NONE:v0 (auto-composite)
LLD      .ohm.m       UNKNOWN        : LLD:UNKNOWN:rC:NONE:v0 (auto-composite)
LLS      .ohm.m       UNKNOWN        : LLS:UNKNOWN:rC:NONE:v0 (auto-composite)
MSFL     .ohm.m       UNKNOWN        : MSFL:UNKNOWN:rC:NONE:v0 (auto-composite)
NPHI     .v/v_decimal UNKNOWN        : NPHI:NPHI:rC:NONE:v0 (auto-composite)
PEF      .b/elec      UNKNOWN        : PEF:UNKNOWN:rC:NONE:v0 (auto-composite)
RHOB     .g/cm3       UNKNOWN        : RHOB:RHOB-Load:rC:NONE:v0 (auto-composite)
~A     DEPTH        CALI         DRHO           DT           GR          ILD          LLD          LLS         MSFL         NPHI          PEF         RHOB
# ...
   1747.4949      0.0000       0.0000     105.6955      38.8240       1.0563       0.2000       0.2000       0.2000    -999.2500       0.0000    -999.2500 
   1747.6472      0.0000       0.0000     105.5615      38.8240       1.0808       0.2000       0.2000       0.2000    -999.2500       0.0000    -999.2500 
   1747.7997      0.0000       0.0000     105.4963      38.8240       1.1005       0.2000       0.2000       0.2000    -999.2500       0.0000    -999.2500 
   1747.9520      0.0000       0.0000     105.4988      38.8240       1.1155       0.2000       0.2000       0.2000    -999.2500       0.0000    -999.2500 
   1748.1045      0.0000       0.0000     105.5055      38.8240       1.1230       0.2000       0.2000       0.2000    -999.2500       0.0000    -999.2500 
   1748.2568      0.0000       0.0000     105.5165      38.8240       1.1230       0.2000       0.2000       0.2000    -999.2500       0.0000    -999.2500 
   1748.4093      0.0000       0.0000     105.5353      38.8240       1.1217       0.2000       0.2000       0.2000    -999.2500       0.0000    -999.2500 
   1748.5616      0.0000       0.0000     105.5618      38.8240       1.1192       0.2000       0.2000       0.2000    -999.2500       0.0000    -999.2500 
   1748.7140      0.0000       0.0000     105.5642      38.8240       1.1120       0.2000       0.2000       0.2000    -999.2500       0.0000    -999.2500 
   1748.8665      0.0000       0.0000     105.5427      38.8240       1.1000       0.2000       0.2000       0.2000    -999.2500       0.0000    -999.2500 
   1749.0188      0.0000       0.0000     105.4560      38.8240       1.0825       0.2000       0.2000       0.2000    -999.2500       0.0000    -999.2500 
   1749.1713      0.0000       0.0000     105.3050      38.8240       1.0595       0.2000       0.2000       0.2000    -999.2500       0.0000    -999.2500 
   1749.3236      0.0000       0.0000     105.2313      38.8240       1.0503       0.2000       0.2000       0.2000    -999.2500       0.0000    -999.2500 
   1749.4761      0.0000       0.0000     105.2338      38.8240       1.0548       0.2000       0.2000       0.2000    -999.2500       0.0000    -999.2500 
   1749.6284      0.0000       0.0000     105.2413      38.8240       1.0675       0.2000       0.2000       0.2000    -999.2500       0.0000    -999.2500 
   1749.7809      0.0000       0.0000     105.2538      38.8240       1.0885       0.2000       0.2000       0.2000    -999.2500       0.0000    -999.2500 
   1749.9332      0.0000       0.0000     105.2718      38.8240       1.1135       0.2000       0.2000       0.2000    -999.2500       0.0000    -999.2500 
   1750.0857      0.0000       0.0000     105.2953      38.8240       1.1425       0.2000       0.2000       0.2000    -999.2500       0.0000    -999.2500 
   1750.2380      0.0000       0.0000     105.3022      38.8240       1.1685       0.2000       0.2000       0.2000    -999.2500       0.0000    -999.2500 
   1750.3904      0.0000       0.0000     105.2927      38.8240       1.1915       0.2000       0.2000       0.2000    -999.2500       0.0000    -999.2500 
   1750.5428      0.0000       0.0000     105.2068      38.8240       1.2168       0.2000       0.2000       0.2000    -999.2500       0.0000    -999.2500 
   1750.6952      0.0000       0.0000     105.0453      38.8240       1.2443       0.2000       0.2000       0.2000    -999.2500       0.0000    -999.2500 
   1750.8477      0.0000       0.0000     104.9728      38.8240       1.2572       0.2000       0.2000       0.2000    -999.2500       0.0000    -999.2500 
   1751.0000      0.0000       0.0000     104.9883      38.8240       1.2557       0.2000       0.2000       0.2000    -999.2500       0.0000    -999.2500 
   1751.1525      0.0000       0.0000     105.0398      38.8240       1.2510       0.2000       0.2000       0.2000    -999.2500       0.0000    -999.2500 
   1751.3048      0.0000       0.0000     105.1268      38.8240       1.2430       0.2000       0.2000       0.2000    -999.2500       0.0000    -999.2500 
   1751.4573      0.0000       0.0000     105.2319      38.8240       1.2295       0.2000       0.2000       0.2000    -999.2500       0.0000    -999.2500 
   1751.6096      0.0000       0.0000     105.3549      38.8240       1.2105       0.2000       0.2000       0.2000    -999.2500       0.0000    -999.2500 
   1751.7621      0.0000       0.0000     105.4230      38.8240       1.1822       0.2000       0.2000       0.2000    -999.2500       0.0000    -999.2500 
   1751.9144      0.0000       0.0000     105.4370      38.8240       1.1447       0.2000       0.2000       0.2000    -999.2500       0.0000    -999.2500 
   1752.0669      0.0000       0.0000     105.4503      38.8240       1.1100       0.2000       0.2000       0.2000    -999.2500       0.0000    -999.2500 
   1752.2192      0.0000       0.0000     105.4628      38.8240       1.0780       0.2000       0.2000       0.2000    -999.2500       0.0000    -999.2500 
   1752.3716      0.0000       0.0000     105.4753      38.8240       1.0520       0.2000       0.2000       0.2000    -999.2500       0.0000    -999.2500 
   1752.5240      0.0000       0.0000     105.4878      38.8240       1.0320       0.2000       0.2000       0.2000    -999.2500       0.0000    -999.2500 
   1752.6764      0.0000       0.0000     105.5008      38.8240       1.0132       0.2000       0.2000       0.2000    -999.2500       0.0000    -999.2500 
   1752.8289      0.0000       0.0000     105.5143      38.8240       0.9957       0.2000       0.2000       0.2000    -999.2500       0.0000    -999.2500 
   1752.9812      0.0000       0.0000     105.5280      38.8240       0.9800       0.2000       0.2000       0.2000    -999.2500       0.0000    -999.2500 
   1753.1337      0.0000       0.0000     105.5420      38.8240       0.9660       0.2000       0.2000       0.2000    -999.2500       0.0000    -999.2500 
   1753.2860      0.0000       0.0000     105.5560      38.8240       0.9515       0.2000       0.2000       0.2000    -999.2500       0.0000    -999.2500 
   1753.4385      0.0000       0.0000     105.5700      38.8240       0.9365       0.2000       0.2000       0.2000    -999.2500       0.0000    -999.2500 
   1753.5908      0.0000       0.0000     105.5830      38.8240       0.9305       0.2000       0.2000       0.2000    -999.2500       0.0000    -999.2500 
   1753.7433      0.0000       0.0000     105.5950      38.8240       0.9335       0.2000       0.2000       0.2000    -999.2500       0.0000    -999.2500 
   1753.8956      0.0000       0.0000     105.6259      38.8240       0.9458       0.2000       0.2000       0.2000    -999.2500       0.0000    -999.2500 
   1754.0481      0.0000       0.0000     105.6754      38.8240       0.9673       0.2000       0.2000       0.2000    -999.2500       0.0000    -999.2500 
   1754.2004      0.0000       0.0000     105.7000      38.8240       0.9780       0.2000       0.2000       0.2000    -999.2500       0.0000    -999.2500 
   1754.3528      0.0000       0.0000    -999.2500      38.8240       0.9780       0.2000       0.2000       0.2000    -754.5710       0.0000    -750.3570 
   1754.5052      0.0000       0.0000    -999.2500      38.8237       0.9775       0.2000       0.2000       0.2000    -567.9934       0.0000    -561.1690 
   1754.6576      0.0000       0.0000    -999.2500      38.8232       0.9765       0.2000       0.2000       0.2000    -198.2195       0.0000    -185.0273 
   1754.8101      0.0000       0.0000    -999.2500      38.0113       0.7815       0.2000       0.2000       0.2000      -0.2183       0.0000       2.0782 
   1754.9624      3.6726       0.0000    -999.2500      36.3998       0.3935       0.4840       0.2000       0.2970      29.0807       0.0000       2.3332 
   1755.1149      7.9645       0.0000    -999.2500      35.6000       0.2000       0.8159       0.2000       0.4103      43.1712       0.0000       2.4537 
   1755.2672      8.5427       0.0000    -999.2500      35.6000       0.2000       0.7187       0.2000       0.3777      42.3213       0.0000       2.4412 
