#------------------------------------------------------------------------------
#
#   Created by  : [OpenWorks] Log Export Utility (LEXP)
#   Created on  : 2016-05-23 11:50:15
#   Project     : CANT971
#   User        : R5K
#   Interpreter : PEP
#
#------------------------------------------------------------------------------
~VERSION INFORMATION
VERS. 2.0 : CWLS Log ASCII Standard - version 2.0
WRAP.  NO : One line per depth step
~WELL INFORMATION
#MNEMONIC   .UNIT                                           VALUE :DESCRIPTION
#------------------------------------------------------------------------------
STRT        .M                                          2144.1199 :START DEPTH
STOP        .M                                          3100.2776 :STOP DEPTH
STEP        .M                                             0.1524 :STEP
NULL        .                                           -999.2500 :NULL VALUE
COMP        .                                   PEMEX EXPL & PROD :COMPANY
WELL        .                                               1004D :WELL
FLD         .                                           CANTARELL :FIELD
LOC         .                                             UNKNOWN :LOCATION
CNTY        .                                      CD. DEL CARMEN :COUNTY
STAT        .                                            CAMPECHE :STATE
CTRY        .                                              MEXICO :COUNTRY
SRVC        .                                             UNKNOWN :SERVICE COMPANY
DATE        .                                             UNKNOWN :LOG DATE
UWI         .                                               1004D :UNIQUE WELL ID
XCOORD      .                                       594534.600000 :SURFACE X
YCOORD      .                                      2142053.350000 :SURFACE Y
LAT         .                                           19.371510 :LATITUDE
LON         .                                          -92.099834 :LONGITUDE
ELEV        .M                                            30.0000 :SURFACE ELEV
ELEV_TYPE   .                                                  KB :ELEV TYPE
~CURVE INFORMATION
#MNEMONIC.UNIT        API CODE       : CURVE DESCRIPTION
#------------------------------------------------------------------------------
DEPTH    .M                          : Measured Depth
CALI     .in          UNKNOWN        : CALI:litodensidad:rC:NONE:v0 (auto-composite)
DRHO     .g/cm3       UNKNOWN        : DRHO:litodensidad:rC:NONE:v0 (auto-composite)
DT       .us/ft       UNKNOWN        : DT:DT-Load:rC:NONE:v0 (auto-composite)
GR       .API         UNKNOWN        : GR:TMDL:rC:NONE:v0 (auto-composite)
GR-LWD   .API         UNKNOWN        : GR-LWD:PETROWORKS:rC:NONE:v1 
ILD-LWD  .ohm.m       UNKNOWN        : ILD-LWD:resistivos-LWD:rC:NONE:v0 (auto-composite)
ILM-LWD  .ohm.m       UNKNOWN        : ILM-LWD:resistivos-LWD:rC:NONE:v0 (auto-composite)
LLD-LWD  .ohm.m       UNKNOWN        : LLD-LWD:resistivos-LWD:rC:NONE:v0 (auto-composite)
LLS      .ohm.m       UNKNOWN        : LLS:resistivos:rC:NONE:v0 (auto-composite)
LLS-LWD  .ohm.m       UNKNOWN        : LLS-LWD:resistivos-LWD:rC:NONE:v0 (auto-composite)
MSFL     .ohm.m       UNKNOWN        : MSFL:resistivos:rC:NONE:v0 (auto-composite)
MSFL-LWD .ohm.m       UNKNOWN        : MSFL-LWD:resistivos-LWD:rC:NONE:v0 (auto-composite)
NPHI     .v/v_decimal UNKNOWN        : NPHI:PETROWORKS:rC:NONE:v2 
PEF      .b/elec      UNKNOWN        : PEF:litodensidad:rC:NONE:v0 (auto-composite)
RHOB     .g/cm3       UNKNOWN        : RHOB:litodensidad:rC:NONE:v0 (auto-composite)
~A     DEPTH         CALI         DRHO           DT           GR       GR-LWD      ILD-LWD      ILM-LWD      LLD-LWD          LLS      LLS-LWD         MSFL     MSFL-LWD         NPHI          PEF         RHOB
# ...
   2845.4646      11.1345      -0.0017      46.2428      41.9826    -999.2500    -999.2500    -999.2500    -999.2500    1329.9902    -999.2500     764.4907    -999.2500       0.0010       3.2875       2.8220
   2845.6172      11.2092      -0.0017      45.6391      49.3224    -999.2500    -999.2500    -999.2500    -999.2500     489.7404    -999.2500     325.6862    -999.2500       0.0047       3.3531       2.7909
   2845.7695      11.2244      -0.0002      48.8968      54.4841    -999.2500    -999.2500    -999.2500    -999.2500     416.5851    -999.2500     280.4095    -999.2500       0.0093       3.3914       2.7547
   2845.9219      11.2990       0.0021      48.5139      58.5311    -999.2500    -999.2500    -999.2500    -999.2500     434.8438    -999.2500     257.5844    -999.2500       0.0135       3.3980       2.7323
   2846.0742      11.2769       0.0036      49.0952      60.6322    -999.2500    -999.2500    -999.2500    -999.2500     431.4986    -999.2500     676.3904    -999.2500       0.0158       3.3776       2.7319
   2846.2266      11.2320       0.0105      52.9226      60.6342    -999.2500    -999.2500    -999.2500    -999.2500     255.2809    -999.2500     212.2061    -999.2500       0.0146       3.3607       2.7663
   2846.3792      11.2804       0.0167      55.2666      58.1159    -999.2500    -999.2500    -999.2500    -999.2500     355.2881    -999.2500     233.9235    -999.2500       0.0107       3.3247       2.7987
   2846.5315      11.2172       0.0174      55.2973      55.3402    -999.2500    -999.2500    -999.2500    -999.2500     289.4828    -999.2500     237.6340    -999.2500       0.0114       3.2700       2.7895
   2846.6838      11.2206       0.0138      57.3348      52.2718    -999.2500    -999.2500    -999.2500    -999.2500      37.2021    -999.2500      20.0715    -999.2500       0.0324       3.2154       2.7506
   2846.8362      11.2337       0.0040      57.0669      55.9761    -999.2500    -999.2500    -999.2500    -999.2500      39.6050    -999.2500      20.2194    -999.2500       0.0525       3.2080       2.7000
   2846.9888      11.2076       0.0019      56.1605      55.1581    -999.2500    -999.2500    -999.2500    -999.2500      97.8202    -999.2500      19.9420    -999.2500       0.0551       3.2250       2.6970
   2847.1411      11.2393      -0.0031      55.3243      53.6515    -999.2500    -999.2500    -999.2500    -999.2500     272.8574    -999.2500     436.8288    -999.2500       0.0377       3.2841       2.6858
   2847.2935      11.2282      -0.0042      55.8839      47.8195    -999.2500    -999.2500    -999.2500    -999.2500    1078.2804    -999.2500     430.9904    -999.2500       0.0366       3.3142       2.6676
   2847.4458      11.2057      -0.0041      56.1559      45.1775    -999.2500    -999.2500    -999.2500    -999.2500    2808.4143    -999.2500    1010.5872    -999.2500       0.0467       3.2810       2.6450
   2847.5984      11.2019      -0.0029      58.6879      50.0924    -999.2500    -999.2500    -999.2500    -999.2500    1945.3431    -999.2500     594.3571    -999.2500       0.0472       3.1826       2.6516
   2847.7507      11.2578      -0.0016      59.9079      52.3338    -999.2500    -999.2500    -999.2500    -999.2500    1337.2374    -999.2500     331.6121    -999.2500       0.0367       3.1344       2.6897
   2847.9031      11.3067      -0.0030      60.2393      50.6109    -999.2500    -999.2500    -999.2500    -999.2500    1645.7910    -999.2500     402.3920    -999.2500       0.0204       3.1764       2.7302
   2848.0554      11.2769      -0.0033      61.6907      49.5332    -999.2500    -999.2500    -999.2500    -999.2500    1271.7560    -999.2500     579.0353    -999.2500       0.0142       3.2323       2.7594
   2848.2078      11.2693       0.0018      60.0816      49.1677    -999.2500    -999.2500    -999.2500    -999.2500     890.1028    -999.2500     694.2604    -999.2500       0.0145       3.2412       2.7700
   2848.3604      11.4001       0.0042      69.1929      48.3516    -999.2500    -999.2500    -999.2500    -999.2500     890.5249    -999.2500     415.8090    -999.2500       0.0248       3.2061       2.7286
   2848.5127      11.3521       0.0058      67.9697      57.7025    -999.2500    -999.2500    -999.2500    -999.2500    1285.1057    -999.2500     421.8603    -999.2500       0.0479       3.1775       2.6696
   2848.6650      11.3741       0.0053      67.2678      55.4388    -999.2500    -999.2500    -999.2500    -999.2500    1680.9163    -999.2500     393.4441    -999.2500       0.0544       3.1546       2.6265
   2848.8174      11.3817       0.0061      68.7185      53.3591    -999.2500    -999.2500    -999.2500    -999.2500    2775.8247    -999.2500     607.8036    -999.2500       0.0510       3.1589       2.6307
   2848.9700      11.4004       0.0053      66.6166      51.1906    -999.2500    -999.2500    -999.2500    -999.2500    1370.0548    -999.2500     407.8275    -999.2500       0.0375       3.1878       2.6599
   2849.1223      11.2736       0.0106      67.3188      50.9787    -999.2500    -999.2500    -999.2500    -999.2500     970.4527    -999.2500     403.6029    -999.2500       0.0348       3.2319       2.6797
   2849.2747      11.2655       0.0309      66.3099      55.3129    -999.2500    -999.2500    -999.2500    -999.2500     822.9028    -999.2500     181.7119    -999.2500       0.0297       3.3066       2.7009
   2849.4270      11.3254       0.0461      65.4393      62.9623    -999.2500    -999.2500    -999.2500    -999.2500     251.3121    -999.2500      49.7175    -999.2500       0.0267       3.3530       2.6971
   2849.5796      11.3741       0.0435      63.5920      67.7373    -999.2500    -999.2500    -999.2500    -999.2500     291.8485    -999.2500      49.8205    -999.2500       0.0364       3.3407       2.6739
   2849.7319      11.3631       0.0225      59.8617      64.2214    -999.2500    -999.2500    -999.2500    -999.2500     635.4297    -999.2500      68.9499    -999.2500       0.0484       3.2526       2.6494
   2849.8843      11.3966       0.0091      58.4626      58.4052    -999.2500    -999.2500    -999.2500    -999.2500     959.8754    -999.2500     569.3577    -999.2500       0.0482       3.2090       2.6470
   2850.0366      11.2922       0.0051      57.3791      47.6270    -999.2500    -999.2500    -999.2500    -999.2500    1230.2382    -999.2500     873.7244    -999.2500       0.0373       3.1857       2.6642
   2850.1890      11.2693       0.0058      55.8214      40.9313    -999.2500    -999.2500    -999.2500    -999.2500     743.9180    -999.2500     386.1917    -999.2500       0.0316       3.2022       2.6803
   2850.3416      11.3254       0.0122      58.4253      42.9343    -999.2500    -999.2500    -999.2500    -999.2500     645.9829    -999.2500     434.2151    -999.2500       0.0284       3.2265       2.7080
   2850.4939      11.4301       0.0117      59.1535      43.6263    -999.2500    -999.2500    -999.2500    -999.2500     759.9792    -999.2500     474.8583    -999.2500       0.0259       3.2511       2.7235
   2850.6462      11.3279       0.0096      60.3025      45.8259    -999.2500    -999.2500    -999.2500    -999.2500     507.7452    -999.2500    1285.6439    -999.2500       0.0227       3.3425       2.7080
   2850.7986      11.3124       0.0014      62.5239      55.1359    -999.2500    -999.2500    -999.2500    -999.2500     397.7044    -999.2500    1235.3291    -999.2500       0.0331       3.4165       2.6462
   2850.9512      11.3517       0.0009      63.8475      61.6520    -999.2500    -999.2500    -999.2500    -999.2500     377.5037    -999.2500     872.3915    -999.2500       0.0564       3.5437       2.5781
   2851.1035      11.2846       0.0018      58.1164      60.6089    -999.2500    -999.2500    -999.2500    -999.2500     316.4530    -999.2500     159.9903    -999.2500       0.0661       3.5949       2.5477
   2851.2559      11.3067       0.0008      56.2945      64.8864    -999.2500    -999.2500    -999.2500    -999.2500     573.5424    -999.2500     140.6088    -999.2500       0.0481       3.6014       2.5743
