#------------------------------------------------------------------------------
#
#   Created by  : [OpenWorks] Log Export Utility (LEXP)
#   Created on  : 2016-05-23 11:56:16
#   Project     : CANT971
#   User        : R5K
#   Interpreter : PEP
#
#------------------------------------------------------------------------------
~VERSION INFORMATION
VERS. 2.0 : CWLS Log ASCII Standard - version 2.0
WRAP.  NO : One line per depth step
~WELL INFORMATION
#MNEMONIC   .UNIT                                           VALUE :DESCRIPTION
#------------------------------------------------------------------------------
STRT        .M                                           785.0543 :START DEPTH
STOP        .M                                          3464.0940 :STOP DEPTH
STEP        .M                                             0.1524 :STEP
NULL        .                                           -999.2500 :NULL VALUE
COMP        .                                   PEMEX EXPL & PROD :COMPANY
WELL        .                                                448D :WELL
FLD         .                                           CANTARELL :FIELD
LOC         .                                             UNKNOWN :LOCATION
CNTY        .                                      CD. DEL CARMEN :COUNTY
STAT        .                                            CAMPECHE :STATE
CTRY        .                                              MEXICO :COUNTRY
SRVC        .                                             UNKNOWN :SERVICE COMPANY
DATE        .                                             UNKNOWN :LOG DATE
UWI         .                                          3060000822 :UNIQUE WELL ID
XCOORD      .                                       598710.240000 :SURFACE X
YCOORD      .                                      2143307.000000 :SURFACE Y
LAT         .                                           19.382637 :LATITUDE
LON         .                                          -92.060012 :LONGITUDE
ELEV        .M                                            28.0000 :SURFACE ELEV
ELEV_TYPE   .                                                  KB :ELEV TYPE
~CURVE INFORMATION
#MNEMONIC.UNIT        API CODE       : CURVE DESCRIPTION
#------------------------------------------------------------------------------
DEPTH    .M                          : Measured Depth
CALI     .inches      UNKNOWN        : CALI:registros:rC:NONE:v0 (auto-composite)
DRHO     .g/cm3       UNKNOWN        : DRHO:registros:rC:NONE:v0 (auto-composite)
DT       .us/ft       UNKNOWN        : DT:registros:rC:NONE:v0 (auto-composite)
GR       .API         UNKNOWN        : GR:registros:rC:NONE:v0 (auto-composite)
LLD      .ohm.m       UNKNOWN        : LLD:registros:rC:NONE:v0 (auto-composite)
LLS      .ohm.m       UNKNOWN        : LLS:registros:rC:NONE:v0 (auto-composite)
MSFL     .ohm.m       UNKNOWN        : MSFL:registros:rC:NONE:v0 (auto-composite)
NPHI     .v/v_decimal UNKNOWN        : NPHI:registros:rC:NONE:v0 (auto-composite)
PEF      .b/elec      UNKNOWN        : PEF:registros:rC:NONE:v0 (auto-composite)
RHOB     .g/cm3       UNKNOWN        : RHOB:registros:rC:NONE:v0 (auto-composite)
~A     DEPTH         CALI         DRHO           DT           GR          LLD          LLS         MSFL         NPHI          PEF         RHOB
# ...
   3447.7871       5.6661       0.0640      54.9536      68.2784   31248.4316     160.9410      10.1404       0.1311       6.2375       2.4523
   3447.9395       5.6616       0.0631      54.9870      68.2784   29176.5352     112.3300      10.1286       0.1312       6.3981       2.4503
   3448.0920       5.6425       0.0642      55.0000      68.2784   25510.3965     140.6848      10.1145       0.1313       6.3048       2.4550
   3448.2444       5.6374       0.0625      55.0000      68.2784   22322.6230     127.2795      10.1187       0.1314       6.3303       2.4542
   3448.3967       5.6375       0.0648      55.0000      68.2784   18216.9863     151.6528      10.1086       0.1314       6.1904       2.4568
   3448.5491       5.6371       0.0620      55.0000      68.2784   14657.0312     157.2901      10.0908       0.1314       6.3315       2.4508
   3448.7014       5.6361       0.0601      55.0338      68.2784    8769.9238     132.0993      10.0694       0.1314       6.4786       2.4463
   3448.8540       5.6371       0.0551      54.9506      68.2784    2289.6106     136.3935      10.0701       0.1314       6.7165       2.4392
   3449.0063       5.6348       0.0508      54.9105      68.2784     360.7151     137.6217      10.0465       0.1314       6.7627       2.4314
   3449.1587       5.6331       0.0460      54.9311      68.2784      60.5200     137.6333      10.0344       0.1314       6.7491       2.4245
   3449.3110       5.6322       0.0477      55.0146      68.2784      60.5200     142.1539      10.0452       0.1314       6.6114       2.4272
   3449.4636       5.6316       0.0503      55.0361      68.2784    1873.8245     839.6554      10.0611       0.1315       6.3091       2.4338
   3449.6160       5.6343       0.0495      55.0168      68.2784    6638.2656    2669.4663      10.0388       0.1314       6.1699       2.4363
   3449.7683       5.6310       0.0487      55.0572      68.2784    6602.0435    2683.6389      10.0320       0.1315       6.0659       2.4365
   3449.9207       5.6320       0.0475      55.0528      68.2784    6603.7310    2683.6057      10.0217       0.1314       6.1541       2.4342
   3450.0732       5.6309       0.0428    -999.2500      68.2784    6571.1572    2682.9021      10.0339       0.1315       6.2606       2.4284
   3450.2256       5.6331       0.0419    -999.2500      68.2784    6589.9131    2681.9302      10.0784       0.1314       6.3484       2.4256
   3450.3779       5.6329       0.0447    -999.2500      68.2784    6543.2173    2683.1052      10.0472       0.1314       6.1917       2.4298
   3450.5303       5.6285       0.0442    -999.2500      68.2784    6587.7842    2684.5679      10.0579       0.1315       6.1311       2.4316
   3450.6826       5.6139       0.0480    -999.2500      68.2784    6555.1816    2680.8965      10.0745       0.1316       6.2475       2.4370
   3450.8352       5.6026       0.0477    -999.2500      68.2784    6563.3618    2680.5022      10.0968       0.1317       6.6728       2.4355
   3450.9875       5.6019       0.0454    -999.2500      68.2784    6587.9580    2679.5620      10.0762       0.1317       7.1318       2.4297
   3451.1399       5.5961       0.0466    -999.2500      68.2784    6626.1147    2677.3735      10.0815       0.1317       7.4852       2.4298
   3451.2922       5.5872       0.0585    -999.2500      68.2784    6619.8271    2675.6394      10.0585       0.1318       7.6462       2.4440
   3451.4448       5.5872       0.0643    -999.2500      68.2784    6575.3149    2677.2383      10.0696       0.1318       7.6461       2.4530
   3451.5972       5.5872       0.0746    -999.2500      68.2784    6546.5908    2674.4299      10.0817       0.1318       7.6461       2.4659
   3451.7495       5.5872       0.0830    -999.2500      68.2784    6533.5239    2681.6416      10.0645       0.1318       7.6461       2.4744
   3451.9019       5.5872       0.0886    -999.2500      68.2784    6584.2939    2679.2478      10.0701       0.1318       7.6461       2.4800
   3452.0542    -999.2500    -999.2500    -999.2500      68.2784    6597.8262    2676.0613      10.0749    -999.2500    -999.2500    -999.2500
   3452.2068    -999.2500    -999.2500    -999.2500      68.2784    6607.7036    2676.0178      10.1053    -999.2500    -999.2500    -999.2500
   3452.3591    -999.2500    -999.2500    -999.2500      68.2784    6600.3062    2674.7041      10.1434    -999.2500    -999.2500    -999.2500
   3452.5115    -999.2500    -999.2500    -999.2500      68.2784    6605.0493    2676.8110      10.1453    -999.2500    -999.2500    -999.2500
   3452.6638    -999.2500    -999.2500    -999.2500      68.2784    6585.2593    2677.6289      10.1462    -999.2500    -999.2500    -999.2500
   3452.8164    -999.2500    -999.2500    -999.2500      68.2784    6608.1812    2675.8357      10.1397    -999.2500    -999.2500    -999.2500
   3452.9688    -999.2500    -999.2500    -999.2500      68.2784    6527.7773    2675.4412      10.1502    -999.2500    -999.2500    -999.2500
   3453.1211    -999.2500    -999.2500    -999.2500      68.2784    6511.1987    2675.7842      10.1483    -999.2500    -999.2500    -999.2500
   3453.2734    -999.2500    -999.2500    -999.2500      68.2784    6525.4805    2675.6409      10.1453    -999.2500    -999.2500    -999.2500
   3453.4260    -999.2500    -999.2500    -999.2500      68.2784    6564.2300    2675.4031      10.1502    -999.2500    -999.2500    -999.2500
   3453.5784    -999.2500    -999.2500    -999.2500      68.2784    6603.5444    2676.7905      10.1502    -999.2500    -999.2500    -999.2500
   3453.7307    -999.2500    -999.2500    -999.2500      68.2784    6552.0635    2673.3669      10.1502    -999.2500    -999.2500    -999.2500
   3453.8831    -999.2500    -999.2500    -999.2500      68.2784    6555.0679    2671.6626      10.1483    -999.2500    -999.2500    -999.2500
   3454.0354    -999.2500    -999.2500    -999.2500      68.2784    6544.4868    2671.8516      10.1432    -999.2500    -999.2500    -999.2500
   3454.1880    -999.2500    -999.2500    -999.2500      68.2784    5023.0967    2109.9866      10.1367    -999.2500    -999.2500    -999.2500
   3454.3403    -999.2500    -999.2500    -999.2500      68.2784     904.8531     633.9177      10.1293    -999.2500    -999.2500    -999.2500
   3454.4927    -999.2500    -999.2500    -999.2500      68.2784     904.8531     633.9177      10.1464    -999.2500    -999.2500    -999.2500
   3454.6450    -999.2500    -999.2500    -999.2500      68.2784     904.8531     633.9177      10.1364    -999.2500    -999.2500    -999.2500
   3454.7976    -999.2500    -999.2500    -999.2500      68.2784     904.8531     633.9177      10.1196    -999.2500    -999.2500    -999.2500
   3454.9500    -999.2500    -999.2500    -999.2500      68.2784     904.8531     633.9177      10.0775    -999.2500    -999.2500    -999.2500
   3455.1023    -999.2500    -999.2500    -999.2500      68.2784     904.8531     633.9177      10.0881    -999.2500    -999.2500    -999.2500
   3455.2546    -999.2500    -999.2500    -999.2500      68.2784     904.8531     633.9177      10.1243    -999.2500    -999.2500    -999.2500
   3455.4072    -999.2500    -999.2500    -999.2500      68.2784     904.8531     633.9177      10.1502    -999.2500    -999.2500    -999.2500
   3455.5596    -999.2500    -999.2500    -999.2500      68.2784     904.8531     633.9177      10.1502    -999.2500    -999.2500    -999.2500
   3455.7119    -999.2500    -999.2500    -999.2500      68.2784     904.8531     633.9177      10.1502    -999.2500    -999.2500    -999.2500
   3455.8643    -999.2500    -999.2500    -999.2500      68.2784     904.8531     633.9177      10.1502    -999.2500    -999.2500    -999.2500
   3456.0166    -999.2500    -999.2500    -999.2500      68.2784     904.8531     633.9177      10.1502    -999.2500    -999.2500    -999.2500
   3456.1692    -999.2500    -999.2500    -999.2500      68.2784     904.8531     633.9177      10.1521    -999.2500    -999.2500    -999.2500
