#------------------------------------------------------------------------------
#
#   Created by  : [OpenWorks] Log Export Utility (LEXP)
#   Created on  : 2016-05-23 11:57:04
#   Project     : CANT971
#   User        : R5K
#   Interpreter : PEP
#
#------------------------------------------------------------------------------
~VERSION INFORMATION
VERS. 2.0 : CWLS Log ASCII Standard - version 2.0
WRAP.  NO : One line per depth step
~WELL INFORMATION
#MNEMONIC   .UNIT                                           VALUE :DESCRIPTION
#------------------------------------------------------------------------------
STRT        .M                                           125.9451 :START DEPTH
STOP        .M                                          3005.5432 :STOP DEPTH
STEP        .M                                             0.1524 :STEP
NULL        .                                           -999.2500 :NULL VALUE
COMP        .                                   PEMEX EXPL & PROD :COMPANY
WELL        .                                                 66A :WELL
FLD         .                                           CANTARELL :FIELD
LOC         .                                             UNKNOWN :LOCATION
CNTY        .                                      CD. DEL CARMEN :COUNTY
STAT        .                                            CAMPECHE :STATE
CTRY        .                                              MEXICO :COUNTRY
SRVC        .                                             UNKNOWN :SERVICE COMPANY
DATE        .                                             UNKNOWN :LOG DATE
UWI         .                                          3060000173 :UNIQUE WELL ID
XCOORD      .                                       599692.990000 :SURFACE X
YCOORD      .                                      2143036.380000 :SURFACE Y
LAT         .                                           19.380143 :LATITUDE
LON         .                                          -92.050669 :LONGITUDE
ELEV        .M                                            26.7400 :SURFACE ELEV
ELEV_TYPE   .                                                  KB :ELEV TYPE
~CURVE INFORMATION
#MNEMONIC.UNIT        API CODE       : CURVE DESCRIPTION
#------------------------------------------------------------------------------
DEPTH    .M                          : Measured Depth
CALI     .UNKNOWN     UNKNOWN        : CALI:UNKNOWN:rC:NONE:v0 (auto-composite)
DT       .us/ft       UNKNOWN        : DT:DT:rC:NONE:v0 (auto-composite)
GR       .API         UNKNOWN        : GR:UNKNOWN:rC:NONE:v0 (auto-composite)
GR-ENT   .API         UNKNOWN        : GR-ENT:porosidad-entubado:rC:NONE:v0 (auto-composite)
GR-LWD   .UNKNOWN     UNKNOWN        : GR-LWD:GR-LWD:rC:NONE:v0 (auto-composite)
ILD      .UNKNOWN     UNKNOWN        : ILD:UNKNOWN:rC:NONE:v0 (auto-composite)
LLD      .UNKNOWN     UNKNOWN        : LLD:UNKNOWN:rC:NONE:v0 (auto-composite)
LLD-LWD  .UNKNOWN     UNKNOWN        : LLD-LWD:LLD-LWD:rC:NONE:v0 (auto-composite)
LLS      .UNKNOWN     UNKNOWN        : LLS:UNKNOWN:rC:NONE:v0 (auto-composite)
LLS-LWD  .UNKNOWN     UNKNOWN        : LLS-LWD:LLS-LWD:rC:NONE:v0 (auto-composite)
MSFL     .UNKNOWN     UNKNOWN        : MSFL:UNKNOWN:rC:NONE:v0 (auto-composite)
MSFL-LWD .UNKNOWN     UNKNOWN        : MSFL-LWD:MSFL-LWD:rC:NONE:v0 (auto-composite)
NPHI     .v/v_decimal UNKNOWN        : NPHI:PETROWORKS:rC:NONE:v1 
NPHI-ENT .UNKNOWN     UNKNOWN        : NPHI-ENT:porosidad-entubado:rC:NONE:v0 (auto-composite)
RHOB     .g/cm3       UNKNOWN        : RHOB:UNKNOWN:rC:NONE:v0 (auto-composite)
~A     DEPTH         CALI           DT           GR       GR-ENT       GR-LWD          ILD          LLD      LLD-LWD          LLS      LLS-LWD         MSFL     MSFL-LWD         NPHI     NPHI-ENT         RHOB
# ...
   2539.0466    -999.2500      49.0911      29.0472      22.6840      23.4302    -999.2500     746.3565     336.2581     641.9183     902.1202    -999.2500      92.0358       0.0460       0.0486    -999.2500
   2539.1992    -999.2500      49.3427      27.8904      22.1047      26.5600    -999.2500     851.2482     205.1700     710.3282     198.8400    -999.2500      59.2400       0.0441       0.0528    -999.2500
   2539.3516    -999.2500      49.5838      26.6583      21.2781      26.0065    -999.2500     842.9233     228.3134     689.1864     219.1891    -999.2500      78.5093       0.0434       0.0549    -999.2500
   2539.5039    -999.2500      49.8102      25.3204      19.8759      24.1394    -999.2500     675.7220     279.4100     542.3773     247.2296    -999.2500     107.6980       0.0441       0.0535    -999.2500
   2539.6562    -999.2500      50.3469      25.1037      17.9750      23.0926    -999.2500     508.3155     277.0585     403.2909     341.9786    -999.2500     134.0013       0.0455       0.0531    -999.2500
   2539.8086    -999.2500      51.3232      26.4661      16.7466      21.3903    -999.2500     340.6199     253.4332     275.0803     358.9327    -999.2500     142.1422       0.0477       0.0550    -999.2500
   2539.9612    -999.2500      51.8005      28.7176      17.0784      18.0322    -999.2500     223.3073     238.7472     185.4354     335.0517    -999.2500     160.1469       0.0511       0.0562    -999.2500
   2540.1135    -999.2500      51.5724      32.2256      18.1688      19.7286    -999.2500     177.2017     209.9410     150.2961     238.8206    -999.2500     143.1100       0.0557       0.0553    -999.2500
   2540.2659    -999.2500      51.0554      34.2365      20.9639      20.7085    -999.2500     153.5546     214.6184     133.5979     209.8421    -999.2500     116.2340       0.0578       0.0534    -999.2500
   2540.4182    -999.2500      50.1313      34.1242      24.1681      20.3734    -999.2500     161.7615     218.8101     143.0557     284.2206    -999.2500     160.6544       0.0562       0.0525    -999.2500
   2540.5708    -999.2500      49.8022      33.3733      26.6140      21.0583    -999.2500     172.7157     202.9921     154.6478     243.4417    -999.2500     142.7686       0.0555       0.0527    -999.2500
   2540.7231    -999.2500      50.3144      31.7075      28.0030      23.1473    -999.2500     187.6065     204.1166     169.2979     291.6836    -999.2500     133.7864       0.0559       0.0514    -999.2500
   2540.8755    -999.2500      50.8656      30.4700      27.3845      21.7466    -999.2500     198.1272     141.9271     177.3524     204.4327    -999.2500     106.4064       0.0581       0.0469    -999.2500
   2541.0278    -999.2500      51.4718      29.8483      26.0150      22.2768    -999.2500     202.5278     107.3142     176.1699     134.5385    -999.2500      79.6269       0.0626       0.0438    -999.2500
   2541.1804    -999.2500      52.0838      30.0437      24.4657      25.8104    -999.2500     198.0255      96.5546     170.7716     110.7371    -999.2500      64.7079       0.0675       0.0459    -999.2500
   2541.3328    -999.2500      52.7041      31.3875      23.2209      25.7151    -999.2500     181.0105      90.4264     159.4481     110.6990    -999.2500      64.0914       0.0729       0.0496    -999.2500
   2541.4851    -999.2500      53.2395      32.6215      22.9543      23.7220    -999.2500     167.6852      92.2786     150.5984     162.4859    -999.2500     146.6419       0.0776       0.0512    -999.2500
   2541.6375    -999.2500      53.6553      33.6995      23.2357      26.3106    -999.2500     159.5987     100.2081     145.2612     172.6509    -999.2500     203.4776       0.0814       0.0551    -999.2500
   2541.7898    -999.2500      54.0533      33.9507      24.2300      28.3892    -999.2500     151.2496     101.8085     139.4556      99.7142    -999.2500     112.3014       0.0832       0.0681    -999.2500
   2541.9424    -999.2500      54.4259      33.0236      25.4670      31.2660    -999.2500     142.5265      87.8144     132.9827      76.0163    -999.2500      64.9879       0.0820       0.0811    -999.2500
   2542.0947    -999.2500      54.5344      32.5153      26.7266      37.6935    -999.2500     132.9477      85.5300     123.6213      87.1931    -999.2500      71.7584       0.0805       0.0848    -999.2500
   2542.2471    -999.2500      54.2700      32.5903      27.7664      32.6120    -999.2500     122.1774     106.2772     110.2371     130.9907    -999.2500     129.4670       0.0787       0.0853    -999.2500
   2542.3994    -999.2500      54.0757      33.1647      28.5502      27.0700    -999.2500     114.3005     111.5900     102.4350     141.5300    -999.2500     141.0300       0.0773       0.0815    -999.2500
   2542.5520    -999.2500      53.9806      34.4371      29.1551      23.1279    -999.2500     110.4677     130.7085     102.4350     166.8086    -999.2500     136.9081       0.0765       0.0765    -999.2500
   2542.7043    -999.2500      53.5841      34.8946      29.8535      20.7763    -999.2500     116.2429     165.3532     109.2436     217.3751    -999.2500     149.6024       0.0743       0.0741    -999.2500
   2542.8567    -999.2500      52.7620      34.2014      30.8451      27.3624    -999.2500     135.5841     132.5085     125.6655     164.5437    -999.2500     109.7985       0.0708       0.0750    -999.2500
   2543.0090    -999.2500      51.7144      33.3661      31.5567      32.9627    -999.2500     159.9913     126.8560     145.4943     187.3078    -999.2500     120.2558       0.0659       0.0757    -999.2500
   2543.1614    -999.2500      50.3474      32.3296      31.5853      30.1610    -999.2500     191.5772     159.9267     170.1507     275.3004    -999.2500     235.2725       0.0592       0.0696    -999.2500
   2543.3140    -999.2500      49.7885      31.5175      30.8612      21.8753    -999.2500     217.4043     182.3353     191.3325     357.6352    -999.2500     271.9262       0.0565       0.0604    -999.2500
   2543.4663    -999.2500      50.3713      31.0248      28.8829      18.1266    -999.2500     235.0421     150.3380     207.5735     275.0956    -999.2500     152.5162       0.0594       0.0538    -999.2500
   2543.6187    -999.2500      50.6069      29.4455      26.9605      19.5939    -999.2500     276.5153     152.3383     239.6596     219.4663    -999.2500     165.1935       0.0604       0.0513    -999.2500
   2543.7710    -999.2500      50.3503      26.3159      25.4983      18.9185    -999.2500     352.0041     122.3885     294.3584     136.9548    -999.2500     106.6103       0.0590       0.0554    -999.2500
   2543.9236    -999.2500      50.2777      24.6824      24.6110      21.2448    -999.2500     382.2938      88.9005     313.4850      69.9383    -999.2500      55.7294       0.0568       0.0600    -999.2500
   2544.0759    -999.2500      50.4653      25.1497      23.9958      27.1912    -999.2500     349.1192      65.7379     282.6643      51.2290    -999.2500      39.1646       0.0538       0.0590    -999.2500
   2544.2283    -999.2500      50.4182      26.6285      23.1759      35.4876    -999.2500     313.8150      72.5725     252.2116      64.7369    -999.2500      49.8883       0.0526       0.0568    -999.2500
   2544.3806    -999.2500      50.0403      29.5328      22.2804      40.0715    -999.2500     275.5100      74.3339     222.2776      74.8668    -999.2500      58.4923       0.0533       0.0541    -999.2500
   2544.5332    -999.2500      49.6574      30.9700      21.5403      37.9255    -999.2500     247.6602      74.7458     201.4561      84.6314    -999.2500      71.1732       0.0534       0.0521    -999.2500
   2544.6855    -999.2500      49.2673      30.3328      21.6664      32.2637    -999.2500     234.5953      76.9403     193.5210      92.4019    -999.2500      83.8682       0.0523       0.0537    -999.2500
   2544.8379    -999.2500      48.9842      29.3459      22.3920      31.4192    -999.2500     235.6988      72.2593     196.9951      90.4905    -999.2500      76.2020       0.0505       0.0572    -999.2500
