#------------------------------------------------------------------------------
#
#   Created by  : [OpenWorks] Log Export Utility (LEXP)
#   Created on  : 2016-05-23 11:57:01
#   Project     : CANT971
#   User        : R5K
#   Interpreter : PEP
#
#------------------------------------------------------------------------------
~VERSION INFORMATION
VERS. 2.0 : CWLS Log ASCII Standard - version 2.0
WRAP.  NO : One line per depth step
~WELL INFORMATION
#MNEMONIC   .UNIT                                           VALUE :DESCRIPTION
#------------------------------------------------------------------------------
STRT        .M                                           485.8514 :START DEPTH
STOP        .M                                          3526.5361 :STOP DEPTH
STEP        .M                                             0.1524 :STEP
NULL        .                                           -999.2500 :NULL VALUE
COMP        .                                   PEMEX EXPL & PROD :COMPANY
WELL        .                                                  62 :WELL
FLD         .                                           CANTARELL :FIELD
LOC         .                                             UNKNOWN :LOCATION
CNTY        .                                      CD. DEL CARMEN :COUNTY
STAT        .                                            CAMPECHE :STATE
CTRY        .                                              MEXICO :COUNTRY
SRVC        .                                             UNKNOWN :SERVICE COMPANY
DATE        .                                             UNKNOWN :LOG DATE
UWI         .                                          3060000468 :UNIQUE WELL ID
XCOORD      .                                       601711.280000 :SURFACE X
YCOORD      .                                      2142346.320000 :SURFACE Y
LAT         .                                           19.373806 :LATITUDE
LON         .                                          -92.031488 :LONGITUDE
ELEV        .M                                            24.0000 :SURFACE ELEV
ELEV_TYPE   .                                                  KB :ELEV TYPE
~CURVE INFORMATION
#MNEMONIC.UNIT        API CODE       : CURVE DESCRIPTION
#------------------------------------------------------------------------------
DEPTH    .M                          : Measured Depth
CALI     .inches      UNKNOWN        : CALI:editado:rC:NONE:v0 (auto-composite)
DRHO     .g/cm3       UNKNOWN        : DRHO:editado:rC:NONE:v0 (auto-composite)
DT       .us/ft       UNKNOWN        : DT:editado:rC:NONE:v0 (auto-composite)
GR       .API         UNKNOWN        : GR:editado:rC:NONE:v0 (auto-composite)
ILD      .ohm.m       UNKNOWN        : ILD:editado:rC:NONE:v0 (auto-composite)
ILM      .ohm.m       UNKNOWN        : ILM:editado:rC:NONE:v0 (auto-composite)
LLD      .ohm.m       UNKNOWN        : LLD:editado:rC:NONE:v0 (auto-composite)
LLS      .ohm.m       UNKNOWN        : LLS:editado:rC:NONE:v0 (auto-composite)
MSFL     .ohm.m       UNKNOWN        : MSFL:editado:rC:NONE:v0 (auto-composite)
NPHI     .v/v_decimal UNKNOWN        : NPHI:editado:rC:NONE:v0 (auto-composite)
PEF      .b/elec      UNKNOWN        : PEF:editado:rC:NONE:v0 (auto-composite)
RHOB     .g/cm3       UNKNOWN        : RHOB:editado:rC:NONE:v0 (auto-composite)
~A     DEPTH         CALI         DRHO           DT           GR          ILD          ILM          LLD          LLS         MSFL         NPHI          PEF         RHOB
# ...
   3177.8450       8.4800       0.0110      75.4160     119.2810    -999.2500    -999.2500       6.8990       6.0490       0.7110       0.0664       4.7780       2.7100
   3177.9973       8.4594       0.0110      81.3873     117.4935    -999.2500    -999.2500       5.0820       4.3627       0.6082       0.0966       4.7715       2.6875
   3178.1499       8.4390       0.0110      87.3130     115.7140    -999.2500    -999.2500       3.2730       2.6840       0.5060       0.1298       4.7650       2.6650
   3178.3022       8.1963       0.0286      86.9657     111.2859    -999.2500    -999.2500       3.3808       2.7402       0.4162       0.1596       4.7159       2.6375
   3178.4546       7.9550       0.0460      86.6210     106.8770    -999.2500    -999.2500       3.4880       2.7960       0.3270       0.1869       4.6670       2.6100
   3178.6069       7.9550       0.0877      85.4386     103.4197    -999.2500    -999.2500       3.9764       3.0081       0.3175       0.2125       4.6670       2.5825
   3178.7595       7.9550       0.1290      84.2650      99.9770    -999.2500    -999.2500       4.4620       3.2190       0.3080       0.2305       4.6670       2.5550
   3178.9119       7.6386       0.1697      78.2040      98.9394    -999.2500    -999.2500       5.3124       3.8383       0.3822       0.2344       4.6670       2.5690
   3179.0642       7.3240       0.2100      72.1870      97.9060    -999.2500    -999.2500       6.1580       4.4540       0.4560       0.2286       4.6670       2.5830
   3179.2166       7.4509       0.1894      72.5889      98.2562    -999.2500    -999.2500       7.1362       5.7842       1.1855       0.2167       4.6640       2.6120
   3179.3689       7.5770       0.1690      72.9880      98.6050    -999.2500    -999.2500       8.1090       7.1070       1.9110       0.1978       4.6610       2.6410
   3179.5215       7.7570       0.1836      73.9097     102.0591    -999.2500    -999.2500       7.9009       6.5931       1.3129       0.1703       4.6435       2.6570
   3179.6738       7.9360       0.1980      74.8250     105.5000    -999.2500    -999.2500       7.6940       6.0820       0.7180       0.1465       4.6260       2.6730
   3179.8262       7.9761       0.1854      75.4772     103.1206    -999.2500    -999.2500       7.1471       5.2493       0.4744       0.1392       4.5979       2.6500
   3179.9785       8.0160       0.1730      76.1250     100.7500    -999.2500    -999.2500       6.6030       4.4210       0.2320       0.1414       4.5700       2.6270
   3180.1311       8.0335       0.1338      75.2315     104.0184    -999.2500    -999.2500       6.2641       4.0295       0.2290       0.1474       4.4923       2.6290
   3180.2834       8.0510       0.0950      74.3440     107.2700    -999.2500    -999.2500       5.9270       3.6400       0.2260       0.1569       4.4150       2.6310
   3180.4358       7.9989       0.0528      75.4602     113.0546    -999.2500    -999.2500       5.9130       3.5648       0.2145       0.1702       4.2075       2.6460
   3180.5881       7.9470       0.0110      76.5690     118.8100    -999.2500    -999.2500       5.8990       3.4900       0.2030       0.1850       4.0010       2.6610
   3180.7407       7.7836       0.0120      78.2585     121.6645    -999.2500    -999.2500       5.8373       3.4920       0.8867       0.1998       4.0120       2.6400
   3180.8931       7.6210       0.0130      79.9370     124.5050    -999.2500    -999.2500       5.7760       3.4940       1.5670       0.2187       4.0230       2.6190
   3181.0454       7.7187       0.0170      79.1063     127.1654    -999.2500    -999.2500       5.8903       3.6654       1.4056       0.2466       4.0751       2.5830
   3181.1978       7.8160       0.0210      78.2810     129.8130    -999.2500    -999.2500       6.0040       3.8360       1.2450       0.2690       4.1270       2.5470
   3181.3501       7.7960       0.0240      79.4887     128.5019    -999.2500    -999.2500       5.9153       3.6260       0.8190       0.2705       4.0273       2.5215
   3181.5027       7.7760       0.0270      80.6870     127.1970    -999.2500    -999.2500       5.8270       3.4170       0.3950       0.2569       3.9280       2.4960
   3181.6550       7.6887       0.0376      80.2829     124.6397    -999.2500    -999.2500       5.7167       3.2005       0.7426       0.2311       3.9415       2.5160
   3181.8074       7.6020       0.0480      79.8820     122.0940    -999.2500    -999.2500       5.6070       2.9850       1.0880       0.2085       3.9550       2.5360
   3181.9597       7.4631       0.0304      79.3043     124.1766    -999.2500    -999.2500       5.6506       3.1088       2.2761       0.2049       3.9775       2.5590
   3182.1123       7.3250       0.0130      78.7310     126.2500    -999.2500    -999.2500       5.6940       3.2320       3.4570       0.2121       4.0000       2.5820
   3182.2646       7.1109       0.0200      77.8698     125.3886    -999.2500    -999.2500       5.8690       3.4978       2.9731       0.2237       3.9920       2.5870
   3182.4170       6.8980       0.0270      77.0150     124.5310    -999.2500    -999.2500       6.0430       3.7620       2.4920       0.2333       3.9840       2.5920
   3182.5693       6.9005       0.0466      76.0510     126.1283    -999.2500    -999.2500       6.2722       4.0137       1.7569       0.2342       3.9289       2.6185
   3182.7219       6.9030       0.0660      75.0940     127.7190    -999.2500    -999.2500       6.5000       4.2640       1.0260       0.2285       3.8740       2.6450
   3182.8743       6.9401       0.0881      75.5471     123.9143    -999.2500    -999.2500       6.4032       4.1868       1.2722       0.2172       3.7782       2.6435
   3183.0266       6.9770       0.1100      75.9970     120.1250    -999.2500    -999.2500       6.3070       4.1100       1.5170       0.2078       3.6830       2.6420
   3183.1790       7.0848       0.0949      76.6589     121.2757    -999.2500    -999.2500       6.1561       3.9019       1.0246       0.2081       3.6193       2.6375
   3183.3313       7.1920       0.0800      77.3160     122.4220    -999.2500    -999.2500       6.0060       3.6950       0.5350       0.2102       3.5560       2.6330
   3183.4839       7.5414       0.0594      77.9813     124.9813    -999.2500    -999.2500       5.8797       3.4950       0.6799       0.2063       3.6101       2.6350
   3183.6362       7.8890       0.0390      78.6420     127.5310    -999.2500    -999.2500       5.7540       3.2960       0.8240       0.1993       3.6640       2.6370
   3183.7886       7.8654       0.0325      79.9520     126.4796    -999.2500    -999.2500       5.4943       3.1040       0.6836       0.1910       3.7212       2.6340
   3183.9409       7.8420       0.0260      81.2530     125.4320    -999.2500    -999.2500       5.2360       2.9130       0.5440       0.1870       3.7780       2.6310
   3184.0935       7.9418       0.0195      82.3502     124.1317    -999.2500    -999.2500       4.8605       2.7601       0.3691       0.1936       3.8111       2.6190
   3184.2458       8.0410       0.0130      83.4400     122.8380    -999.2500    -999.2500       4.4870       2.6080       0.1950       0.2066       3.8440       2.6070
   3184.3982       8.0164       0.0160      84.0972     122.6064    -999.2500    -999.2500       4.5552       2.6511       0.2145       0.2232       3.9894       2.5830
   3184.5505       7.9920       0.0190      84.7500     122.3760    -999.2500    -999.2500       4.6230       2.6940       0.2340       0.2403       4.1340       2.5590
   3184.7031       8.1043       0.0356      83.6996     121.9139    -999.2500    -999.2500       4.8646       2.8208       0.2876       0.2553       4.3265       2.5265
   3184.8555       8.2160       0.0520      82.6560     121.4540    -999.2500    -999.2500       5.1050       2.9470       0.3410       0.2649       4.5180       2.4940
   3185.0078       8.3443       0.1013      82.6715     120.6315    -999.2500    -999.2500       5.3030       3.0523       0.8938       0.2645       4.6754       2.4540
