#------------------------------------------------------------------------------
#
#   Created by  : [OpenWorks] Log Export Utility (LEXP)
#   Created on  : 2016-05-12 17:01:25
#   Project     : CANT971
#   User        : R5K
#   Interpreter : PEP
#
#------------------------------------------------------------------------------
~VERSION INFORMATION
VERS. 2.0 : CWLS Log ASCII Standard - version 2.0
WRAP.  NO : One line per depth step
~WELL INFORMATION
#MNEMONIC   .UNIT                                           VALUE :DESCRIPTION
#------------------------------------------------------------------------------
STRT        .M                                           310.6675 :START DEPTH
STOP        .M                                          2665.7046 :STOP DEPTH
STEP        .M                                             0.1524 :STEP
NULL        .                                           -999.2500 :NULL VALUE
COMP        .                                   PEMEX EXPL & PROD :COMPANY
WELL        .                                                 77A :WELL
FLD         .                                           CANTARELL :FIELD
LOC         .                                             UNKNOWN :LOCATION
CNTY        .                                      CD. DEL CARMEN :COUNTY
STAT        .                                            CAMPECHE :STATE
CTRY        .                                              MEXICO :COUNTRY
SRVC        .                                             UNKNOWN :SERVICE COMPANY
DATE        .                                             UNKNOWN :LOG DATE
UWI         .                                          3060000181 :UNIQUE WELL ID
XCOORD      .                                       602151.310000 :SURFACE X
YCOORD      .                                      2147165.430000 :SURFACE Y
LAT         .                                           19.417331 :LATITUDE
LON         .                                          -92.027040 :LONGITUDE
ELEV        .M                                            28.1700 :SURFACE ELEV
ELEV_TYPE   .                                                  KB :ELEV TYPE
~CURVE INFORMATION
#MNEMONIC.UNIT        API CODE       : CURVE DESCRIPTION
#------------------------------------------------------------------------------
DEPTH    .M                          : Measured Depth
CALI     .inches      UNKNOWN        : CALI:UNKNOWN:rC:NONE:v0 (auto-composite)
DRHO     .UNKNOWN     UNKNOWN        : DRHO:PETROWORKS:rC:NONE:v1 
DT       .us/ft       UNKNOWN        : DT:DT:rC:NONE:v0 (auto-composite)
GR       .API         UNKNOWN        : GR:UNKNOWN:rC:NONE:v0 (auto-composite)
ILD      .UNKNOWN     UNKNOWN        : ILD:UNKNOWN:rC:NONE:v0 (auto-composite)
LLD      .ohm.m       UNKNOWN        : LLD:UNKNOWN:rC:NONE:v0 (auto-composite)
LLS      .ohm.m       UNKNOWN        : LLS:UNKNOWN:rC:NONE:v0 (auto-composite)
MSFL     .ohm.m       UNKNOWN        : MSFL:UNKNOWN:rC:NONE:v0 (auto-composite)
NPHI     .v/v_decimal UNKNOWN        : NPHI:PETROWORKS:rC:NONE:v1 
RHOB     .UNKNOWN     UNKNOWN        : RHOB:PETROWORKS:rC:NONE:v1 
SP       .UNKNOWN     UNKNOWN        : SP:UNKNOWN:rC:NONE:v0 (auto-composite)
~A     DEPTH         CALI         DRHO           DT           GR          ILD          LLD          LLS         MSFL         NPHI         RHOB           SP
# ...
    809.9299      22.8560       0.0662     137.7075      48.2319       1.0443    -999.2500    -999.2500    -999.2500       0.4107       2.1909     120.0678
    810.0823      22.8560       0.0629     137.2760      50.0308       1.0493    -999.2500    -999.2500    -999.2500       0.4173       2.1927     120.0472
    810.2347      22.8560       0.0546     136.4941      52.6234       1.0543    -999.2500    -999.2500    -999.2500       0.4189       2.1942     119.9395
    810.3871      22.8560       0.0529     135.3639      53.9587       1.0469    -999.2500    -999.2500    -999.2500       0.4154       2.1957     119.8064
    810.5395      22.8560       0.0581     127.9881      53.8575       1.0254    -999.2500    -999.2500    -999.2500       0.3946       2.1972     119.6445
    810.6919      22.8560       0.0580     114.4156      53.1680       1.0152    -999.2500    -999.2500    -999.2500       0.3564       2.1975     119.4826
    810.8443      22.8560       0.0522     108.0856      51.8203       1.0177    -999.2500    -999.2500    -999.2500       0.3395       2.1965     119.3206
    810.9967      22.8560       0.0481     108.9436      50.5457       1.0224    -999.2500    -999.2500    -999.2500       0.3440       2.1945     119.2104
    811.1491      22.8560       0.0460     116.6857      49.3511       1.0294    -999.2500    -999.2500    -999.2500       0.3551       2.1916     119.1568
    811.3015      22.8560       0.0455     131.2618      48.4384       1.0364    -999.2500    -999.2500    -999.2500       0.3728       2.1918     119.1290
    811.4539      22.8560       0.0465     137.8524      47.8278       1.0434    -999.2500    -999.2500    -999.2500       0.3896       2.1952     119.1290
    811.6063      22.8560       0.0485     136.5139      48.2961       1.0470    -999.2500    -999.2500    -999.2500       0.4054       2.1970     119.1816
    811.7587      22.8560       0.0515     135.9599      49.8978       1.0470    -999.2500    -999.2500    -999.2500       0.4129       2.1970     119.2893
    811.9111      22.8560       0.0513     136.1849      51.1988       1.0458    -999.2500    -999.2500    -999.2500       0.4122       2.1955     119.3440
    812.0635      22.8560       0.0478     136.8243      52.1905       1.0433    -999.2500    -999.2500    -999.2500       0.4030       2.1925     119.3440
    812.2159      22.8560       0.0473     137.8755      51.4338       1.0408    -999.2500    -999.2500    -999.2500       0.3851       2.1920     119.3170
    812.3683      22.8560       0.0498     138.3614      48.9173       1.0382    -999.2500    -999.2500    -999.2500       0.3782       2.1940     119.2629
    812.5207      22.8560       0.0497     138.2863      47.0407       1.0347    -999.2500    -999.2500    -999.2500       0.3822       2.1965     119.2360
    812.6731      22.8560       0.0472     137.7406      45.7950       1.0302    -999.2500    -999.2500    -999.2500       0.3832       2.1995     119.2360
    812.8255      22.8560       0.0468     136.7276      44.7434       1.0280    -999.2500    -999.2500    -999.2500       0.3812       2.2038     119.1812
    812.9779      22.8560       0.0483     136.2463      43.8792       1.0280    -999.2500    -999.2500    -999.2500       0.3771       2.2093     119.0734
    813.1303      22.8560       0.0526     136.2928      44.3473       1.0293    -999.2500    -999.2500    -999.2500       0.3710       2.2115     119.0488
    813.2827      22.8560       0.0595     136.4337      46.0761       1.0318    -999.2500    -999.2500    -999.2500       0.3700       2.2105     119.1030
    813.4351      22.8560       0.0606     136.6682      47.1577       1.0353    -999.2500    -999.2500    -999.2500       0.3741       2.2087     119.1850
    813.5875      22.8560       0.0561     137.1209      47.6405       1.0399    -999.2500    -999.2500    -999.2500       0.3757       2.2061     119.2928
    813.7399      22.8560       0.0516     137.7904      48.6835       1.0459    -999.2500    -999.2500    -999.2500       0.3747       2.2015     119.3440
    813.8923      22.8560       0.0472     138.0753      50.2345       1.0535    -999.2500    -999.2500    -999.2500       0.3718       2.1952     119.3440
    814.0447      22.8560       0.0455     137.9783      50.4926       1.0594    -999.2500    -999.2500    -999.2500       0.3671       2.1941     119.4011
    814.1971      22.8560       0.0464     137.7386      49.6026       1.0639    -999.2500    -999.2500    -999.2500       0.3714       2.1980     119.5089
    814.3495      22.8560       0.0451     137.3570      48.7809       1.0687    -999.2500    -999.2500    -999.2500       0.3847       2.1992     119.5590
    814.5019      22.8560       0.0417     136.9176      48.0185       1.0737    -999.2500    -999.2500    -999.2500       0.3905       2.1978     119.5590
    814.6543      22.8560       0.0400     136.4206      47.9150       1.0760    -999.2500    -999.2500    -999.2500       0.3889       2.1978     119.4715
    814.8067      22.8560       0.0400     136.1793      48.3722       1.0760    -999.2500    -999.2500    -999.2500       0.3847       2.1993     119.3096
    814.9591      22.8560       0.0397     136.1918      49.1069       1.0760    -999.2500    -999.2500    -999.2500       0.3780       2.2000     119.2360
    815.1115      22.8560       0.0395     136.1870      50.0729       1.0760    -999.2500    -999.2500    -999.2500       0.3746       2.2000     119.2360
    815.2639      22.8560       0.0432     136.1650      50.6751       1.0788    -999.2500    -999.2500    -999.2500       0.3746       2.1992     119.4144
    815.4163      22.8560       0.0504     136.0802      50.9805       1.0838    -999.2500    -999.2500    -999.2500       0.3759       2.1979     119.7383
    815.5687      22.8560       0.0537     135.9333      49.5890       1.0860    -999.2500    -999.2500    -999.2500       0.3784       2.1995     119.9118
    815.7211      22.8560       0.0531     135.4050      46.8434       1.0860    -999.2500    -999.2500    -999.2500       0.3760       2.2036     119.9655
    815.8735      22.8560       0.0507     134.4980      45.7960       1.0902    -999.2500    -999.2500    -999.2500       0.3689       2.2012     120.0194
    816.0259      22.8560       0.0473     134.1323      46.0757       1.0977    -999.2500    -999.2500    -999.2500       0.3665       2.1934     120.0735
    816.1783      22.8560       0.0513     134.3043      45.2897       1.1024    -999.2500    -999.2500    -999.2500       0.3688       2.1962     120.0970
    816.3307      22.8560       0.0617     135.0508      43.6881       1.1049    -999.2500    -999.2500    -999.2500       0.3738       2.2079     120.0970
    816.4831      22.8560       0.0647     136.3673      42.9003       1.1060    -999.2500    -999.2500    -999.2500       0.3813       2.2102     120.0354
    816.6355      22.8560       0.0611     136.9510      42.7223       1.1060    -999.2500    -999.2500    -999.2500       0.3835       2.2040     119.9276
    816.7879      22.8560       0.0625     136.8075      43.5274       1.1046    -999.2500    -999.2500    -999.2500       0.3804       2.2016     119.9442
    816.9403      22.8560       0.0682     136.4520      45.0528       1.1020    -999.2500    -999.2500    -999.2500       0.3794       2.2030     120.0520
    817.0927      22.8560       0.0710     135.8860      46.2376       1.0966    -999.2500    -999.2500    -999.2500       0.3805       2.2089     120.2538
    817.2451      22.8560       0.0711     135.2006      47.1780       1.0891    -999.2500    -999.2500    -999.2500       0.3861       2.2184     120.5229
    817.3975      22.8560       0.0719     134.3966      47.7901       1.0831    -999.2500    -999.2500    -999.2500       0.3963       2.2221     120.6340
    817.5499      22.8560       0.0728     134.2293      48.1716       1.0780    -999.2500    -999.2500    -999.2500       0.3965       2.2200     120.6340
    817.7023      22.8560       0.0677     134.6943      48.4776       1.0775    -999.2500    -999.2500    -999.2500       0.3869       2.2122     120.6340
