#------------------------------------------------------------------------------
#
#   Created by  : [OpenWorks] Log Export Utility (LEXP)
#   Created on  : 2016-05-23 11:50:56
#   Project     : CANT971
#   User        : R5K
#   Interpreter : PEP
#
#------------------------------------------------------------------------------
~VERSION INFORMATION
VERS. 2.0 : CWLS Log ASCII Standard - version 2.0
WRAP.  NO : One line per depth step
~WELL INFORMATION
#MNEMONIC   .UNIT                                           VALUE :DESCRIPTION
#------------------------------------------------------------------------------
STRT        .M                                           679.7040 :START DEPTH
STOP        .M                                          2836.1641 :STOP DEPTH
STEP        .M                                             0.1524 :STEP
NULL        .                                           -999.2500 :NULL VALUE
COMP        .                                   PEMEX EXPL & PROD :COMPANY
WELL        .                                                1044 :WELL
FLD         .                                           CANTARELL :FIELD
LOC         .                                             UNKNOWN :LOCATION
CNTY        .                                      CD. DEL CARMEN :COUNTY
STAT        .                                            CAMPECHE :STATE
CTRY        .                                              MEXICO :COUNTRY
SRVC        .                                             UNKNOWN :SERVICE COMPANY
DATE        .                                             UNKNOWN :LOG DATE
UWI         .                                          3060000497 :UNIQUE WELL ID
XCOORD      .                                       596164.320000 :SURFACE X
YCOORD      .                                      2150609.730000 :SURFACE Y
LAT         .                                           19.448753 :LATITUDE
LON         .                                          -92.083884 :LONGITUDE
ELEV        .M                                            30.0000 :SURFACE ELEV
ELEV_TYPE   .                                                  KB :ELEV TYPE
~CURVE INFORMATION
#MNEMONIC.UNIT        API CODE       : CURVE DESCRIPTION
#------------------------------------------------------------------------------
DEPTH    .M                          : Measured Depth
CALI     .inches      UNKNOWN        : CALI:litodensidad:rC:NONE:v0 (auto-composite)
DRHO     .g/cm3       UNKNOWN        : DRHO:litodensidad:rC:NONE:v0 (auto-composite)
DT       .us/ft       UNKNOWN        : DT:DT:rC:NONE:v0 (auto-composite)
GR       .API         UNKNOWN        : GR:UNKNOWN:rC:NONE:v0 (auto-composite)
ILD      .ohm.m       UNKNOWN        : ILD:UNKNOWN:rC:NONE:v0 (auto-composite)
ILM      .ohm.m       UNKNOWN        : ILM:UNKNOWN:rC:NONE:v0 (auto-composite)
LLD      .ohm.m       UNKNOWN        : LLD:UNKNOWN:rC:NONE:v0 (auto-composite)
LLS      .ohm.m       UNKNOWN        : LLS:UNKNOWN:rC:NONE:v0 (auto-composite)
MSFL     .ohm.m       UNKNOWN        : MSFL:UNKNOWN:rC:NONE:v0 (auto-composite)
NPHI     .v/v_decimal UNKNOWN        : NPHI:NPHI:rC:NONE:v0 (auto-composite)
PEF      .b/elec      UNKNOWN        : PEF:UNKNOWN:rC:NONE:v0 (auto-composite)
RHOB     .g/cm3       UNKNOWN        : RHOB:UNKNOWN:rC:NONE:v0 (auto-composite)
~A     DEPTH         CALI         DRHO           DT           GR          ILD          ILM          LLD          LLS         MSFL         NPHI          PEF         RHOB
# ...
   2720.6448      10.3560       0.2450      83.9060     132.5770    -999.2500    -999.2500       3.9251       4.2817       5.6535       0.2572       2.9790       2.3990
   2720.7971      10.3900       0.2570      83.7052     133.0305    -999.2500    -999.2500       3.9358       4.2812       5.6426       0.2616       2.9825       2.3950
   2720.9495      10.4240       0.2690      83.5040     133.4830    -999.2500    -999.2500       3.9465       4.2806       5.6317       0.2661       2.9860       2.3910
   2721.1021      10.3151       0.2845      83.0392     138.5718    -999.2500    -999.2500       3.9459       4.2698       5.5731       0.2625       3.0625       2.4040
   2721.2544      10.2060       0.3000      82.5740     143.6490    -999.2500    -999.2500       3.9454       4.2589       5.5144       0.2588       3.1390       2.4170
   2721.4067      10.2645       0.2920      82.7014     143.6165    -999.2500    -999.2500       3.9490       4.2601       5.4186       0.2517       3.1315       2.4315
   2721.5591      10.3230       0.2840      82.8290     143.5840    -999.2500    -999.2500       3.9526       4.2612       5.3227       0.2447       3.1240       2.4460
   2721.7117      10.2985       0.2750      83.9548     140.5389    -999.2500    -999.2500       3.9710       4.2842       5.2855       0.2393       3.0700       2.4625
   2721.8640      10.2740       0.2660      85.0820     137.5000    -999.2500    -999.2500       3.9895       4.3072       5.2483       0.2339       3.0160       2.4790
   2722.0164      10.3125       0.2560      85.6611     138.8137    -999.2500    -999.2500       4.0227       4.3526       5.2721       0.2413       3.0680       2.4595
   2722.1687      10.3510       0.2460      86.2410     140.1250    -999.2500    -999.2500       4.0560       4.3981       5.2959       0.2487       3.1200       2.4400
   2722.3213      10.3380       0.2375      85.1478     142.5191    -999.2500    -999.2500       4.0786       4.4265       5.4336       0.2589       3.0880       2.4280
   2722.4736      10.3250       0.2290      84.0530     144.9090    -999.2500    -999.2500       4.1012       4.4549       5.5716       0.2690       3.0560       2.4160
   2722.6260      10.2755       0.2175      84.7724     144.7148    -999.2500    -999.2500       4.0894       4.4438       5.7303       0.2646       3.0030       2.4165
   2722.7783      10.2260       0.2060      85.4930     144.5210    -999.2500    -999.2500       4.0776       4.4327       5.8892       0.2601       2.9500       2.4170
   2722.9307      10.2845       0.1885      85.3476     143.3996    -999.2500    -999.2500       4.0310       4.3871       5.8865       0.2556       2.9210       2.3880
   2723.0833      10.3430       0.1710      85.2020     142.2800    -999.2500    -999.2500       3.9842       4.3414       5.8837       0.2511       2.8920       2.3590
   2723.2356      10.4479       0.1750      85.5377     141.5679    -999.2500    -999.2500       3.9276       4.2827       5.6965       0.2581       2.8675       2.3410
   2723.3879      10.5530       0.1790      85.8740     140.8580    -999.2500    -999.2500       3.8708       4.2239       5.5090       0.2651       2.8430       2.3230
   2723.5403      10.6344       0.1895      85.4764     138.3044    -999.2500    -999.2500       3.8192       4.1687       5.3150       0.2743       2.8625       2.3440
   2723.6929      10.7160       0.2000      85.0780     135.7580    -999.2500    -999.2500       3.7675       4.1133       5.1205       0.2834       2.8820       2.3650
   2723.8452      10.9273       0.2050      85.0800     132.2817    -999.2500    -999.2500       3.7176       4.0570       4.9510       0.2728       3.0004       2.3855
   2723.9976      11.1390       0.2100      85.0820     128.8150    -999.2500    -999.2500       3.6676       4.0006       4.7811       0.2622       3.1190       2.4060
   2724.1499      11.0681       0.2125      86.1938     130.8111    -999.2500    -999.2500       3.6343       3.9564       4.7218       0.2641       3.0501       2.4145
   2724.3025      10.9970       0.2150      87.3080     132.8020    -999.2500    -999.2500       3.6009       3.9121       4.6624       0.2660       2.9810       2.4230
   2724.4548      10.9360       0.2075      88.4106     132.3354    -999.2500    -999.2500       3.5914       3.8973       4.6895       0.2605       3.0095       2.3920
   2724.6072      10.8750       0.2000      89.5140     131.8700    -999.2500    -999.2500       3.5818       3.8824       4.7167       0.2549       3.0380       2.3610
   2724.7595      10.7850       0.2065      89.0327     131.9106    -999.2500    -999.2500       3.6026       3.9022       4.7768       0.2585       3.0645       2.3800
   2724.9119      10.6950       0.2130      88.5510     131.9510    -999.2500    -999.2500       3.6235       3.9222       4.8371       0.2620       3.0910       2.3990
   2725.0645      10.6115       0.2210      87.7154     133.3486    -999.2500    -999.2500       3.6708       3.9723       4.9713       0.2635       3.0815       2.4175
   2725.2168      10.5280       0.2290      86.8790     134.7430    -999.2500    -999.2500       3.7182       4.0225       5.1056       0.2651       3.0720       2.4360
   2725.3691      10.4455       0.2370      85.6792     134.4912    -999.2500    -999.2500       3.7694       4.0778       5.2165       0.2634       3.0585       2.4310
   2725.5215      10.3630       0.2450      84.4780     134.2400    -999.2500    -999.2500       3.8206       4.1331       5.3274       0.2617       3.0450       2.4260
   2725.6741      10.2641       0.2405      83.5456     133.4272    -999.2500    -999.2500       3.8388       4.1538       5.3771       0.2582       3.0260       2.4285
   2725.8264      10.1650       0.2360      82.6120     132.6160    -999.2500    -999.2500       3.8571       4.1745       5.4268       0.2548       3.0070       2.4310
   2725.9788      10.0096       0.2300      82.8089     133.2276    -999.2500    -999.2500       3.8195       4.1341       5.3838       0.2400       2.9945       2.4420
   2726.1311       9.8540       0.2240      83.0060     133.8380    -999.2500    -999.2500       3.7819       4.0937       5.3407       0.2251       2.9820       2.4530
   2726.2837       9.9045       0.2305      83.7510     135.8808    -999.2500    -999.2500       3.6971       4.0036       5.2475       0.2294       2.9495       2.4095
   2726.4360       9.9550       0.2370      84.4970     137.9200    -999.2500    -999.2500       3.6121       3.9133       5.1542       0.2336       2.9170       2.3660
   2726.5884      10.0614       0.2555      85.1315     141.6560    -999.2500    -999.2500       3.5429       3.8390       5.0505       0.2398       2.8840       2.3715
   2726.7407      10.1680       0.2740      85.7670     145.3860    -999.2500    -999.2500       3.4736       3.7646       4.9467       0.2460       2.8510       2.3770
   2726.8931      10.3448       0.2725      86.5823     144.5524    -999.2500    -999.2500       3.4505       3.7411       4.8722       0.2541       2.8905       2.4060
   2727.0457      10.5220       0.2710      87.3990     143.7200    -999.2500    -999.2500       3.4273       3.7175       4.7976       0.2623       2.9300       2.4350
   2727.1980      10.5710       0.2655      87.9994     142.3815    -999.2500    -999.2500       3.4474       3.7434       4.7546       0.2689       2.9265       2.4610
   2727.3503      10.6200       0.2600      88.6010     141.0470    -999.2500    -999.2500       3.4676       3.7694       4.7114       0.2755       2.9230       2.4870
   2727.5027      10.5486       0.2535      87.8532     139.6060    -999.2500    -999.2500       3.4902       3.7996       4.7208       0.2741       2.8790       2.4680
   2727.6553      10.4770       0.2470      87.1040     138.1690    -999.2500    -999.2500       3.5128       3.8298       4.7302       0.2728       2.8350       2.4490
   2727.8076      10.4001       0.2475      86.5291     136.2764    -999.2500    -999.2500       3.5131       3.8355       4.7566       0.2721       2.7910       2.4305
