#------------------------------------------------------------------------------
#
#   Created by  : [OpenWorks] Log Export Utility (LEXP)
#   Created on  : 2016-05-23 11:50:15
#   Project     : CANT971
#   User        : R5K
#   Interpreter : PEP
#
#------------------------------------------------------------------------------
~VERSION INFORMATION
VERS. 2.0 : CWLS Log ASCII Standard - version 2.0
WRAP.  NO : One line per depth step
~WELL INFORMATION
#MNEMONIC   .UNIT                                           VALUE :DESCRIPTION
#------------------------------------------------------------------------------
STRT        .M                                          2144.1199 :START DEPTH
STOP        .M                                          3100.2776 :STOP DEPTH
STEP        .M                                             0.1524 :STEP
NULL        .                                           -999.2500 :NULL VALUE
COMP        .                                   PEMEX EXPL & PROD :COMPANY
WELL        .                                               1004D :WELL
FLD         .                                           CANTARELL :FIELD
LOC         .                                             UNKNOWN :LOCATION
CNTY        .                                      CD. DEL CARMEN :COUNTY
STAT        .                                            CAMPECHE :STATE
CTRY        .                                              MEXICO :COUNTRY
SRVC        .                                             UNKNOWN :SERVICE COMPANY
DATE        .                                             UNKNOWN :LOG DATE
UWI         .                                               1004D :UNIQUE WELL ID
XCOORD      .                                       594534.600000 :SURFACE X
YCOORD      .                                      2142053.350000 :SURFACE Y
LAT         .                                           19.371510 :LATITUDE
LON         .                                          -92.099834 :LONGITUDE
ELEV        .M                                            30.0000 :SURFACE ELEV
ELEV_TYPE   .                                                  KB :ELEV TYPE
~CURVE INFORMATION
#MNEMONIC.UNIT        API CODE       : CURVE DESCRIPTION
#------------------------------------------------------------------------------
DEPTH    .M                          : Measured Depth
CALI     .in          UNKNOWN        : CALI:litodensidad:rC:NONE:v0 (auto-composite)
DRHO     .g/cm3       UNKNOWN        : DRHO:litodensidad:rC:NONE:v0 (auto-composite)
DT       .us/ft       UNKNOWN        : DT:DT-Load:rC:NONE:v0 (auto-composite)
GR       .API         UNKNOWN        : GR:TMDL:rC:NONE:v0 (auto-composite)
GR-LWD   .API         UNKNOWN        : GR-LWD:PETROWORKS:rC:NONE:v1 
ILD-LWD  .ohm.m       UNKNOWN        : ILD-LWD:resistivos-LWD:rC:NONE:v0 (auto-composite)
ILM-LWD  .ohm.m       UNKNOWN        : ILM-LWD:resistivos-LWD:rC:NONE:v0 (auto-composite)
LLD-LWD  .ohm.m       UNKNOWN        : LLD-LWD:resistivos-LWD:rC:NONE:v0 (auto-composite)
LLS      .ohm.m       UNKNOWN        : LLS:resistivos:rC:NONE:v0 (auto-composite)
LLS-LWD  .ohm.m       UNKNOWN        : LLS-LWD:resistivos-LWD:rC:NONE:v0 (auto-composite)
MSFL     .ohm.m       UNKNOWN        : MSFL:resistivos:rC:NONE:v0 (auto-composite)
MSFL-LWD .ohm.m       UNKNOWN        : MSFL-LWD:resistivos-LWD:rC:NONE:v0 (auto-composite)
NPHI     .v/v_decimal UNKNOWN        : NPHI:PETROWORKS:rC:NONE:v2 
PEF      .b/elec      UNKNOWN        : PEF:litodensidad:rC:NONE:v0 (auto-composite)
RHOB     .g/cm3       UNKNOWN        : RHOB:litodensidad:rC:NONE:v0 (auto-composite)
~A     DEPTH         CALI         DRHO           DT           GR       GR-LWD      ILD-LWD      ILM-LWD      LLD-LWD          LLS      LLS-LWD         MSFL     MSFL-LWD         NPHI          PEF         RHOB
# ...
   2595.8335       3.7845       1.5946    -999.2500    -999.2500      50.2136    -999.2500    -999.2500      78.5971       0.1161      75.5812       0.0842      66.5446       0.0997      10.0000       4.3693
   2595.9858       3.7752       1.5922    -999.2500    -999.2500      53.3419    -999.2500    -999.2500      83.6512       0.1077      79.7513       0.0799      68.6967       0.0915      10.0000       4.3361
   2596.1382       3.7826       1.6651    -999.2500    -999.2500      57.1801    -999.2500    -999.2500      84.9382       0.1013      78.9056       0.0764      62.9419       0.0999      10.0000       4.3275
   2596.2908       3.7783       1.6648    -999.2500    -999.2500      57.7174    -999.2500    -999.2500      77.1308       0.0997      66.8882       0.0751      54.4731       0.1041      10.0000       4.2753
   2596.4431       3.7832       1.6155    -999.2500    -999.2500      57.9858    -999.2500    -999.2500      80.2890       0.1000      70.5874       0.0780      55.4881       0.1133      10.0000       4.2625
   2596.5955       3.7845       1.5304    -999.2500    -999.2500      59.1178    -999.2500    -999.2500      97.3734       0.1000      84.0322       0.0818      66.3097       0.1076      10.0000       4.1815
   2596.7478       3.7752       1.5865    -999.2500    -999.2500      59.0136    -999.2500    -999.2500      99.6936       0.0982      89.6278       0.0837      76.4206       0.1038      10.0000       4.1442
   2596.9004       3.7826       1.5688    -999.2500    -999.2500      57.5722    -999.2500    -999.2500     114.4952       0.1000     108.1608       0.0846      87.3645       0.1070      10.0000       4.1078
   2597.0527       3.7845       1.5411    -999.2500    -999.2500      55.7295    -999.2500    -999.2500     128.0446       0.1006     114.6886       0.0842      89.1461       0.1083      10.0000       4.1778
   2597.2051       3.7783       1.4941    -999.2500    -999.2500      56.9011    -999.2500    -999.2500     113.3455       0.1004     102.1120       0.0823      84.6591       0.1017      10.0000       4.2383
   2597.3574       3.7770       1.5353    -999.2500    -999.2500      58.7448    -999.2500    -999.2500     104.9154       0.1019      97.7225       0.0812      78.0943       0.0976      10.0000       4.2556
   2597.5098       3.7739       1.5829    -999.2500    -999.2500      60.8347    -999.2500    -999.2500     100.3520       0.0985      89.9691       0.0796      75.1230       0.0909      10.0000       4.2161
   2597.6624       3.7826       1.5951    -999.2500    -999.2500      60.2603    -999.2500    -999.2500     101.9219       0.1000      95.5275       0.0807      78.7116       0.0871      10.0000       4.2228
   2597.8147       3.7845       1.6249    -999.2500    -999.2500      58.6906    -999.2500    -999.2500      91.7799       0.1005      84.3224       0.0822      64.2151       0.0802      10.0000       4.3365
   2597.9670       3.7845       1.6689    -999.2500    -999.2500      56.3964    -999.2500    -999.2500      96.9303       0.0949      90.2778       0.0836      70.6138       0.0670      10.0000       4.4752
   2598.1194       3.7845       1.7461    -999.2500    -999.2500      56.4425    -999.2500    -999.2500     112.8927       0.0984      99.3592       0.0794      78.4247       0.0669      10.0000       4.5686
   2598.2720       3.7845       1.7978    -999.2500    -999.2500      58.1669    -999.2500    -999.2500      99.2554       0.1034     101.2372       0.0746      80.7824       0.0971      10.0000       4.5983
   2598.4243       3.7783       1.8035    -999.2500    -999.2500      59.3318    -999.2500    -999.2500     121.5677       0.0982     113.8852       0.0739      85.6255       0.1209      10.0000       4.6055
   2598.5767       3.7739       1.7727    -999.2500    -999.2500      58.9167    -999.2500    -999.2500     148.1603       0.1133     130.2499       0.0743      98.5640       0.1435      10.0000       4.6176
   2598.7290       3.7826       1.7447    -999.2500    -999.2500      56.8711    -999.2500    -999.2500     109.6929       0.1063     102.8298       0.0759      60.8858       0.1376      10.0000       4.6257
   2598.8816       3.7752       1.7093    -999.2500    -999.2500      55.1777    -999.2500    -999.2500      81.8384       0.1016      85.3793       0.0775      56.6075       0.1416      10.0000       4.6288
   2599.0339       3.7733       1.6870    -999.2500    -999.2500      52.9063    -999.2500    -999.2500      67.1119       0.0995      61.5230       0.0811      37.8423       0.1349      10.0000       4.6288
   2599.1863       3.7733       1.6772    -999.2500    -999.2500      53.2561    -999.2500    -999.2500      23.5057       0.1001      20.4663       0.0780       8.9211       0.1188      10.0000       4.6288
   2599.3386       3.7764       1.6687    -999.2500    -999.2500      53.7190    -999.2500    -999.2500      78.8059       0.0988      54.2331       0.0774      22.4878       0.1049      10.0000       4.6288
   2599.4910       3.7832       1.6560    -999.2500    -999.2500      56.3163    -999.2500    -999.2500      41.0593       0.0987      25.6291       0.0812      25.5510       0.0935      10.0000       4.6288
   2599.6436       3.7845       1.6276    -999.2500    -999.2500      56.9804    -999.2500    -999.2500      29.7847       0.1018      27.2334       0.0861      22.5825       0.0923      10.0000       4.6288
   2599.7959       3.7845       1.5940    -999.2500    -999.2500      58.1783    -999.2500    -999.2500      45.5441       0.0977      46.7642       0.0868      28.2304       0.0986      10.0000       4.6288
   2599.9482       3.7845       1.5874    -999.2500    -999.2500      60.4108    -999.2500    -999.2500      74.9531       0.0997      56.8754       0.0856      41.8635       0.1035      10.0000       4.6288
   2600.1006       3.7845       1.6186    -999.2500    -999.2500      62.9536    -999.2500    -999.2500      62.5510       0.1030      54.9873       0.0833      54.1947       0.1145      10.0000       4.6288
   2600.2532       3.7845       1.6941    -999.2500    -999.2500      64.1523    -999.2500    -999.2500     109.9619       0.1111     102.1689       0.0806      92.5107       0.1268      10.0000       4.6288
   2600.4055       3.7783       1.7307    -999.2500    -999.2500      60.7171    -999.2500    -999.2500     116.9919       0.1154     108.0493       0.0753     104.5494       0.1292      10.0000       4.6288
   2600.5579       3.7739       1.6947    -999.2500    -999.2500      56.9975    -999.2500    -999.2500      55.5186       0.1162      60.5646       0.0722      58.6237       0.1193      10.0000       4.6288
   2600.7102       3.7826       1.6079    -999.2500    -999.2500      54.7268    -999.2500    -999.2500     271.9445       0.1211     311.3155       0.0668     230.1028       0.1042      10.0000       4.6288
   2600.8628       3.7752       1.5640    -999.2500    -999.2500      56.8255    -999.2500    -999.2500     194.5661       0.1217     206.1740       0.0652     182.5525       0.0918      10.0000       4.6288
   2601.0151       3.7733       1.5801    -999.2500    -999.2500      60.4792    -999.2500    -999.2500      52.4007       0.1189      52.6173       0.0661      45.6856       0.0896      10.0000       4.6288
   2601.1675       3.7826       1.6061    -999.2500    -999.2500      63.8240    -999.2500    -999.2500      69.1348       0.1241      51.4154       0.0728      35.8861       0.0969      10.0000       4.5770
   2601.3198       3.7845       1.5841    -999.2500    -999.2500      68.3354    -999.2500    -999.2500     266.9136       0.1210     209.0898       0.0810     185.6550       0.1057      10.0000       4.4437
   2601.4722       3.7783       1.5484    -999.2500    -999.2500      69.5353    -999.2500    -999.2500     222.0276       0.1220     207.9639       0.0875     185.4866       0.0953      10.0000       4.2562
   2601.6248       3.7832       1.5136    -999.2500    -999.2500      67.3567    -999.2500    -999.2500      77.7813       0.1256     109.4856       0.0931     102.8261       0.0775      10.0000       4.1158
