#------------------------------------------------------------------------------
#
#   Created by  : [OpenWorks] Log Export Utility (LEXP)
#   Created on  : 2016-05-12 17:18:19
#   Project     : CANT971
#   User        : R5K
#   Interpreter : PEP
#
#------------------------------------------------------------------------------
~VERSION INFORMATION
VERS. 2.0 : CWLS Log ASCII Standard - version 2.0
WRAP.  NO : One line per depth step
~WELL INFORMATION
#MNEMONIC   .UNIT                                           VALUE :DESCRIPTION
#------------------------------------------------------------------------------
STRT        .M                                           134.7982 :START DEPTH
STOP        .M                                          2692.2227 :STOP DEPTH
STEP        .M                                             0.1524 :STEP
NULL        .                                           -999.2500 :NULL VALUE
COMP        .                                   PEMEX EXPL & PROD :COMPANY
WELL        .                                                 57A :WELL
FLD         .                                           CANTARELL :FIELD
LOC         .                                             UNKNOWN :LOCATION
CNTY        .                                      CD. DEL CARMEN :COUNTY
STAT        .                                            CAMPECHE :STATE
CTRY        .                                              MEXICO :COUNTRY
SRVC        .                                             UNKNOWN :SERVICE COMPANY
DATE        .                                             UNKNOWN :LOG DATE
UWI         .                                          3060000169 :UNIQUE WELL ID
XCOORD      .                                       602151.210000 :SURFACE X
YCOORD      .                                      2147168.830000 :SURFACE Y
LAT         .                                           19.417362 :LATITUDE
LON         .                                          -92.027041 :LONGITUDE
ELEV        .M                                            28.1700 :SURFACE ELEV
ELEV_TYPE   .                                                  KB :ELEV TYPE
~CURVE INFORMATION
#MNEMONIC.UNIT        API CODE       : CURVE DESCRIPTION
#------------------------------------------------------------------------------
DEPTH    .M                          : Measured Depth
CALI     .inches      UNKNOWN        : CALI:UNKNOWN:r1:MAIN:v1 
DRHO     .UNKNOWN     UNKNOWN        : DRHO:UNKNOWN:r1:MAIN:v1 
DT       .us/ft       UNKNOWN        : DT:UNKNOWN:r1:MAIN:v1 
GR       .API         UNKNOWN        : GR:GR:r1:MAIN:v1 
ILD      .UNKNOWN     UNKNOWN        : ILD:UNKNOWN:r1:MAIN:v1 
LLD      .UNKNOWN     UNKNOWN        : LLD:UNKNOWN:r1:MAIN:v1 
LLS      .UNKNOWN     UNKNOWN        : LLS:UNKNOWN:r1:MAIN:v1 
MSFL     .UNKNOWN     UNKNOWN        : MSFL:UNKNOWN:r1:MAIN:v1 
NORM     .UNKNOWN     UNKNOWN        : NORM:NORM-Load:r1:MAIN:v1 
NPHI     .v/v_decimal UNKNOWN        : NPHI:UNKNOWN:r1:MAIN:v1 
RHOB     .UNKNOWN     UNKNOWN        : RHOB:UNKNOWN:r1:MAIN:v1 
SP       .mV          UNKNOWN        : SP:PETROWORKS:rC:NONE:v1 
~A     DEPTH         CALI         DRHO           DT           GR          ILD          LLD          LLS         MSFL         NORM         NPHI         RHOB           SP
# ...
   1685.6206       9.3299       0.0274      54.7268      39.1446      34.8618      41.0100      60.1465      50.0698    -999.2500       0.0718       2.7374      58.4939
   1685.7731       9.3693       0.0219      56.4348      39.6665      35.4749      31.9493      41.2847      20.8441    -999.2500       0.0774       2.7321      58.5270
   1685.9254       9.4189       0.0194      57.6151      40.5675      36.4301      30.2757      39.4717      17.2055    -999.2500       0.0797       2.7377      58.6159
   1686.0778       9.4661       0.0170      58.7393      41.4507      37.3819      28.6899      37.8162      13.7209    -999.2500       0.0821       2.7430      58.8324
   1686.2302       9.4365       0.0180      58.1484      41.7890      38.2329      29.7940      40.9847      14.9513    -999.2500       0.0841       2.7414      59.3642
   1686.3826       9.4073       0.0194      57.5091      42.1104      39.1056      31.1575      44.5480      16.1556    -999.2500       0.0860       2.7406      59.8264
   1686.5350       9.3877       0.0304      55.5878      41.9846      40.5532      39.3918      58.5719      16.6681    -999.2500       0.0868       2.7582      60.1208
   1686.6874       9.3682       0.0409      53.7635      41.8546      41.9950      47.7407      72.4516      17.3563    -999.2500       0.0876       2.7750      60.2798
   1686.8398       9.3486       0.0394      54.1566      41.6294      43.3077      58.7081      83.0349      22.0639    -999.2500       0.0882       2.7750      60.1198
   1686.9922       9.3347       0.0375      54.6127      41.4148      44.6199      68.0965      92.2783      27.8080    -999.2500       0.0888       2.7744      59.9897
   1687.1447       9.4329       0.0270      56.3348      41.4103      45.9250      45.7932      74.6254      54.3590    -999.2500       0.0894       2.7614      59.9282
   1687.2970       9.5255       0.0166      58.0698      41.4172      47.2547      24.7914      57.3353      77.9127    -999.2500       0.0899       2.7485      59.9960
   1687.4495       9.5160       0.0086      60.0387      41.6318      49.0312      27.4232      46.6316      47.0457    -999.2500       0.0887       2.7384      60.3538
   1687.6018       9.5036       0.0010      61.7916      41.8804      50.7725      30.5141      38.3911      18.6075    -999.2500       0.0876       2.7289      60.6476
   1687.7543       9.4444       0.0010      60.0182      42.6836      51.9423      41.0964      70.3442      29.8030    -999.2500       0.0878       2.7274      60.8017
   1687.9066       9.3884       0.0014      58.2604      43.5439      53.1111      51.5629      99.7909      40.6477    -999.2500       0.0878       2.7260      60.7763
   1688.0590       9.3789       0.0079      56.7338      45.2495      54.2669      60.3157      92.1423      46.2996    -999.2500       0.0851       2.7265      60.3693
   1688.2114       9.3740       0.0138      55.3813      46.8220      55.3591      67.8228      84.6733      51.3346    -999.2500       0.0823       2.7271      59.9186
   1688.3638       9.4332       0.0108      56.4147      46.5723      55.5818      58.2653      79.6654      47.9192    -999.2500       0.0785       2.7281      59.3771
   1688.5162       9.4873       0.0078      57.4046      46.2955      55.6580      49.2995      74.4432      44.8470    -999.2500       0.0750       2.7301      58.9464
   1688.6686       9.4772       0.0048      57.8471      45.6765      53.8908      47.7844      66.5224      46.0975    -999.2500       0.0745       2.7451      58.7408
   1688.8210       9.4665       0.0024      58.0429      45.0634      52.1211      46.6361      59.6115      47.6986    -999.2500       0.0739       2.7601      58.6352
   1688.9734       9.4469       0.0074      55.3344      44.5199      50.3227      49.8033      64.5842      53.4259    -999.2500       0.0735       2.7747      58.7277
   1689.1259       9.4306       0.0135      52.7704      44.0462      48.5612      52.6439      69.4120      57.8556    -999.2500       0.0728       2.7874      58.9458
   1689.2782       9.4502       0.0310      51.7851      44.3345      47.2039      51.9154      72.6560      48.1086    -999.2500       0.0686       2.7804      59.4077
   1689.4307       9.4663       0.0457      50.9011      44.7168      45.8863      51.1303      75.2599      40.3299    -999.2500       0.0648       2.7741      59.8960
   1689.5830       9.4467       0.0312      51.0474      46.0570      44.9726      49.7685      71.3441      52.5985    -999.2500       0.0659       2.7751      60.4344
   1689.7355       9.4420       0.0185      51.2077      47.3073      44.0667      48.2651      67.5475      62.3656    -999.2500       0.0670       2.7777      60.9095
   1689.8878       9.5799       0.0235      51.5020      47.6923      43.2354      45.3987      64.8977      48.0644    -999.2500       0.0676       2.7963      61.2673
   1690.0402       9.6942       0.0289      51.8553      48.0262      42.3445      42.6123      62.0881      37.0010    -999.2500       0.0679       2.8138      61.3879
   1690.1926       9.5959       0.0379      52.7407      47.8979      40.9150      40.5485      57.8363      55.1769    -999.2500       0.0660       2.8218      61.0793
   1690.3450       9.4956       0.0466      53.5226      47.7151      39.4612      39.4484      54.3327      71.6345    -999.2500       0.0647       2.8276      60.8420
   1690.4974       9.3778       0.0521      53.4239      47.0701      37.7997      46.5407      57.1905      73.4824    -999.2500       0.0690       2.8146      60.7306
   1690.6498       9.2828       0.0561      53.2980      46.5435      36.1766      53.7227      60.6251      74.4352    -999.2500       0.0727       2.8034      60.7137
   1690.8022       9.3715       0.0475      52.9520      46.9752      34.8634      61.6306      68.7270      68.1453    -999.2500       0.0716       2.8069      60.8601
   1690.9546       9.4421       0.0417      52.6516      47.5004      33.6061      68.8881      76.7446      62.1408    -999.2500       0.0703       2.8111      60.9131
   1691.1071       9.3734       0.0568      52.7003      48.7413      32.7763      71.1660      84.1160      58.3217    -999.2500       0.0682       2.8206      60.8082
   1691.2594       9.3118       0.0701      52.6655      49.7661      31.9461      72.3261      89.9357      55.3375    -999.2500       0.0666       2.8284      60.6554
   1691.4119       9.3018       0.0711      52.0249      49.2218      31.1126      65.3721      84.4897      58.4143    -999.2500       0.0677       2.8234      60.4236
   1691.5642       9.3141       0.0703      51.4215      48.6406      30.2361      60.0922      80.0628      59.9663    -999.2500       0.0688       2.8173      60.2519
   1691.7167       9.4815       0.0568      51.0761      47.8028      29.0603      66.4443      82.7162      50.9232    -999.2500       0.0702       2.8038      60.1774
   1691.8690       9.6812       0.0434      50.7436      46.9876      27.8853      72.5860      86.0643      44.7757    -999.2500       0.0714       2.7917      60.2335
   1692.0214      10.0942       0.0308      50.4970      46.3220      26.7150      77.3362      94.0072      57.7766    -999.2500       0.0718       2.7892      60.4957
   1692.1738      10.4764       0.0208      50.3374      45.7299      25.6237      81.5933     100.9909      68.1352    -999.2500       0.0720       2.7872      60.8060
   1692.3262      10.6629       0.0263      50.7300      45.6040      25.0335      82.7200     101.8869      61.7224    -999.2500       0.0708       2.7887      61.1905
   1692.4786      10.7353       0.0319      51.1227      45.5405      24.3497      83.9635     103.0641      59.4665    -999.2500       0.0700       2.7908      61.4863
   1692.6310      10.1161       0.0384      51.5158      45.8543      23.0983      85.9154     105.9451      82.4011    -999.2500       0.0712       2.7963      61.6479
   1692.7834       9.5938       0.0444      51.8002      46.2656      21.6301      88.1306     109.1591      99.5977    -999.2500       0.0728       2.8006      61.7226
