#------------------------------------------------------------------------------
#
#   Created by  : [OpenWorks] Log Export Utility (LEXP)
#   Created on  : 2016-05-23 11:52:48
#   Project     : CANT971
#   User        : R5K
#   Interpreter : PEP
#
#------------------------------------------------------------------------------
~VERSION INFORMATION
VERS. 2.0 : CWLS Log ASCII Standard - version 2.0
WRAP.  NO : One line per depth step
~WELL INFORMATION
#MNEMONIC   .UNIT                                           VALUE :DESCRIPTION
#------------------------------------------------------------------------------
STRT        .M                                           688.5826 :START DEPTH
STOP        .M                                          3180.0178 :STOP DEPTH
STEP        .M                                             0.1524 :STEP
NULL        .                                           -999.2500 :NULL VALUE
COMP        .                                   PEMEX EXPL & PROD :COMPANY
WELL        .                                               2092D :WELL
FLD         .                                           CANTARELL :FIELD
LOC         .                                             UNKNOWN :LOCATION
CNTY        .                                      CD. DEL CARMEN :COUNTY
STAT        .                                            CAMPECHE :STATE
CTRY        .                                              MEXICO :COUNTRY
SRVC        .                                             UNKNOWN :SERVICE COMPANY
DATE        .                                             UNKNOWN :LOG DATE
UWI         .                                          3060000657 :UNIQUE WELL ID
XCOORD      .                                       601715.500000 :SURFACE X
YCOORD      .                                      2142373.650000 :SURFACE Y
LAT         .                                           19.374053 :LATITUDE
LON         .                                          -92.031447 :LONGITUDE
ELEV        .M                                            30.0000 :SURFACE ELEV
ELEV_TYPEF  .b/elec                                            KB :ELEV TYPE
~CURVE INFORMATION
#MNEMONIC.UNIT        API CODE       : CURVE DESCRIPTION
#------------------------------------------------------------------------------
DEPTH    .M                          : Measured Depth
CALI     .in          UNKNOWN        : CALI:UNKNOWN:rC:NONE:v0 (auto-composite)
CGR      .API         UNKNOWN        : CGR:UNKNOWN:rC:NONE:v0 (auto-composite)
DRHO     .g/cm3       UNKNOWN        : DRHO:UNKNOWN:rC:NONE:v0 (auto-composite)
DT       .us/ft       UNKNOWN        : DT:DT:rC:NONE:v0 (auto-composite)
GR       .API         UNKNOWN        : GR:UNKNOWN:rC:NONE:v0 (auto-composite)
ILD      .ohmm        UNKNOWN        : ILD:UNKNOWN:rC:NONE:v0 (auto-composite)
ILM      .ohmm        UNKNOWN        : ILM:UNKNOWN:rC:NONE:v0 (auto-composite)
LLD      .ohmm        UNKNOWN        : LLD:UNKNOWN:rC:NONE:v0 (auto-composite)
LLS      .ohmm        UNKNOWN        : LLS:UNKNOWN:rC:NONE:v0 (auto-composite)
MSFL     .ohmm        UNKNOWN        : MSFL:UNKNOWN:rC:NONE:v0 (auto-composite)
NPHI     .v/v_decimal UNKNOWN        : NPHI:PETROWORKS:rC:NONE:v1 
PEF      .b/elec      UNKNOWN        : PEF:UNKNOWN:rC:NONE:v0 (auto-composite)
POTA     .wtpercent   UNKNOWN        : POTA:UNKNOWN:rC:NONE:v0 (auto-composite)
RHOB     .g/cm3       UNKNOWN        : RHOB:UNKNOWN:rC:NONE:v0 (auto-composite)
SFLU     .ohmm       UNKNOWN        : SFLU:induccion:rC:NONE:v0 (auto-composite)
THOR     .ppm         UNKNOWN        : THOR:UNKNOWN:rC:NONE:v0 (auto-composite)
URAN     .ppm         UNKNOWN        : URAN:UNKNOWN:rC:NONE:v0 (auto-composite)
~A     DEPTH         CALI          CGR         DRHO           DT           GR          ILD          ILM          LLD          LLS         MSFL         NPHI          PEF         POTA         RHOB         SFLU         THOR         URAN
# ...
   2390.1287       9.5649       2.9402       0.0371      49.9081      11.0313    -999.2500    -999.2500    6499.0654     656.8827     507.6245       0.0118       3.3678       0.0011       2.7642    -999.2500       0.3703       0.9388
   2390.2810       9.5619       5.5525       0.0301      49.5979      12.2273    -999.2500    -999.2500    6338.5342     675.7990     343.7433       0.0116       3.3193       0.0024       2.7532    -999.2500       0.5153       0.7799
   2390.4333       9.5628       6.2795       0.0329      49.7706      12.3937    -999.2500    -999.2500    5864.9482     669.4122     362.1827       0.0118       3.3248       0.0027       2.7532    -999.2500       0.5856       0.7030
   2390.5857       9.5653       6.2178       0.0400      50.2750      12.1295    -999.2500    -999.2500    5260.4126     652.4412     456.8862       0.0125       3.3529       0.0026       2.7577    -999.2500       0.6247       0.6603
   2390.7383       9.5692       5.9842       0.0406      50.2569      11.8223    -999.2500    -999.2500    4873.9907     630.4679     450.7195       0.0123       3.3685       0.0025       2.7629    -999.2500       0.6243       0.6533
   2390.8906       9.5737       5.6806       0.0386      50.0255      11.4977    -999.2500    -999.2500    4576.3916     606.4575     403.4753       0.0119       3.3789       0.0023       2.7684    -999.2500       0.6078       0.6608
   2391.0430       9.5778       5.0781       0.0362      49.7254      10.9843    -999.2500    -999.2500    4324.4229     596.5577     420.6088       0.0130       3.3958       0.0020       2.7714    -999.2500       0.5903       0.6672
   2391.1953       9.5818       4.3524       0.0337      49.4076      10.3931    -999.2500    -999.2500    4091.2600     592.4735     464.2744       0.0150       3.4153       0.0016       2.7734    -999.2500       0.5723       0.6732
   2391.3479       9.5961       4.2973       0.0298      49.4407      10.2447    -999.2500    -999.2500    3909.2561     588.4738     416.9931       0.0174       3.4107       0.0015       2.7705    -999.2500       0.6045       0.6591
   2391.5002       9.6146       4.5197       0.0253      49.6564      10.2797    -999.2500    -999.2500    3748.4246     584.5090     332.0728       0.0199       3.3963       0.0014       2.7655    -999.2500       0.6574       0.6366
   2391.6526       9.6454       4.8700       0.0251      49.9522      10.2194    -999.2500    -999.2500    3844.4390     591.3188     363.8345       0.0210       3.3888       0.0016       2.7587    -999.2500       0.7026       0.5972
   2391.8049       9.6814       5.2735       0.0266      50.2833      10.1196    -999.2500    -999.2500    4047.1946     602.6064     444.0876       0.0217       3.3843       0.0018       2.7512    -999.2500       0.7446       0.5507
   2391.9573       9.6991       4.7001       0.0302      50.6346       9.8376    -999.2500    -999.2500    4388.9517     603.9877     440.6504       0.0242       3.3576       0.0015       2.7381    -999.2500       0.7379       0.5811
   2392.1099       9.7091       3.7159       0.0347      50.9991       9.4791    -999.2500    -999.2500    4789.1650     601.2029     402.0178       0.0278       3.3215       0.0009       2.7225    -999.2500       0.7109       0.6438
   2392.2622       9.6804       3.8821       0.0264      52.1061       9.3456    -999.2500    -999.2500    5616.8569     619.0338     333.0592       0.0315       3.4202       0.0010       2.6992    -999.2500       0.7395       0.6085
   2392.4146       9.6360       4.5193       0.0129      53.4862       9.3041    -999.2500    -999.2500    6619.5767     645.3054     251.6838       0.0350       3.5741       0.0013       2.6727    -999.2500       0.7910       0.5330
   2392.5669       9.6177       4.7840       0.0164      54.6724       9.2690    -999.2500    -999.2500    7874.3457     679.5872     303.5334       0.0371       3.6735       0.0014       2.6845    -999.2500       0.8226       0.5007
   2392.7195       9.6102       4.8954       0.0269      55.7230       9.2365    -999.2500    -999.2500    9232.7480     717.1625     410.1598       0.0380       3.7505       0.0014       2.7120    -999.2500       0.8461       0.4862
   2392.8718       9.6105       4.8824       0.0335      54.3927       9.1150    -999.2500    -999.2500    9081.2412     722.7974     529.8930       0.0343       3.7949       0.0014       2.7306    -999.2500       0.8392       0.4654
   2393.0242       9.6140       4.8180       0.0385      52.3046       8.9567    -999.2500    -999.2500    8306.3184     715.2447     655.0377       0.0297       3.8259       0.0013       2.7456    -999.2500       0.8197       0.4419
   2393.1765       9.6111       4.9763       0.0418      51.8458       8.8712    -999.2500    -999.2500    7235.5430     691.5756     581.9546       0.0332       3.7240       0.0016       2.7299    -999.2500       0.7481       0.4188
   2393.3291       9.6056       5.2277       0.0443      52.4471       8.8162    -999.2500    -999.2500    6041.1533     661.1728     426.0474       0.0418       3.5665       0.0019       2.7014    -999.2500       0.6546       0.3958
   2393.4814       9.6005       4.3480       0.0369      53.8181       8.7248    -999.2500    -999.2500    4842.1978     625.7375     429.2716       0.0470       3.4808       0.0015       2.6732    -999.2500       0.5818       0.4950
   2393.6338       9.5955       2.9938       0.0253      55.4927       8.6180    -999.2500    -999.2500    3641.3269     588.1910     499.2612       0.0504       3.4251       0.0008       2.6451    -999.2500       0.5176       0.6454
   2393.7861       9.5929       2.3803       0.0277      56.8036       9.6256    -999.2500    -999.2500    2996.4441     565.4138     455.2368       0.0474       3.4306       0.0005       2.6530    -999.2500       0.4759       0.8036
   2393.9385       9.5914       2.0694       0.0357      57.7673      11.0885    -999.2500    -999.2500    2578.6689     548.6696     364.6404       0.0412       3.4611       0.0004       2.6755    -999.2500       0.4434       0.9650
   2394.0911       9.5917       2.1253       0.0359      57.0066      12.0378    -999.2500    -999.2500    2411.6240     546.4404     372.0747       0.0348       3.4558       0.0005       2.6969    -999.2500       0.4382       1.0694
   2394.2434       9.5927       2.3315       0.0329      55.2378      12.7763    -999.2500    -999.2500    2347.4268     550.1653     419.7205       0.0283       3.4359       0.0007       2.7178    -999.2500       0.4442       1.1503
   2394.3958       9.5976       3.0422       0.0345      53.6873      14.1811    -999.2500    -999.2500    2224.2349     534.6976     409.8759       0.0241       3.4438       0.0013       2.7346    -999.2500       0.3482       1.2337
   2394.5481       9.6041       3.9623       0.0380      52.3009      15.8624    -999.2500    -999.2500    2076.5537     511.2627     376.1665       0.0214       3.4633       0.0020       2.7496    -999.2500       0.2097       1.3182
   2394.7007       9.6215       6.0644       0.0362      51.4085      18.2565    -999.2500    -999.2500    1982.0995     498.4147     320.6575       0.0211       3.4630       0.0032       2.7519    -999.2500       0.2664       1.3839
   2394.8530       9.6435       8.6593       0.0322      50.8568      20.9479    -999.2500    -999.2500    1909.8328     489.9799     256.0614       0.0226       3.4545       0.0045       2.7489    -999.2500       0.4043       1.4419
   2395.0054       9.6433       7.4871       0.0338      50.8346      20.9895    -999.2500    -999.2500    2191.4248     530.8262     267.3248       0.0247       3.4983       0.0036       2.7522    -999.2500       0.4263       1.5343
   2395.1577       9.6338       4.7379       0.0378      51.0018      19.9221    -999.2500    -999.2500    2621.1350     592.3006     310.3415       0.0266       3.5640       0.0017       2.7583    -999.2500       0.3997       1.6411
   2395.3101       9.6275       6.1634       0.0397      50.9551      18.1952    -999.2500    -999.2500    3052.0964     634.4177     369.3067       0.0252       3.5695       0.0021       2.7614    -999.2500       0.7067       1.3243
