#------------------------------------------------------------------------------
#
#   Created by  : [OpenWorks] Log Export Utility (LEXP)
#   Created on  : 2016-05-23 11:57:25
#   Project     : CANT971
#   User        : R5K
#   Interpreter : PEP
#
#------------------------------------------------------------------------------
~VERSION INFORMATION
VERS. 2.0 : CWLS Log ASCII Standard - version 2.0
WRAP.  NO : One line per depth step
~WELL INFORMATION
#MNEMONIC   .UNIT                                           VALUE :DESCRIPTION
#------------------------------------------------------------------------------
STRT        .M                                           497.5860 :START DEPTH
STOP        .M                                          2904.1343 :STOP DEPTH
STEP        .M                                             0.1524 :STEP
NULL        .                                           -999.2500 :NULL VALUE
COMP        .                                   PEMEX EXPL & PROD :COMPANY
WELL        .                                                 82A :WELL
FLD         .                                           CANTARELL :FIELD
LOC         .                                             UNKNOWN :LOCATION
CNTY        .                                      CD. DEL CARMEN :COUNTY
STAT        .                                            CAMPECHE :STATE
CTRY        .                                              MEXICO :COUNTRY
SRVC        .                                             UNKNOWN :SERVICE COMPANY
DATE        .                                             UNKNOWN :LOG DATE
UWI         .                                          3060000184 :UNIQUE WELL ID
XCOORD      .                                       601716.340000 :SURFACE X
YCOORD      .                                      2142348.150000 :SURFACE Y
LAT         .                                           19.373822 :LATITUDE
LON         .                                          -92.031440 :LONGITUDE
ELEV        .M                                            24.0000 :SURFACE ELEV
ELEV_TYPE   .                                                  KB :ELEV TYPE
~CURVE INFORMATION
#MNEMONIC.UNIT        API CODE       : CURVE DESCRIPTION
#------------------------------------------------------------------------------
DEPTH    .M                          : Measured Depth
CAL      .inches      UNKNOWN        : CAL:UNKNOWN:rC:NONE:v0 (auto-composite)
DRHO     .g/cm3       UNKNOWN        : DRHO:UNKNOWN:rC:NONE:v0 (auto-composite)
DT       .us/ft       UNKNOWN        : DT:DT:rC:NONE:v0 (auto-composite)
GR       .api         UNKNOWN        : GR:GR-Load:rC:NONE:v0 (auto-composite)
ILD      .ohm.m       UNKNOWN        : ILD:PETROWORKS:rC:NONE:v1 
LLD      .ohmm        UNKNOWN        : LLD:UNKNOWN:rC:NONE:v0 (auto-composite)
LLS      .ohmm        UNKNOWN        : LLS:UNKNOWN:rC:NONE:v0 (auto-composite)
MSFL     .ohmm        UNKNOWN        : MSFL:PETROWORKS:rC:NONE:v1 
NPHI     .v/v_decimal UNKNOWN        : NPHI:NPHI:rC:NONE:v0 (auto-composite)
PEF      .b/elec      UNKNOWN        : PEF:UNKNOWN:rC:NONE:v0 (auto-composite)
RG       .API         UNKNOWN        : RG:UNKNOWN:rC:NONE:v0 (auto-composite)
RHOB     .g/cm3       UNKNOWN        : RHOB:UNKNOWN:rC:NONE:v0 (auto-composite)
~A     DEPTH          CAL         DRHO           DT           GR          ILD          LLD          LLS         MSFL         NPHI          PEF           RG         RHOB
# ...
   2896.9717       5.6245       0.0043      57.4840      70.2459    -999.2500     488.9272     433.4466    -999.2500       9.1904       2.9358      70.1748       2.6313
   2897.1240       5.6206       0.0023      58.1092      70.4880    -999.2500     442.7002     405.2124    -999.2500       9.5075       2.8753      70.6117       2.6258
   2897.2764       5.6187       0.0063      57.1834      70.5842    -999.2500     377.2316     352.9424    -999.2500       9.5492       2.8343      70.6013       2.6293
   2897.4287       5.6172       0.0113      52.6347      70.3498    -999.2500     308.6842     296.8267    -999.2500       9.4151       2.7963      70.5194       2.6343
   2897.5813       5.6183       0.0197      50.5862      70.1847    -999.2500     259.7947     251.4894    -999.2500       9.4526       2.8362      70.5248       2.6208
   2897.7336       5.6198       0.0287      54.3571      70.1772    -999.2500     214.0735     207.8892    -999.2500       9.5991       2.8887      70.5443       2.6043
   2897.8860       5.6307       0.0773      56.9897      70.5308    -999.2500     194.2626     185.9581    -999.2500       9.6187       2.9442      70.4193       2.6166
   2898.0383       5.6432       0.1323      56.9822      71.7033    -999.2500     178.6579     167.5446    -999.2500       9.5576       3.0001      70.2709       2.6336
   2898.1909       5.6308       0.1507      56.3728      73.1125    -999.2500     203.6459     184.1237    -999.2500       9.3991       2.9668      70.4041       2.6566
   2898.3433       5.6144       0.1632      54.3721      75.0566    -999.2500     235.2709     206.4243    -999.2500       9.1791       2.9189      70.5834       2.6806
   2898.4956       5.6000       0.1187      52.9603      76.4490    -999.2500     289.7385     239.6404    -999.2500       9.1465       2.9347      70.3482       2.6617
   2898.6479       5.5860       0.0648      52.9053      76.5895    -999.2500     348.0174     274.6777    -999.2500       9.2320       2.9612      70.0438       2.6357
   2898.8003       5.5926       0.0386      52.8729      76.6870    -999.2500     393.3654     283.2977    -999.2500       9.3925       2.9860      70.7621       2.6264
   2898.9529       5.6026       0.0171      52.8924      76.6870    -999.2500     436.5408     287.4789    -999.2500       9.6001       3.0105      71.6522       2.6199
   2899.1052       5.6066       0.0166      53.0772      76.6870    -999.2500     466.4076     274.1763    -999.2500       9.6462       3.0747      73.4062       2.6348
   2899.2576       5.6096       0.0196      53.6399      76.6870    -999.2500     494.0226     257.9153    -999.2500       9.5911       3.1456      75.3063       2.6533
   2899.4099       5.6202       0.0191      53.9703      76.6870    -999.2500     505.3567     249.0681    -999.2500       9.5700       3.2839      76.0557       2.6705
   2899.5625       5.6322       0.0181      53.7712      76.6870    -999.2500     513.8810     241.5004    -999.2500       9.5700       3.4338      76.6065       2.6875
   2899.7148       5.6366       0.0146      53.3774    -999.2500    -999.2500     524.2984     234.4939    -999.2500       9.5401       3.4036      76.6880       2.6874
   2899.8672       5.6396       0.0106      52.5410    -999.2500    -999.2500     535.0447     227.5848    -999.2500       9.4916       3.3422      76.6880       2.6844
   2900.0195       5.6387       0.0151      51.7191    -999.2500    -999.2500     496.9389     206.4837    -999.2500       9.5857       3.2113      76.6880       2.6891
   2900.1721       5.6372       0.0211      50.9299    -999.2500    -999.2500     450.2855     182.8993    -999.2500       9.7688       3.0684      76.6880       2.6951
   2900.3245       5.6370       0.0233      50.4982    -999.2500    -999.2500     406.1728     159.7102    -999.2500       9.7601       3.0088      76.6880       2.7015
   2900.4768       5.6370       0.0248      50.8734    -999.2500    -999.2500     362.5076     136.5907    -999.2500       9.6320       2.9638      76.6880       2.7080
   2900.6292       5.6370       0.0292      51.1040    -999.2500    -999.2500     351.6256     130.3822    -999.2500       9.5188       3.0350      76.6880       2.7196
   2900.7815       5.6370       0.0342      51.0100    -999.2500    -999.2500     346.6307     127.2106    -999.2500       9.4148       3.1269      76.6880       2.7321
   2900.9341       5.6370       0.0418      51.3035    -999.2500    -999.2500     345.6899     126.7132    -999.2500       9.4581       3.1584      76.6880       2.7433
   2901.0864       5.6370       0.0498      52.4649    -999.2500    -999.2500     345.4820     126.6992    -999.2500       9.5927       3.1788      76.6880       2.7543
   2901.2388       5.6370       0.0387      53.4541    -999.2500    -999.2500     345.4939     126.6932    -999.2500       9.5871       3.1723      76.6880       2.7539
   2901.3911       5.6370       0.0243      54.0588    -999.2500    -999.2500     345.5459     126.6887    -999.2500       9.4950       3.1608      76.6880       2.7514
   2901.5437       5.6370       0.0203      54.5263    -999.2500    -999.2500     345.3558     126.7078    -999.2500       9.3770       3.1974      76.6880       2.7561
   2901.6960       5.6370       0.0183      54.6883    -999.2500    -999.2500     345.1210     126.7313    -999.2500       9.2429       3.2428      76.6880       2.7621
   2901.8484       5.6362       0.0231      54.8051    -999.2500    -999.2500     345.2302     126.6988    -999.2500       8.4539       3.2504      76.6880       2.7605
   2902.0007       5.6352       0.0291      54.8216    -999.2500    -999.2500     345.4036     126.6558    -999.2500       7.2635       3.2509      76.6880       2.7575
   2902.1533       5.6409       0.0460      54.8310    -999.2500    -999.2500     345.2799     126.6410    -999.2500       5.5421       3.1870      76.6880       2.7532
   2902.3057       5.6479       0.0650      54.8245    -999.2500    -999.2500     345.1005     126.6315    -999.2500       3.4963       3.1111      76.6880       2.7487
   2902.4580       5.6566       0.0957      54.8200    -999.2500    -999.2500     345.1661     126.6317    -999.2500       2.5246       3.0457      76.6880       2.7518
   2902.6104       5.6655       0.1287      54.8200    -999.2500    -999.2500     345.2779     126.6337    -999.2500       2.2070       2.9822      76.6880       2.7563
   2902.7627       5.6599       0.1365    -999.2500    -999.2500    -999.2500     345.4402     126.6587    -999.2500    -999.2500       2.9611      76.6880       2.7624
   2902.9153       5.6514       0.1395    -999.2500    -999.2500    -999.2500     345.6121     126.6882    -999.2500    -999.2500       2.9481      76.6880       2.7689
   2903.0676       5.8093    -999.2500    -999.2500    -999.2500    -999.2500    -999.2500    -999.2500    -999.2500    -999.2500    -999.2500    -999.2500    -999.2500
   2903.2200       5.7978    -999.2500    -999.2500    -999.2500    -999.2500    -999.2500    -999.2500    -999.2500    -999.2500    -999.2500    -999.2500    -999.2500
   2903.3723       5.7870    -999.2500    -999.2500    -999.2500    -999.2500    -999.2500    -999.2500    -999.2500    -999.2500    -999.2500    -999.2500    -999.2500
   2903.5249       5.7775    -999.2500    -999.2500    -999.2500    -999.2500    -999.2500    -999.2500    -999.2500    -999.2500    -999.2500    -999.2500    -999.2500
   2903.6772       5.7710    -999.2500    -999.2500    -999.2500    -999.2500    -999.2500    -999.2500    -999.2500    -999.2500    -999.2500    -999.2500    -999.2500
   2903.8296       5.7710    -999.2500    -999.2500    -999.2500    -999.2500    -999.2500    -999.2500    -999.2500    -999.2500    -999.2500    -999.2500    -999.2500
   2903.9819       5.7708    -999.2500    -999.2500    -999.2500    -999.2500    -999.2500    -999.2500    -999.2500    -999.2500    -999.2500    -999.2500    -999.2500
   2904.1343       5.7703    -999.2500    -999.2500    -999.2500    -999.2500    -999.2500    -999.2500    -999.2500    -999.2500    -999.2500    -999.2500    -999.2500
