#------------------------------------------------------------------------------
#
#   Created by  : [OpenWorks] Log Export Utility (LEXP)
#   Created on  : 2016-05-23 11:52:02
#   Project     : CANT971
#   User        : R5K
#   Interpreter : PEP
#
#------------------------------------------------------------------------------
~VERSION INFORMATION
VERS. 2.0 : CWLS Log ASCII Standard - version 2.0
WRAP.  NO : One line per depth step
~WELL INFORMATION
#MNEMONIC   .UNIT                                           VALUE :DESCRIPTION
#------------------------------------------------------------------------------
STRT        .M                                           300.3808 :START DEPTH
STOP        .M                                          2575.7129 :STOP DEPTH
STEP        .M                                             0.1524 :STEP
NULL        .                                           -999.2500 :NULL VALUE
COMP        .                                   PEMEX EXPL & PROD :COMPANY
WELL        .                                                  19 :WELL
FLD         .                                           CANTARELL :FIELD
LOC         .                                             UNKNOWN :LOCATION
CNTY        .                                      CD. DEL CARMEN :COUNTY
STAT        .                                            CAMPECHE :STATE
CTRY        .                                              MEXICO :COUNTRY
SRVC        .                                             UNKNOWN :SERVICE COMPANY
DATE        .                                             UNKNOWN :LOG DATE
UWI         .                                          3060000151 :UNIQUE WELL ID
XCOORD      .                                       603362.598000 :SURFACE X
YCOORD      .                                      2145096.350000 :SURFACE Y
LAT         .                                           19.398572 :LATITUDE
LON         .                                          -92.015617 :LONGITUDE
ELEV        .M                                            27.1400 :SURFACE ELEV
ELEV_TYPE   .                                                  KB :ELEV TYPE
~CURVE INFORMATION
#MNEMONIC.UNIT        API CODE       : CURVE DESCRIPTION
#------------------------------------------------------------------------------
DEPTH    .M                          : Measured Depth
CALI     .inches      UNKNOWN        : CALI:Import:rC:NONE:v0 (auto-composite)
DRHO     .g/cm3       UNKNOWN        : DRHO:Import:rC:NONE:v0 (auto-composite)
DT       .us/ft       UNKNOWN        : DT:Import:rC:NONE:v0 (auto-composite)
GR       .API         UNKNOWN        : GR:Import:rC:NONE:v0 (auto-composite)
ILD      .ohm.m       UNKNOWN        : ILD:Import:rC:NONE:v0 (auto-composite)
LLD      .ohm.m       UNKNOWN        : LLD:Import:rC:NONE:v0 (auto-composite)
LLS      .ohm.m       UNKNOWN        : LLS:Import:rC:NONE:v0 (auto-composite)
NPHI     .v/v_decimal UNKNOWN        : NPHI:Import:rC:NONE:v0 (auto-composite)
RHOB     .g/cm3       UNKNOWN        : RHOB:RHOB-Load:rC:NONE:v0 (auto-composite)
~A     DEPTH         CALI         DRHO           DT           GR          ILD          LLD          LLS         NPHI         RHOB
# ...
   2445.2583       5.8210       0.0095      53.1182      64.3864       0.0010      68.7747      53.3770       0.1147       2.6890
   2445.4109       5.8480       0.0060      54.0230      67.0910       0.0010      65.1590      45.9560       0.1149       2.7060
   2445.5632       5.8685      -0.0040      53.8714      71.9039       0.0010      65.9662      47.0963       0.1124       2.6980
   2445.7156       5.8890      -0.0140      53.7200      76.7020       0.0010      66.7710      48.2330       0.1093       2.6900
   2445.8679       5.8890      -0.0135      53.3628      85.7344       0.0010      71.6963      52.5564       0.1064       2.6740
   2446.0205       5.8890      -0.0130      53.0060      94.7400       0.0010      76.6070      56.8670       0.1044       2.6580
   2446.1729       5.8890      -0.0105      53.2371      93.6129       0.0010      75.7262      55.1416       0.1056       2.6490
   2446.3252       5.8890      -0.0080      53.4680      92.4890       0.0010      74.8480      53.4210       0.1073       2.6400
   2446.4775       5.8890      -0.0095      53.9698      84.4817       0.0010      68.1885      41.7141       0.1074       2.6385
   2446.6299       5.8890      -0.0110      54.4710      76.5090       0.0010      61.5470      30.0390       0.1063       2.6370
   2446.7825       5.8890      -0.0145      55.5159      65.3091       0.0010      53.9597      32.3665       0.1022       2.6340
   2446.9348       5.8890      -0.0180      56.5580      54.1560       0.0010      46.3920      34.6880       0.0985       2.6310
   2447.0872       5.8890      -0.0220      56.4168      48.5787       0.0010      54.5280      44.4610       0.0990       2.6360
   2447.2395       5.8890      -0.0260      56.2760      43.0240       0.0010      62.6440      54.2100       0.1002       2.6410
   2447.3921       5.8890      -0.0225      56.3546      43.1638       0.0010      84.0545      67.8795       0.1001       2.6666
   2447.5444       5.8890      -0.0190      56.4330      43.3030       0.0010     105.4150      81.5170       0.0995       2.6920
   2447.6968       5.8890      -0.0015      56.9926      43.9352       0.0010     127.2937      88.5268       0.0989       2.6885
   2447.8491       5.8890       0.0160      57.5510      44.5650       0.0010     149.1240      95.5210       0.0993       2.6850
   2448.0017       5.8890       0.0150      56.9609      46.1058       0.0010     140.6216      88.9416       0.1034       2.6609
   2448.1541       5.8890       0.0140      56.3720      47.6410       0.0010     132.1370      82.3760       0.1082       2.6370
   2448.3064       5.8890       0.0150      55.0577      49.9957       0.0010     114.8210      66.0339       0.1126       2.6375
   2448.4587       5.8890       0.0160      53.7460      52.3420       0.0010      97.5390      49.7500       0.1160       2.6380
   2448.6111       5.8890       0.0145      52.1475      54.3530       0.0010      83.8219      35.5937       0.1166       2.6415
   2448.7637       5.8890       0.0130      50.5520      56.3570       0.0010      70.1300      21.4860       0.1156       2.6450
   2448.9160       5.8890       0.0035      51.2161      54.4719       0.0010      61.1076      21.8756       0.1116       2.6405
   2449.0684       5.8890      -0.0060      51.8790      52.5930       0.0010      52.1150      22.2640       0.1073       2.6360
   2449.2207       5.8750      -0.0190      50.9553      48.4679       0.0010      47.4676      26.1317       0.1050       2.6250
   2449.3733       5.8610      -0.0320      50.0330      44.3560       0.0010      42.8350      29.9870       0.1036       2.6140
   2449.5256       5.8024      -0.0255      46.0311      39.4460       0.0010      43.3568      29.4542       0.1033       2.6045
   2449.6780       5.7440      -0.0190      42.0350      34.5510       0.0010      43.8770      28.9230       0.1037       2.5950
   2449.8303       5.6499      -0.0070      44.9745      34.7513       0.0010      41.3413      26.0248       0.1054       2.5785
   2449.9829       5.5560       0.0050      47.9100      34.9510       0.0010      38.8130      23.1350       0.1090       2.5620
   2450.1353       5.5560       0.0185      60.7222      35.7301       0.0010      30.9920      23.7464       0.1177       2.5184
   2450.2876       5.5560       0.0320      73.5190      36.5070       0.0010      23.1930      24.3560       0.1285       2.4750
   2450.4399       5.5560       0.0701      70.3958      35.2709       0.0010      26.4023      31.9887       0.1414       2.4079
   2450.5923       5.5560       0.1080      67.2760      34.0400       0.0010      29.6030      39.6010       0.1545       2.3410
   2450.7449       5.5560       0.0935      61.0651      34.3050       0.0010      41.8997      37.6991       0.1660       2.3540
   2450.8972       5.5560       0.0790      54.8700      34.5690       0.0010      54.1650      35.8020       0.1769       2.3670
   2451.0496       5.5650       0.0835      62.1509      35.7950       0.0010      46.5663      30.1126       0.1874       2.4292
   2451.2019       5.5740       0.0880      69.4140      37.0160       0.0010      38.9860      24.4370       0.1972       2.4910
   2451.3545       5.6241       0.1120      86.6434      36.4279       0.0010      43.3240      28.5447       0.2051       2.4905
   2451.5068       5.6740       0.1360     103.8330      35.8420       0.0010      47.6520      32.6430       0.2106       2.4900
   2451.6592       5.7461       0.1160      98.6919      34.0140       0.0010      66.0706      56.7087       0.2098       2.4980
   2451.8115       5.8180       0.0960      93.5620      32.1930       0.0010      84.4490      80.7220       0.2049       2.5060
   2451.9641       5.8496       0.0590      83.3585      30.2269       0.0010     107.6764      78.8105       0.1927       2.5291
   2452.1165       5.8810       0.0220      73.1760      28.2680       0.0010     130.8560      76.9030       0.1785       2.5520
   2452.2688       5.8439       0.0235      60.9702      27.3759       0.0010     121.2397      61.7302       0.1650       2.5685
   2452.4211       5.8070       0.0250      48.7880      26.4870       0.0010     111.6420      46.6110       0.1532       2.5850
   2452.5735       5.7133       0.0215      49.2769      27.1081       0.0010     102.1614      48.4381       0.1457       2.5785
   2452.7261       5.6200       0.0180      49.7650      27.7270       0.0010      92.6980      50.2590       0.1402       2.5720
   2452.8784       5.5319       0.0095      51.0751      29.2099       0.0010     107.0120      58.3202       0.1364       2.5845
   2453.0308       5.4440       0.0010      52.3830      30.6880       0.0010     121.2790      66.3550       0.1327       2.5970
   2453.1831       5.4440      -0.0065      53.8987      32.9966       0.0010     119.5698      65.8382       0.1276       2.6185
   2453.3357       5.4440      -0.0140      55.4120      35.2980       0.0010     117.8660      65.3230       0.1230       2.6400
   2453.4880       5.4295      -0.0180      55.1853      35.2815       0.0010     108.1237      61.8422       0.1208       2.6350
   2453.6404       5.4150      -0.0220      54.9590      35.2650       0.0010      98.4110      58.3720       0.1206       2.6300
   2453.7927       5.3835      -0.0115      54.0659      34.4032       0.0010      87.3379      55.4387       0.1238       2.6115
   2453.9453       5.3520      -0.0010      53.1740      33.5440       0.0010      76.2970      52.5140       0.1273       2.5930
   2454.0977       5.3690      -0.0040      51.6266      31.1512       0.0010      77.4000      55.5617       0.1290       2.5965
   2454.2500       5.3860      -0.0070      50.0810      28.7650       0.0010      78.5000      58.6010       0.1302       2.6000
   2454.4023       5.4090      -0.0060      50.4157      29.1343       0.0010      86.2127      64.9484       0.1318       2.6100
   2454.5547       5.4320      -0.0050      50.7500      29.5020       0.0010      93.9050      71.2790       0.1336       2.6200
