#------------------------------------------------------------------------------
#
#   Created by  : [OpenWorks] Log Export Utility (LEXP)
#   Created on  : 2016-05-23 11:56:20
#   Project     : CANT971
#   User        : R5K
#   Interpreter : PEP
#
#------------------------------------------------------------------------------
~VERSION INFORMATION
VERS. 2.0 : CWLS Log ASCII Standard - version 2.0
WRAP.  NO : One line per depth step
~WELL INFORMATION
#MNEMONIC   .UNIT                                           VALUE :DESCRIPTION
#------------------------------------------------------------------------------
STRT        .M                                          1446.1469 :START DEPTH
STOP        .M                                          3739.7668 :STOP DEPTH
STEP        .M                                             0.1524 :STEP
NULL        .                                           -999.2500 :NULL VALUE
COMP        .                                             UNKNOWN :COMPANY
WELL        .                                               468-V :WELL
FLD         .                                             UNKNOWN :FIELD
LOC         .                                             UNKNOWN :LOCATION
CNTY        .                                             UNKNOWN :COUNTY
STAT        .                                             UNKNOWN :STATE
CTRY        .                                             UNKNOWN :COUNTRY
SRVC        .                                             UNKNOWN :SERVICE COMPANY
DATE        .                                             UNKNOWN :LOG DATE
UWI         .                                               468-V :UNIQUE WELL ID
XCOORD      .                                       598699.140000 :SURFACE X
YCOORD      .                                      2143301.650000 :SURFACE Y
LAT         .                                           19.382589 :LATITUDE
LON         .                                          -92.060118 :LONGITUDE
ELEV        .M                                             0.0000 :SURFACE ELEV
ELEV_TYPE   .                                                  NA :ELEV TYPE
~CURVE INFORMATION
#MNEMONIC.UNIT        API CODE       : CURVE DESCRIPTION
#------------------------------------------------------------------------------
DEPTH    .M                          : Measured Depth
CALI     .inches      UNKNOWN        : CALI:PETROWORKS:rC:NONE:v1 
DRHO     .g/cm3       UNKNOWN        : DRHO:PETROWORKS:rC:NONE:v1 
DT       .us/ft       UNKNOWN        : DT:sonico:rC:NONE:v0 (auto-composite)
GR       .API         UNKNOWN        : GR:PETROWORKS:rC:NONE:v1 
GR-LWD   .API         UNKNOWN        : GR-LWD:PETROWORKS:rC:NONE:v3 
ILD-LWD  .ohm.m       UNKNOWN        : ILD-LWD:PETROWORKS:rC:NONE:v3 
ILM-LWD  .UNKNOWN     UNKNOWN        : ILM-LWD:PETROWORKS:rC:NONE:v3 
NPHI     .v/v_decimal UNKNOWN        : NPHI:PETROWORKS:rC:NONE:v1 
PEF      .b/elec      UNKNOWN        : PEF:PETROWORKS:rC:NONE:v1 
RHOB     .g/cm3       UNKNOWN        : RHOB:PETROWORKS:rC:NONE:v1 
~A     DEPTH         CALI         DRHO           DT           GR       GR-LWD      ILD-LWD      ILM-LWD         NPHI          PEF         RHOB
# ...
   2461.7405       8.6728       0.0132    -999.2500      32.5110      18.8172     158.9572     144.8950       0.0408       3.0578       2.6995
   2461.8928       8.6139       0.0113    -999.2500      30.5949      18.5892     150.5845     140.1732       0.0374       2.9841       2.7266
   2462.0452       8.5712       0.0172    -999.2500      30.1269      18.4710     144.8513     137.2444       0.0330       2.9715       2.7736
   2462.1978       8.5367       0.0179    -999.2500      31.5925      18.3525     142.0501     137.5294       0.0311       3.0553       2.8063
   2462.3501       8.5369       0.0124    -999.2500      29.9080      18.1099     139.2334     137.0040       0.0325       3.1513       2.7989
   2462.5024       8.5200       0.0106    -999.2500      25.3462      17.8739     134.9086     133.1922       0.0335       3.2384       2.7765
   2462.6548       8.5074       0.0121    -999.2500      25.3586      17.4216     123.8519     120.7417       0.0331       3.2706       2.7790
   2462.8071       8.5328       0.0102    -999.2500      25.0893      17.0334     111.0030     102.7150       0.0309       3.2717       2.7909
   2462.9597       8.5389       0.0100    -999.2500      24.6681      16.9036      95.9436      82.0402       0.0292       3.2535       2.7869
   2463.1121       8.5369       0.0046    -999.2500      27.1019      17.1147      85.4982      69.3350       0.0268       3.2200       2.7775
   2463.2644       8.5226      -0.0031    -999.2500      29.1621      17.5182      77.3548      59.3035       0.0270       3.2053       2.7762
   2463.4167       8.5245      -0.0033    -999.2500      29.4746      17.6303      72.7225      54.0514       0.0292       3.1815       2.7645
   2463.5693       8.5228       0.0018    -999.2500      28.6579      17.5709      71.1679      53.0407       0.0319       3.0981       2.7519
   2463.7217       8.5282       0.0051    -999.2500      30.0394      17.1916      70.6375      54.4408       0.0374       2.9776       2.7468
   2463.8740       8.5696       0.0043    -999.2500      29.0568      16.5851      70.3421      56.0564       0.0403       3.0195       2.7525
   2464.0264       8.5594       0.0023    -999.2500      27.3510      15.8324      70.4138      57.8484       0.0431       3.0936       2.7493
   2464.1790       8.5691      -0.0004    -999.2500      27.5916      15.1207      70.4090      58.6504       0.0473       3.1454       2.7509
   2464.3313       8.5721      -0.0040    -999.2500      27.3296      14.2413      74.0643      58.8593       0.0482       3.1663       2.7603
   2464.4836       8.5984      -0.0093    -999.2500      25.3548      13.7984      76.5189      60.5226       0.0469       3.1658       2.7584
   2464.6360       8.6280      -0.0128    -999.2500      25.8367      13.8696      74.9811      58.2495       0.0472       3.1492       2.7502
   2464.7883       8.6524      -0.0136    -999.2500      26.4796      13.9754      71.1063      53.6984       0.0461       3.1409       2.7489
   2464.9409       8.6679      -0.0050    -999.2500      23.7195      14.2395      62.8428      46.8246       0.0452       3.1820       2.7517
   2465.0933       8.6756       0.0072    -999.2500      21.8801      14.4332      57.7747      40.4023       0.0437       3.2476       2.7251
   2465.2456       8.6950       0.0192    -999.2500      25.8657      14.7576      57.6192      36.4265       0.0431       3.2219       2.6937
   2465.3979       8.8717       0.0294    -999.2500      29.0756      15.0100      62.8300      35.1500       0.0425       3.1604       2.7244
   2465.5505       9.2167       0.0284    -999.2500      27.8640      15.2262      81.6295      41.1426       0.0401       3.1660       2.7845
   2465.7029       8.7610       0.0226    -999.2500      26.3127      15.9171     112.0516      56.7419       0.0322       3.2243       2.8330
   2465.8552       8.6465       0.0159    -999.2500      27.2198      16.8936     154.4590      84.0732       0.0306       3.2266       2.8280
   2466.0076       8.6310      -0.0021    -999.2500      30.5914      18.7543     189.2378     114.6255       0.0307       3.1794       2.8094
   2466.1602       8.6288      -0.0090    -999.2500      33.4502      19.5962     192.8517     136.5783       0.0314       3.1574       2.7977
   2466.3125       8.6036      -0.0124    -999.2500      36.2036      20.4346     189.1499     159.1701       0.0316       3.1403       2.7938
   2466.4648       8.6153      -0.0125    -999.2500      35.3400      20.9952     180.8930     188.7972       0.0315       3.1398       2.8036
   2466.6172       8.6016      -0.0101    -999.2500      31.2258      21.5409     169.4928     218.2329       0.0290       3.1648       2.8121
   2466.7695       8.5818      -0.0096    -999.2500      33.1080      21.7527     151.5981     243.8452       0.0282       3.1730       2.8093
   2466.9221       8.6022      -0.0101    -999.2500      39.8013      21.6149     143.4554     248.4610       0.0252       3.1898       2.8087
   2467.0745       8.5943      -0.0089    -999.2500      39.7254      21.0866     140.3517     246.1899       0.0230       3.2145       2.8128
   2467.2268       8.5769      -0.0082    -999.2500      35.7169      20.0338     138.0633     238.3298       0.0224       3.2092       2.8162
   2467.3792       8.5978      -0.0079    -999.2500      29.1388      18.4786     135.0199     226.4745       0.0214       3.1417       2.8243
   2467.5317       8.5909      -0.0081    -999.2500      28.2654      17.6219     131.1098     209.9522       0.0214       3.0928       2.8326
   2467.6841       8.5794      -0.0074    -999.2500      29.2296      17.2632     123.3149     181.5164       0.0206       3.0801       2.8341
   2467.8364       8.5729      -0.0047    -999.2500      30.8395      17.4165     110.4784     138.4234       0.0207       3.1084       2.8323
   2467.9888       8.5787      -0.0055    -999.2500      33.8767      17.6577      96.7466     106.2718       0.0212       3.1507       2.8345
   2468.1414       8.5807      -0.0068    -999.2500      33.6476      17.6518      82.3071      81.2491       0.0271       3.1790       2.8197
   2468.2937       8.5863       0.0156    -999.2500      32.5897      17.5838      68.6055      61.0009       0.0328       3.2156       2.7735
   2468.4460       8.6023       0.0650    -999.2500      31.9705      17.3586      63.1756      54.4689       0.0379       3.2093       2.7258
   2468.5984       8.5609       0.0758    -999.2500      29.4342      16.8700      62.2500      52.1500       0.0470       3.1318       2.6966
   2468.7507       8.6082       0.0320    -999.2500      28.9818      16.6154      64.7560      54.3160       0.0497       3.0786       2.6868
   2468.9033       8.5715      -0.0123    -999.2500      32.8940      16.6920      70.0730      59.3247       0.0373       3.0911       2.6700
   2469.0557       8.5019      -0.0107    -999.2500      33.4588      16.8723      78.9024      73.3376       0.0351       3.0479       2.6767
   2469.2080       8.4747      -0.0047    -999.2500      32.6990      17.2735      87.1148      90.4418       0.0324       2.9089       2.7359
   2469.3604       8.4393      -0.0005    -999.2500      31.7193      17.7215      93.9928     108.8629       0.0277       2.9230       2.7804
   2469.5129       8.4472       0.0026    -999.2500      30.5204      17.9097     102.6311     136.7504       0.0240       2.9861       2.7938
   2469.6653       8.4551       0.0026    -999.2500      31.5367      17.6834     110.3472     160.7354       0.0232       2.9083       2.7730
   2469.8176       8.4908       0.0044    -999.2500      31.6715      17.1482     117.9155     183.5117       0.0232       2.8510       2.7854
   2469.9700       8.4571      -0.0012    -999.2500      32.3119      17.0349     126.1998     204.2491       0.0226       2.9740       2.8088
   2470.1226       8.4569      -0.0194    -999.2500      33.0552      16.8999     132.9839     220.9916       0.0230       3.1264       2.8116
