#------------------------------------------------------------------------------
#
#   Created by  : [OpenWorks] Log Export Utility (LEXP)
#   Created on  : 2016-05-23 11:52:56
#   Project     : CANT971
#   User        : R5K
#   Interpreter : PEP
#
#------------------------------------------------------------------------------
~VERSION INFORMATION
VERS. 2.0 : CWLS Log ASCII Standard - version 2.0
WRAP.  NO : One line per depth step
~WELL INFORMATION
#MNEMONIC   .UNIT                                           VALUE :DESCRIPTION
#------------------------------------------------------------------------------
STRT        .M                                           340.6189 :START DEPTH
STOP        .M                                          3243.0769 :STOP DEPTH
STEP        .M                                             0.1524 :STEP
NULL        .                                           -999.2500 :NULL VALUE
COMP        .                                   PEMEX EXPL & PROD :COMPANY
WELL        .                                                2098 :WELL
FLD         .                                           CANTARELL :FIELD
LOC         .                                             UNKNOWN :LOCATION
CNTY        .                                      CD. DEL CARMEN :COUNTY
STAT        .                                            CAMPECHE :STATE
CTRY        .                                              MEXICO :COUNTRY
SRVC        .                                             UNKNOWN :SERVICE COMPANY
DATE        .                                             UNKNOWN :LOG DATE
UWI         .                                          3060000229 :UNIQUE WELL ID
XCOORD      .                                       599692.800000 :SURFACE X
YCOORD      .                                      2143031.510000 :SURFACE Y
LAT         .                                           19.380099 :LATITUDE
LON         .                                          -92.050671 :LONGITUDE
ELEV        .M                                            26.7400 :SURFACE ELEV
ELEV_TYPE   .                                                  KB :ELEV TYPE
~CURVE INFORMATION
#MNEMONIC.UNIT        API CODE       : CURVE DESCRIPTION
#------------------------------------------------------------------------------
DEPTH    .M                          : Measured Depth
CALI     .inches      UNKNOWN        : CALI:litodensidad:rC:NONE:v0 (auto-composite)
CGR      .API         UNKNOWN        : CGR:Espectrometria:rC:NONE:v0 (auto-composite)
DRHO     .g/cm3       UNKNOWN        : DRHO:litodensidad:rC:NONE:v0 (auto-composite)
DT       .us/ft       UNKNOWN        : DT:DT-Load:rC:NONE:v0 (auto-composite)
GR       .API         UNKNOWN        : GR:GR-load:rC:NONE:v0 (auto-composite)
ILD      .UNKNOWN     UNKNOWN        : ILD:resistivos:rC:NONE:v0 (auto-composite)
LLD      .ohm.m       UNKNOWN        : LLD:resistivos:rC:NONE:v0 (auto-composite)
LLS      .UNKNOWN     UNKNOWN        : LLS:resistivos:rC:NONE:v0 (auto-composite)
MSFL     .UNKNOWN     UNKNOWN        : MSFL:resistivos:rC:NONE:v0 (auto-composite)
NPHI     .v/v_decimal UNKNOWN        : NPHI:porosidad:rC:NONE:v0 (auto-composite)
PEF      .UNKNOWN     UNKNOWN        : PEF:litodensidad:rC:NONE:v0 (auto-composite)
POTA     .UNKNOWN     UNKNOWN        : POTA:Espectrometria:rC:NONE:v0 (auto-composite)
RHOB     .UNKNOWN     UNKNOWN        : RHOB:litodensidad:rC:NONE:v0 (auto-composite)
THOR     .ppm         UNKNOWN        : THOR:Espectrometria:rC:NONE:v0 (auto-composite)
URAN     .ppm         UNKNOWN        : URAN:Espectrometria:rC:NONE:v0 (auto-composite)
~A     DEPTH         CALI          CGR         DRHO           DT           GR          ILD          LLD          LLS         MSFL         NPHI          PEF         POTA         RHOB         THOR         URAN
# ...
   2729.9460       8.9339    -999.2500       0.0238      57.2849      32.1731    -999.2500      41.0118      65.0448      89.7566       0.0728    -999.2500    -999.2500       2.6256    -999.2500    -999.2500
   2730.0984       8.9141    -999.2500       0.0315      57.1933      32.1584    -999.2500      39.0375      63.6211      90.6181       0.0718    -999.2500    -999.2500       2.6300    -999.2500    -999.2500
   2730.2510       8.9202    -999.2500       0.0165      56.7891      32.0439    -999.2500      39.3081      63.7662      95.5184       0.0678    -999.2500    -999.2500       2.6300    -999.2500    -999.2500
   2730.4033       8.9265    -999.2500       0.0020      56.4022      31.9251    -999.2500      39.6839      64.0092     100.0348       0.0638    -999.2500    -999.2500       2.6301    -999.2500    -999.2500
   2730.5557       8.9460    -999.2500       0.0030      56.5312      31.6680    -999.2500      42.8841      66.8840      93.7850       0.0560    -999.2500    -999.2500       2.6346    -999.2500    -999.2500
   2730.7080       8.9651    -999.2500       0.0044      56.6521      31.4224    -999.2500      45.9683      69.6552      88.5626       0.0484    -999.2500    -999.2500       2.6397    -999.2500    -999.2500
   2730.8604       8.9681    -999.2500       0.0159      56.5352      31.5319    -999.2500      45.8638      69.5746     112.9127       0.0487    -999.2500    -999.2500       2.6607    -999.2500    -999.2500
   2731.0129       8.9706    -999.2500       0.0268      56.4089      31.6498    -999.2500      45.7451      69.4745     136.0886       0.0490    -999.2500    -999.2500       2.6808    -999.2500    -999.2500
   2731.1653       8.9566    -999.2500       0.0218      56.0018      32.0380    -999.2500      45.2458      68.8468     126.2299       0.0504    -999.2500    -999.2500       2.6753    -999.2500    -999.2500
   2731.3176       8.9433    -999.2500       0.0171      55.5972      32.4371    -999.2500      44.7221      68.1702     116.8118       0.0518    -999.2500    -999.2500       2.6694    -999.2500    -999.2500
   2731.4700       8.9538    -999.2500       0.0191      55.2694      33.1763    -999.2500      43.5226      66.1424     120.1225       0.0540    -999.2500    -999.2500       2.6499    -999.2500    -999.2500
   2731.6226       8.9655    -999.2500       0.0214      54.9598      33.8881    -999.2500      42.5210      64.2171     123.3101       0.0562    -999.2500    -999.2500       2.6315    -999.2500    -999.2500
   2731.7749       9.0252    -999.2500       0.0344      55.2023      33.7667    -999.2500      46.8657      65.0597     123.0195       0.0593    -999.2500    -999.2500       2.6465    -999.2500    -999.2500
   2731.9272       9.0827    -999.2500       0.0469      55.4627      33.6360    -999.2500      51.0539      66.0182     124.5150       0.0623    -999.2500    -999.2500       2.6610    -999.2500    -999.2500
   2732.0796       9.0717    -999.2500       0.0449      56.2484      33.2178    -999.2500      50.9063      70.1867     175.3382       0.0617    -999.2500    -999.2500       2.6605    -999.2500    -999.2500
   2732.2322       9.0601    -999.2500       0.0424      57.0031      32.8009    -999.2500      50.7447      74.0931     222.6855       0.0611    -999.2500    -999.2500       2.6598    -999.2500    -999.2500
   2732.3845       9.0250    -999.2500       0.0223      56.8186      32.4200    -999.2500      50.2030      70.8909     171.5345       0.0592    -999.2500    -999.2500       2.6523    -999.2500    -999.2500
   2732.5369       8.9915    -999.2500       0.0030      56.6110      32.0215    -999.2500      49.6533      67.8381     122.2060       0.0573    -999.2500    -999.2500       2.6450    -999.2500    -999.2500
   2732.6892       9.0100    -999.2500       0.0035      55.7209      31.0691    -999.2500      48.8896      68.7502     123.3845       0.0567    -999.2500    -999.2500       2.6465    -999.2500    -999.2500
   2732.8416       9.0278    -999.2500       0.0043      54.8705      30.1509    -999.2500      48.0929      69.6050     124.9432       0.0560    -999.2500    -999.2500       2.6483    -999.2500    -999.2500
   2732.9941       9.0213    -999.2500       0.0128      55.2316      30.2744    -999.2500      46.3988      68.9013     137.3128       0.0562    -999.2500    -999.2500       2.6568    -999.2500    -999.2500
   2733.1465       9.0141    -999.2500       0.0210      55.5803      30.3891    -999.2500      44.6132      68.0116     148.1919       0.0565    -999.2500    -999.2500       2.6649    -999.2500    -999.2500
   2733.2988       8.9765    -999.2500       0.0195      55.5578      30.2311    -999.2500      40.3921      62.1686     117.6226       0.0575    -999.2500    -999.2500       2.6614    -999.2500    -999.2500
   2733.4512       8.9410    -999.2500       0.0178      55.5394      30.0800    -999.2500      36.3252      56.5341      88.2003       0.0585    -999.2500    -999.2500       2.6576    -999.2500    -999.2500
   2733.6038       8.9822    -999.2500       0.0113      55.6485      30.1440    -999.2500      36.4733      56.5941      91.5175       0.0598    -999.2500    -999.2500       2.6446    -999.2500    -999.2500
   2733.7561       9.0219    -999.2500       0.0052      55.7726      30.2155    -999.2500      36.6664      56.7260      95.4013       0.0611    -999.2500    -999.2500       2.6324    -999.2500    -999.2500
   2733.9084       9.0184    -999.2500       0.0117      56.3473      30.5236    -999.2500      38.0648      58.7771     115.0958       0.0621    -999.2500    -999.2500       2.6439    -999.2500    -999.2500
   2734.0608       9.0144    -999.2500       0.0179      56.9335      30.8357    -999.2500      39.4046      60.7439     132.9451       0.0631    -999.2500    -999.2500       2.6549    -999.2500    -999.2500
   2734.2134       8.9914    -999.2500       0.0154      57.8709      31.2705    -999.2500      39.1370      60.4008      97.9381       0.0649    -999.2500    -999.2500       2.6514    -999.2500    -999.2500
   2734.3657       8.9679    -999.2500       0.0126      58.8009      31.6887    -999.2500      38.8420      60.0150      64.2315       0.0669    -999.2500    -999.2500       2.6475    -999.2500    -999.2500
   2734.5181       8.9269    -999.2500      -0.0004      59.5117      31.5807    -999.2500      37.8129      58.4852      66.9433       0.0727    -999.2500    -999.2500       2.6315    -999.2500    -999.2500
   2734.6704       8.8878    -999.2500      -0.0130      60.2204      31.4640    -999.2500      36.7720      56.9471      70.0721       0.0787    -999.2500    -999.2500       2.6151    -999.2500    -999.2500
   2734.8228       8.9189    -999.2500      -0.0120      60.8691      31.0801    -999.2500      35.4055      55.1835      85.1867       0.0902    -999.2500    -999.2500       2.5866    -999.2500    -999.2500
   2734.9753       8.9486    -999.2500      -0.0109      61.5232      30.7149    -999.2500      34.0992      53.5005     100.5730       0.1021    -999.2500    -999.2500       2.5570    -999.2500    -999.2500
   2735.1277       8.9336    -999.2500      -0.0064      62.3395      30.9394    -999.2500      34.4126      53.9893     123.5951       0.1309    -999.2500    -999.2500       2.4914    -999.2500    -999.2500
   2735.2800       8.9175    -999.2500      -0.0021      63.1257      31.1858    -999.2500      34.7095      54.4354     144.8315       0.1588    -999.2500    -999.2500       2.4280    -999.2500    -999.2500
   2735.4324       8.8579    -999.2500      -0.0056      63.0242      32.1071    -999.2500      34.5524      53.7026     114.5463       0.1564    -999.2500    -999.2500       2.4295    -999.2500    -999.2500
   2735.5850       8.8003    -999.2500      -0.0089      62.9072      32.9891    -999.2500      34.4124      53.0025      86.3206       0.1536    -999.2500    -999.2500       2.4316    -999.2500    -999.2500
   2735.7373       8.8103    -999.2500      -0.0069      62.3195      32.6803    -999.2500      34.7328      53.1849     116.1872       0.1389    -999.2500    -999.2500       2.4506    -999.2500    -999.2500
