#------------------------------------------------------------------------------
#
#   Created by  : [OpenWorks] Log Export Utility (LEXP)
#   Created on  : 2016-05-23 11:52:02
#   Project     : CANT971
#   User        : R5K
#   Interpreter : PEP
#
#------------------------------------------------------------------------------
~VERSION INFORMATION
VERS. 2.0 : CWLS Log ASCII Standard - version 2.0
WRAP.  NO : One line per depth step
~WELL INFORMATION
#MNEMONIC   .UNIT                                           VALUE :DESCRIPTION
#------------------------------------------------------------------------------
STRT        .M                                           300.3808 :START DEPTH
STOP        .M                                          2575.7129 :STOP DEPTH
STEP        .M                                             0.1524 :STEP
NULL        .                                           -999.2500 :NULL VALUE
COMP        .                                   PEMEX EXPL & PROD :COMPANY
WELL        .                                                  19 :WELL
FLD         .                                           CANTARELL :FIELD
LOC         .                                             UNKNOWN :LOCATION
CNTY        .                                      CD. DEL CARMEN :COUNTY
STAT        .                                            CAMPECHE :STATE
CTRY        .                                              MEXICO :COUNTRY
SRVC        .                                             UNKNOWN :SERVICE COMPANY
DATE        .                                             UNKNOWN :LOG DATE
UWI         .                                          3060000151 :UNIQUE WELL ID
XCOORD      .                                       603362.598000 :SURFACE X
YCOORD      .                                      2145096.350000 :SURFACE Y
LAT         .                                           19.398572 :LATITUDE
LON         .                                          -92.015617 :LONGITUDE
ELEV        .M                                            27.1400 :SURFACE ELEV
ELEV_TYPE   .                                                  KB :ELEV TYPE
~CURVE INFORMATION
#MNEMONIC.UNIT        API CODE       : CURVE DESCRIPTION
#------------------------------------------------------------------------------
DEPTH    .M                          : Measured Depth
CALI     .inches      UNKNOWN        : CALI:Import:rC:NONE:v0 (auto-composite)
DRHO     .g/cm3       UNKNOWN        : DRHO:Import:rC:NONE:v0 (auto-composite)
DT       .us/ft       UNKNOWN        : DT:Import:rC:NONE:v0 (auto-composite)
GR       .API         UNKNOWN        : GR:Import:rC:NONE:v0 (auto-composite)
ILD      .ohm.m       UNKNOWN        : ILD:Import:rC:NONE:v0 (auto-composite)
LLD      .ohm.m       UNKNOWN        : LLD:Import:rC:NONE:v0 (auto-composite)
LLS      .ohm.m       UNKNOWN        : LLS:Import:rC:NONE:v0 (auto-composite)
NPHI     .v/v_decimal UNKNOWN        : NPHI:Import:rC:NONE:v0 (auto-composite)
RHOB     .g/cm3       UNKNOWN        : RHOB:RHOB-Load:rC:NONE:v0 (auto-composite)
~A     DEPTH         CALI         DRHO           DT           GR          ILD          LLD          LLS         NPHI         RHOB
# ...
   2369.6680       5.7730      -0.0260      45.4967      41.9428       0.0010    3165.7651    1343.2362       0.0775       2.7350
   2369.8203       5.7680      -0.0250      46.9660      41.5910       0.0010    2262.7791    1279.1090       0.0783       2.7420
   2369.9729       5.7189      -0.0160      48.9051      39.4184       0.0010    1381.3336    1079.8458       0.0791       2.7685
   2370.1252       5.6700      -0.0070      50.8400      37.2540       0.0010     501.8280     881.3390       0.0797       2.7950
   2370.2776       5.5568       0.0010      51.0327      34.8826       0.0010     503.0428     679.0745       0.0785       2.7950
   2370.4299       5.4440       0.0090      51.2250      32.5200       0.0010     504.2550     477.5530       0.0770       2.7950
   2370.5825       5.4440       0.0285      51.2455      30.2555       0.0010     531.7723     496.9965       0.0758       2.7945
   2370.7349       5.4440       0.0480      51.2660      27.9990       0.0010     559.2360     516.3710       0.0750       2.7940
   2370.8872       5.4440       0.0475      51.1659      26.3562       0.0010     767.6392     934.9083       0.0781       2.7925
   2371.0396       5.4440       0.0470      51.0660      24.7190       0.0010     975.3290    1352.0129       0.0809       2.7910
   2371.1919       5.4440       0.0410      50.3094      22.5269       0.0010    1463.0330    1349.1963       0.0769       2.7840
   2371.3445       5.4440       0.0350      49.5540      20.3420       0.0010    1949.1300    1346.3890       0.0720       2.7770
   2371.4968       5.4440       0.0200      48.3296      20.3545       0.0010    1917.3110    1315.0518       0.0654       2.7519
   2371.6492       5.4440       0.0050      47.1090      20.3670       0.0010    1885.5930    1283.8140       0.0591       2.7270
   2371.8015       5.4535       0.0005      47.1516      20.6274       0.0010    1634.3220    1180.3209       0.0582       2.7280
   2371.9541       5.4630      -0.0040      47.1940      20.8870       0.0010    1383.8160    1077.1429       0.0580       2.7290
   2372.1064       5.5306      -0.0135      48.0983      22.3206       0.0010     919.5172     907.6318       0.0600       2.7395
   2372.2588       5.5980      -0.0230      49.0000      23.7500       0.0010     456.5750     738.6160       0.0620       2.7500
   2372.4111       5.6326      -0.0225      48.8683      25.6913       0.0010     458.1808     603.5172       0.0612       2.7896
   2372.5635       5.6670      -0.0220      48.7370      27.6240       0.0010     459.7820     469.0120       0.0601       2.8290
   2372.7161       5.6700      -0.0200      47.4543      29.5742       0.0010     491.3462     414.7854       0.0585       2.8275
   2372.8684       5.6730      -0.0180      46.1750      31.5160       0.0010     522.8260     360.7900       0.0569       2.8260
   2373.0208       5.6960      -0.0080      46.2141      35.1310       0.0010     514.8854     379.5048       0.0552       2.8135
   2373.1731       5.7190       0.0020      46.2530      38.7310       0.0010     506.9650     398.1420       0.0532       2.8010
   2373.3257       5.7486       0.0015      46.7005      44.9750       0.0010     444.0774     386.5583       0.0488       2.7634
   2373.4780       5.7780       0.0010      47.1470      51.1940       0.0010     381.3420     375.0210       0.0444       2.7260
   2373.6304       5.7760      -0.0020      50.6720      60.3338       0.0010     285.8535     302.6927       0.0423       2.7270
   2373.7827       5.7740      -0.0050      54.1890      69.4380       0.0010     190.5840     230.6460       0.0407       2.7280
   2373.9353       5.7490      -0.0105      54.1114      68.1516       0.0010     125.9644     143.6868       0.0430       2.7455
   2374.0876       5.7240      -0.0160      54.0340      66.8700       0.0010      61.4850      57.0550       0.0458       2.7630
   2374.2400       5.6398      -0.0215      53.3018      57.8481       0.0010      64.2583      59.0857       0.0503       2.7620
   2374.3923       5.5560      -0.0270      52.5710      48.8590       0.0010      67.0260      61.1090       0.0549       2.7610
   2374.5447       5.5560      -0.0255      50.8634      41.0393       0.0010     126.1843     211.0675       0.0601       2.7445
   2374.6973       5.5560      -0.0240      49.1590      33.2470       0.0010     185.2290     360.4990       0.0651       2.7280
   2374.8496       5.5560      -0.0030      48.4268      30.6907       0.0010     180.5821     358.9659       0.0684       2.7280
   2375.0020       5.5560       0.0180      47.6960      28.1430       0.0010     175.9510     357.4380       0.0716       2.7280
   2375.1543       5.5560       0.0100      47.7811      24.9753       0.0010     119.5444     329.1138       0.0739       2.7320
   2375.3069       5.5560       0.0020      47.8660      21.8180       0.0010      63.3220     300.8820       0.0759       2.7360
   2375.4592       5.5560       0.0045      49.6884      21.9377       0.0010      67.6283     217.5401       0.0742       2.7796
   2375.6116       5.5560       0.0070      51.5050      22.0570       0.0010      71.9210     134.4600       0.0723       2.8230
   2375.7639       5.5560       0.0065      51.4264      22.9859       0.0010     127.2168      95.7572       0.0711       2.8225
   2375.9165       5.5560       0.0060      51.3480      23.9120       0.0010     182.3460      57.1710       0.0701       2.8220
   2376.0688       5.5560      -0.0020      50.6855      26.6795       0.0010     555.0684      61.2023       0.0700       2.8175
   2376.2212       5.5560      -0.0100      50.0250      29.4390       0.0010     926.7130      65.2220       0.0698       2.8130
   2376.3735       5.5560      -0.0080      48.1444      29.3799       0.0010     897.4941     117.5932       0.0673       2.7895
   2376.5259       5.5560      -0.0060      46.2690      29.3210       0.0010     868.3560     169.7360       0.0646       2.7660
   2376.6785       5.5560       0.0235      46.3206      28.7563       0.0010     700.8674     511.6644       0.0601       2.7670
   2376.8308       5.5560       0.0530      46.3720      28.1940       0.0010     533.8210     852.1450       0.0556       2.7680
   2376.9832       5.5560       0.0530      47.9450      26.7545       0.0010     329.5237     794.2279       0.0531       2.7805
   2377.1355       5.5560       0.0530      49.5140      25.3210       0.0010     125.7400     736.5490       0.0512       2.7930
   2377.2881       5.5560       0.0495      49.4745      24.4853       0.0010     139.9204     433.6942       0.0540       2.7925
   2377.4404       5.5560       0.0460      49.4350      23.6530       0.0010     154.0670     132.0460       0.0574       2.7920
   2377.5928       5.5560       0.0280      47.9243      21.8996       0.0010     350.5923     138.6037       0.0639       2.7875
   2377.7451       5.5560       0.0100      46.4170      20.1530       0.0010     546.6730     145.1360       0.0703       2.7830
   2377.8977       5.5560      -0.0045      46.4270      20.1580       0.0010     913.8913     223.2779       0.0718       2.7705
   2378.0500       5.5560      -0.0190      46.4370      20.1630       0.0010    1280.3240     301.1280       0.0727       2.7580
   2378.2024       5.5560      -0.0190      46.6547      20.2547       0.0010    1257.7238     701.7595       0.0694       2.7420
   2378.3547       5.5560      -0.0190      46.8720      20.3460       0.0010    1235.1689    1100.9440       0.0661       2.7260
   2378.5071       5.5560      -0.0175      48.4590      20.6956       0.0010    1110.6589    1077.0874       0.0689       2.7300
   2378.6597       5.5560      -0.0160      50.0430      21.0440       0.0010     986.3840    1053.3140       0.0720       2.7340
   2378.8120       5.5560      -0.0050      50.0135      21.3570       0.0010     889.3229     932.3041       0.0753       2.7611
   2378.9644       5.5560       0.0060      49.9840      21.6690       0.0010     792.5880     811.7010       0.0783       2.7880
