#------------------------------------------------------------------------------
#
#   Created by  : [OpenWorks] Log Export Utility (LEXP)
#   Created on  : 2016-05-12 17:01:16
#   Project     : CANT971
#   User        : R5K
#   Interpreter : PEP
#
#------------------------------------------------------------------------------
~VERSION INFORMATION
VERS. 2.0 : CWLS Log ASCII Standard - version 2.0
WRAP.  NO : One line per depth step
~WELL INFORMATION
#MNEMONIC   .UNIT                                           VALUE :DESCRIPTION
#------------------------------------------------------------------------------
STRT        .M                                          4907.2798 :START DEPTH
STOP        .M                                          5813.7549 :STOP DEPTH
STEP        .M                                             0.1524 :STEP
NULL        .                                           -999.2500 :NULL VALUE
COMP        .                                   PEMEX EXPL & PROD :COMPANY
WELL        .                                            3026D_ST :WELL
FLD         .                                           CANTARELL :FIELD
LOC         .                                             UNKNOWN :LOCATION
CNTY        .                                      CD. DEL CARMEN :COUNTY
STAT        .                                            CAMPECHE :STATE
CTRY        .                                              MEXICO :COUNTRY
SRVC        .                                             UNKNOWN :SERVICE COMPANY
DATE        .                                             UNKNOWN :LOG DATE
UWI         .                                      3060000820D_ST :UNIQUE WELL ID
XCOORD      .                                       601717.200000 :SURFACE X
YCOORD      .                                      2148573.570000 :SURFACE Y
LAT         .                                           19.430078 :LATITUDE
LON         .                                          -92.031099 :LONGITUDE
ELEV        .M                                            30.0000 :SURFACE ELEV
ELEV_TYPE   .                                                  KB :ELEV TYPE
~CURVE INFORMATION
#MNEMONIC.UNIT        API CODE       : CURVE DESCRIPTION
#------------------------------------------------------------------------------
DEPTH    .M                          : Measured Depth
CALI     .inches      UNKNOWN        : CALI:registros:rC:NONE:v0 (auto-composite)
CGR      .API         UNKNOWN        : CGR:registros:rC:NONE:v0 (auto-composite)
DRHO     .g/cm3       UNKNOWN        : DRHO:registros:rC:NONE:v0 (auto-composite)
DT       .us/ft       UNKNOWN        : DT:registros:rC:NONE:v0 (auto-composite)
GR       .API         UNKNOWN        : GR:registros:rC:NONE:v0 (auto-composite)
ILD      .ohm.m       UNKNOWN        : ILD:registros:rC:NONE:v0 (auto-composite)
ILM      .ohm.m       UNKNOWN        : ILM:registros:rC:NONE:v0 (auto-composite)
NPHI     .UNKNOWN     UNKNOWN        : NPHI:registros:rC:NONE:v0 (auto-composite)
PEF      .b/elec      UNKNOWN        : PEF:registros:rC:NONE:v0 (auto-composite)
POTA     .UNKNOWN     UNKNOWN        : POTA:registros:rC:NONE:v0 (auto-composite)
RHOB     .g/cm3       UNKNOWN        : RHOB:registros:rC:NONE:v0 (auto-composite)
THOR     .ppm         UNKNOWN        : THOR:registros:rC:NONE:v0 (auto-composite)
URAN     .ppm         UNKNOWN        : URAN:registros:rC:NONE:v0 (auto-composite)
~A     DEPTH         CALI          CGR         DRHO           DT           GR          ILD          ILM         NPHI          PEF         POTA         RHOB         THOR         URAN
# ...
   5423.6108       6.7959    -999.2500      -0.1013    -999.2500      89.2693       5.4047       5.2768       0.1897      97.0379    -999.2500       2.4997    -999.2500    -999.2500
   5423.7632       6.7307    -999.2500      -0.1271    -999.2500      89.4056       4.6966       4.5667       0.1824      66.8829    -999.2500       2.4663    -999.2500    -999.2500
   5423.9160       6.7307    -999.2500      -0.1585    -999.2500      89.4056       4.5564       4.4588       0.1963      59.1105    -999.2500       2.4217    -999.2500    -999.2500
   5424.0684       6.7384    -999.2500      -0.1705    -999.2500      91.7957       4.1183       4.0267       0.2218      56.5273    -999.2500       2.4000    -999.2500    -999.2500
   5424.2207       6.7732    -999.2500      -0.1740    -999.2500      94.1930       3.7720       3.6712       0.2447      65.9073    -999.2500       2.3898    -999.2500    -999.2500
   5424.3730       6.8537    -999.2500      -0.1618    -999.2500     100.1901       3.7799       3.6860       0.2553      57.9601    -999.2500       2.4099    -999.2500    -999.2500
   5424.5254       7.0226    -999.2500      -0.1511    -999.2500     102.4390       3.7041       3.6306       0.2578      63.2739    -999.2500       2.4452    -999.2500    -999.2500
   5424.6777       7.1146    -999.2500      -0.1365    -999.2500     106.1749       3.5736       3.5146       0.2610      71.4970    -999.2500       2.4798    -999.2500    -999.2500
   5424.8301       7.1520    -999.2500      -0.1235    -999.2500     104.1986       3.6060       3.5489       0.2639      94.2388    -999.2500       2.4884    -999.2500    -999.2500
   5424.9824       7.6449    -999.2500      -0.1267    -999.2500     102.7140       3.6753       3.6225       0.2614      94.6601    -999.2500       2.4519    -999.2500    -999.2500
   5425.1348       7.7644    -999.2500      -0.1277    -999.2500      98.5569       3.5512       3.5114       0.2564      74.2111    -999.2500       2.4186    -999.2500    -999.2500
   5425.2876       7.9169    -999.2500      -0.0965    -999.2500      95.4562       3.4313       3.4011       0.2631      54.7992    -999.2500       2.4562    -999.2500    -999.2500
   5425.4399       7.8652    -999.2500      -0.0767    -999.2500      95.3248       3.4648       3.4324       0.2671      64.0806    -999.2500       2.4872    -999.2500    -999.2500
   5425.5923       7.8566    -999.2500      -0.0632    -999.2500      94.4388       3.4710       3.4368       0.2702      54.1238    -999.2500       2.5187    -999.2500    -999.2500
   5425.7446       7.9979    -999.2500      -0.0571    -999.2500      95.6217       3.5889       3.5466       0.2653      65.1117    -999.2500       2.4959    -999.2500    -999.2500
   5425.8970       8.2700    -999.2500      -0.0564    -999.2500      97.6589       3.6590       3.6027       0.2655     116.6236    -999.2500       2.4771    -999.2500    -999.2500
   5426.0493       8.2713    -999.2500      -0.0726    -999.2500      95.8773       3.8947       3.8396       0.2669     113.1294    -999.2500       2.4522    -999.2500    -999.2500
   5426.2017       8.3043    -999.2500      -0.0707    -999.2500      95.3418       3.7748       3.7225       0.2630     110.7662    -999.2500       2.4689    -999.2500    -999.2500
   5426.3540       8.4330    -999.2500      -0.0681    -999.2500      94.2904       3.6582       3.6074       0.2464      86.9760    -999.2500       2.4846    -999.2500    -999.2500
   5426.5063       8.6460    -999.2500      -0.0412    -999.2500      97.3133       3.6225       3.5792       0.2417      59.1185    -999.2500       2.5259    -999.2500    -999.2500
   5426.6592       8.6544    -999.2500      -0.0152    -999.2500      97.8584       3.4997       3.4612       0.2424      52.2379    -999.2500       2.5679    -999.2500    -999.2500
   5426.8115       8.6610    -999.2500       0.0012    -999.2500      98.2233       3.4198       3.3761       0.2444     -71.5322    -999.2500       2.5995    -999.2500    -999.2500
   5426.9639       8.6415    -999.2500       0.0041    -999.2500      95.3976       3.5606       3.5139       0.2481      50.9626    -999.2500       2.6206    -999.2500    -999.2500
   5427.1162       8.6073    -999.2500       0.0119    -999.2500      94.3364       3.6633       3.6092       0.2483      56.1573    -999.2500       2.6467    -999.2500    -999.2500
   5427.2686       8.6453    -999.2500       0.0088    -999.2500      93.0516       3.9306       3.8644       0.2475      70.2349    -999.2500       2.6377    -999.2500    -999.2500
   5427.4209       8.4158    -999.2500      -0.0084    -999.2500      94.9391       3.9198       3.8495       0.2359      73.2108    -999.2500       2.5909    -999.2500    -999.2500
   5427.5732       8.3303    -999.2500      -0.0343    -999.2500      94.9663       3.8057       3.7377       0.2197      74.3866    -999.2500       2.5219    -999.2500    -999.2500
   5427.7256       8.2397    -999.2500      -0.0370    -999.2500      92.6050       3.7879       3.7182       0.2277      70.0474    -999.2500       2.5099    -999.2500    -999.2500
   5427.8784       8.3514    -999.2500      -0.0552    -999.2500      90.4948       3.7554       3.6869       0.2382      61.9722    -999.2500       2.4880    -999.2500    -999.2500
   5428.0308       8.4402    -999.2500      -0.0636    -999.2500      90.0691       3.7465       3.6759       0.2538      66.3156    -999.2500       2.4927    -999.2500    -999.2500
   5428.1831       8.3688    -999.2500      -0.0503    -999.2500      90.5330       3.7509       3.6924       0.2551      54.9164    -999.2500       2.5213    -999.2500    -999.2500
   5428.3354       8.5336    -999.2500      -0.0341    -999.2500      90.1904       3.7469       3.6819       0.2470      73.7278    -999.2500       2.5573    -999.2500    -999.2500
   5428.4878       8.6998    -999.2500      -0.0432    -999.2500      90.0329       3.7487       3.6942       0.2435      87.8090    -999.2500       2.5468    -999.2500    -999.2500
   5428.6401       8.8437    -999.2500      -0.0690    -999.2500      87.8561       3.7301       3.6796       0.2391     111.1195    -999.2500       2.4926    -999.2500    -999.2500
   5428.7925       8.9647    -999.2500      -0.0808    -999.2500      87.6781       3.8258       3.7789       0.2418      89.2645    -999.2500       2.4559    -999.2500    -999.2500
   5428.9448       8.9963    -999.2500      -0.0774    -999.2500      86.4043       3.8982       3.8520       0.2407      88.1727    -999.2500       2.4715    -999.2500    -999.2500
   5429.0972       8.9476    -999.2500      -0.0697    -999.2500      88.3490       3.8641       3.8232       0.2430      59.2239    -999.2500       2.5075    -999.2500    -999.2500
   5429.2500       8.9578    -999.2500      -0.0447    -999.2500      89.5520       3.8431       3.8081       0.2387      50.7171    -999.2500       2.5650    -999.2500    -999.2500
   5429.4023       8.9104    -999.2500      -0.0204    -999.2500      92.2386       3.8053       3.7719       0.2297      26.6727    -999.2500       2.5943    -999.2500    -999.2500
   5429.5547       9.1517    -999.2500      -0.0149    -999.2500      91.9267       3.7773       3.7484       0.2164      51.6834    -999.2500       2.5873    -999.2500    -999.2500
   5429.7070       9.0335    -999.2500      -0.0267    -999.2500      91.8245       3.7556       3.7291       0.2156      53.4640    -999.2500       2.5628    -999.2500    -999.2500
   5429.8594       8.6622    -999.2500      -0.0322    -999.2500      93.4548       3.7526       3.7200       0.2248      57.9868    -999.2500       2.5605    -999.2500    -999.2500
   5430.0117       8.5879    -999.2500      -0.0455    -999.2500      93.7935       3.7422       3.7148       0.2237      53.1047    -999.2500       2.5432    -999.2500    -999.2500
   5430.1641       8.5705    -999.2500      -0.0506    -999.2500      95.8773       3.7198       3.6948       0.2279      77.2078    -999.2500       2.5351    -999.2500    -999.2500
