#------------------------------------------------------------------------------
#
#   Created by  : [OpenWorks] Log Export Utility (LEXP)
#   Created on  : 2016-05-12 17:01:19
#   Project     : CANT971
#   User        : R5K
#   Interpreter : PEP
#
#------------------------------------------------------------------------------
~VERSION INFORMATION
VERS. 2.0 : CWLS Log ASCII Standard - version 2.0
WRAP.  NO : One line per depth step
~WELL INFORMATION
#MNEMONIC   .UNIT                                           VALUE :DESCRIPTION
#------------------------------------------------------------------------------
STRT        .M                                           335.5854 :START DEPTH
STOP        .M                                          2510.4858 :STOP DEPTH
STEP        .M                                             0.1524 :STEP
NULL        .                                           -999.2500 :NULL VALUE
COMP        .                                   PEMEX EXPL & PROD :COMPANY
WELL        .                                                  35 :WELL
FLD         .                                           CANTARELL :FIELD
LOC         .                                             UNKNOWN :LOCATION
CNTY        .                                      CD. DEL CARMEN :COUNTY
STAT        .                                            CAMPECHE :STATE
CTRY        .                                              MEXICO :COUNTRY
SRVC        .                                             UNKNOWN :SERVICE COMPANY
DATE        .                                             UNKNOWN :LOG DATE
UWI         .                                          3060000159 :UNIQUE WELL ID
XCOORD      .                                       602147.900000 :SURFACE X
YCOORD      .                                      2147168.470000 :SURFACE Y
LAT         .                                           19.417359 :LATITUDE
LON         .                                          -92.027072 :LONGITUDE
ELEV        .M                                            28.1700 :SURFACE ELEV
ELEV_TYPE   .                                                  KB :ELEV TYPE
~CURVE INFORMATION
#MNEMONIC.UNIT        API CODE       : CURVE DESCRIPTION
#------------------------------------------------------------------------------
DEPTH    .M                          : Measured Depth
CALI     .inches      UNKNOWN        : CALI:Import:rC:NONE:v0 (auto-composite)
DRHO     .g/cm3       UNKNOWN        : DRHO:Import:rC:NONE:v0 (auto-composite)
DT       .us/ft       UNKNOWN        : DT:Import:rC:NONE:v0 (auto-composite)
GR       .API         UNKNOWN        : GR:Import:rC:NONE:v0 (auto-composite)
ILD      .ohm.m       UNKNOWN        : ILD:Import:rC:NONE:v0 (auto-composite)
LLD      .ohm.m       UNKNOWN        : LLD:Import:rC:NONE:v0 (auto-composite)
LLS      .ohm.m       UNKNOWN        : LLS:Import:rC:NONE:v0 (auto-composite)
MSFL     .ohm.m       UNKNOWN        : MSFL:Import:rC:NONE:v0 (auto-composite)
NPHI     .v/v_decimal UNKNOWN        : NPHI:Import:rC:NONE:v0 (auto-composite)
RHOB     .g/cm3       UNKNOWN        : RHOB:Import:rC:NONE:v0 (auto-composite)
SP       .mV          UNKNOWN        : SP:Import:rC:NONE:v0 (auto-composite)
~A     DEPTH         CALI         DRHO           DT           GR          ILD          LLD          LLS         MSFL         NPHI         RHOB           SP
# ...
   1294.4862      17.4400   -1998.5000     129.0700      75.5910       0.9030    -999.2500    -999.2500    -999.2500       0.3710       2.2080      86.1000
   1294.6385      17.5502   -1998.5000     129.8427      76.5331       0.9035    -999.2500    -999.2500    -999.2500       0.3762       2.2090      86.1962
   1294.7910      17.6600   -1998.5000     130.6080      77.4660       0.9040    -999.2500    -999.2500    -999.2500       0.3815       2.2100      86.2920
   1294.9434      17.5689   -1998.5000     132.0057      77.8760       0.9025    -999.2500    -999.2500    -999.2500       0.3836       2.2000      86.5604
   1295.0958      17.4780   -1998.5000     133.3900      78.2820       0.9010    -999.2500    -999.2500    -999.2500       0.3848       2.1900      86.8280
   1295.2482      17.3989   -1998.5000     133.2011      79.0878       0.8985    -999.2500    -999.2500    -999.2500       0.3814       2.1940      87.2381
   1295.4006      17.3200   -1998.5000     133.0140      79.8860       0.8960    -999.2500    -999.2500    -999.2500       0.3761       2.1980      87.6470
   1295.5530      17.3771   -1998.5000     131.7421      80.5139       0.8990    -999.2500    -999.2500    -999.2500       0.3618       2.2105      87.9876
   1295.7054      17.4340   -1998.5000     130.4820      81.1360       0.9020    -999.2500    -999.2500    -999.2500       0.3479       2.2230      88.3270
   1295.8578      17.4620   -1998.5000     129.2654      82.0673       0.9125    -999.2500    -999.2500    -999.2500       0.3464       2.2265      88.4037
   1296.0101      17.4900   -1998.5000     128.0600      82.9900       0.9230    -999.2500    -999.2500    -999.2500       0.3473       2.2300      88.4800
   1296.1626      17.4800   -1998.5000     128.5120      82.6098       0.9345    -999.2500    -999.2500    -999.2500       0.3531       2.2300      88.1643
   1296.3149      17.4700   -1998.5000     128.9600      82.2330       0.9460    -999.2500    -999.2500    -999.2500       0.3577       2.2300      87.8500
   1296.4674      17.5151   -1998.5000     129.1519      80.9011       0.9485    -999.2500    -999.2500    -999.2500       0.3480       2.2250      87.9151
   1296.6198      17.5600   -1998.5000     129.3420      79.5810       0.9510    -999.2500    -999.2500    -999.2500       0.3381       2.2200      87.9800
   1296.7722      17.4648   -1998.5000     129.4018      78.5254       0.9440    -999.2500    -999.2500    -999.2500       0.3397       2.2200      87.8548
   1296.9246      17.3700   -1998.5000     129.4610      77.4800       0.9370    -999.2500    -999.2500    -999.2500       0.3430       2.2200      87.7300
   1297.0770      17.4081   -1998.5000     130.0435      75.7009       0.9240    -999.2500    -999.2500    -999.2500       0.3470       2.2160      88.0166
   1297.2294      17.4460   -1998.5000     130.6200      73.9400       0.9110    -999.2500    -999.2500    -999.2500       0.3511       2.2120      88.3020
   1297.3818      17.5282   -1998.5000     131.0497      74.3571       0.8965    -999.2500    -999.2500    -999.2500       0.3549       2.2010      88.4403
   1297.5342      17.6100   -1998.5000     131.4750      74.7700       0.8820    -999.2500    -999.2500    -999.2500       0.3596       2.1900      88.5780
   1297.6866      17.5644   -1998.5000     133.0207      76.7901       0.8620    -999.2500    -999.2500    -999.2500       0.3702       2.1900      88.5940
   1297.8390      17.5190   -1998.5000     134.5510      78.7900       0.8420    -999.2500    -999.2500    -999.2500       0.3822       2.1900      88.6100
   1297.9913      17.4654   -1998.5000     135.5866      78.1368       0.8225    -999.2500    -999.2500    -999.2500       0.3979       2.2000      88.8048
   1298.1438      17.4120   -1998.5000     136.6120      77.4900       0.8030    -999.2500    -999.2500    -999.2500       0.4121       2.2100      88.9990
   1298.2961      17.3163   -1998.5000     136.7768      78.2623       0.7880    -999.2500    -999.2500    -999.2500       0.4118       2.2060      89.1007
   1298.4486      17.2210   -1998.5000     136.9400      79.0270       0.7730    -999.2500    -999.2500    -999.2500       0.4089       2.2020      89.2020
   1298.6010      17.1874   -1998.5000     136.6034      79.5611       0.7600    -999.2500    -999.2500    -999.2500       0.4037       2.1970      89.4063
   1298.7534      17.1540   -1998.5000     136.2700      80.0900       0.7470    -999.2500    -999.2500    -999.2500       0.3974       2.1920      89.6100
   1298.9058      17.1250   -1998.5000     136.4318      79.1103       0.7390    -999.2500    -999.2500    -999.2500       0.3865       2.1810      89.4197
   1299.0582      17.0960   -1998.5000     136.5920      78.1400       0.7310    -999.2500    -999.2500    -999.2500       0.3767       2.1700      89.2300
   1299.2106      17.0489   -1998.5000     138.0624      78.8684       0.7280    -999.2500    -999.2500    -999.2500       0.3789       2.1700      89.3777
   1299.3630      17.0020   -1998.5000     139.5190      79.5900       0.7250    -999.2500    -999.2500    -999.2500       0.3837       2.1700      89.5250
   1299.5154      16.8798   -1998.5000     140.1173      77.6812       0.7250    -999.2500    -999.2500    -999.2500       0.3920       2.1815      89.5676
   1299.6678      16.7580   -1998.5000     140.7100      75.7900       0.7250    -999.2500    -999.2500    -999.2500       0.3997       2.1930      89.6100
   1299.8202      13.9239   -1998.5000     139.1529      76.4681       0.7260    -999.2500    -999.2500    -999.2500       0.4005       2.2005      89.6100
   1299.9725      11.1000   -1998.5000     137.6100      77.1400       0.7270    -999.2500    -999.2500    -999.2500       0.3989       2.2080      89.6100
   1300.1250      11.5635   -1998.5000     137.6100      77.0144       0.7330    -999.2500    -999.2500    -999.2500       0.3909       2.2165      89.6100
   1300.2773      12.0250   -1998.5000     137.6100      76.8900       0.7390    -999.2500    -999.2500    -999.2500       0.3837       2.2250      89.6100
   1300.4298      13.2826   -1998.5000     137.7305      77.0452       0.7460    -999.2500    -999.2500    -999.2500       0.3887       2.2375      89.4627
   1300.5822      14.5350   -1998.5000     137.8500      77.1990       0.7530    -999.2500    -999.2500    -999.2500       0.3937       2.2500      89.3160
   1300.7346      15.4939   -1998.5000     136.8377      77.2950       0.7600    -999.2500    -999.2500    -999.2500       0.3879       2.2400      89.2268
   1300.8870      16.4490   -1998.5000     135.8350      77.3900       0.7670    -999.2500    -999.2500    -999.2500       0.3800       2.2300      89.1380
   1301.0394      16.7150   -1998.5000     134.9977      76.4602       0.7765    -999.2500    -999.2500    -999.2500       0.3707       2.2300      89.0588
   1301.1918      16.9800   -1998.5000     134.1690      75.5400       0.7860    -999.2500    -999.2500    -999.2500       0.3635       2.2300      88.9800
   1301.3442      16.9700   -1998.5000     133.4931      75.6656       0.7970    -999.2500    -999.2500    -999.2500       0.3695       2.2375      89.0757
   1301.4966      16.9600   -1998.5000     132.8240      75.7900       0.8080    -999.2500    -999.2500    -999.2500       0.3761       2.2450      89.1710
   1301.6490      16.9675   -1998.5000     130.9024      75.2483       0.8225    -999.2500    -999.2500    -999.2500       0.3741       2.2475      89.3258
   1301.8014      16.9750   -1998.5000     129.0000      74.7120       0.8370    -999.2500    -999.2500    -999.2500       0.3712       2.2500      89.4800
   1301.9537      17.0802   -1998.5000     129.9798      74.0342       0.8490    -999.2500    -999.2500    -999.2500       0.3714       2.2350      89.4344
   1302.1062      17.1850   -1998.5000     130.9500      73.3630       0.8610    -999.2500    -999.2500    -999.2500       0.3724       2.2200      89.3890
   1302.2585      17.3027   -1998.5000     130.6450      71.3417       0.8700    -999.2500    -999.2500    -999.2500       0.3753       2.2200      89.2282
