#------------------------------------------------------------------------------
#
#   Created by  : [OpenWorks] Log Export Utility (LEXP)
#   Created on  : 2016-05-23 11:52:02
#   Project     : CANT971
#   User        : R5K
#   Interpreter : PEP
#
#------------------------------------------------------------------------------
~VERSION INFORMATION
VERS. 2.0 : CWLS Log ASCII Standard - version 2.0
WRAP.  NO : One line per depth step
~WELL INFORMATION
#MNEMONIC   .UNIT                                           VALUE :DESCRIPTION
#------------------------------------------------------------------------------
STRT        .M                                           300.3808 :START DEPTH
STOP        .M                                          2575.7129 :STOP DEPTH
STEP        .M                                             0.1524 :STEP
NULL        .                                           -999.2500 :NULL VALUE
COMP        .                                   PEMEX EXPL & PROD :COMPANY
WELL        .                                                  19 :WELL
FLD         .                                           CANTARELL :FIELD
LOC         .                                             UNKNOWN :LOCATION
CNTY        .                                      CD. DEL CARMEN :COUNTY
STAT        .                                            CAMPECHE :STATE
CTRY        .                                              MEXICO :COUNTRY
SRVC        .                                             UNKNOWN :SERVICE COMPANY
DATE        .                                             UNKNOWN :LOG DATE
UWI         .                                          3060000151 :UNIQUE WELL ID
XCOORD      .                                       603362.598000 :SURFACE X
YCOORD      .                                      2145096.350000 :SURFACE Y
LAT         .                                           19.398572 :LATITUDE
LON         .                                          -92.015617 :LONGITUDE
ELEV        .M                                            27.1400 :SURFACE ELEV
ELEV_TYPE   .                                                  KB :ELEV TYPE
~CURVE INFORMATION
#MNEMONIC.UNIT        API CODE       : CURVE DESCRIPTION
#------------------------------------------------------------------------------
DEPTH    .M                          : Measured Depth
CALI     .inches      UNKNOWN        : CALI:Import:rC:NONE:v0 (auto-composite)
DRHO     .g/cm3       UNKNOWN        : DRHO:Import:rC:NONE:v0 (auto-composite)
DT       .us/ft       UNKNOWN        : DT:Import:rC:NONE:v0 (auto-composite)
GR       .API         UNKNOWN        : GR:Import:rC:NONE:v0 (auto-composite)
ILD      .ohm.m       UNKNOWN        : ILD:Import:rC:NONE:v0 (auto-composite)
LLD      .ohm.m       UNKNOWN        : LLD:Import:rC:NONE:v0 (auto-composite)
LLS      .ohm.m       UNKNOWN        : LLS:Import:rC:NONE:v0 (auto-composite)
NPHI     .v/v_decimal UNKNOWN        : NPHI:Import:rC:NONE:v0 (auto-composite)
RHOB     .g/cm3       UNKNOWN        : RHOB:RHOB-Load:rC:NONE:v0 (auto-composite)
~A     DEPTH         CALI         DRHO           DT           GR          ILD          LLD          LLS         NPHI         RHOB
# ...
   2114.5503       6.3330       0.0630      78.8818      45.2326       0.0010       6.5013       4.4267       0.1598       2.5820
   2114.7029       6.3330       0.0610      83.2660      47.7040       0.0010       8.1550       5.1050       0.1708       2.5690
   2114.8552       6.3345       0.0380      83.2535      51.3472       0.0010       7.8715       6.1503       0.1910       2.5930
   2115.0076       6.3360       0.0150      83.2410      54.9730       0.0010       7.5890       7.1890       0.2092       2.6170
   2115.1599       6.3711       0.0240      78.8733      53.4910       0.0010       6.6511       6.3694       0.2093       2.6340
   2115.3125       6.4060       0.0330      74.5260      52.0160       0.0010       5.7160       5.5550       0.2034       2.6510
   2115.4648       6.4742       0.0485      73.7683      51.1180       0.0010       6.1551       5.3945       0.1884       2.6320
   2115.6172       6.5420       0.0640      73.0140      50.2240       0.0010       6.5930       5.2350       0.1752       2.6130
   2115.7695       6.5625       0.0630      75.6789      50.8870       0.0010       6.0367       5.5083       0.1790       2.5945
   2115.9221       6.5830       0.0620      78.3320      51.5470       0.0010       5.4820       5.7800       0.1861       2.5760
   2116.0745       6.5615       0.0500      77.8735      52.8017       0.0010       5.2377       5.3196       0.1907       2.5825
   2116.2268       6.5400       0.0380      77.4170      54.0510       0.0010       4.9940       4.8620       0.1940       2.5890
   2116.3792       6.6247       0.0325      79.0038      54.7700       0.0010       5.0100       4.7166       0.1938       2.6020
   2116.5315       6.7090       0.0270      80.5840      55.4860       0.0010       5.0260       4.5720       0.1935       2.6150
   2116.6841       6.6734       0.0325      80.4407      55.1659       0.0010       4.8483       4.5194       0.1962       2.6030
   2116.8364       6.6380       0.0380      80.2980      54.8470       0.0010       4.6710       4.4670       0.1989       2.5910
   2116.9888       6.6109       0.0320      80.7258      54.9282       0.0010       4.6154       4.4279       0.1980       2.5750
   2117.1411       6.5840       0.0260      81.1520      55.0090       0.0010       4.5600       4.3890       0.1960       2.5590
   2117.2937       6.6577       0.0210      82.2376      56.0941       0.0010       4.7659       4.6865       0.1923       2.5520
   2117.4460       6.7310       0.0160      83.3190      57.1750       0.0010       4.9710       4.9820       0.1896       2.5450
   2117.5984       6.8102       0.0200      81.7391      59.0339       0.0010       4.7646       5.0126       0.1939       2.5550
   2117.7507       6.8890       0.0240      80.1650      60.8860       0.0010       4.5590       5.0430       0.1997       2.5650
   2117.9033       6.9527       0.0290      80.3684      62.1568       0.0010       4.2585       4.5880       0.2063       2.5765
   2118.0557       7.0160       0.0340      80.5710      63.4210       0.0010       3.9590       4.1360       0.2118       2.5880
   2118.2080       7.0636       0.0360      82.4332      63.6521       0.0010       3.8283       3.8526       0.2115       2.5835
   2118.3604       7.1110       0.0380      84.2890      63.8820       0.0010       3.6980       3.5710       0.2100       2.5790
   2118.5127       7.0935       0.0430      86.0754      63.8805       0.0010       3.6149       3.5138       0.2078       2.5705
   2118.6653       7.0760       0.0480      87.8530      63.8790       0.0010       3.5320       3.4570       0.2070       2.5620
   2118.8176       7.0645       0.0515      89.4378      63.4279       0.0010       3.2425       3.3020       0.2133       2.5580
   2118.9700       7.0530       0.0550      91.0150      62.9790       0.0010       2.9540       3.1480       0.2219       2.5540
   2119.1223       7.1141       0.0560      92.1882      61.4319       0.0010       2.9941       2.9489       0.2348       2.5505
   2119.2749       7.1750       0.0570      93.3560      59.8920       0.0010       3.0340       2.7510       0.2476       2.5470
   2119.4272       7.1905       0.0625      91.6081      59.2916       0.0010       3.7926       3.1111       0.2559       2.5445
   2119.5796       7.2060       0.0680      89.8680      58.6940       0.0010       4.5490       3.4690       0.2625       2.5420
   2119.7319       7.1013       0.0715      87.3154      59.3650       0.0010       4.2180       4.0553       0.2644       2.5535
   2119.8843       6.9970       0.0750      84.7740      60.0330       0.0010       3.8880       4.6380       0.2657       2.5650
   2120.0369       7.0757       0.0870      83.5253      59.4523       0.0010       3.5721       4.0673       0.2682       2.5850
   2120.1892       7.1540       0.0990      82.2820      58.8740       0.0010       3.2570       3.5000       0.2694       2.6050
   2120.3416       7.2973       0.1050      83.8998      57.7893       0.0010       3.5699       3.4032       0.2630       2.5970
   2120.4939       7.4400       0.1110      85.5110      56.7090       0.0010       3.8820       3.3070       0.2535       2.5890
   2120.6465       7.4981       0.1280      87.7926      55.8523       0.0010       4.2444       3.6836       0.2354       2.5820
   2120.7988       7.5560       0.1450      90.0650      54.9990       0.0010       4.6060       4.0580       0.2175       2.5750
   2120.9512       7.5680       0.1235      89.0756      54.9990       0.0010       4.6060       4.3957       0.2093       2.5895
   2121.1035       7.5800       0.1020      88.0900      54.9990       0.0010       4.6060       4.7310       0.2051       2.6040
   2121.2561       7.6321       0.1020      86.9158      55.1793       0.0010       4.1306       4.7305       0.2116       2.6490
   2121.4084       7.6840       0.1020      85.7460      55.3590       0.0010       3.6570       4.7300       0.2188       2.6940
   2121.5608       7.7271       0.1190      83.4368      55.4597       0.0010       3.6575       4.2072       0.2195       2.6940
   2121.7131       7.7700       0.1360      81.1360      55.5600       0.0010       3.6580       3.6880       0.2177       2.6940
   2121.8655       7.7740       0.1360      81.1465      55.8758       0.0010       3.8533       3.6885       0.2097       2.6124
   2122.0181       7.7780       0.1360      81.1570      56.1900       0.0010       4.0480       3.6890       0.2017       2.5310
   2122.1704       7.7780       0.1135      84.1646      57.1369       0.0010       4.0455       4.0101       0.2001       2.5310
   2122.3228       7.7780       0.0910      87.1620      58.0790       0.0010       4.0430       4.3290       0.2011       2.5310
   2122.4751       7.7780       0.0915      87.1515      57.7763       0.0010       3.6984       4.3265       0.2092       2.5310
   2122.6277       7.7780       0.0920      87.1410      57.4750       0.0010       3.3550       4.3240       0.2175       2.5310
   2122.7800       7.7489       0.0920      85.4485      57.4880       0.0010       3.3590       3.7557       0.2184       2.5765
   2122.9324       7.7200       0.0920      83.7640      57.5010       0.0010       3.3630       3.1910       0.2156       2.6220
   2123.0847       7.7210       0.0765      83.7986      58.8942       0.0010       3.9038       3.1965       0.1993       2.6220
   2123.2373       7.7220       0.0610      83.8330      60.2810       0.0010       4.4430       3.2020       0.1843       2.6220
   2123.3896       7.8062       0.0610      86.9014      64.0379       0.0010       4.4400       3.9402       0.1897       2.6000
   2123.5420       7.8900       0.0610      89.9560      67.7780       0.0010       4.4370       4.6740       0.2015       2.5780
   2123.6943       7.9857       0.0735      89.9224      67.7695       0.0010       4.1972       4.6710       0.2274       2.5785
   2123.8467       8.0810       0.0860      89.8890      67.7610       0.0010       3.9580       4.6680       0.2539       2.5790
