#------------------------------------------------------------------------------
#
#   Created by  : [OpenWorks] Log Export Utility (LEXP)
#   Created on  : 2016-05-23 11:57:25
#   Project     : CANT971
#   User        : R5K
#   Interpreter : PEP
#
#------------------------------------------------------------------------------
~VERSION INFORMATION
VERS. 2.0 : CWLS Log ASCII Standard - version 2.0
WRAP.  NO : One line per depth step
~WELL INFORMATION
#MNEMONIC   .UNIT                                           VALUE :DESCRIPTION
#------------------------------------------------------------------------------
STRT        .M                                           497.5860 :START DEPTH
STOP        .M                                          2904.1343 :STOP DEPTH
STEP        .M                                             0.1524 :STEP
NULL        .                                           -999.2500 :NULL VALUE
COMP        .                                   PEMEX EXPL & PROD :COMPANY
WELL        .                                                 82A :WELL
FLD         .                                           CANTARELL :FIELD
LOC         .                                             UNKNOWN :LOCATION
CNTY        .                                      CD. DEL CARMEN :COUNTY
STAT        .                                            CAMPECHE :STATE
CTRY        .                                              MEXICO :COUNTRY
SRVC        .                                             UNKNOWN :SERVICE COMPANY
DATE        .                                             UNKNOWN :LOG DATE
UWI         .                                          3060000184 :UNIQUE WELL ID
XCOORD      .                                       601716.340000 :SURFACE X
YCOORD      .                                      2142348.150000 :SURFACE Y
LAT         .                                           19.373822 :LATITUDE
LON         .                                          -92.031440 :LONGITUDE
ELEV        .M                                            24.0000 :SURFACE ELEV
ELEV_TYPE   .                                                  KB :ELEV TYPE
~CURVE INFORMATION
#MNEMONIC.UNIT        API CODE       : CURVE DESCRIPTION
#------------------------------------------------------------------------------
DEPTH    .M                          : Measured Depth
CAL      .inches      UNKNOWN        : CAL:UNKNOWN:rC:NONE:v0 (auto-composite)
DRHO     .g/cm3       UNKNOWN        : DRHO:UNKNOWN:rC:NONE:v0 (auto-composite)
DT       .us/ft       UNKNOWN        : DT:DT:rC:NONE:v0 (auto-composite)
GR       .api         UNKNOWN        : GR:GR-Load:rC:NONE:v0 (auto-composite)
ILD      .ohm.m       UNKNOWN        : ILD:PETROWORKS:rC:NONE:v1 
LLD      .ohmm        UNKNOWN        : LLD:UNKNOWN:rC:NONE:v0 (auto-composite)
LLS      .ohmm        UNKNOWN        : LLS:UNKNOWN:rC:NONE:v0 (auto-composite)
MSFL     .ohmm        UNKNOWN        : MSFL:PETROWORKS:rC:NONE:v1 
NPHI     .v/v_decimal UNKNOWN        : NPHI:NPHI:rC:NONE:v0 (auto-composite)
PEF      .b/elec      UNKNOWN        : PEF:UNKNOWN:rC:NONE:v0 (auto-composite)
RG       .API         UNKNOWN        : RG:UNKNOWN:rC:NONE:v0 (auto-composite)
RHOB     .g/cm3       UNKNOWN        : RHOB:UNKNOWN:rC:NONE:v0 (auto-composite)
~A     DEPTH          CAL         DRHO           DT           GR          ILD          LLD          LLS         MSFL         NPHI          PEF           RG         RHOB
# ...
   2033.7780       8.8652       0.0039    -999.2500      76.0302    -999.2500    1696.1920     326.3063    1985.9506       7.8524       3.2191      51.7975       2.6857
   2033.9304       8.9037       0.0089    -999.2500      69.1675    -999.2500    1762.1282     328.7747    1963.9152       8.2795       3.2555      63.3853       2.6663
   2034.0828       8.9330       0.0162    -999.2500      55.7754    -999.2500    1637.2999     316.5645    1821.5504       7.6755       3.2255      69.5433       2.6686
   2034.2352       8.9554       0.0252    -999.2500      46.7285    -999.2500    1372.1271     293.5551    1620.3849       6.7292       3.1466      71.7065       2.6871
   2034.3876       8.9713       0.0256    -999.2500      39.7354    -999.2500    1342.2998     287.7781    1677.8787       6.0350       3.0754      66.0269       2.7071
   2034.5400       8.9823       0.0196    -999.2500      37.3845    -999.2500    1486.7990     294.7656    1868.8931       5.4243       3.0099      54.5378       2.7280
   2034.6924       8.9936       0.0150    -999.2500      37.2205    -999.2500    1892.7737     310.0911    1941.9106       5.1263       3.0127      47.0078       2.7384
   2034.8448       9.0051       0.0115    -999.2500      37.5211    -999.2500    2493.1155     331.6147    1951.1952       4.9312       3.0661      42.4206       2.7409
   2034.9972       9.0191       0.0097    -999.2500      38.0406    -999.2500    2944.2595     344.3505    1969.8005       5.0438       3.0870      39.2890       2.7383
   2035.1497       9.0351       0.0092    -999.2500      37.7131    -999.2500    3283.7410     350.5094    1992.7024       5.2574       3.0835      37.2469       2.7318
   2035.3020       9.0480       0.0087    -999.2500      36.9863    -999.2500    3376.7090     352.7168    1948.6602       5.0936       3.0677      36.9005       2.7284
   2035.4543       9.0585       0.0082    -999.2500      35.3337    -999.2500    3284.5291     351.9564    1871.1649       4.8065       3.0428      37.8278       2.7274
   2035.6068       9.1006       0.0057    -999.2500      33.2463    -999.2500    3347.8228     355.3921    1883.9443       4.6624       3.0881      38.1035       2.7233
   2035.7592       9.1665       0.0017    -999.2500      33.4250    -999.2500    3528.6833     362.0007    1943.1179       4.5649       3.1865      37.8866       2.7168
   2035.9116       9.2723       0.0051    -999.2500      34.6684    -999.2500    3910.7529     369.4401    1976.0063       4.7163       3.1776      36.7100       2.7060
   2036.0640       9.4081       0.0141    -999.2500      35.2178    -999.2500    4445.5107     377.5099    1994.3279       4.9484       3.0872      34.8050       2.6921
   2036.2164       9.5452       0.0336    -999.2500      35.4408    -999.2500    4278.9971     376.0463    2000.4371       5.5402       2.9823      34.3642       2.6846
   2036.3688       9.6831       0.0611    -999.2500      36.7381    -999.2500    3576.6987     367.2991    2000.0657       6.2482       2.8663      35.0419       2.6821
   2036.5212       9.7834       0.0747    -999.2500      38.5385    -999.2500    2834.5164     354.1830    1999.9370       6.6055       2.8751      35.7822       2.6824
   2036.6736       9.8549       0.0777    -999.2500      42.2104    -999.2500    2061.7539     337.7172    1999.9370       6.8496       2.9795      36.5706       2.6849
   2036.8260       9.8116       0.0621    -999.2500      46.7590    -999.2500    1489.7145     315.2319    1998.8524       7.3294       3.1096      38.3127       2.6835
   2036.9784       9.6797       0.0321    -999.2500      50.8750    -999.2500    1072.6171     288.0999    1997.2430       7.8851       3.2595      40.7912       2.6790
   2037.1309       9.5348       0.0159    -999.2500      54.7889    -999.2500     815.0455     266.7897    1998.0229       8.2280       3.3109      45.5616       2.6711
   2037.2832       9.3799       0.0104    -999.2500      56.8843    -999.2500     681.4517     250.0040    2000.0037       8.5026       3.2859      52.1133       2.6606
   2037.4355       9.2943       0.0086    -999.2500      58.1302    -999.2500     697.4755     249.3382    2000.6870       8.6107       3.2714      55.7098       2.6538
   2037.5880       9.2628       0.0096    -999.2500      53.5441    -999.2500     830.1856     261.2443    2000.6870       8.6657       3.2649      57.0018       2.6498
   2037.7404       9.2361       0.0089    -999.2500      46.2329    -999.2500    1350.9951     287.4527    1991.4884       8.0581       3.2603      55.3227       2.6410
   2037.8928       9.2131       0.0069    -999.2500      39.4122    -999.2500    2176.5352     324.8910    1977.8711       7.2398       3.2573      51.3110       2.6285
   2038.0452       9.2041       0.0057    -999.2500      32.8199    -999.2500    3153.6323     349.0531    1982.3927       7.3169       3.2415      44.8306       2.6191
   2038.1976       9.2061       0.0052    -999.2500      30.1728    -999.2500    4250.1479     362.7542    1996.0100       7.6776       3.2155      36.4051       2.6121
   2038.3500       9.1894       0.0072    -999.2500      29.3633    -999.2500    5265.4507     371.8472    2000.6870       7.0491       3.1823      31.2837       2.5998
   2038.5024       9.1580       0.0112    -999.2500      28.6515    -999.2500    6216.3281     377.2849    2000.6870       6.1087       3.1433      28.7833       2.5833
   2038.6548       9.1657       0.0289    -999.2500      27.9853    -999.2500    7115.2280     383.1133    2000.6870       5.2613       3.1215      27.7662       2.5952
   2038.8073       9.2047       0.0573    -999.2500      28.1649    -999.2500    7972.7505     389.2527    2000.6870       4.4429       3.1136      27.9301       2.6297
   2038.9596       9.2578       0.0861    -999.2500      28.7374    -999.2500    8232.5410     392.8354    2000.6870       4.9224       3.1458      27.8230       2.6683
   2039.1119       9.3222       0.1151    -999.2500      29.9702    -999.2500    8013.2798     394.3691    2000.6870       5.8077       3.2102      27.4988       2.7103
   2039.2644       9.3587       0.1133    -999.2500      31.5096    -999.2500    7686.2632     394.6073    2000.6870       6.1064       3.2761      27.6065       2.7249
   2039.4167       9.3727       0.0869    -999.2500      31.1446    -999.2500    7272.3022     393.8001    2000.6870       6.2224       3.3430      28.0628       2.7174
   2039.5692       9.3807       0.0568    -999.2500      29.8946    -999.2500    7246.8599     395.2461    1994.6384       5.6124       3.3291      28.7117       2.7088
   2039.7216       9.3837       0.0238    -999.2500      28.0114    -999.2500    7535.9976     398.5164    1985.7252       4.7761       3.2497      29.5166       2.6993
   2039.8740       9.3916       0.0115    -999.2500      25.8350    -999.2500    9790.9346     402.7365    1952.6730       4.4986       3.1840      29.1806       2.7110
   2040.0264       9.4036       0.0160    -999.2500      24.0231    -999.2500   13648.3154     407.7308    1908.4784       4.3946       3.1295      27.9146       2.7400
   2040.1788       9.4098       0.0191    -999.2500      22.3802    -999.2500   16081.1699     411.9725    1899.3267       4.4166       3.1083      26.9487       2.7607
   2040.3312       9.4113       0.0211    -999.2500      21.9308    -999.2500   17348.7441     415.5984    1907.9922       4.4776       3.1143      26.2283       2.7747
   2040.4836       9.4334       0.0190    -999.2500      22.0343    -999.2500   18051.2715     416.4790    1941.1653       4.4128       3.1422      25.4845       2.7813
   2040.6360       9.4724       0.0135    -999.2500      22.3971    -999.2500   18288.4668     415.0986    1985.6074       4.3093       3.1882      24.7213       2.7818
   2040.7885       9.5108       0.0088    -999.2500      22.8796    -999.2500   18865.0098     415.2705    2000.6870       3.9906       3.1983      23.8060       2.7776
   2040.9408       9.5488       0.0048    -999.2500      23.9678    -999.2500   19721.9902     416.7253    2000.6870       3.6060       3.1788      22.7648       2.7696
