#------------------------------------------------------------------------------
#
#   Created by  : [OpenWorks] Log Export Utility (LEXP)
#   Created on  : 2016-05-23 11:57:21
#   Project     : CANT971
#   User        : R5K
#   Interpreter : PEP
#
#------------------------------------------------------------------------------
~VERSION INFORMATION
VERS. 2.0 : CWLS Log ASCII Standard - version 2.0
WRAP.  NO : One line per depth step
~WELL INFORMATION
#MNEMONIC   .UNIT                                           VALUE :DESCRIPTION
#------------------------------------------------------------------------------
STRT        .M                                           117.7290 :START DEPTH
STOP        .M                                          2309.5459 :STOP DEPTH
STEP        .M                                             0.1524 :STEP
NULL        .                                           -999.2500 :NULL VALUE
COMP        .                                   PEMEX EXPL & PROD :COMPANY
WELL        .                                                  7A :WELL
FLD         .                                           CANTARELL :FIELD
LOC         .                                             UNKNOWN :LOCATION
CNTY        .                                      CD. DEL CARMEN :COUNTY
STAT        .                                            CAMPECHE :STATE
CTRY        .                                              MEXICO :COUNTRY
SRVC        .                                             UNKNOWN :SERVICE COMPANY
DATE        .                                             UNKNOWN :LOG DATE
UWI         .                                          3060000143 :UNIQUE WELL ID
XCOORD      .                                       603360.310000 :SURFACE X
YCOORD      .                                      2145096.320000 :SURFACE Y
LAT         .                                           19.398572 :LATITUDE
LON         .                                          -92.015639 :LONGITUDE
ELEV        .M                                            27.1400 :SURFACE ELEV
ELEV_TYPE   .                                                  KB :ELEV TYPE
~CURVE INFORMATION
#MNEMONIC.UNIT        API CODE       : CURVE DESCRIPTION
#------------------------------------------------------------------------------
DEPTH    .M                          : Measured Depth
CALI     .in          UNKNOWN        : CALI:resistivos:rC:NONE:v0 (auto-composite)
DRHO     .g/cm3       UNKNOWN        : DRHO:PETROWORKS:rC:NONE:v2 
DT       .us/ft       UNKNOWN        : DT:DT:rC:NONE:v0 (auto-composite)
GR       .API         UNKNOWN        : GR:UNKNOWN:rC:NONE:v0 (auto-composite)
ILD      .ohmm        UNKNOWN        : ILD:resistivos:rC:NONE:v0 (auto-composite)
LLD      .ohm.m       UNKNOWN        : LLD:UNKNOWN:rC:NONE:v0 (auto-composite)
LLS      .ohm.m       UNKNOWN        : LLS:UNKNOWN:rC:NONE:v0 (auto-composite)
MSFL     .ohm.m       UNKNOWN        : MSFL:UNKNOWN:rC:NONE:v0 (auto-composite)
NPHI     .v/v_decimal     UNKNOWN        : NPHI:PETROWORKS:rC:NONE:v1 
RHOB     .g/cm3       UNKNOWN        : RHOB:UNKNOWN:rC:NONE:v0 (auto-composite)
SN       .ohm.m       UNKNOWN        : SN:UNKNOWN:rC:NONE:v0 (auto-composite)
~A     DEPTH         CALI         DRHO           DT           GR          ILD          LLD          LLS         MSFL         NPHI         RHOB           SN
# ...
   1591.7418       6.9803       0.0568    -999.2500      37.2339    -999.2500     175.9319      99.6069     106.0216       0.0851       2.7090    -999.2500
   1591.8942       6.9408       0.0566    -999.2500      39.0736    -999.2500     151.8938     103.0654     149.5963       0.0853       2.7030    -999.2500
   1592.0466       6.9387       0.0566    -999.2500      39.7537    -999.2500     139.7890     116.8744     143.4750       0.0848       2.6943    -999.2500
   1592.1990       6.9742       0.0566    -999.2500      39.2575    -999.2500     139.7890     141.1826      86.9440       0.0861       2.6828    -999.2500
   1592.3514       6.9913       0.0567    -999.2500      38.4629    -999.2500     139.1373     152.0145      75.9923       0.0885       2.6700    -999.2500
   1592.5038       6.9898       0.0568    -999.2500      37.3714    -999.2500     137.8368     149.4336     110.4060       0.0908       2.6560    -999.2500
   1592.6562       6.9743       0.0572    -999.2500      36.7535    -999.2500     133.3185     143.2615     103.9633       0.0930       2.6438    -999.2500
   1592.8086       6.9448       0.0577    -999.2500      36.6086    -999.2500     125.5865     133.5026      56.7157       0.0924       2.6333    -999.2500
   1592.9611       6.9355       0.0587    -999.2500      36.4530    -999.2500     121.9672     134.0387      56.4539       0.0900       2.6287    -999.2500
   1593.1134       6.9465       0.0597    -999.2500      36.2866    -999.2500     122.4830     144.9255     103.4326       0.0875       2.6302    -999.2500
   1593.2657       6.9640       0.0607    -999.2500      36.3843    -999.2500     123.9290     148.5296     119.6485       0.0850       2.6367    -999.2500
   1593.4182       6.9880       0.0613    -999.2500      36.7485    -999.2500     126.3135     144.7862     104.8278       0.0823       2.6482    -999.2500
   1593.5706       7.0002       0.0610    -999.2500      37.3477    -999.2500     125.8228     130.4456      84.2006       0.0794       2.6724    -999.2500
   1593.7230       7.0007       0.0605    -999.2500      38.1855    -999.2500     122.4118     105.3420      57.6761       0.0768       2.7095    -999.2500
   1593.8754       7.0080       0.0595    -999.2500      39.2316    -999.2500     115.5414      93.0237      61.4947       0.0744       2.7270    -999.2500
   1594.0278       7.0220       0.0587    -999.2500      40.4845    -999.2500     105.2345      93.4059      95.4549       0.0737       2.7250    -999.2500
   1594.1802       7.0442       0.0582    -999.2500      41.0283    -999.2500      96.3259      96.5156     109.3758       0.0741       2.7215    -999.2500
   1594.3326       7.0747       0.0580    -999.2500      40.8630    -999.2500      88.8156     102.3527     103.2574       0.0743       2.7165    -999.2500
   1594.4850       7.1045       0.0586    -999.2500      40.5118    -999.2500      86.3077     105.1146      85.6170       0.0743       2.7155    -999.2500
   1594.6375       7.1335       0.0591    -999.2500      39.9735    -999.2500      88.8357     104.7808      56.3776       0.0740       2.7185    -999.2500
   1594.7898       7.1368       0.0593    -999.2500      39.0101    -999.2500      93.4987     110.7892      47.0925       0.0735       2.7183    -999.2500
   1594.9423       7.1143       0.0594    -999.2500      37.6173    -999.2500     100.3185     123.2044      57.9644       0.0720       2.7148    -999.2500
   1595.0946       7.0691       0.0592    -999.2500      37.5651    -999.2500     108.3291     121.4089     141.1222       0.0698       2.7033    -999.2500
   1595.2469       7.0011       0.0590    -999.2500      38.8762    -999.2500     117.5507     105.1623     297.7885       0.0672       2.6838    -999.2500
   1595.3994       6.9288       0.0588    -999.2500      39.1070    -999.2500     135.6534     100.9525     334.5639       0.0644       2.6758    -999.2500
   1595.5518       6.8523       0.0589    -999.2500      38.2632    -999.2500     162.5895     108.7145     252.0946       0.0633       2.6793    -999.2500
   1595.7042       6.8477       0.0593    -999.2500      36.7616    -999.2500     203.9497     137.7646     170.3122       0.0633       2.6842    -999.2500
   1595.8566       6.9152       0.0597    -999.2500      34.6016    -999.2500     259.7521     188.1293      89.2178       0.0637       2.6907    -999.2500
   1596.0090       6.9408       0.0602    -999.2500      32.9189    -999.2500     279.0574     208.6925      55.8423       0.0642       2.6915    -999.2500
   1596.1614       6.9243       0.0608    -999.2500      31.7159    -999.2500     261.6934     199.3133      70.4111       0.0661       2.6865    -999.2500
   1596.3138       6.9362       0.0617    -999.2500      31.2022    -999.2500     223.5047     174.6614     136.6849       0.0689       2.6741    -999.2500
   1596.4662       6.9767       0.0626    -999.2500      31.3856    -999.2500     164.2533     134.5622     255.2547       0.0731       2.6541    -999.2500
   1596.6187       6.9479       0.0635    -999.2500      32.2692    -999.2500     112.9997      93.2022     309.9672       0.0782       2.6281    -999.2500
   1596.7710       6.8494       0.0642    -999.2500      33.8635    -999.2500      69.8634      50.5626     299.8687       0.0820       2.5960    -999.2500
   1596.9235       6.8115       0.0646    -999.2500      34.6575    -999.2500      41.8366      30.0610     281.3727       0.0851       2.5885    -999.2500
   1597.0758       6.8345       0.0650    -999.2500      34.6545    -999.2500      28.8567      31.6059     254.5138       0.0847       2.6055    -999.2500
   1597.2281       6.9193       0.0652    -999.2500      34.5383    -999.2500      24.8570      35.6711     197.8948       0.0823       2.6387    -999.2500
   1597.3806       7.0663       0.0653    -999.2500      34.3090    -999.2500      29.8314      42.2552     111.5361       0.0799       2.6882    -999.2500
   1597.5330       7.1390       0.0651    -999.2500      33.8990    -999.2500      45.3192      53.3565     154.7897       0.0776       2.7105    -999.2500
   1597.6854       7.1370       0.0649    -999.2500      33.3073    -999.2500      71.3835      69.0023     328.4312       0.0779       2.7055    -999.2500
   1597.8378       7.1128       0.0644    -999.2500      32.8141    -999.2500      82.2181      70.2429     373.1095       0.0797       2.6928    -999.2500
   1597.9902       7.0663       0.0638    -999.2500      32.4204    -999.2500      77.6789      56.9419     287.6037       0.0837       2.6723    -999.2500
   1598.1426       6.9770       0.0628    -999.2500      32.2220    -999.2500      69.4876      50.4372     198.6309       0.0889       2.6630    -999.2500
   1598.2950       6.8445       0.0618    -999.2500      32.2220    -999.2500      57.5851      50.8388     106.1350       0.0934       2.6650    -999.2500
   1598.4474       6.7780       0.0607    -999.2500      32.2220    -999.2500      58.0574      52.5611      61.9477       0.0974       2.6635    -999.2500
   1598.5999       6.7780       0.0598    -999.2500      32.2220    -999.2500      70.8293      55.5961      65.7756       0.0972       2.6585    -999.2500
   1598.7522       6.7920       0.0589    -999.2500      32.2220    -999.2500      76.6122      56.4645     111.4827       0.0944       2.6450    -999.2500
   1598.9047       6.8200       0.0585    -999.2500      32.2220    -999.2500      75.4022      55.1650     199.0929       0.0896       2.6230    -999.2500
   1599.0570       6.8834       0.0586    -999.2500      31.9632    -999.2500      69.7152      51.8451     217.7117       0.0836       2.6207    -999.2500
   1599.2094       6.9824       0.0589    -999.2500      31.4447    -999.2500      59.5332      46.4966     167.0614       0.0796       2.6382    -999.2500
   1599.3618       7.0994       0.0592    -999.2500      31.9523    -999.2500      46.3965      37.4805     107.7193       0.0769       2.6468    -999.2500
   1599.5142       7.2343       0.0594    -999.2500      33.4971    -999.2500      30.2735      24.7575      39.5923       0.0791       2.6463    -999.2500
