#------------------------------------------------------------------------------
#
#   Created by  : [OpenWorks] Log Export Utility (LEXP)
#   Created on  : 2016-05-23 11:57:21
#   Project     : CANT971
#   User        : R5K
#   Interpreter : PEP
#
#------------------------------------------------------------------------------
~VERSION INFORMATION
VERS. 2.0 : CWLS Log ASCII Standard - version 2.0
WRAP.  NO : One line per depth step
~WELL INFORMATION
#MNEMONIC   .UNIT                                           VALUE :DESCRIPTION
#------------------------------------------------------------------------------
STRT        .M                                           117.7290 :START DEPTH
STOP        .M                                          2309.5459 :STOP DEPTH
STEP        .M                                             0.1524 :STEP
NULL        .                                           -999.2500 :NULL VALUE
COMP        .                                   PEMEX EXPL & PROD :COMPANY
WELL        .                                                  7A :WELL
FLD         .                                           CANTARELL :FIELD
LOC         .                                             UNKNOWN :LOCATION
CNTY        .                                      CD. DEL CARMEN :COUNTY
STAT        .                                            CAMPECHE :STATE
CTRY        .                                              MEXICO :COUNTRY
SRVC        .                                             UNKNOWN :SERVICE COMPANY
DATE        .                                             UNKNOWN :LOG DATE
UWI         .                                          3060000143 :UNIQUE WELL ID
XCOORD      .                                       603360.310000 :SURFACE X
YCOORD      .                                      2145096.320000 :SURFACE Y
LAT         .                                           19.398572 :LATITUDE
LON         .                                          -92.015639 :LONGITUDE
ELEV        .M                                            27.1400 :SURFACE ELEV
ELEV_TYPE   .                                                  KB :ELEV TYPE
~CURVE INFORMATION
#MNEMONIC.UNIT        API CODE       : CURVE DESCRIPTION
#------------------------------------------------------------------------------
DEPTH    .M                          : Measured Depth
CALI     .in          UNKNOWN        : CALI:resistivos:rC:NONE:v0 (auto-composite)
DRHO     .g/cm3       UNKNOWN        : DRHO:PETROWORKS:rC:NONE:v2 
DT       .us/ft       UNKNOWN        : DT:DT:rC:NONE:v0 (auto-composite)
GR       .API         UNKNOWN        : GR:UNKNOWN:rC:NONE:v0 (auto-composite)
ILD      .ohmm        UNKNOWN        : ILD:resistivos:rC:NONE:v0 (auto-composite)
LLD      .ohm.m       UNKNOWN        : LLD:UNKNOWN:rC:NONE:v0 (auto-composite)
LLS      .ohm.m       UNKNOWN        : LLS:UNKNOWN:rC:NONE:v0 (auto-composite)
MSFL     .ohm.m       UNKNOWN        : MSFL:UNKNOWN:rC:NONE:v0 (auto-composite)
NPHI     .v/v_decimal     UNKNOWN        : NPHI:PETROWORKS:rC:NONE:v1 
RHOB     .g/cm3       UNKNOWN        : RHOB:UNKNOWN:rC:NONE:v0 (auto-composite)
SN       .ohm.m       UNKNOWN        : SN:UNKNOWN:rC:NONE:v0 (auto-composite)
~A     DEPTH         CALI         DRHO           DT           GR          ILD          LLD          LLS         MSFL         NPHI         RHOB           SN
# ...
   1758.1626       6.9175       0.0621      93.1928      18.3262    -999.2500     329.5212     235.8891      81.0507       0.0744       2.6918    -999.2500
   1758.3151       7.0465       0.0604      77.8333      18.7018    -999.2500     309.8141     187.2398      40.8849       0.0666       2.6872    -999.2500
   1758.4674       7.1100       0.0585      73.1464      18.8670    -999.2500     289.7119     167.1699      20.9767       0.0714       2.6853    -999.2500
   1758.6198       7.1080       0.0570      79.0727      18.8230    -999.2500     269.2170     175.5205      21.2135       0.0773       2.6858    -999.2500
   1758.7722       7.0813       0.0561      78.1628      18.2678    -999.2500     260.6136     174.1986      25.4168       0.0794       2.6920    -999.2500
   1758.9246       7.0298       0.0556      70.4531      17.2007    -999.2500     263.9147     163.1938      33.5908       0.0813       2.7040    -999.2500
   1759.0770       6.9968       0.0556      68.1905      16.0504    -999.2500     264.6843     163.8780      59.2573       0.0765       2.7127    -999.2500
   1759.2294       6.9823       0.0558      71.3474      14.8164    -999.2500     262.9107     176.3042     102.4958       0.0711       2.7182    -999.2500
   1759.3818       6.9258       0.0561      71.6359      13.8518    -999.2500     262.2253     178.9449     138.4946       0.0654       2.7210    -999.2500
   1759.5342       6.8273       0.0562      69.0700      13.1596    -999.2500     262.6401     171.6900     167.1722       0.0598       2.7210    -999.2500
   1759.6866       6.7780       0.0561      70.3543      12.3199    -999.2500     269.4921     168.3713     183.5989       0.0545       2.7212    -999.2500
   1759.8390       6.7780       0.0560      75.4711      11.3306    -999.2500     282.8763     169.0469     187.5938       0.0493       2.7217    -999.2500
   1759.9915       6.7780       0.0559      77.7780      10.0709    -999.2500     396.0242     191.1782     249.2228       0.0481       2.7255    -999.2500
   1760.1438       6.7780       0.0560      77.2870       8.5421    -999.2500     608.5049     234.6724     368.2369       0.0473       2.7325    -999.2500
   1760.2963       6.7780       0.0563      78.6693       7.7780    -999.2500     713.1676     248.0116     426.0587       0.0558       2.7470    -999.2500
   1760.4486       6.7780       0.0566      81.9172       7.7780    -999.2500     710.1061     231.2220     422.7414       0.0652       2.7690    -999.2500
   1760.6010       6.7780       0.0571      80.0257       7.7847    -999.2500     681.7711     223.4394     390.9211       0.0682       2.7798    -999.2500
   1760.7534       6.7780       0.0576      73.0144       7.7982    -999.2500     628.0158     224.7158     330.4322       0.0706       2.7793    -999.2500
   1760.9058       6.7800       0.0581      69.5709       7.9472    -999.2500     598.7017     246.9288     254.4009       0.0685       2.7730    -999.2500
   1761.0582       6.7840       0.0583      69.6824       8.2330    -999.2500     594.0555     290.2727     162.6827       0.0659       2.7610    -999.2500
   1761.2106       6.8248       0.0585      71.5260       8.7003    -999.2500     554.6490     310.8563     152.0010       0.0655       2.7468    -999.2500
   1761.3630       6.9022       0.0583      75.0904       9.3521    -999.2500     479.9248     308.3148     223.6546       0.0654       2.7302    -999.2500
   1761.5154       6.9812       0.0580      75.6904       9.7579    -999.2500     397.4796     285.4216     211.0164       0.0739       2.7145    -999.2500
   1761.6678       7.0617       0.0576      73.3444       9.9193    -999.2500     307.3617     242.3040     114.6136       0.0834       2.6995    -999.2500
   1761.8202       7.1092       0.0571      72.8432      10.0000    -999.2500     238.8319     191.3481      67.2115       0.0961       2.6723    -999.2500
   1761.9727       7.1237       0.0568      74.1757      10.0000    -999.2500     191.8987     132.5510      68.8288       0.1091       2.6328    -999.2500
   1762.1250       7.1537       0.0567      73.0436      10.0000    -999.2500     134.9170      90.2452     104.4884       0.1173       2.5826    -999.2500
   1762.2773       7.1992       0.0565      69.4613      10.0000    -999.2500      67.8484      64.4941     174.3213       0.1249       2.5216    -999.2500
   1762.4298       7.2220       0.0564      67.7883       9.7846    -999.2500      34.4643      44.9841     183.7350       0.1262       2.4932    -999.2500
   1762.5822       7.2220       0.0562      68.0143       9.3514    -999.2500      35.1202      31.7811     132.0920       0.1268       2.4977    -999.2500
   1762.7346       7.2220       0.0560      72.2134       9.3480    -999.2500      43.7675      25.2304     106.1618       0.1166       2.5400    -999.2500
   1762.8870       7.2220       0.0560      80.3646       9.7817    -999.2500      60.5445      25.4470     106.3895       0.1052       2.6207    -999.2500
   1763.0394       7.2218       0.0560      84.2633       9.9942    -999.2500      94.9332      28.0747     127.6618       0.0841       2.6866    -999.2500
   1763.1918       7.2213       0.0563      83.9308       9.9867    -999.2500     146.8453      33.1016     169.8736       0.0619       2.7375    -999.2500
   1763.3442       7.2133       0.0566      78.1997       9.7095    -999.2500     180.6716      51.9784     185.4665       0.0554       2.7630    -999.2500
   1763.4966       7.1978       0.0570      67.0955       9.1630    -999.2500     196.4405      84.6837     174.4822       0.0507       2.7630    -999.2500
   1763.6490       7.1550       0.0575      61.6580       8.8890    -999.2500     248.4819     120.3083     204.1000       0.0553       2.7625    -999.2500
   1763.8014       7.0850       0.0578      61.8615       8.8890    -999.2500     336.9813     158.8672     274.5273       0.0610       2.7615    -999.2500
   1763.9539       6.9821       0.0580      63.7848       8.8890    -999.2500     457.3843     204.1512     308.6423       0.0628       2.7555    -999.2500
   1764.1062       6.8461       0.0578      67.4207       8.8890    -999.2500     610.0684     256.2397     306.0154       0.0642       2.7445    -999.2500
   1764.2585       6.7780       0.0573      77.3620       8.8905    -999.2500     685.7782     281.1120     286.3661       0.0629       2.7395    -999.2500
   1764.4110       6.7780       0.0566      93.5835       8.8935    -999.2500     683.3339     278.3509     249.4335       0.0613       2.7405    -999.2500
   1764.5634       6.7780       0.0557      97.8246       8.9348    -999.2500     656.7831     260.1234     209.8254       0.0608       2.7463    -999.2500
   1764.7158       6.7780       0.0554      90.1304       9.0143    -999.2500     606.2164     226.4874     167.5516       0.0605       2.7568    -999.2500
   1764.8682       6.7780       0.0555      86.3434       9.2903    -999.2500     496.1423     206.1586     143.0051       0.0620       2.7637    -999.2500
   1765.0206       6.7780       0.0559      86.4499       9.7629    -999.2500     326.5789     199.1330     136.1803       0.0637       2.7672    -999.2500
   1765.1730       6.7780       0.0565      87.7264      10.0000    -999.2500     202.0035     172.6884     112.9442       0.0663       2.7690    -999.2500
   1765.3254       6.7780       0.0569      90.1653      10.0000    -999.2500     122.7028     126.7013      73.1924       0.0690       2.7690    -999.2500
   1765.4778       6.7780       0.0571      91.0678      10.0000    -999.2500      83.3094     104.1240      53.8867       0.0709       2.7670    -999.2500
   1765.6302       6.7780       0.0570      90.4433      10.0000    -999.2500      84.2166     105.1871      55.2285       0.0727       2.7630    -999.2500
   1765.7826       6.7780       0.0568      84.6727      10.0070    -999.2500     112.9001     125.9710      79.0068       0.0761       2.7501    -999.2500
   1765.9351       6.7780       0.0566      73.7865      10.0210    -999.2500     169.8209     166.8032     125.5939       0.0796       2.7280    -999.2500
