#------------------------------------------------------------------------------
#
#   Created by  : [OpenWorks] Log Export Utility (LEXP)
#   Created on  : 2016-05-23 11:56:14
#   Project     : CANT971
#   User        : R5K
#   Interpreter : PEP
#
#------------------------------------------------------------------------------
~VERSION INFORMATION
VERS. 2.0 : CWLS Log ASCII Standard - version 2.0
WRAP.  NO : One line per depth step
~WELL INFORMATION
#MNEMONIC   .UNIT                                           VALUE :DESCRIPTION
#------------------------------------------------------------------------------
STRT        .M                                          1862.0000 :START DEPTH
STOP        .M                                          3052.8535 :STOP DEPTH
STEP        .M                                             0.1524 :STEP
NULL        .                                           -999.2500 :NULL VALUE
COMP        .                                   PEMEX EXPL & PROD :COMPANY
WELL        .                                                446D :WELL
FLD         .                                           CANTARELL :FIELD
LOC         .                                             UNKNOWN :LOCATION
CNTY        .                                      CD. DEL CARMEN :COUNTY
STAT        .                                            CAMPECHE :STATE
CTRY        .                                              MEXICO :COUNTRY
SRVC        .                                             UNKNOWN :SERVICE COMPANY
DATE        .                                             UNKNOWN :LOG DATE
UWI         .                                            W-C-446D :UNIQUE WELL ID
XCOORD      .                                       598705.170000 :SURFACE X
YCOORD      .                                      2143305.170000 :SURFACE Y
LAT         .                                           19.382621 :LATITUDE
LON         .                                          -92.060061 :LONGITUDE
ELEV        .M                                            28.0000 :SURFACE ELEV
ELEV_TYPE   .                                                  KB :ELEV TYPE
~CURVE INFORMATION
#MNEMONIC.UNIT        API CODE       : CURVE DESCRIPTION
#------------------------------------------------------------------------------
DEPTH    .M                          : Measured Depth
CALI     .inches      UNKNOWN        : CALI:litodensidad:rC:NONE:v0 (auto-composite)
CGR      .API         UNKNOWN        : CGR:CGR-Load:rC:NONE:v0 (auto-composite)
DRHO     .g/cm3       UNKNOWN        : DRHO:litodensidad:rC:NONE:v0 (auto-composite)
DT       .us/ft       UNKNOWN        : DT:DT-Load:rC:NONE:v0 (auto-composite)
GR       .UNKNOWN     UNKNOWN        : GR:PETROWORKS:rC:NONE:v1 
LLD      .ohm.m       UNKNOWN        : LLD:PETROWORKS:rC:NONE:v1 
LLS      .UNKNOWN     UNKNOWN        : LLS:PETROWORKS:rC:NONE:v1 
MSFL     .UNKNOWN     UNKNOWN        : MSFL:PETROWORKS:rC:NONE:v1 
NPHI     .v/v_decimal UNKNOWN        : NPHI:PETROWORKS:rC:NONE:v2 
PEF      .UNKNOWN     UNKNOWN        : PEF:litodensidad:rC:NONE:v0 (auto-composite)
POTA     .UNKNOWN     UNKNOWN        : POTA:radioactividad:rC:NONE:v0 (auto-composite)
RHOB     .g/cm3       UNKNOWN        : RHOB:litodensidad:rC:NONE:v0 (auto-composite)
THOR     .ppm         UNKNOWN        : THOR:radioactividad:rC:NONE:v0 (auto-composite)
URAN     .ppm         UNKNOWN        : URAN:radioactividad:rC:NONE:v0 (auto-composite)
~A     DEPTH         CALI          CGR         DRHO           DT           GR          LLD          LLS         MSFL         NPHI          PEF         POTA         RHOB         THOR         URAN
# ...
   2521.2825    -999.2500    -999.2500    -999.2500    -999.2500      32.6134    1992.5172    1701.2950    1619.7380    -999.2500    -999.2500    -999.2500    -999.2500    -999.2500    -999.2500
   2521.4348    -999.2500    -999.2500    -999.2500    -999.2500      34.4632    1880.9470    1162.3018    1359.9547    -999.2500    -999.2500    -999.2500    -999.2500    -999.2500    -999.2500
   2521.5872    -999.2500    -999.2500    -999.2500    -999.2500      33.4923    1669.4150     656.2167     706.5585    -999.2500    -999.2500    -999.2500    -999.2500    -999.2500    -999.2500
   2521.7395    -999.2500    -999.2500    -999.2500    -999.2500      32.3519    1831.0778    1144.9285    1043.5328    -999.2500    -999.2500    -999.2500    -999.2500    -999.2500    -999.2500
   2521.8921    -999.2500    -999.2500    -999.2500    -999.2500      31.9815    1989.3883    1495.5988    1539.5830    -999.2500    -999.2500    -999.2500    -999.2500    -999.2500    -999.2500
   2522.0444    -999.2500    -999.2500    -999.2500    -999.2500      31.8879    2000.0000     910.9693    1044.7662    -999.2500    -999.2500    -999.2500    -999.2500    -999.2500    -999.2500
   2522.1968    -999.2500    -999.2500    -999.2500    -999.2500      31.1637    2000.0000     643.9814     547.6225    -999.2500    -999.2500    -999.2500    -999.2500    -999.2500    -999.2500
   2522.3491    -999.2500    -999.2500    -999.2500    -999.2500      30.8355    2000.0000     681.4598     583.2658    -999.2500    -999.2500    -999.2500    -999.2500    -999.2500    -999.2500
   2522.5017    -999.2500    -999.2500    -999.2500    -999.2500      31.9744    2000.0000     994.7574    1378.6375    -999.2500    -999.2500    -999.2500    -999.2500    -999.2500    -999.2500
   2522.6541       3.3207      12.2215      -0.8239    -999.2500      33.0323    2000.0000    1511.8671    1822.3539       0.1187     150.6791       0.0039       2.3907       0.9318       1.2669
   2522.8064       3.3118      10.4948      -0.8179    -999.2500      32.5377    2000.0000    1419.9919    1352.1545       0.1196    2295.5747       0.0032       2.3966       0.8557       1.2367
   2522.9587       3.3108      11.6774      -0.7978    -999.2500      32.9397    2000.0000    1256.6262    1122.4937       0.1163     648.8207       0.0033       2.4455       1.0851       1.3756
   2523.1111       3.3140      10.9740      -0.7898    -999.2500      34.1183    2000.0000    1657.1622    1561.9146       0.1174     245.0358       0.0032       2.4478       0.9514       1.2893
   2523.2637       3.3177      12.0731      -0.8120    -999.2500      34.6603    2000.0000    1509.8265    1264.0234       0.1218     176.3805       0.0038       2.3889       0.9206       1.6754
   2523.4160       3.3151      11.8447      -0.8154    -999.2500      37.7229    2000.0000    1286.6022     935.3405       0.1325      84.4984       0.0037       2.3679       0.8996       1.7649
   2523.5684       3.3134       9.0048      -0.8011    -999.2500      42.5986    2000.0000    1046.1226     750.5682       0.1370    -382.6427       0.0028       2.3871       0.7240       1.7128
   2523.7207       3.3267       7.7607      -0.8009    -999.2500      42.6316    2000.0000    1095.5076     690.1025       0.1360      37.1573       0.0021       2.3686       0.7511       1.7246
   2523.8733       3.3129       5.6458      -0.8109    -999.2500      37.7647    2000.0000    1168.2145     636.6359       0.1343     100.6747       0.0013       2.3227       0.6085       1.6530
   2524.0256       3.3169       6.8120      -0.8130    -999.2500      34.6774    1985.8889     994.3003     490.5905       0.1325      53.8235       0.0015       2.2932       0.8102       1.7254
   2524.1780       3.3244       9.9725      -0.7904    -999.2500      35.7849    1810.5106     593.3934     361.8027       0.1271     131.5581       0.0027       2.3249       0.9399       1.8379
   2524.3303       3.3151      11.4634      -0.7879    -999.2500      38.3878    1605.0836     331.3503     176.1718       0.1220     146.2333       0.0031       2.3158       1.0946       1.9136
   2524.4829       3.3144      13.4629      -0.7885    -999.2500      40.2414    1885.5050     491.0927     129.3883       0.1149     259.9841       0.0036       2.3010       1.2913       1.9834
   2524.6353       3.3115      11.8987      -0.8028    -999.2500      41.5476    2000.0000    1037.2939     168.0333       0.1191      86.4445       0.0031       2.2602       1.1797       1.8888
   2524.7876       3.3263      11.7081      -0.8023    -999.2500      42.7477    2000.0000    1224.2462     204.5292       0.1253      50.5436       0.0030       2.2661       1.1716       1.8779
   2524.9399       3.3261      11.9708      -0.8098    -999.2500      43.3429    2000.0000    1155.4514     432.9518       0.1427      57.3968       0.0031       2.2630       1.1861       1.8886
   2525.0923       3.3163      10.8162      -0.8092    -999.2500      42.1103    2000.0000    1715.8726    1112.0339       0.1499    -165.3220       0.0032       2.2746       0.9070       1.6022
   2525.2449       3.3134      11.8981      -0.8127    -999.2500      39.9412    2000.0000    1815.2944    1121.8374       0.1504    -999.2500       0.0038       2.2547       0.9108       1.5535
   2525.3972       3.3144      12.2982      -0.8270    -999.2500      39.4505    1997.7841    1097.6053     483.5730       0.1444    -999.2500       0.0040       2.1853       0.8928       1.5313
   2525.5496       3.3115      12.8047      -0.8892    -999.2500      39.3226    1875.4752     418.5850     229.0263       0.1370    2212.8784       0.0044       1.9690       0.8174       1.4893
   2525.7019       3.3156      12.4841      -0.9548    -999.2500      38.0689    1340.9648     207.8300     129.9600       0.1510     538.0162       0.0045       1.7594       0.7301       1.4030
   2525.8545       3.3149      13.3967      -0.9760    -999.2500      37.3876    1000.1013     257.5176     120.9297       0.1996     161.9878       0.0049       1.7035       0.7415       1.4011
   2526.0068       3.3107      12.6407      -0.9426    -999.2500      37.4646    1527.7589     814.9379     426.2786       0.2411       9.8190       0.0046       1.8395       0.7330       1.3543
   2526.1592       3.3077      13.6579      -0.8666    -999.2500      36.8478    1939.7336    1631.8893    1016.9663       0.2376    -999.2500       0.0051       2.1145       0.7431       1.3940
   2526.3115       3.3150      11.8057      -0.8075    -999.2500      35.9601    2000.0000    1577.7095     881.4590       0.1833    -999.2500       0.0050       2.3028       0.3796       1.2779
   2526.4641       3.3087      11.8057      -0.7840    -999.2500      35.6257    2000.0000     876.5640     871.2872       0.1396    -999.2500       0.0048       2.3551       0.4582       1.3185
   2526.6165       3.3073      13.4570      -0.7770    -999.2500      36.4992    2000.0000     668.5612    1536.0735       0.1213    -999.2500       0.0048       2.3688       0.8046       1.5218
   2526.7688       3.3231      12.2804      -0.7747    -999.2500      37.4401    2000.0000     985.4066    1887.1221       0.1188    -999.2500       0.0044       2.3813       0.7234       1.4968
   2526.9211       3.3102       7.4276      -0.7756    -999.2500      36.0079    1995.0138    1291.1982    1826.9958       0.1132     433.9781       0.0024       2.3894       0.5771       1.4816
   2527.0735       3.3165       9.0415      -0.7732    -999.2500      33.8103    1856.9677    1221.7562    1599.9532       0.1118     130.5279       0.0033       2.4074       0.5362       1.6805
   2527.2261       3.3090       9.1787      -0.7692    -999.2500      33.4021    1402.8319     717.3458     897.5431       0.1134    -999.2500       0.0036       2.4159       0.4277       1.6701
   2527.3784       3.3204       9.1075      -0.7647    -999.2500      34.6759    1489.1161     912.7790     748.3738       0.1171    -999.2500       0.0036       2.4251       0.4096       1.6676
   2527.5308       3.3127      14.0545      -0.7698    -999.2500      36.8815    1850.2047    1377.1179    1187.5146       0.1169      93.7842       0.0046       2.4186       1.0144       1.6202
