#------------------------------------------------------------------------------
#
#   Created by  : [OpenWorks] Log Export Utility (LEXP)
#   Created on  : 2016-05-23 11:55:51
#   Project     : CANT971
#   User        : R5K
#   Interpreter : PEP
#
#------------------------------------------------------------------------------
~VERSION INFORMATION
VERS. 2.0 : CWLS Log ASCII Standard - version 2.0
WRAP.  NO : One line per depth step
~WELL INFORMATION
#MNEMONIC   .UNIT                                           VALUE :DESCRIPTION
#------------------------------------------------------------------------------
STRT        .M                                           490.1183 :START DEPTH
STOP        .M                                          2794.5586 :STOP DEPTH
STEP        .M                                             0.1524 :STEP
NULL        .                                           -999.2500 :NULL VALUE
COMP        .                                   PEMEX EXPL & PROD :COMPANY
WELL        .                                                  41 :WELL
FLD         .                                           CANTARELL :FIELD
LOC         .                                             UNKNOWN :LOCATION
CNTY        .                                      CD. DEL CARMEN :COUNTY
STAT        .                                            CAMPECHE :STATE
CTRY        .                                              MEXICO :COUNTRY
SRVC        .                                             UNKNOWN :SERVICE COMPANY
DATE        .                                             UNKNOWN :LOG DATE
UWI         .                                          3060000463 :UNIQUE WELL ID
XCOORD      .                                       601713.000000 :SURFACE X
YCOORD      .                                      2142348.040000 :SURFACE Y
LAT         .                                           19.373822 :LATITUDE
LON         .                                          -92.031472 :LONGITUDE
ELEV        .M                                            24.0000 :SURFACE ELEV
ELEV_TYPE   .                                                  KB :ELEV TYPE
~CURVE INFORMATION
#MNEMONIC.UNIT        API CODE       : CURVE DESCRIPTION
#------------------------------------------------------------------------------
DEPTH    .M                          : Measured Depth
CALI     .inches      UNKNOWN        : CALI:Import:rC:NONE:v0 (auto-composite)
DRHO     .g/cm3       UNKNOWN        : DRHO:Import:rC:NONE:v0 (auto-composite)
DT       .us/ft       UNKNOWN        : DT:Import:rC:NONE:v0 (auto-composite)
GR       .API         UNKNOWN        : GR:Import:rC:NONE:v0 (auto-composite)
ILD      .ohm.m       UNKNOWN        : ILD:Import:rC:NONE:v0 (auto-composite)
LLD      .ohm.m       UNKNOWN        : LLD:Import:rC:NONE:v0 (auto-composite)
LLS      .ohm.m       UNKNOWN        : LLS:Import:rC:NONE:v0 (auto-composite)
NPHI     .v/v_decimal UNKNOWN        : NPHI:Import:rC:NONE:v0 (auto-composite)
PEF      .b/elec      UNKNOWN        : PEF:Import:rC:NONE:v0 (auto-composite)
RHOB     .g/cm3       UNKNOWN        : RHOB:Import:rC:NONE:v0 (auto-composite)
~A     DEPTH         CALI         DRHO           DT           GR          ILD          LLD          LLS         NPHI          PEF         RHOB
# ...
   2435.9614       8.4440       0.0500      44.3130      28.5240    -999.2500    1008.0910     505.4270       0.0223       2.9760       2.8230
   2436.1138       8.4440       0.0530      46.7794      30.4398    -999.2500    1059.7150     458.5422       0.0223       3.0050       2.8250
   2436.2664       8.4440       0.0560      49.2450      32.3520    -999.2500    1111.3240     411.6710       0.0221       3.0340       2.8270
   2436.4187       8.4440       0.0550      55.0915      33.5160    -999.2500    1076.0706     358.8347       0.0215       3.0955       2.8300
   2436.5710       8.4440       0.0540      60.9370      34.6780    -999.2500    1040.8230     306.0070       0.0208       3.1570       2.8330
   2436.7234       8.4440       0.0500      55.5309      34.0009    -999.2500     987.6540     280.7665       0.0204       3.1895       2.8365
   2436.8760       8.4440       0.0460      50.1250      33.3250    -999.2500     934.4870     255.5270       0.0201       3.2220       2.8400
   2437.0283       8.4440       0.0400      59.9526      32.7000    -999.2500     890.8904     264.6361       0.0208       3.1780       2.8420
   2437.1807       8.4440       0.0340      69.7810      32.0760    -999.2500     847.2900     273.7460       0.0216       3.1340       2.8440
   2437.3330       8.4440       0.0280      61.5944      30.7216    -999.2500     860.9271     292.5090       0.0222       3.1360       2.8420
   2437.4856       8.4440       0.0220      53.4060      29.3690    -999.2500     874.5670     311.2760       0.0227       3.1380       2.8400
   2437.6379       8.4280       0.0195      55.1312      27.8320    -999.2500     944.6786     355.9844       0.0229       3.1790       2.8345
   2437.7903       8.4120       0.0170      56.8570      26.2970    -999.2500    1014.8140     400.7080       0.0230       3.2200       2.8290
   2437.9426       8.3845       0.0215      58.7406      26.7463    -999.2500    1121.6978     396.1451       0.0230       3.2400       2.8340
   2438.0950       8.3570       0.0260      60.6250      27.1950    -999.2500    1228.6310     391.5800       0.0230       3.2600       2.8390
   2438.2476       8.3450       0.0355      58.3052      28.7153    -999.2500    1123.7014     339.9517       0.0230       3.2470       2.8350
   2438.3999       8.3330       0.0450      55.9840      30.2340    -999.2500    1018.8780     288.2930       0.0229       3.2340       2.8310
   2438.5522       8.3330       0.0510      67.5349      31.9268    -999.2500     854.7618     233.3577       0.0218       3.1910       2.8360
   2438.7046       8.3330       0.0570      79.0940      33.6180    -999.2500     690.7910     178.3830       0.0206       3.1480       2.8410
   2438.8572       8.3330       0.0615      62.4915      35.9679    -999.2500     644.1423     183.0715       0.0207       3.1685       2.8515
   2439.0095       8.3330       0.0660      45.8750      38.3160    -999.2500     597.5290     187.7640       0.0210       3.1890       2.8620
   2439.1619       8.3330       0.0700      47.2139      42.2422    -999.2500     675.1636     217.0044       0.0222       3.2035       2.8570
   2439.3142       8.3330       0.0740      48.5540      46.1660    -999.2500     752.7490     246.2730       0.0238       3.2180       2.8520
   2439.4668       8.3330       0.0760      49.7473      48.0905    -999.2500     844.4644     264.8822       0.0263       3.2995       2.8450
   2439.6191       8.3330       0.0780      50.9420      50.0140    -999.2500     936.1330     283.4820       0.0286       3.3810       2.8380
   2439.7715       8.3330       0.0780      58.0812      47.3023    -999.2500     816.5656     250.7697       0.0274       3.4570       2.8460
   2439.9238       8.3330       0.0780      65.2290      44.5960    -999.2500     697.0440     218.0700       0.0258       3.5330       2.8540
   2440.0762       8.3330       0.0760      72.9165      41.2494    -999.2500     561.9140     182.2734       0.0244       3.4415       2.8605
   2440.2288       8.3330       0.0740      80.6020      37.9090    -999.2500     426.8190     146.4860       0.0233       3.3500       2.8670
   2440.3811       8.3330       0.0805      90.0046      36.4507    -999.2500     336.2260     116.8365       0.0240       3.2620       2.8635
   2440.5334       8.3330       0.0870      99.4060      34.9950    -999.2500     245.6450      87.1910       0.0253       3.1740       2.8600
   2440.6858       8.3330       0.0820      82.5934      34.2664    -999.2500     271.7536      89.8825       0.0283       3.3180       2.8525
   2440.8384       8.3330       0.0770      65.7810      33.5390    -999.2500     297.8620      92.5740       0.0314       3.4620       2.8450
   2440.9907       8.3330       0.0615      67.8589      32.7144    -999.2500     354.8187     111.8494       0.0342       3.9325       2.8470
   2441.1431       8.3330       0.0460      69.9370      31.8910    -999.2500     411.7820     131.1270       0.0363       4.4030       2.8490
   2441.2954       8.3330       0.0375      65.8680      31.0940    -999.2500     477.2085     182.0578       0.0338       4.8944       2.8400
   2441.4480       8.3330       0.0290      61.7980      30.2980    -999.2500     542.6510     233.0010       0.0306       5.3860       2.8310
   2441.6003       8.3330       0.0315      56.3250      29.5095    -999.2500     597.2479     229.6281       0.0277       4.9386       2.8210
   2441.7527       8.3330       0.0340      50.8500      28.7220    -999.2500     651.8650     226.2540       0.0249       4.4910       2.8110
   2441.9050       8.3330       0.0375      48.9290      29.5194    -999.2500     629.8409     211.9305       0.0239       3.9726       2.8065
   2442.0574       8.3330       0.0410      47.0070      30.3160    -999.2500     607.8060     197.6000       0.0231       3.4540       2.8020
   2442.2100       8.3330       0.0425      39.1464      31.3410    -999.2500     587.5766     187.1407       0.0230       3.3089       2.8010
   2442.3623       8.3330       0.0440      31.2810      32.3650    -999.2500     567.3670     176.6750       0.0230       3.1640       2.8000
   2442.5146       8.3330       0.0370      33.3697      33.7606    -999.2500     562.1643     174.2159       0.0230       3.3876       2.8095
   2442.6670       8.3330       0.0300      35.4600      35.1550    -999.2500     556.9660     171.7550       0.0230       3.6110       2.8190
   2442.8196       8.3330       0.0320      39.6342      34.0681    -999.2500     552.4333     170.3211       0.0230       3.5950       2.8170
   2442.9719       8.3330       0.0340      43.8120      32.9820    -999.2500     547.9040     168.8860       0.0230       3.5790       2.8150
   2443.1243       8.3330       0.0365      45.4367      31.3265    -999.2500     532.4078     164.1134       0.0230       3.5085       2.8270
   2443.2766       8.3330       0.0390      47.0630      29.6720    -999.2500     516.9210     159.3360       0.0230       3.4380       2.8390
   2443.4292       8.3330       0.0345      47.4101      30.1306    -999.2500     530.9479     162.3272       0.0230       3.5365       2.8360
   2443.5815       8.3330       0.0300      47.7570      30.5890    -999.2500     544.9680     165.3170       0.0230       3.6350       2.8330
   2443.7339       8.3330       0.0325      47.9745      31.3903    -999.2500     540.9833     175.9279       0.0230       3.7060       2.8275
   2443.8862       8.3330       0.0350      48.1920      32.1900    -999.2500     537.0000     186.5350       0.0230       3.7770       2.8220
   2444.0386       8.3285       0.0405      48.8491      31.0900    -999.2500     519.3720     181.4404       0.0232       3.6615       2.8295
   2444.1912       8.3240       0.0460      49.5060      29.9920    -999.2500     501.7480     176.3470       0.0235       3.5460       2.8370
   2444.3435       8.2900       0.0500      49.8945      29.0987    -999.2500     502.4965     169.9317       0.0250       3.3980       2.8345
