#------------------------------------------------------------------------------
#
#   Created by  : [OpenWorks] Log Export Utility (LEXP)
#   Created on  : 2016-05-11 12:45:43
#   Project     : CANT971
#   User        : R5K
#   Interpreter : PEP
#
#------------------------------------------------------------------------------
~VERSION INFORMATION
VERS. 2.0 : CWLS Log ASCII Standard - version 2.0
WRAP.  NO : One line per depth step
~WELL INFORMATION
#MNEMONIC   .UNIT                                           VALUE :DESCRIPTION
#------------------------------------------------------------------------------
STRT        .M                                            80.3144 :START DEPTH
STOP        .M                                          1350.4160 :STOP DEPTH
STEP        .M                                             0.1524 :STEP
NULL        .                                           -999.2500 :NULL VALUE
COMP        .                                   PEMEX EXPL & PROD :COMPANY
WELL        .                                         CANTARELL-3 :WELL
FLD         .                                           CANTARELL :FIELD
LOC         .                                             UNKNOWN :LOCATION
CNTY        .                                      CD. DEL CARMEN :COUNTY
STAT        .                                            CAMPECHE :STATE
CTRY        .                                              MEXICO :COUNTRY
SRVC        .                                             UNKNOWN :SERVICE COMPANY
DATE        .                                             UNKNOWN :LOG DATE
UWI         .                                          3060000139 :UNIQUE WELL ID
XCOORD      .                                       600825.370000 :SURFACE X
YCOORD      .                                      2145118.460000 :SURFACE Y
LAT         .                                           19.398901 :LATITUDE
LON         .                                          -92.039777 :LONGITUDE
ELEV        .M                                            27.7000 :SURFACE ELEV
ELEV_TYPE   .                                                  KB :ELEV TYPE
~CURVE INFORMATION
#MNEMONIC.UNIT        API CODE       : CURVE DESCRIPTION
#------------------------------------------------------------------------------
DEPTH    .M                          : Measured Depth
CALI     .inches      UNKNOWN        : CALI:Import:rC:NONE:v0 (auto-composite)
DRHO     .g/cm3       UNKNOWN        : DRHO:Import:rC:NONE:v0 (auto-composite)
DT       .us/ft       UNKNOWN        : DT:Import:rC:NONE:v0 (auto-composite)
GR       .API         UNKNOWN        : GR:Import:rC:NONE:v0 (auto-composite)
ILD      .ohm.m       UNKNOWN        : ILD:Import:rC:NONE:v0 (auto-composite)
NPHI     .v/v_decimal UNKNOWN        : NPHI:Import:rC:NONE:v0 (auto-composite)
RHOB     .g/cm3       UNKNOWN        : RHOB:Import:rC:NONE:v0 (auto-composite)
SP       .mV          UNKNOWN        : SP:Import:rC:NONE:v0 (auto-composite)
~A     DEPTH         CALI         DRHO           DT           GR          ILD         NPHI         RHOB           SP
# ...
    763.8284      15.5290       0.0350     154.6660      31.2920       1.6510       0.3183       2.1500     127.8970
    763.9808      15.5315       0.0340     142.6060      31.6974       1.6525       0.3181       2.1485     127.5606
    764.1332      15.5340       0.0330     142.9014      32.1030       1.6540       0.3186       2.1470     127.2240
    764.2856      15.5640       0.0280     143.1960      32.8134       1.6595       0.3176       2.1360     127.2290
    764.4380      15.5940       0.0230     142.1111      33.5240       1.6650       0.3162       2.1250     127.2340
    764.5904      15.8091       0.0100     141.0290      34.5306       1.6620       0.3073       2.1290     127.2230
    764.7428      16.0240      -0.0030     143.6403      35.5370       1.6590       0.2985       2.1330     127.2120
    764.8952      15.9414      -0.0030     146.2440      35.4275       1.6410       0.2981       2.1325     126.7902
    765.0476      15.8590      -0.0030     145.2078      35.3180       1.6230       0.2981       2.1320     126.3680
    765.2000      15.5888      -0.0020     144.1750      34.4971       1.5885       0.2981       2.1255     126.5399
    765.3524      15.3190      -0.0010     145.0308      33.6760       1.5540       0.2983       2.1190     126.7120
    765.5048      15.1434      -0.0015     145.8840      33.6885       1.5240       0.3009       2.0844     127.2382
    765.6572      14.9680      -0.0020     148.7607      33.7010       1.4940       0.3042       2.0500     127.7650
    765.8096      15.1361      -0.0050     151.6290      34.0324       1.4690       0.3182       2.0510     127.5236
    765.9620      15.3040      -0.0080     153.2668      34.3640       1.4440       0.3322       2.0520     127.2820
    766.1144      15.2945      -0.0080     154.9000      34.0475       1.4090       0.3324       2.0565     127.2830
    766.2668      15.2850      -0.0080     151.8934      33.7310       1.3740       0.3319       2.0610     127.2840
    766.4192      15.2875      -0.0045     148.8950      31.7933       1.3380       0.3330       2.0690     127.3015
    766.5716      15.2900      -0.0010     149.0537      29.8560       1.3020       0.3341       2.0770     127.3190
    766.7240      15.2990      -0.0060     149.2120      29.9045       1.2880       0.3339       2.0755     127.4335
    766.8764      15.3080      -0.0110     149.9255      29.9530       1.2740       0.3335       2.0740     127.5480
    767.0288      15.2595      -0.0100     150.6370      30.3095       1.2745       0.3315       2.0685     127.7869
    767.1812      15.2110      -0.0090     152.2150      30.6660       1.2750       0.3293       2.0630     128.0260
    767.3336      14.9863      -0.0025     153.7880      31.4259       1.2850       0.3242       2.0971     128.1295
    767.4860      14.7620       0.0040     157.3974      32.1860       1.2950       0.3192       2.1310     128.2330
    767.6384      14.7720       0.0030     160.9960      32.8349       1.3515       0.3194       2.1310     128.9183
    767.7908      14.7820       0.0020     160.4813      33.4840       1.4080       0.3200       2.1310     129.6040
    767.9432      14.8220       0.0025     159.9680      34.4400       1.4025       0.3231       2.1250     129.5075
    768.0956      14.8620       0.0030     154.0258      35.3960       1.3970       0.3265       2.1190     129.4110
    768.2480      14.9320       0.0025     148.1000      36.2791       1.3610       0.3340       2.0899     128.6312
    768.4004      15.0020       0.0020     148.4935      37.1620       1.3250       0.3417       2.0610     127.8510
    768.5528      14.9800       0.0025     148.8860      38.3156       1.2450       0.3494       2.0044     127.9505
    768.7052      14.9580       0.0030     144.9919      39.4690       1.1650       0.3570       1.9480     128.0500
    768.8576      14.8679       0.0115     141.1090      43.3919       1.0895       0.3618       1.9495     128.7967
    769.0100      14.7780       0.0200     141.3914      47.3150       1.0140       0.3660       1.9510     129.5440
    769.1624      14.5388       0.0150     141.6730      47.1690       1.0375       0.3609       1.9720     129.4840
    769.3148      14.3000       0.0100     142.7682      47.0230       1.0610       0.3548       1.9930     129.4240
    769.4672      14.5362       0.0105     143.8600      45.9252       1.1555       0.3299       2.0937     129.1821
    769.6196      14.7720       0.0110     145.6346      44.8270       1.2500       0.3053       2.1940     128.9400
    769.7720      14.7530       0.0120     147.4040      41.7915       1.3290       0.3073       2.1890     128.6991
    769.9244      14.7340       0.0130     146.8783      38.7560       1.4080       0.3104       2.1840     128.4580
    770.0768      14.7710       0.0060     146.3540      35.3040       1.5250       0.3225       2.1610     128.0356
    770.2292      14.8080      -0.0010     144.6117      31.8530       1.6420       0.3350       2.1380     127.6130
    770.3816      14.9241       0.0000     142.8740      30.6644       1.7895       0.3481       2.1134     127.6755
    770.5340      15.0400       0.0010     144.9245      29.4760       1.9370       0.3610       2.0890     127.7380
    770.6864      15.1741       0.0115     146.9690      29.5495       1.8995       0.3669       2.0930     128.0009
    770.8388      15.3080       0.0220     155.6625      29.6230       1.8620       0.3726       2.0970     128.2640
    770.9912      15.2475       0.0215     164.3280      30.0145       1.6425       0.3716       2.0955     128.6124
    771.1436      15.1870       0.0210     154.8148      30.4060       1.4230       0.3703       2.0940     128.9610
    771.2960      14.8463       0.0180     145.3310      31.2144       1.4235       0.3647       2.0970     129.3393
    771.4484      14.5060       0.0150     146.0646      32.0230       1.4240       0.3588       2.1000     129.7180
    771.6008      14.5355       0.0100     146.7960      33.8887       1.4220       0.3491       2.1120     129.6335
    771.7532      14.5650       0.0050     153.6507      35.7550       1.4200       0.3394       2.1240     129.5490
    771.9056      14.7301       0.0035     160.4860      35.7305       1.4200       0.3404       2.1205     128.7572
    772.0580      14.8950       0.0020     152.0586      35.7060       1.4200       0.3417       2.1170     127.9650
    772.2104      15.1942      -0.0000     143.6540      35.4870       1.4285       0.3470       2.1190     127.9660
    772.3628      15.4930      -0.0020     145.4543      35.2680       1.4370       0.3524       2.1210     127.9670
    772.5152      15.3854      -0.0010     147.2500      34.7290       1.4865       0.3517       2.1290     128.1549
    772.6676      15.2780       0.0000     158.8526      34.1900       1.5360       0.3510       2.1370     128.3430
    772.8200      15.3476       0.0035     170.4220      33.4055       1.5300       0.3481       2.1420     129.2511
    772.9724      15.4170       0.0070     170.1285      32.6210       1.5240       0.3453       2.1470     130.1600
    773.1248      15.4125       0.0100     169.8360      32.8175       1.4845       0.3425       2.1510     130.0750
    773.2772      15.4080       0.0130     167.4554      33.0140       1.4450       0.3397       2.1550     129.9900
    773.4296      15.3355       0.0160     165.0820      32.3286       1.4600       0.3350       2.1575     129.5432
    773.5820      15.2630       0.0190     154.2018      31.6430       1.4750       0.3305       2.1600     129.0960
    773.7344      15.3621       0.0140     143.3530      31.8865       1.4735       0.3310       2.1670     129.0970
    773.8868      15.4610       0.0090     144.7489      32.1300       1.4720       0.3316       2.1740     129.0980
    774.0392      15.3239       0.0120     146.1410      33.2316       1.4595       0.3311       2.1835     129.1520
    774.1916      15.1870       0.0150     151.2287      34.3330       1.4470       0.3306       2.1930     129.2060
