#------------------------------------------------------------------------------
#
#   Created by  : [OpenWorks] Log Export Utility (LEXP)
#   Created on  : 2016-05-23 11:56:12
#   Project     : CANT971
#   User        : R5K
#   Interpreter : PEP
#
#------------------------------------------------------------------------------
~VERSION INFORMATION
VERS. 2.0 : CWLS Log ASCII Standard - version 2.0
WRAP.  NO : One line per depth step
~WELL INFORMATION
#MNEMONIC   .UNIT                                           VALUE :DESCRIPTION
#------------------------------------------------------------------------------
STRT        .M                                           365.7604 :START DEPTH
STOP        .M                                          2883.8655 :STOP DEPTH
STEP        .M                                             0.1524 :STEP
NULL        .                                           -999.2500 :NULL VALUE
COMP        .                                   PEMEX EXPL & PROD :COMPANY
WELL        .                                                  44 :WELL
FLD         .                                           CANTARELL :FIELD
LOC         .                                             UNKNOWN :LOCATION
CNTY        .                                      CD. DEL CARMEN :COUNTY
STAT        .                                            CAMPECHE :STATE
CTRY        .                                              MEXICO :COUNTRY
SRVC        .                                             UNKNOWN :SERVICE COMPANY
DATE        .                                             UNKNOWN :LOG DATE
UWI         .                                          3060000162 :UNIQUE WELL ID
XCOORD      .                                       599695.380000 :SURFACE X
YCOORD      .                                      2143038.730000 :SURFACE Y
LAT         .                                           19.380164 :LATITUDE
LON         .                                          -92.050646 :LONGITUDE
ELEV        .M                                            26.7400 :SURFACE ELEV
ELEV_TYPE   .                                                  KB :ELEV TYPE
~CURVE INFORMATION
#MNEMONIC.UNIT        API CODE       : CURVE DESCRIPTION
#------------------------------------------------------------------------------
DEPTH    .M                          : Measured Depth
CALI     .inches      UNKNOWN        : CALI:registros:rC:NONE:v0 (auto-composite)
CGR      .API         UNKNOWN        : CGR:registros:rC:NONE:v0 (auto-composite)
DRHO     .g/cm3       UNKNOWN        : DRHO:registros:rC:NONE:v0 (auto-composite)
DT       .UNKNOWN     UNKNOWN        : DT:registros:rC:NONE:v0 (auto-composite)
GR       .API         UNKNOWN        : GR:registros:rC:NONE:v0 (auto-composite)
ILD      .ohm.m       UNKNOWN        : ILD:registros:rC:NONE:v0 (auto-composite)
LLD      .ohm.m       UNKNOWN        : LLD:registros:rC:NONE:v0 (auto-composite)
LLS      .ohm.m       UNKNOWN        : LLS:registros:rC:NONE:v0 (auto-composite)
MSFL     .ohm.m       UNKNOWN        : MSFL:registros:rC:NONE:v0 (auto-composite)
NPHI     .UNKNOWN     UNKNOWN        : NPHI:registros:rC:NONE:v0 (auto-composite)
PEF      .b/elec      UNKNOWN        : PEF:registros:rC:NONE:v0 (auto-composite)
POTA     .wtpercent   UNKNOWN        : POTA:registros:rC:NONE:v0 (auto-composite)
RHOB     .g/cm3       UNKNOWN        : RHOB:registros:rC:NONE:v0 (auto-composite)
THOR     .ppm         UNKNOWN        : THOR:registros:rC:NONE:v0 (auto-composite)
URAN     .ppm         UNKNOWN        : URAN:registros:rC:NONE:v0 (auto-composite)
~A     DEPTH         CALI          CGR         DRHO           DT           GR          ILD          LLD          LLS         MSFL         NPHI          PEF         POTA         RHOB         THOR         URAN
# ...
   2029.9684       9.6830    -999.2500       0.0120      52.9630      18.3980    -999.2500   42112.0195   61233.0195      10.1530       0.0206    -999.2500    -999.2500       2.7470    -999.2500    -999.2500
   2030.1207       9.7172    -999.2500       0.0140      54.0843      19.5774    -999.2500   41201.3008   60072.2305       9.4420       0.0192    -999.2500    -999.2500       2.7495    -999.2500    -999.2500
   2030.2732       9.7510    -999.2500       0.0160      55.2010      20.7520    -999.2500   40294.3203   58916.2031       8.7340       0.0182    -999.2500    -999.2500       2.7520    -999.2500    -999.2500
   2030.4255       9.7691    -999.2500       0.0522      62.9439      23.4608    -999.2500   39575.7109   57210.2070     514.4058       0.0193    -999.2500    -999.2500       2.7762    -999.2500    -999.2500
   2030.5780       9.7870    -999.2500       0.0880      70.6250      26.1480    -999.2500   38862.8398   55517.8281    1016.0420       0.0217    -999.2500    -999.2500       2.8000    -999.2500    -999.2500
   2030.7303       9.8096    -999.2500       0.1152      64.9415      27.4275    -999.2500   30096.2949   42897.6953     509.5884       0.0290    -999.2500    -999.2500       2.7708    -999.2500    -999.2500
   2030.8828       9.8320    -999.2500       0.1420      59.3250      28.6920    -999.2500   21433.1777   30426.4531       9.1100       0.0372    -999.2500    -999.2500       2.7420    -999.2500    -999.2500
   2031.0352       9.9336    -999.2500       0.2849      65.8031      29.9875    -999.2500   26433.4395   36048.3828     341.1836       0.0455    -999.2500    -999.2500       2.7908    -999.2500    -999.2500
   2031.1876      10.0340    -999.2500       0.4260      72.2210      31.2710    -999.2500   31387.2324   41618.0664     670.1710       0.0542    -999.2500    -999.2500       2.8390    -999.2500    -999.2500
   2031.3400      10.0878    -999.2500       0.3777      78.7692      32.0210    -999.2500   35327.7383   48387.0703     335.5043       0.0652    -999.2500    -999.2500       2.7982    -999.2500    -999.2500
   2031.4924      10.1410    -999.2500       0.3300      85.2730      32.7660    -999.2500   39241.4883   55110.1133       3.1100       0.0749    -999.2500    -999.2500       2.7580    -999.2500    -999.2500
   2031.6448      10.0077    -999.2500       0.2510      90.3879      31.7168    -999.2500   41663.3438   61222.5234      27.7727       0.0754    -999.2500    -999.2500       2.7349    -999.2500    -999.2500
   2031.7971       9.8760    -999.2500       0.1730      95.4810      30.6720    -999.2500   44074.8477   67308.8047      52.3300       0.0741    -999.2500    -999.2500       2.7120    -999.2500    -999.2500
   2031.9496       9.8941    -999.2500       0.0965      84.7598      32.6049    -999.2500   45715.1094   67063.7109      29.2644       0.0728    -999.2500    -999.2500       2.6949    -999.2500    -999.2500
   2032.1019       9.9120    -999.2500       0.0210      74.1260      34.5220    -999.2500   47341.9922   66820.6172       6.3870       0.0696    -999.2500    -999.2500       2.6780    -999.2500    -999.2500
   2032.2544      10.0121    -999.2500       0.0436      70.1185      40.6336    -999.2500   45245.7227   64127.5781      16.8043       0.0575    -999.2500    -999.2500       2.6966    -999.2500    -999.2500
   2032.4067      10.1110    -999.2500       0.0660      66.1590      46.6720    -999.2500   43174.5312   61466.7578      27.0970       0.0461    -999.2500    -999.2500       2.7150    -999.2500    -999.2500
   2032.5592      10.0466    -999.2500       0.0494      72.1113      45.6425    -999.2500   28136.9941   42155.1602      48.1156       0.0468    -999.2500    -999.2500       2.6597    -999.2500    -999.2500
   2032.7115       9.9830    -999.2500       0.0330      78.0120      44.6220    -999.2500   13229.8574   23011.0273      68.9520       0.0500    -999.2500    -999.2500       2.6050    -999.2500    -999.2500
   2032.8640       9.8693    -999.2500       0.0234      72.6971      39.4862    -999.2500   19001.2715   30330.9902      37.3125       0.0537    -999.2500    -999.2500       2.6065    -999.2500    -999.2500
   2033.0164       9.7570    -999.2500       0.0140      67.4150      34.3820    -999.2500   24737.0977   37605.8164       5.8680       0.0560    -999.2500    -999.2500       2.6080    -999.2500    -999.2500
   2033.1688       9.8420    -999.2500       0.0713      63.8039      29.3724    -999.2500   35516.6328   51556.9258       6.7351       0.0519    -999.2500    -999.2500       2.6538    -999.2500    -999.2500
   2033.3212       9.9260    -999.2500       0.1280      60.2060      24.3810    -999.2500   46256.8281   65457.1133       7.5990       0.0487    -999.2500    -999.2500       2.6990    -999.2500    -999.2500
   2033.4736       9.9597    -999.2500       0.2718      66.6483      22.8447    -999.2500   45842.3633   64532.7109       9.4018       0.0567    -999.2500    -999.2500       2.7835    -999.2500    -999.2500
   2033.6260       9.9930    -999.2500       0.4140      73.0420      21.3200    -999.2500   45431.0195   63615.2734      11.1910       0.0682    -999.2500    -999.2500       2.8670    -999.2500    -999.2500
   2033.7783       9.9191    -999.2500       0.3099      86.2363      21.7640    -999.2500   44217.3516   64332.5820     115.3558       0.0851    -999.2500    -999.2500       2.7684    -999.2500    -999.2500
   2033.9308       9.8460    -999.2500       0.2070      99.2810      22.2030    -999.2500   43017.4492   65041.7500     218.3390       0.0992    -999.2500    -999.2500       2.6710    -999.2500    -999.2500
   2034.0831       9.9868    -999.2500       0.1341      85.1671      23.5113    -999.2500   43162.7773   64738.7773     113.3576       0.0951    -999.2500    -999.2500       2.6157    -999.2500    -999.2500
   2034.2356      10.1260    -999.2500       0.0620      71.1780      24.8080    -999.2500   43306.8203   64438.4844       9.3050       0.0895    -999.2500    -999.2500       2.5610    -999.2500    -999.2500
   2034.3879      10.7952    -999.2500       0.0781      76.5651      26.6518    -999.2500   43707.3438   63702.3438      73.4332       0.0952    -999.2500    -999.2500       2.5348    -999.2500    -999.2500
   2034.5404      11.4560    -999.2500       0.0940      81.9180      28.4840    -999.2500   44105.3320   62970.8633     137.1550       0.1077    -999.2500    -999.2500       2.5090    -999.2500    -999.2500
   2034.6927      13.9290    -999.2500       0.0995      94.2891      27.2827    -999.2500   45192.4688   64966.7266     243.2659       0.1408    -999.2500    -999.2500       2.4542    -999.2500    -999.2500
   2034.8452      16.3710    -999.2500       0.1050     106.6130      26.0860    -999.2500   46275.4453   66954.9609     348.9710       0.1709    -999.2500    -999.2500       2.4000    -999.2500    -999.2500
   2034.9976      16.2432    -999.2500       0.0924     105.1278      26.5734    -999.2500   46753.6719   70075.3906     181.3943       0.1668    -999.2500    -999.2500       2.4357    -999.2500    -999.2500
   2035.1500      16.1170    -999.2500       0.0800     103.6540      27.0570    -999.2500   47228.2188   73171.7969      15.1080       0.1540    -999.2500    -999.2500       2.4710    -999.2500    -999.2500
   2035.3024      14.6334    -999.2500       0.0750      98.6467      29.6258    -999.2500   47523.7734   71955.2891      35.0549       0.1352    -999.2500    -999.2500       2.5138    -999.2500    -999.2500
   2035.4548      13.1680    -999.2500       0.0700      93.6970      32.1650    -999.2500   47815.9258   70752.7969      54.7720       0.1162    -999.2500    -999.2500       2.5560    -999.2500    -999.2500
   2035.6072      11.9229    -999.2500       0.0519      85.2891      37.5031    -999.2500   43957.5586   65649.5938     222.0253       0.1016    -999.2500    -999.2500       2.5998    -999.2500    -999.2500
   2035.7595      10.6930    -999.2500       0.0340      76.9570      42.7930    -999.2500   40133.9727   60592.3984     387.7710       0.0909    -999.2500    -999.2500       2.6430    -999.2500    -999.2500
