#------------------------------------------------------------------------------
#
#   Created by  : [OpenWorks] Log Export Utility (LEXP)
#   Created on  : 2016-05-23 11:50:52
#   Project     : CANT971
#   User        : R5K
#   Interpreter : PEP
#
#------------------------------------------------------------------------------
~VERSION INFORMATION
VERS. 2.0 : CWLS Log ASCII Standard - version 2.0
WRAP.  NO : One line per depth step
~WELL INFORMATION
#MNEMONIC   .UNIT                                           VALUE :DESCRIPTION
#------------------------------------------------------------------------------
STRT        .M                                           540.4100 :START DEPTH
STOP        .M                                          3242.0049 :STOP DEPTH
STEP        .M                                             0.1524 :STEP
NULL        .                                           -999.2500 :NULL VALUE
COMP        .                                   PEMEX EXPL & PROD :COMPANY
WELL        .                                                1041 :WELL
FLD         .                                           CANTARELL :FIELD
LOC         .                                             UNKNOWN :LOCATION
CNTY        .                                      CD. DEL CARMEN :COUNTY
STAT        .                                            CAMPECHE :STATE
CTRY        .                                              MEXICO :COUNTRY
SRVC        .                                             UNKNOWN :SERVICE COMPANY
DATE        .                                             UNKNOWN :LOG DATE
UWI         .                                          3060000494 :UNIQUE WELL ID
XCOORD      .                                       596162.660000 :SURFACE X
YCOORD      .                                      2150607.940000 :SURFACE Y
LAT         .                                           19.448736 :LATITUDE
LON         .                                          -92.083900 :LONGITUDE
ELEV        .M                                            30.0000 :SURFACE ELEV
ELEV_TYPE   .                                                  KB :ELEV TYPE
~CURVE INFORMATION
#MNEMONIC.UNIT        API CODE       : CURVE DESCRIPTION
#------------------------------------------------------------------------------
DEPTH    .M                          : Measured Depth
CALI     .inches      UNKNOWN        : CALI:litodensidad:rC:NONE:v0 (auto-composite)
DRHO     .g/cm3      UNKNOWN        : DRHO:DRHO-Load:rC:NONE:v0 (auto-composite)
DT       .us/ft       UNKNOWN        : DT:DT:rC:NONE:v0 (auto-composite)
GR       .API         UNKNOWN        : GR:GR-Load:rC:NONE:v0 (auto-composite)
ILD      .ohmm        UNKNOWN        : ILD:ILD-Load:rC:NONE:v0 (auto-composite)
ILM      .ohmm        UNKNOWN        : ILM:ILM-Load:rC:NONE:v0 (auto-composite)
LLD      .ohmm        UNKNOWN        : LLD:LLD-Load:rC:NONE:v0 (auto-composite)
LLS      .ohmm        UNKNOWN        : LLS:LLS-Load:rC:NONE:v0 (auto-composite)
MSFL     .ohmm        UNKNOWN        : MSFL:MSFL-Load:rC:NONE:v0 (auto-composite)
NPHI     .v/v_decimal UNKNOWN        : NPHI:NPHI-Load:rC:NONE:v0 (auto-composite)
PEF      .b/elec      UNKNOWN        : PEF:PEF-Load:rC:NONE:v0 (auto-composite)
RHOB     .g/cm3       UNKNOWN        : RHOB:RHOB-Load:rC:NONE:v0 (auto-composite)
~A     DEPTH         CALI         DRHO           DT           GR          ILD          ILM          LLD          LLS         MSFL         NPHI          PEF         RHOB
# ...
   2749.6003    -999.2500       0.1760      29.6340      40.9290    -999.2500    -999.2500     121.9180      59.9700     425.9300       0.0651       3.3460       2.6780
   2749.7527    -999.2500       0.1750      30.4970      40.7530    -999.2500    -999.2500      91.2610      47.2370     406.2420       0.0835       3.4450       2.6530
   2749.9053    -999.2500       0.1750      31.3620      40.5770    -999.2500    -999.2500      68.2810      37.1930     387.4350       0.1019       3.5440       2.6270
   2750.0576    -999.2500       0.1680      41.4300      34.7420    -999.2500    -999.2500      69.3380      37.7390      18.8240       0.1828       3.5420       2.3870
   2750.2100    -999.2500       0.1610      51.4970      34.7420    -999.2500    -999.2500      70.4110      38.2930      18.8240       0.1828       3.5400       2.3870
   2750.3623    -999.2500       0.1370      79.4090      34.7570    -999.2500    -999.2500      82.5570      44.5690      19.4990       0.1815       3.3940       2.3900
   2750.5149    -999.2500       0.1140     107.3650      34.7710    -999.2500    -999.2500      96.8210      51.8860      20.1990       0.1802       3.2490       2.3940
   2750.6672    -999.2500       0.0920     106.4590      34.9850    -999.2500    -999.2500     128.5230      68.3900      29.6100       0.1656       3.2550       2.4330
   2750.8196    -999.2500       0.0700     105.5530      35.1990    -999.2500    -999.2500     170.6060      90.1440      43.4050       0.1510       3.2600       2.4730
   2750.9719    -999.2500       0.0190      97.2620      36.2290    -999.2500    -999.2500     316.4940     162.6280     520.2180       0.0582       3.3260       2.6430
   2751.1243    -999.2500       0.0190      88.9710      37.2600    -999.2500    -999.2500     316.4940     162.6280     520.2180       0.0582       3.3920       2.6430
   2751.2769    -999.2500       0.0200      80.9440      39.3510    -999.2500    -999.2500     308.5980     158.3280     519.1060       0.0606       3.5650       2.5680
   2751.4292    -999.2500       0.0210      72.9310      41.4400    -999.2500    -999.2500     300.9110     154.1490     517.9980       0.0629       3.7380       2.4940
   2751.5815    -999.2500       0.0540      55.9920      42.6380    -999.2500    -999.2500     166.8430      78.2680      77.5320       0.1266       3.7240       2.4940
   2751.7339    -999.2500       0.0540      55.9920      43.8360    -999.2500    -999.2500     166.8430      78.2680      77.5320       0.1266       3.7100       2.4940
   2751.8865    -999.2500       0.0540      56.2520      45.8020    -999.2500    -999.2500     172.7790      80.8660      81.5290       0.1239       3.5910       2.5060
   2752.0388    -999.2500       0.0540      56.5110      47.7660    -999.2500    -999.2500     178.9170      83.5450      85.7260       0.1212       3.4730       2.5180
   2752.1912    -999.2500       0.0220      62.0500      47.6810    -999.2500    -999.2500     243.2530     111.8880     354.5160       0.0983       3.2600       2.5970
   2752.3435    -999.2500       0.0220      62.0500      47.5960    -999.2500    -999.2500     330.7250     149.8460     354.5160       0.0755       3.2600       2.6770
   2752.4961    -999.2500       0.0270      61.6800      46.6370    -999.2500    -999.2500     446.8950     207.4710     304.1730       0.0605       3.2870       2.6930
   2752.6484    -999.2500       0.0320      61.3100      45.6810    -999.2500    -999.2500     603.5800     287.1050     261.0430       0.0456       3.3140       2.7090
   2752.8008    -999.2500       0.0320      58.3480      43.0450    -999.2500    -999.2500     800.5210     401.0070     284.9880       0.0465       3.7950       2.7300
   2752.9531    -999.2500       0.0320      55.3850      40.4090    -999.2500    -999.2500     800.5210     401.0070     311.1280       0.0465       3.7950       2.7300
   2753.1055    -999.2500       0.0310      53.3700      36.5770    -999.2500    -999.2500     797.2150     399.5110     759.7230       0.0461       3.7890       2.7290
   2753.2581    -999.2500       0.0310      51.3500      32.7390    -999.2500    -999.2500     793.9170     398.0170    1857.7720       0.0458       3.7820       2.7290
   2753.4104    -999.2500       0.0260      51.3640      32.8940    -999.2500    -999.2500     765.9620     385.3680    1839.8910       0.0366       3.7280       2.7090
   2753.5627    -999.2500       0.0210      51.3780      33.0490    -999.2500    -999.2500     738.9900     373.1210    1822.1820       0.0366       3.6730       2.7090
   2753.7151    -999.2500       0.0150      51.6290      34.5850    -999.2500    -999.2500     706.2240     351.8600    1637.4490       0.0369       3.6180       2.7100
   2753.8677    -999.2500       0.0090      51.8800      36.1220    -999.2500    -999.2500     674.8610     331.7780    1471.1910       0.0372       3.5630       2.7100
   2754.0200    -999.2500       0.0090      55.1060      39.4110    -999.2500    -999.2500     657.2520     332.3930     321.5320       0.0437       3.5260       2.7100
   2754.1724    -999.2500       0.0090      55.1060      42.7000    -999.2500    -999.2500     640.1020     333.0080     321.5320       0.0437       3.4900       2.7100
   2754.3247    -999.2500       0.0100      54.3760      45.0110    -999.2500    -999.2500     638.5600     338.0420     362.4670       0.0406       3.4590       2.6970
   2754.4773    -999.2500       0.0110      53.6450      47.3260    -999.2500    -999.2500     637.0190     343.1600     408.6920       0.0375       3.4280       2.6850
   2754.6296    -999.2500       0.0140      54.6170      47.2540    -999.2500    -999.2500     639.8360     349.5760     400.1710       0.0387       3.3390       2.6870
   2754.7820    -999.2500       0.0170      55.5880      47.1810    -999.2500    -999.2500     642.6650     356.1110     391.8280       0.0400       3.2500       2.6900
   2754.9343    -999.2500       0.0310      55.3800      43.8340    -999.2500    -999.2500     642.2870     410.5220     281.0690       0.0373       3.2780       2.7580
   2755.0867    -999.2500       0.0310      55.1710      43.8340    -999.2500    -999.2500     641.9100     410.5220     281.0690       0.0373       3.2780       2.7580
   2755.2393    -999.2500       0.0310      52.4080      44.1160    -999.2500    -999.2500     532.1700     349.3230     290.1510       0.0423       3.2760       2.7400
   2755.3916    -999.2500       0.0300      49.6500      44.3970    -999.2500    -999.2500     441.3230     297.3230     299.5110       0.0473       3.2740       2.7220
   2755.5439    -999.2500       0.0170      49.7560      50.9750    -999.2500    -999.2500     444.5900     299.3170     378.9040       0.0466       3.1940       2.7230
   2755.6963    -999.2500       0.0170      49.8630      50.9750    -999.2500    -999.2500     447.8820     301.3240     479.3430       0.0459       3.1940       2.7250
   2755.8489    -999.2500       0.0180      50.7060      50.2210    -999.2500    -999.2500     525.2540     353.3620     715.9450       0.0379       3.2190       2.7350
   2756.0012    -999.2500       0.0180      51.5470      49.4690    -999.2500    -999.2500     615.8350     414.2810    1068.6470       0.0300       3.2450       2.7450
   2756.1536    -999.2500       0.0360      47.5910      49.4740    -999.2500    -999.2500     614.5950     413.9430    1067.0800       0.0304       3.1880       2.7650
   2756.3059    -999.2500       0.0360      47.5910      49.4800    -999.2500    -999.2500     613.3570     413.6050    1065.5140       0.0308       3.1880       2.7650
   2756.4583    -999.2500       0.0360      47.8270      49.5840    -999.2500    -999.2500     593.0210     402.6250    1037.4301       0.0342       3.1930       2.7650
   2756.6108    -999.2500       0.0360      48.0630      49.6880    -999.2500    -999.2500     573.3280     391.9200    1010.0430       0.0376       3.1970       2.7640
   2756.7632    -999.2500       0.0330      51.9390      49.3440    -999.2500    -999.2500     402.5620     271.6910     413.2180       0.0510       3.2430       2.7320
