#------------------------------------------------------------------------------
#
#   Created by  : [OpenWorks] Log Export Utility (LEXP)
#   Created on  : 2016-05-23 11:55:51
#   Project     : CANT971
#   User        : R5K
#   Interpreter : PEP
#
#------------------------------------------------------------------------------
~VERSION INFORMATION
VERS. 2.0 : CWLS Log ASCII Standard - version 2.0
WRAP.  NO : One line per depth step
~WELL INFORMATION
#MNEMONIC   .UNIT                                           VALUE :DESCRIPTION
#------------------------------------------------------------------------------
STRT        .M                                           490.1183 :START DEPTH
STOP        .M                                          2794.5586 :STOP DEPTH
STEP        .M                                             0.1524 :STEP
NULL        .                                           -999.2500 :NULL VALUE
COMP        .                                   PEMEX EXPL & PROD :COMPANY
WELL        .                                                  41 :WELL
FLD         .                                           CANTARELL :FIELD
LOC         .                                             UNKNOWN :LOCATION
CNTY        .                                      CD. DEL CARMEN :COUNTY
STAT        .                                            CAMPECHE :STATE
CTRY        .                                              MEXICO :COUNTRY
SRVC        .                                             UNKNOWN :SERVICE COMPANY
DATE        .                                             UNKNOWN :LOG DATE
UWI         .                                          3060000463 :UNIQUE WELL ID
XCOORD      .                                       601713.000000 :SURFACE X
YCOORD      .                                      2142348.040000 :SURFACE Y
LAT         .                                           19.373822 :LATITUDE
LON         .                                          -92.031472 :LONGITUDE
ELEV        .M                                            24.0000 :SURFACE ELEV
ELEV_TYPE   .                                                  KB :ELEV TYPE
~CURVE INFORMATION
#MNEMONIC.UNIT        API CODE       : CURVE DESCRIPTION
#------------------------------------------------------------------------------
DEPTH    .M                          : Measured Depth
CALI     .inches      UNKNOWN        : CALI:Import:rC:NONE:v0 (auto-composite)
DRHO     .g/cm3       UNKNOWN        : DRHO:Import:rC:NONE:v0 (auto-composite)
DT       .us/ft       UNKNOWN        : DT:Import:rC:NONE:v0 (auto-composite)
GR       .API         UNKNOWN        : GR:Import:rC:NONE:v0 (auto-composite)
ILD      .ohm.m       UNKNOWN        : ILD:Import:rC:NONE:v0 (auto-composite)
LLD      .ohm.m       UNKNOWN        : LLD:Import:rC:NONE:v0 (auto-composite)
LLS      .ohm.m       UNKNOWN        : LLS:Import:rC:NONE:v0 (auto-composite)
NPHI     .v/v_decimal UNKNOWN        : NPHI:Import:rC:NONE:v0 (auto-composite)
PEF      .b/elec      UNKNOWN        : PEF:Import:rC:NONE:v0 (auto-composite)
RHOB     .g/cm3       UNKNOWN        : RHOB:Import:rC:NONE:v0 (auto-composite)
~A     DEPTH         CALI         DRHO           DT           GR          ILD          LLD          LLS         NPHI          PEF         RHOB
# ...
   1932.4319       8.3300       0.0000    -999.2500      38.7990    -999.2500       4.1110       5.2020       0.1482       4.5460       2.6100
   1932.5842       8.3300       0.0020    -999.2500      40.0597    -999.2500       4.7084       5.6269       0.1178       4.8389       2.6005
   1932.7367       8.3300       0.0040    -999.2500      41.3200    -999.2500       5.3060       6.0520       0.0891       5.1320       2.5910
   1932.8890       8.3335       0.0135    -999.2500      40.8720    -999.2500       6.6556       7.6397       0.0957       5.1020       2.5325
   1933.0415       8.3370       0.0230    -999.2500      40.4240    -999.2500       8.0050       9.2270       0.1066       5.0720       2.4740
   1933.1938       8.3760       0.0540    -999.2500      37.3154    -999.2500      11.5601      11.1941       0.1456       4.9740       2.2700
   1933.3463       8.4150       0.0850    -999.2500      34.2070    -999.2500      15.1150      13.1610       0.1882       4.8760       2.0660
   1933.4987       8.5070       0.0795    -999.2500      35.8150    -999.2500      12.2971      11.3351       0.2548       4.7510       2.0760
   1933.6511       8.5990       0.0740    -999.2500      37.4230    -999.2500       9.4790       9.5090       0.3183       4.6260       2.0860
   1933.8035       8.7180       0.0590    -999.2500      41.9786    -999.2500       5.5229       5.6584       0.3086       4.5305       2.1570
   1933.9559       8.8370       0.0440    -999.2500      46.5350    -999.2500       1.5660       1.8070       0.2927       4.4350       2.2280
   1934.1083       8.8190       0.0340    -999.2500      52.0726    -999.2500       1.7600       1.9465       0.2555       4.3520       2.3205
   1934.2607       8.8010       0.0240    -999.2500      57.6120    -999.2500       1.9540       2.0860       0.2170       4.2690       2.4130
   1934.4131       8.7040       0.0140    -999.2500      56.0217    -999.2500       2.6573       2.7339       0.1796       4.2025       2.4385
   1934.5654       8.6070       0.0040    -999.2500      54.4320    -999.2500       3.3610       3.3820       0.1459       4.1360       2.4640
   1934.7179       8.4610       0.0040    -999.2500      50.1698    -999.2500       4.3982       4.5462       0.1736       4.0915       2.5270
   1934.8702       8.3150       0.0040    -999.2500      45.9120    -999.2500       5.4360       5.7110       0.2032       4.0470       2.5900
   1935.0227       8.2225       0.0125    -999.2500      42.6135    -999.2500       4.6198       5.4366       0.2035       3.9610       2.5885
   1935.1750       8.1300       0.0210    -999.2500      39.3180    -999.2500       3.8030       5.1620       0.2015       3.8750       2.5870
   1935.3275       8.1630       0.0330    -999.2500      37.9390    -999.2500       3.9744       4.5722       0.1907       3.9520       2.5815
   1935.4799       8.1960       0.0450    -999.2500      36.5610    -999.2500       4.1460       3.9820       0.1790       4.0290       2.5760
   1935.6323       8.2705       0.0520    -999.2500      36.9141    -999.2500       4.7932       4.2144       0.1608       4.1679       2.5945
   1935.7847       8.3450       0.0590    -999.2500      37.2670    -999.2500       5.4410       4.4470       0.1423       4.3070       2.6130
   1935.9371       8.3885       0.0765    -999.2500      37.1495    -999.2500       7.0212       7.1366       0.1263       4.4249       2.6120
   1936.0895       8.4320       0.0940    -999.2500      37.0320    -999.2500       8.6030       9.8290       0.1113       4.5430       2.6110
   1936.2419       8.4360       0.0855    -999.2500      37.9197    -999.2500       8.4021       9.6201       0.1131       4.6509       2.6170
   1936.3943       8.4400       0.0770    -999.2500      38.8070    -999.2500       8.2010       9.4110       0.1162       4.7590       2.6230
   1936.5466       8.4400       0.0605    -999.2500      42.1310    -999.2500       6.6169       7.4685       0.1271       4.7850       2.6215
   1936.6991       8.4400       0.0440    -999.2500      45.4540    -999.2500       5.0320       5.5250       0.1378       4.8110       2.6200
   1936.8514       8.4400       0.0330    -999.2500      43.7369    -999.2500       5.1580       5.6435       0.1355       4.8595       2.6065
   1937.0039       8.4400       0.0220    -999.2500      42.0200    -999.2500       5.2840       5.7620       0.1323       4.9080       2.5930
   1937.1562       8.4340       0.0230    -999.2500      38.3169    -999.2500       6.0685       6.4460       0.1249       5.0165       2.5960
   1937.3087       8.4280       0.0240    -999.2500      34.6140    -999.2500       6.8530       7.1300       0.1174       5.1250       2.5990
   1937.4611       8.3790       0.0295    -999.2500      32.0416    -999.2500       8.5694       8.1190       0.1112       5.2325       2.5945
   1937.6135       8.3300       0.0350    -999.2500      29.4690    -999.2500      10.2860       9.1080       0.1051       5.3400       2.5900
   1937.7659       8.3300       0.0440    -999.2500      27.6487    -999.2500      10.2575       9.7359       0.1006       5.3900       2.5910
   1937.9183       8.3300       0.0530    -999.2500      25.8280    -999.2500      10.2290      10.3640       0.0962       5.4400       2.5920
   1938.0707       8.3260       0.0585    -999.2500      23.7039    -999.2500      11.3883      11.7968       0.0916       5.4400       2.5955
   1938.2231       8.3220       0.0640    -999.2500      21.5790    -999.2500      12.5480      13.2300       0.0872       5.4400       2.5990
   1938.3755       8.2955       0.0735    -999.2500      20.0392    -999.2500      12.2561      12.8146       0.0872       5.4470       2.6050
   1938.5278       8.2690       0.0830    -999.2500      18.5000    -999.2500      11.9640      12.3990       0.0874       5.4540       2.6110
   1938.6803       8.1895       0.0790    -999.2500      19.0803    -999.2500       9.7826      11.1779       0.0887       5.4860       2.6155
   1938.8326       8.1100       0.0750    -999.2500      19.6600    -999.2500       7.6000       9.9560       0.0899       5.5180       2.6200
   1938.9851       8.1100       0.0655    -999.2500      21.4013    -999.2500       7.7030       8.9649       0.0897       5.4690       2.6100
   1939.1375       8.1100       0.0560    -999.2500      23.1410    -999.2500       7.8060       7.9730       0.0893       5.4200       2.6000
   1939.2899       8.1060       0.0460    -999.2500      22.8029    -999.2500       8.4732       8.3029       0.0882       5.3430       2.5800
   1939.4423       8.1020       0.0360    -999.2500      22.4650    -999.2500       9.1410       8.6330       0.0870       5.2660       2.5600
   1939.5947       8.0895       0.0275    -999.2500      21.4897    -999.2500      10.7657      10.1708       0.0870       5.3585       2.5645
   1939.7471       8.0770       0.0190    -999.2500      20.5150    -999.2500      12.3920      11.7100       0.0870       5.4510       2.5690
   1939.8995       8.1130       0.0200    -999.2500      19.5468    -999.2500      14.5308      14.1921       0.0870       5.6134       2.5805
   1940.0519       8.1490       0.0210    -999.2500      18.5790    -999.2500      16.6720      16.6770       0.0870       5.7760       2.5920
   1940.2043       8.2145       0.0250    -999.2500      18.0989    -999.2500      18.6756      18.8235       0.0870       5.7265       2.6055
   1940.3567       8.2800       0.0290    -999.2500      17.6190    -999.2500      20.6800      20.9710       0.0870       5.6770       2.6190
   1940.5090       8.3050       0.0365    -999.2500      17.1639    -999.2500      19.7604      20.7875       0.0871       5.5970       2.6330
   1940.6615       8.3300       0.0440    -999.2500      16.7090    -999.2500      18.8410      20.6040       0.0873       5.5170       2.6470
   1940.8138       8.3350       0.0440    -999.2500      17.4280    -999.2500      17.1329      19.7739       0.0887       5.4420       2.6430
