#------------------------------------------------------------------------------
#
#   Created by  : [OpenWorks] Log Export Utility (LEXP)
#   Created on  : 2016-05-23 11:57:14
#   Project     : CANT971
#   User        : R5K
#   Interpreter : PEP
#
#------------------------------------------------------------------------------
~VERSION INFORMATION
VERS. 2.0 : CWLS Log ASCII Standard - version 2.0
WRAP.  NO : One line per depth step
~WELL INFORMATION
#MNEMONIC   .UNIT                                           VALUE :DESCRIPTION
#------------------------------------------------------------------------------
STRT        .M                                           551.2302 :START DEPTH
STOP        .M                                          2435.9609 :STOP DEPTH
STEP        .M                                             0.1524 :STEP
NULL        .                                           -999.2500 :NULL VALUE
COMP        .                                   PEMEX EXPL & PROD :COMPANY
WELL        .                                                  76 :WELL
FLD         .                                           CANTARELL :FIELD
LOC         .                                             UNKNOWN :LOCATION
CNTY        .                                      CD. DEL CARMEN :COUNTY
STAT        .                                            CAMPECHE :STATE
CTRY        .                                              MEXICO :COUNTRY
SRVC        .                                             UNKNOWN :SERVICE COMPANY
DATE        .                                             UNKNOWN :LOG DATE
UWI         .                                          3060000416 :UNIQUE WELL ID
XCOORD      .                                       599729.570000 :SURFACE X
YCOORD      .                                      2147218.620000 :SURFACE Y
LAT         .                                           19.417934 :LATITUDE
LON         .                                          -92.050101 :LONGITUDE
ELEV        .M                                            27.8000 :SURFACE ELEV
ELEV_TYPE   .                                                  KB :ELEV TYPE
~CURVE INFORMATION
#MNEMONIC.UNIT        API CODE       : CURVE DESCRIPTION
#------------------------------------------------------------------------------
DEPTH    .M                          : Measured Depth
CAL      .inches      UNKNOWN        : CAL:UNKNOWN:rC:NONE:v0 (auto-composite)
DRHO     .UNKNOWN     UNKNOWN        : DRHO:UNKNOWN:rC:NONE:v0 (auto-composite)
DT       .us/ft       UNKNOWN        : DT:DT:rC:NONE:v0 (auto-composite)
GR       .UNKNOWN     UNKNOWN        : GR:GR-Load:rC:NONE:v0 (auto-composite)
ILD      .UNKNOWN     UNKNOWN        : ILD:ILD-Load:rC:NONE:v0 (auto-composite)
LLD      .UNKNOWN     UNKNOWN        : LLD:UNKNOWN:rC:NONE:v0 (auto-composite)
LLS      .UNKNOWN     UNKNOWN        : LLS:UNKNOWN:rC:NONE:v0 (auto-composite)
NPHI     .v/v_decimal UNKNOWN        : NPHI:NPHI:rC:NONE:v0 (auto-composite)
RHOB     .UNKNOWN     UNKNOWN        : RHOB:UNKNOWN:rC:NONE:v0 (auto-composite)
~A     DEPTH          CAL         DRHO           DT           GR          ILD          LLD          LLS         NPHI         RHOB
# ...
   2044.1406       6.3245       0.0486      69.4156      22.3362       0.2000      52.9411      18.5233      19.6974       2.6817
   2044.2930       6.2278       0.0852      67.9710      20.2000       0.2000      54.4937      18.7679      18.6380       2.7023
   2044.4454       6.1460       0.1179      69.7039      19.8519       0.2000      55.9687      18.8940      17.7436       2.7222
   2044.5978       6.1300       0.1334      71.4370      19.5040       0.2000      57.1028      18.5009      16.8490       2.7392
   2044.7502       6.1300       0.1387      75.8067      19.7521       0.2000      57.6548      18.1837      17.2631       2.7518
   2044.9026       6.1982       0.1006      80.1740      20.0000       0.2000      55.7460      18.1872      17.6770       2.7452
   2045.0551       6.2754       0.0659      76.4827      19.9780       0.2000      53.1991      18.3116      17.2189       2.7333
   2045.2074       6.3892       0.0448      72.7930      19.9560       0.2000      48.0484      18.9296      16.7610       2.6992
   2045.3599       6.4805       0.0306      70.2701      18.8815       0.2000      43.8880      19.6600      15.3363       2.6681
   2045.5122       6.4830       0.0437      67.7480      17.8090       0.2000      43.6498      20.8358      13.9120       2.6485
   2045.6647       6.4635       0.0556      69.1251      18.6698       0.2000      43.9174      21.8236      12.8454       2.6385
   2045.8170       6.3597       0.0631      70.5020      19.5290       0.2000      46.1211      22.0918      11.7790       2.6651
   2045.9695       6.2742       0.0684      71.4400      21.3760       0.2000      49.0697      22.0594      11.0735       2.6955
   2046.1218       6.2561       0.0654      72.3780      23.2200       0.2000      54.7762      20.9142      10.3680       2.7401
   2046.2742       6.2638       0.0630      79.6092      24.3123       0.2000      60.9498      19.9072      10.5735       2.7766
   2046.4266       6.3641       0.0630      86.8410      25.4030       0.2000      68.8046      19.3978      10.7790       2.7842
   2046.5790       6.4372       0.0630     102.4249      25.2799       0.2000      76.1927      19.0068      12.7313       2.7921
   2046.7314       6.4156       0.0630     118.0120      25.1570       0.2000      81.9547      19.0284      14.6840       2.8017
   2046.8838       6.3996       0.0641     106.9114      23.5040       0.2000      87.8234      19.1312      15.0839       2.8084
   2047.0363       6.4021       0.0692      95.8070      21.8530       0.2000      94.0521      19.5086      15.4840       2.8059
   2047.1886       6.4087       0.0793      98.1610      20.2301       0.2000     101.2915      20.0610      14.0073       2.8040
   2047.3411       6.4287       0.1064     100.5160      18.6090       0.2000     111.8528      21.1887      12.5300       2.8040
   2047.4934       6.4418       0.1300     100.3490      18.2138       0.2000     123.4624      22.4534      11.4053       2.8071
   2047.6459       6.4328       0.1425     100.1820      17.8190       0.2000     138.4139      24.1555      10.2800       2.8201
   2047.7982       6.4166       0.1450     105.5896      20.2516       0.2000     151.9876      26.1612       9.5738       2.8288
   2047.9507       6.3780       0.1164     111.0010      22.6820       0.2000     161.2821      29.1100       8.8670       2.8238
   2048.1030       6.3599       0.0922      92.8073      24.3666       0.2000     167.7430      31.7125       8.4975       2.8147
   2048.2554       6.4035       0.0812      74.6130      26.0500       0.2000     165.6979      33.2751       8.1280       2.7937
   2048.4077       6.4251       0.0734      79.2031      24.2157       0.2000     159.4349      34.7242       7.7140       2.7774
   2048.5603       6.3819       0.0749      83.7940      22.3840       0.2000     140.7727      35.8398       7.3000       2.7749
   2048.7126       6.3324       0.0774      80.6860      20.1740       0.2000     123.3871      37.0139       7.3000       2.7678
   2048.8650       6.2648       0.0829      77.5770      17.9670       0.2000     109.6471      38.3551       7.3000       2.7477
   2049.0173       6.2134       0.0858      69.4217      17.3681       0.2000     100.3628      39.8222       7.2865       2.7314
   2049.1699       6.2074       0.0813      61.2630      16.7700       0.2000     103.4424      41.6388       7.2730       2.7254
   2049.3223       6.2416       0.0746      48.0806      17.5149       0.2000     109.8109      42.6063       7.0801       2.7287
   2049.4746       6.3845       0.0621      34.8910      18.2590       0.2000     125.0512      41.2836       6.8870       2.7573
   2049.6270       6.4844       0.0524      41.9582      20.2249       0.2000     137.7987      39.8343       6.4666       2.7830
   2049.7795       6.4714       0.0504      49.0300      22.1890       0.2000     144.0074      38.0528       6.0460       2.8010
   2049.9319       6.4387       0.0515      59.8617      22.9913       0.2000     144.7334      36.6235       6.3719       2.8148
   2050.0842       6.3555       0.0606      70.7020      23.7930       0.2000     131.3573      36.1000       6.6980       2.8179
   2050.2366       6.3169       0.0690      68.1496      24.1401       0.2000     116.7931      35.9533       7.3317       2.8177
   2050.3889       6.3901       0.0760      65.5990      24.4870       0.2000      99.2555      36.7495       7.9650       2.8097
   2050.5415       6.4356       0.0829      63.2158      24.9946       0.2000      85.9683      37.6673       8.4556       2.8018
   2050.6938       6.4135       0.0894      60.8340      25.5020       0.2000      83.0352      38.8811       8.9460       2.7943
   2050.8462       6.3809       0.0915      63.1520      26.2857       0.2000      80.9040      40.0317       9.0405       2.7883
   2050.9985       6.3232       0.0829      65.4690      27.0690       0.2000      80.6749      41.0319       9.1350       2.7857
   2051.1511       6.2859       0.0753      69.4191      27.9178       0.2000      79.3869      41.4392       8.1178       2.7852
   2051.3035       6.2954       0.0698      73.3680      28.7650       0.2000      75.6531      40.4765       7.1010       2.7892
   2051.4558       6.3034       0.0672      72.9775      28.0964       0.2000      74.5715      39.3487       6.2844       2.7954
   2051.6082       6.3079       0.0712      72.5870      27.4290       0.2000      79.4581      37.8492       5.4680       2.8064
   2051.7607       6.3073       0.0698      65.4683      26.4332       0.2000      86.7530      36.6190       5.6240       2.8137
   2051.9131       6.2952       0.0562      58.3500      25.4390       0.2000      99.3680      35.9838       5.7800       2.8127
   2052.0654       6.3094       0.0478      53.6667      23.7367       0.2000     111.0692      35.4276       5.9070       2.8095
   2052.2178       6.3801       0.0503      48.9830      22.0370       0.2000     120.8032      35.0415       6.0340       2.8014
   2052.3701       6.4125       0.0539      54.1695      22.0835       0.2000     130.8562      34.7061       6.2770       2.7942
   2052.5227       6.3643       0.0600      59.3570      22.1300       0.2000     141.5790      34.4769       6.5200       2.7887
   2052.6750       6.3396       0.0643      63.0844      22.6283       0.2000     151.4638      35.0104       6.8414       2.7842
   2052.8274       6.3626       0.0653      66.8130      23.1260       0.2000     159.6340      37.1048       7.1630       2.7817
   2052.9797       6.3711       0.0658      64.4520      25.9161       0.2000     162.5800      38.9819       7.1430       2.7822
   2053.1323       6.3506       0.0653      62.0900      28.7030       0.2000     155.0993      40.4258       7.1230       2.7887
   2053.2847       6.3428       0.0638      60.0551      29.7105       0.2000     145.8977      41.6711       6.5902       2.7900
   2053.4370       6.3598       0.0603      58.0190      30.7170       0.2000     133.3219      42.5269       6.0570       2.7809
