#------------------------------------------------------------------------------
#
#   Created by  : [OpenWorks] Log Export Utility (LEXP)
#   Created on  : 2016-05-23 11:55:51
#   Project     : CANT971
#   User        : R5K
#   Interpreter : PEP
#
#------------------------------------------------------------------------------
~VERSION INFORMATION
VERS. 2.0 : CWLS Log ASCII Standard - version 2.0
WRAP.  NO : One line per depth step
~WELL INFORMATION
#MNEMONIC   .UNIT                                           VALUE :DESCRIPTION
#------------------------------------------------------------------------------
STRT        .M                                           490.1183 :START DEPTH
STOP        .M                                          2794.5586 :STOP DEPTH
STEP        .M                                             0.1524 :STEP
NULL        .                                           -999.2500 :NULL VALUE
COMP        .                                   PEMEX EXPL & PROD :COMPANY
WELL        .                                                  41 :WELL
FLD         .                                           CANTARELL :FIELD
LOC         .                                             UNKNOWN :LOCATION
CNTY        .                                      CD. DEL CARMEN :COUNTY
STAT        .                                            CAMPECHE :STATE
CTRY        .                                              MEXICO :COUNTRY
SRVC        .                                             UNKNOWN :SERVICE COMPANY
DATE        .                                             UNKNOWN :LOG DATE
UWI         .                                          3060000463 :UNIQUE WELL ID
XCOORD      .                                       601713.000000 :SURFACE X
YCOORD      .                                      2142348.040000 :SURFACE Y
LAT         .                                           19.373822 :LATITUDE
LON         .                                          -92.031472 :LONGITUDE
ELEV        .M                                            24.0000 :SURFACE ELEV
ELEV_TYPE   .                                                  KB :ELEV TYPE
~CURVE INFORMATION
#MNEMONIC.UNIT        API CODE       : CURVE DESCRIPTION
#------------------------------------------------------------------------------
DEPTH    .M                          : Measured Depth
CALI     .inches      UNKNOWN        : CALI:Import:rC:NONE:v0 (auto-composite)
DRHO     .g/cm3       UNKNOWN        : DRHO:Import:rC:NONE:v0 (auto-composite)
DT       .us/ft       UNKNOWN        : DT:Import:rC:NONE:v0 (auto-composite)
GR       .API         UNKNOWN        : GR:Import:rC:NONE:v0 (auto-composite)
ILD      .ohm.m       UNKNOWN        : ILD:Import:rC:NONE:v0 (auto-composite)
LLD      .ohm.m       UNKNOWN        : LLD:Import:rC:NONE:v0 (auto-composite)
LLS      .ohm.m       UNKNOWN        : LLS:Import:rC:NONE:v0 (auto-composite)
NPHI     .v/v_decimal UNKNOWN        : NPHI:Import:rC:NONE:v0 (auto-composite)
PEF      .b/elec      UNKNOWN        : PEF:Import:rC:NONE:v0 (auto-composite)
RHOB     .g/cm3       UNKNOWN        : RHOB:Import:rC:NONE:v0 (auto-composite)
~A     DEPTH         CALI         DRHO           DT           GR          ILD          LLD          LLS         NPHI          PEF         RHOB
# ...
   2777.3374       8.1110       0.0100      65.4660      44.0310    -999.2500      19.1970      21.2660       0.1169       4.5610       2.6090
   2777.4900       8.1110       0.0105      60.7131      45.1297    -999.2500      19.4016      21.3015       0.1310       5.8644       2.6150
   2777.6423       8.1110       0.0110      55.9630      46.2260    -999.2500      19.6060      21.3370       0.1424       7.1670       2.6210
   2777.7947       8.1110       0.0135      54.2156      46.7265    -999.2500      21.0198      22.3182       0.1506       7.0550       2.6510
   2777.9470       8.1110       0.0160      52.4690      47.2260    -999.2500      22.4330      23.2990       0.1556       6.9430       2.6810
   2778.0994       8.1110       0.0310      52.7611      47.8331    -999.2500      25.9236      28.2008       0.1571       6.3694       2.7090
   2778.2520       8.1110       0.0460      53.0530      48.4390    -999.2500      29.4130      33.1010       0.1570       5.7960       2.7370
   2778.4043       8.1110       0.0770      54.4282      48.3124    -999.2500      36.5318      39.8927       0.1570       5.2219       2.7520
   2778.5566       8.1110       0.1080      55.8030      48.1860    -999.2500      43.6490      46.6830       0.1570       4.6480       2.7670
   2778.7090       8.1110       0.1450      56.9456      47.2812    -999.2500      41.8624      45.7530       0.1570       4.3940       2.7660
   2778.8616       8.1110       0.1820      58.0880      46.3780    -999.2500      40.0760      44.8230       0.1570       4.1400       2.7650
   2779.0139       8.1110       0.1700      59.7040      46.5852    -999.2500      33.1901      40.1951       0.1571       4.1700       2.7585
   2779.1663       8.1110       0.1580      61.3200      46.7920    -999.2500      26.3040      35.5670       0.1575       4.2000       2.7520
   2779.3186       8.1110       0.1035      64.3943      49.5465    -999.2500      21.9943      30.4654       0.1585       4.3460       2.7310
   2779.4712       8.1110       0.0490      67.4690      52.2970    -999.2500      17.6840      25.3630       0.1595       4.4920       2.7100
   2779.6235       8.1110       0.0165      64.8263      52.2780    -999.2500      16.0764      22.6404       0.1596       4.6881       2.7105
   2779.7759       8.1110      -0.0160      62.1870      52.2590    -999.2500      14.4710      19.9170       0.1582       4.8840       2.7110
   2779.9282       8.1110      -0.0135      62.6343      51.8603    -999.2500      14.4965      18.4398       0.1544       5.4223       2.7030
   2780.0806       8.1110      -0.0110      63.0810      51.4620    -999.2500      14.5220      16.9620       0.1532       5.9600       2.6950
   2780.2332       8.1110      -0.0010      66.1827      49.9942    -999.2500      14.6176      16.4276       0.1599       7.2677       2.6405
   2780.3855       8.1110       0.0090      69.2810      48.5280    -999.2500      14.7130      15.8930       0.1817       8.5740       2.5860
   2780.5378       8.1110       0.0135      67.7803      47.2649    -999.2500      14.7520      15.9280       0.2275       8.4139       2.5865
   2780.6902       8.1110       0.0180      66.2810      46.0050    -999.2500      14.7910      15.9630       0.2881       8.2540       2.5870
   2780.8428       8.1110       0.0200      66.5001      44.2118    -999.2500      14.9786      16.0999       0.3560       7.4437       2.5915
   2780.9951       8.1110       0.0220      66.7190      42.4230    -999.2500      15.1660      16.2370       0.4128       6.6340       2.5960
   2781.1475       8.1160       0.0220      66.6475      38.4419    -999.2500      15.3191      16.2675       0.4387       6.8706       2.5895
   2781.2998       8.1210       0.0220      66.5760      34.4700    -999.2500      15.4720      16.2980    -999.2500       7.1070       2.5830
   2781.4524       8.1980       0.0205      65.8568      25.8452    -999.2500      15.4785    -999.2500    -999.2500       8.2398       2.5840
   2781.6047       8.2750       0.0190      65.1380      17.2390    -999.2500      15.4850    -999.2500    -999.2500       9.3720       2.5850
   2781.7571       8.5991       0.0150      62.8115      11.3014    -999.2500      15.4850    -999.2500    -999.2500       9.2835       2.5880
   2781.9094       8.9230       0.0110      60.4860       5.3760    -999.2500      15.4850    -999.2500    -999.2500       9.1950       2.5910
   2782.0618       9.5061       0.0050      57.8331       3.2415    -999.2500      15.4850    -999.2500    -999.2500       8.8499       2.6010
   2782.2144      10.0890      -0.0010      55.1810       1.1110    -999.2500      15.4850    -999.2500    -999.2500       8.5050       2.6110
   2782.3667      10.8731      -0.0185      54.2469       1.1110    -999.2500      15.4850    -999.2500    -999.2500       8.3115       2.6846
   2782.5190      11.6570      -0.0360      53.3130       1.1110    -999.2500      15.4850    -999.2500    -999.2500       8.1180       2.7580
   2782.6714      12.3025      -0.0355      53.3265       1.1110    -999.2500      15.4850    -999.2500    -999.2500       7.6195       2.7570
   2782.8240      12.9480      -0.0350      53.3400       1.1110    -999.2500      15.4850    -999.2500    -999.2500       7.1210       2.7560
   2782.9763      13.1675      -0.0325      53.3885       1.1110    -999.2500      15.4850    -999.2500    -999.2500       5.6614       2.7435
   2783.1287      13.3870      -0.0300      53.4370       1.1110    -999.2500      15.4850    -999.2500    -999.2500       4.2040       2.7310
   2783.2810      13.4155      -0.0180      53.4530       1.1110    -999.2500      15.4850    -999.2500    -999.2500       4.4377       2.6905
   2783.4336      13.4440      -0.0060      53.4690       1.1110    -999.2500      15.4850    -999.2500    -999.2500       4.6710       2.6500
   2783.5859      13.4440    -999.2500      53.4510       1.0284    -999.2500      15.4850    -999.2500    -999.2500       6.6208       2.5820
   2783.7383      13.4440    -999.2500      53.4330       0.9460    -999.2500      15.4850    -999.2500    -999.2500       8.5680       2.5140
   2783.8906      13.5431    -999.2500      53.3414       0.4727    -999.2500      15.5090    -999.2500    -999.2500       8.2033       2.4285
   2784.0430      13.6420    -999.2500      53.2500    -999.2500    -999.2500      15.5330    -999.2500    -999.2500       7.8390       2.3430
   2784.1956      14.1192    -999.2500      53.2500    -999.2500    -999.2500      15.9567    -999.2500    -999.2500       6.4093       2.2820
   2784.3479      14.5960    -999.2500      53.2500    -999.2500    -999.2500      16.3800    -999.2500    -999.2500       4.9810       2.2210
   2784.5002      15.1417    -999.2500      53.3435    -999.2500    -999.2500      18.3144    -999.2500    -999.2500       4.2121       2.1910
   2784.6526      15.6870    -999.2500      53.4370    -999.2500    -999.2500      20.2470    -999.2500    -999.2500       3.4440       2.1610
   2784.8052      15.9086    -999.2500      53.3905    -999.2500    -999.2500      23.7204    -999.2500    -999.2500       3.4440       2.1610
   2784.9575      16.1300    -999.2500      53.3440    -999.2500    -999.2500      27.1910    -999.2500    -999.2500       3.4440       2.1610
   2785.1099      16.1830    -999.2500      53.3595    -999.2500    -999.2500      33.5396    -999.2500    -999.2500       3.4440    -999.2500
   2785.2622      16.2360    -999.2500      53.3750    -999.2500    -999.2500      39.8840    -999.2500    -999.2500    -999.2500    -999.2500
   2785.4148      16.4130    -999.2500      53.3440    -999.2500    -999.2500      38.9482    -999.2500    -999.2500    -999.2500    -999.2500
   2785.5671      16.5900    -999.2500      53.3130    -999.2500    -999.2500      38.0130    -999.2500    -999.2500    -999.2500    -999.2500
   2785.7195      17.1896    -999.2500      53.3440    -999.2500    -999.2500      34.3568    -999.2500    -999.2500    -999.2500    -999.2500
