#------------------------------------------------------------------------------
#
#   Created by  : [OpenWorks] Log Export Utility (LEXP)
#   Created on  : 2016-05-12 17:01:25
#   Project     : CANT971
#   User        : R5K
#   Interpreter : PEP
#
#------------------------------------------------------------------------------
~VERSION INFORMATION
VERS. 2.0 : CWLS Log ASCII Standard - version 2.0
WRAP.  NO : One line per depth step
~WELL INFORMATION
#MNEMONIC   .UNIT                                           VALUE :DESCRIPTION
#------------------------------------------------------------------------------
STRT        .M                                           310.6675 :START DEPTH
STOP        .M                                          2665.7046 :STOP DEPTH
STEP        .M                                             0.1524 :STEP
NULL        .                                           -999.2500 :NULL VALUE
COMP        .                                   PEMEX EXPL & PROD :COMPANY
WELL        .                                                 77A :WELL
FLD         .                                           CANTARELL :FIELD
LOC         .                                             UNKNOWN :LOCATION
CNTY        .                                      CD. DEL CARMEN :COUNTY
STAT        .                                            CAMPECHE :STATE
CTRY        .                                              MEXICO :COUNTRY
SRVC        .                                             UNKNOWN :SERVICE COMPANY
DATE        .                                             UNKNOWN :LOG DATE
UWI         .                                          3060000181 :UNIQUE WELL ID
XCOORD      .                                       602151.310000 :SURFACE X
YCOORD      .                                      2147165.430000 :SURFACE Y
LAT         .                                           19.417331 :LATITUDE
LON         .                                          -92.027040 :LONGITUDE
ELEV        .M                                            28.1700 :SURFACE ELEV
ELEV_TYPE   .                                                  KB :ELEV TYPE
~CURVE INFORMATION
#MNEMONIC.UNIT        API CODE       : CURVE DESCRIPTION
#------------------------------------------------------------------------------
DEPTH    .M                          : Measured Depth
CALI     .inches      UNKNOWN        : CALI:UNKNOWN:rC:NONE:v0 (auto-composite)
DRHO     .UNKNOWN     UNKNOWN        : DRHO:PETROWORKS:rC:NONE:v1 
DT       .us/ft       UNKNOWN        : DT:DT:rC:NONE:v0 (auto-composite)
GR       .API         UNKNOWN        : GR:UNKNOWN:rC:NONE:v0 (auto-composite)
ILD      .UNKNOWN     UNKNOWN        : ILD:UNKNOWN:rC:NONE:v0 (auto-composite)
LLD      .ohm.m       UNKNOWN        : LLD:UNKNOWN:rC:NONE:v0 (auto-composite)
LLS      .ohm.m       UNKNOWN        : LLS:UNKNOWN:rC:NONE:v0 (auto-composite)
MSFL     .ohm.m       UNKNOWN        : MSFL:UNKNOWN:rC:NONE:v0 (auto-composite)
NPHI     .v/v_decimal UNKNOWN        : NPHI:PETROWORKS:rC:NONE:v1 
RHOB     .UNKNOWN     UNKNOWN        : RHOB:PETROWORKS:rC:NONE:v1 
SP       .UNKNOWN     UNKNOWN        : SP:UNKNOWN:rC:NONE:v0 (auto-composite)
~A     DEPTH         CALI         DRHO           DT           GR          ILD          LLD          LLS         MSFL         NPHI         RHOB           SP
# ...
    627.6595      22.9090       0.0129     107.2837      37.3940       2.0466    -999.2500    -999.2500    -999.2500       0.2974       2.2754     103.3725
    627.8119      22.9090       0.0101     106.6438      38.4364       2.0421    -999.2500    -999.2500    -999.2500       0.2952       2.2665     103.5344
    627.9643      22.9090       0.0101     105.0961      39.5756       2.0287    -999.2500    -999.2500    -999.2500       0.2899       2.2663     103.8332
    628.1167      22.9090       0.0139     102.6477      40.9230       1.9961    -999.2500    -999.2500    -999.2500       0.2815       2.2771     104.4262
    628.2691      22.9046       0.0158     100.3540      42.5163       1.9640    -999.2500    -999.2500    -999.2500       0.2735       2.2794     105.0365
    628.4215      22.8911       0.0144      98.2141      44.6263       1.9329    -999.2500    -999.2500    -999.2500       0.2661       2.2688     105.6832
    628.5739      22.8820       0.0144      97.4328      46.0616       1.8911    -999.2500    -999.2500    -999.2500       0.2572       2.2691     106.2770
    628.7263      22.8820       0.0170      98.0002      46.1122       1.8275    -999.2500    -999.2500    -999.2500       0.2469       2.2852     106.7622
    628.8787      22.8820       0.0194      99.8605      45.4016       1.7742    -999.2500    -999.2500    -999.2500       0.2507       2.2997     107.1756
    629.0311      22.8820       0.0210     103.0045      43.1644       1.7416    -999.2500    -999.2500    -999.2500       0.2684       2.3087     107.4448
    629.1835      22.8866       0.0196     106.9960      41.2282       1.7159    -999.2500    -999.2500    -999.2500       0.2767       2.3097     107.6959
    629.3359      22.9001       0.0146     111.8278      39.8807       1.7039    -999.2500    -999.2500    -999.2500       0.2755       2.3026     107.9115
    629.4883      22.9090       0.0110     114.1494      38.8913       1.6934    -999.2500    -999.2500    -999.2500       0.2762       2.2986     108.0716
    629.6407      22.9090       0.0097     113.9809      38.5865       1.6859    -999.2500    -999.2500    -999.2500       0.2787       2.2997     108.1257
    629.7931      22.9090       0.0106     113.4985      37.9360       1.6770    -999.2500    -999.2500    -999.2500       0.2843       2.2996     108.1234
    629.9455      22.9090       0.0137     112.7045      36.6391       1.6655    -999.2500    -999.2500    -999.2500       0.2929       2.2970     108.0157
    630.0979      22.9042       0.0134     111.2854      36.5474       1.6621    -999.2500    -999.2500    -999.2500       0.2997       2.2899     107.9841
    630.2503      22.8907       0.0085     109.2460      38.6578       1.6736    -999.2500    -999.2500    -999.2500       0.3046       2.2781     108.0919
    630.4027      22.8773       0.0082     108.8261      39.8548       1.6851    -999.2500    -999.2500    -999.2500       0.3124       2.2718     108.1610
    630.5551      22.8643       0.0138     110.0141      39.4227       1.6967    -999.2500    -999.2500    -999.2500       0.3232       2.2727     108.1610
    630.7075      22.8608       0.0143     112.9597      38.7312       1.7113    -999.2500    -999.2500    -999.2500       0.3283       2.2819     108.2003
    630.8599      22.8738       0.0078     117.6505      37.5872       1.7314    -999.2500    -999.2500    -999.2500       0.3280       2.2993     108.3081
    631.0123      22.8870       0.0064     119.6495      36.6781       1.7514    -999.2500    -999.2500    -999.2500       0.3269       2.3097     108.3162
    631.1647      22.9005       0.0119     118.9749      36.1697       1.7715    -999.2500    -999.2500    -999.2500       0.3250       2.3110     108.1542
    631.3171      22.8990       0.0158     117.1151      36.3956       1.7825    -999.2500    -999.2500    -999.2500       0.3117       2.3106     108.0530
    631.4695      22.8725       0.0167     114.0797      37.8448       1.7785    -999.2500    -999.2500    -999.2500       0.2872       2.3096     108.0530
    631.6219      22.8560       0.0181     110.9331      38.7720       1.7608    -999.2500    -999.2500    -999.2500       0.2755       2.3106     108.0736
    631.7743      22.8560       0.0205     107.6762      38.8482       1.7206    -999.2500    -999.2500    -999.2500       0.2766       2.3138     108.1277
    631.9267      22.8610       0.0247     107.2907      38.8950       1.6916    -999.2500    -999.2500    -999.2500       0.2770       2.3171     108.2025
    632.0791      22.8741       0.0310     109.7546      38.8950       1.6800    -999.2500    -999.2500    -999.2500       0.2765       2.3202     108.3103
    632.2315      22.8873       0.0306     110.2789      39.5106       1.6746    -999.2500    -999.2500    -999.2500       0.2739       2.3178     108.4181
    632.3839      22.9008       0.0225     108.8780      41.0870       1.6786    -999.2500    -999.2500    -999.2500       0.2694       2.3095     108.5259
    632.5363      22.8985       0.0166     108.3820      41.7672       1.6748    -999.2500    -999.2500    -999.2500       0.2684       2.3086     108.6978
    632.6887      22.8719       0.0142     108.7844      41.0809       1.6593    -999.2500    -999.2500    -999.2500       0.2709       2.3166     108.9675
    632.8411      22.8612       0.0206     111.0427      40.3436       1.6456    -999.2500    -999.2500    -999.2500       0.2769       2.3297     109.1073
    632.9935      22.8743       0.0361     115.1439      39.5300       1.6345    -999.2500    -999.2500    -999.2500       0.2866       2.3472     109.0531
    633.1459      22.8875       0.0490     116.7583      38.7164       1.6388    -999.2500    -999.2500    -999.2500       0.2903       2.3530     108.9772
    633.2983      22.9010       0.0580     115.9063      37.9028       1.6654    -999.2500    -999.2500    -999.2500       0.2881       2.3453     108.8694
    633.4507      22.8981       0.0500     112.8268      38.3237       1.6827    -999.2500    -999.2500    -999.2500       0.2827       2.3306     108.8283
    633.6031      22.8715       0.0242     107.5374      40.5103       1.6867    -999.2500    -999.2500    -999.2500       0.2740       2.3096     108.8824
    633.7555      22.8614       0.0079     105.5530      41.3610       1.6794    -999.2500    -999.2500    -999.2500       0.2708       2.2989     108.9364
    633.9079      22.8745       0.0037     106.8479      40.3444       1.6563    -999.2500    -999.2500    -999.2500       0.2729       2.2998     108.9900
    634.0603      22.8877       0.0070     109.9127      39.7354       1.6479    -999.2500    -999.2500    -999.2500       0.2776       2.2956     108.8845
    634.2127      22.9012       0.0169     114.7340      39.6843       1.6594    -999.2500    -999.2500    -999.2500       0.2849       2.2846     108.5612
    634.3651      22.9090       0.0186     115.1088      40.2743       1.6626    -999.2500    -999.2500    -999.2500       0.2870       2.2731     108.3529
    634.5175      22.9090       0.0109     111.0689      41.7235       1.6546    -999.2500    -999.2500    -999.2500       0.2839       2.2616     108.2987
    634.6699      22.9090       0.0087     109.3437      42.4580       1.6402    -999.2500    -999.2500    -999.2500       0.2895       2.2569     108.2680
    634.8223      22.9090       0.0132     109.9172      42.2544       1.6177    -999.2500    -999.2500    -999.2500       0.3040       2.2593     108.2680
    634.9747      22.9031       0.0179     111.7226      42.2513       1.6050    -999.2500    -999.2500    -999.2500       0.3110       2.2616     108.2208
    635.1271      22.8895       0.0225     114.7516      42.5055       1.6050    -999.2500    -999.2500    -999.2500       0.3107       2.2632     108.1130
    635.2795      22.8820       0.0220     115.6071      42.4104       1.6068    -999.2500    -999.2500    -999.2500       0.3058       2.2692     108.1487
    635.4319      22.8820       0.0163     114.3067      41.8765       1.6108    -999.2500    -999.2500    -999.2500       0.2963       2.2799     108.3648
