#------------------------------------------------------------------------------
#
#   Created by  : [OpenWorks] Log Export Utility (LEXP)
#   Created on  : 2016-05-12 17:01:25
#   Project     : CANT971
#   User        : R5K
#   Interpreter : PEP
#
#------------------------------------------------------------------------------
~VERSION INFORMATION
VERS. 2.0 : CWLS Log ASCII Standard - version 2.0
WRAP.  NO : One line per depth step
~WELL INFORMATION
#MNEMONIC   .UNIT                                           VALUE :DESCRIPTION
#------------------------------------------------------------------------------
STRT        .M                                           310.6675 :START DEPTH
STOP        .M                                          2665.7046 :STOP DEPTH
STEP        .M                                             0.1524 :STEP
NULL        .                                           -999.2500 :NULL VALUE
COMP        .                                   PEMEX EXPL & PROD :COMPANY
WELL        .                                                 77A :WELL
FLD         .                                           CANTARELL :FIELD
LOC         .                                             UNKNOWN :LOCATION
CNTY        .                                      CD. DEL CARMEN :COUNTY
STAT        .                                            CAMPECHE :STATE
CTRY        .                                              MEXICO :COUNTRY
SRVC        .                                             UNKNOWN :SERVICE COMPANY
DATE        .                                             UNKNOWN :LOG DATE
UWI         .                                          3060000181 :UNIQUE WELL ID
XCOORD      .                                       602151.310000 :SURFACE X
YCOORD      .                                      2147165.430000 :SURFACE Y
LAT         .                                           19.417331 :LATITUDE
LON         .                                          -92.027040 :LONGITUDE
ELEV        .M                                            28.1700 :SURFACE ELEV
ELEV_TYPE   .                                                  KB :ELEV TYPE
~CURVE INFORMATION
#MNEMONIC.UNIT        API CODE       : CURVE DESCRIPTION
#------------------------------------------------------------------------------
DEPTH    .M                          : Measured Depth
CALI     .inches      UNKNOWN        : CALI:UNKNOWN:rC:NONE:v0 (auto-composite)
DRHO     .UNKNOWN     UNKNOWN        : DRHO:PETROWORKS:rC:NONE:v1 
DT       .us/ft       UNKNOWN        : DT:DT:rC:NONE:v0 (auto-composite)
GR       .API         UNKNOWN        : GR:UNKNOWN:rC:NONE:v0 (auto-composite)
ILD      .UNKNOWN     UNKNOWN        : ILD:UNKNOWN:rC:NONE:v0 (auto-composite)
LLD      .ohm.m       UNKNOWN        : LLD:UNKNOWN:rC:NONE:v0 (auto-composite)
LLS      .ohm.m       UNKNOWN        : LLS:UNKNOWN:rC:NONE:v0 (auto-composite)
MSFL     .ohm.m       UNKNOWN        : MSFL:UNKNOWN:rC:NONE:v0 (auto-composite)
NPHI     .v/v_decimal UNKNOWN        : NPHI:PETROWORKS:rC:NONE:v1 
RHOB     .UNKNOWN     UNKNOWN        : RHOB:PETROWORKS:rC:NONE:v1 
SP       .UNKNOWN     UNKNOWN        : SP:UNKNOWN:rC:NONE:v0 (auto-composite)
~A     DEPTH         CALI         DRHO           DT           GR          ILD          LLD          LLS         MSFL         NPHI         RHOB           SP
# ...
   2585.0852       8.5219       0.0065      57.5687      26.0979     202.5432      33.5470      22.0673    -999.2500       0.1055       2.6479      16.1976
   2585.2375       8.5480       0.0074      57.7778      25.1954     197.7534      33.3886      22.3867    -999.2500       0.1166       2.6604      16.0176
   2585.3899       8.5710       0.0073      57.4188      24.6081     197.2918      33.4980      22.7199    -999.2500       0.1254       2.6649      15.8519
   2585.5422       8.5710       0.0076      56.4952      26.3615     228.9758      35.5871      23.1552    -999.2500       0.1319       2.6575      15.7917
   2585.6948       8.5742       0.0068      56.1074      27.8754     257.5049      37.4626      23.4964    -999.2500       0.1333       2.6517      15.7531
   2585.8472       8.6003       0.0041      56.2539      27.6749     263.4579      37.8166      23.1665    -999.2500       0.1297       2.6554      15.8679
   2585.9995       8.6197       0.0039      56.8377      27.2430     288.7268      38.0464      22.7403    -999.2500       0.1283       2.6571      15.9740
   2586.1519       8.5936       0.0089      57.8563      25.2374     445.4051      37.4352      21.6623    -999.2500       0.1292       2.6496      16.0206
   2586.3042       8.5710       0.0147      59.2941      23.3827     565.6172      36.6917      20.6514    -999.2500       0.1319       2.6438      16.0653
   2586.4568       8.5710       0.0184      61.1503      22.5053     449.5429      35.0953      20.0733    -999.2500       0.1364       2.6462      16.0974
   2586.6091       8.5710       0.0185      62.7144      21.9490     335.5794      33.8379      19.6492    -999.2500       0.1461       2.6451      16.1286
   2586.7615       8.5710       0.0141      63.9878      23.3779     234.6636      34.6672      20.1732    -999.2500       0.1612       2.6339      16.1547
   2586.9138       8.5710       0.0106      69.0416      25.3005     146.1226      35.5502      20.6210    -999.2500       0.2093       2.6206      16.1689
   2587.0664       8.5710       0.0107      77.8694      30.1389     130.6763      36.7490      20.6210    -999.2500       0.2904       2.6101      16.1133
   2587.2188       8.5710       0.0106      82.0884      34.5889     115.3546      37.7535      20.5638    -999.2500       0.3273       2.6040      16.0299
   2587.3711       8.5710       0.0080      81.7201      36.8434     100.7373      37.6644      20.1845    -999.2500       0.3198       2.6032      15.7894
   2587.5234       8.5710       0.0089      79.9242      38.8931      86.4701      37.3296      19.6058    -999.2500       0.2993       2.6066      15.5489
   2587.6760       8.5710       0.0166      76.7025      39.8207      74.1224      35.6540      17.9377    -999.2500       0.2657       2.6138      15.3088
   2587.8284       8.5731       0.0244      71.6639      40.4718      62.5580      33.7194      16.2821    -999.2500       0.2305       2.6152      15.0878
   2587.9807       8.5861       0.0291      64.8159      39.6696      55.1119      30.4288      14.6922    -999.2500       0.1935       2.6059      14.9674
   2588.1331       8.5948       0.0302      61.5354      38.9337      48.3385      27.2870      13.2182    -999.2500       0.1692       2.5942      14.8472
   2588.2854       8.5818       0.0279      61.7973      38.5326      44.9612      24.8933      12.3272    -999.2500       0.1574       2.5845      14.7274
   2588.4380       8.5710       0.0241      61.4525      38.2557      41.8283      22.7827      11.5340    -999.2500       0.1487       2.5723      14.6177
   2588.5903       8.5710       0.0197      60.5031      38.5816      39.8814      22.0402      11.2131    -999.2500       0.1429       2.5553      14.5576
   2588.7427       8.5756       0.0190      60.0581      38.4787      38.0815      21.3759      10.9307    -999.2500       0.1404       2.5463      14.5080
   2588.8950       8.6016       0.0237      60.1141      36.3746      36.9678      21.0758      10.8275    -999.2500       0.1411       2.5512      14.5080
   2589.0476       8.6230       0.0242      60.3266      34.9575      36.4198      20.8661      10.6982    -999.2500       0.1463       2.5568      14.5080
   2589.2000       8.6230       0.0160      60.6952      36.6622      38.4419      21.0657      10.4505    -999.2500       0.1558       2.5566      14.5080
   2589.3523       8.6303       0.0081      60.8351      38.5115      40.3529      21.1017      10.1628    -999.2500       0.1604       2.5543      14.5192
   2589.5046       8.6694       0.0046      60.7477      40.9933      41.7773      20.4243       9.7005    -999.2500       0.1603       2.5514      14.5794
   2589.6572       8.7135       0.0012      61.6734      43.2064      42.7079      19.6956       9.2614    -999.2500       0.1594       2.5460      14.6394
   2589.8096       8.7787      -0.0042      63.6096      44.2844      41.5532      18.7510       8.9200    -999.2500       0.1579       2.5371      14.6991
   2589.9619       8.8335      -0.0079      64.4409      45.3081      40.4816      17.8718       8.5726    -999.2500       0.1540       2.5265      14.7470
   2590.1143       8.8460      -0.0084      64.1735      46.1103      39.7485      17.2581       8.2011    -999.2500       0.1478       2.5152      14.7470
   2590.2666       8.8482      -0.0083      63.2987      46.1355      38.4881      16.6076       7.8533    -999.2500       0.1344       2.5076      14.7470
   2590.4192       8.8096      -0.0086      61.8176      43.1021      35.1513      15.8129       7.5986    -999.2500       0.1140       2.5054      14.7470
   2590.5715       8.7709      -0.0095      61.2040      40.2413      31.7131      15.0962       7.3789    -999.2500       0.1053       2.5069      14.7845
   2590.7239       8.7318      -0.0108      61.4534      38.0369      27.8885      14.6754       7.2922    -999.2500       0.1083       2.5110      14.9649
   2590.8762       8.6927      -0.0067      62.0984      36.2149      24.5424      14.3512       7.2462    -999.2500       0.1094       2.5184      15.0833
   2591.0288       8.6536       0.0050      63.1383      35.8138      22.9741      14.3853       7.3505    -999.2500       0.1088       2.5290      14.9715
   2591.1812       8.6230       0.0156      64.9692      35.5927      21.6928      14.4727       7.4593    -999.2500       0.1072       2.5423      14.9232
   2591.3335       8.6230       0.0215      67.5876      36.0189      21.4436      14.7510       7.5847    -999.2500       0.1045       2.5581      15.1032
   2591.4858       8.6230       0.0256      68.6515      36.8087      21.2829      14.9750       7.6660    -999.2500       0.1020       2.5694      15.2699
   2591.6384       8.6230       0.0293      68.1628      38.8644      21.4303      15.0106       7.5943    -999.2500       0.0996       2.5734      15.3902
   2591.7908       8.6200       0.0308      66.9903      40.5303      21.4660      14.9201       7.5350    -999.2500       0.0969       2.5718      15.4830
   2591.9431       8.6070       0.0295      65.1366      40.8812      21.1251      14.4057       7.5174    -999.2500       0.0938       2.5652      15.4830
   2592.0955       8.6001       0.0264      62.9762      41.5607      20.7864      14.0526       7.6294    -999.2500       0.0924       2.5599      15.4830
   2592.2478       8.6131       0.0218      60.5113      43.3142      20.4553      14.2254       8.1634    -999.2500       0.0926       2.5584      15.4830
   2592.4004       8.6230       0.0241      59.3028      44.9366      19.9914      14.5896       8.7089    -999.2500       0.0938       2.5772      15.4830
   2592.5527       8.6230       0.0360      59.3463      46.1399      19.1029      15.5643       9.2911    -999.2500       0.0960       2.6219      15.4830
   2592.7051       8.6357       0.0387      59.6398      46.4451      18.2619      16.4569       9.7037    -999.2500       0.1009       2.6452      15.4830
   2592.8574       8.6879       0.0258      60.1815      43.9632      17.5680      17.0952       9.5919    -999.2500       0.1087       2.6311      15.4830
