#------------------------------------------------------------------------------
#
#   Created by  : [OpenWorks] Log Export Utility (LEXP)
#   Created on  : 2016-05-23 11:57:24
#   Project     : CANT971
#   User        : R5K
#   Interpreter : PEP
#
#------------------------------------------------------------------------------
~VERSION INFORMATION
VERS. 2.0 : CWLS Log ASCII Standard - version 2.0
WRAP.  NO : One line per depth step
~WELL INFORMATION
#MNEMONIC   .UNIT                                           VALUE :DESCRIPTION
#------------------------------------------------------------------------------
STRT        .M                                           648.1292 :START DEPTH
STOP        .M                                          2685.5647 :STOP DEPTH
STEP        .M                                             0.1524 :STEP
NULL        .                                           -999.2500 :NULL VALUE
COMP        .                                   PEMEX EXPL & PROD :COMPANY
WELL        .                                                 81D :WELL
FLD         .                                           CANTARELL :FIELD
LOC         .                                             UNKNOWN :LOCATION
CNTY        .                                      CD. DEL CARMEN :COUNTY
STAT        .                                            CAMPECHE :STATE
CTRY        .                                              MEXICO :COUNTRY
SRVC        .                                             UNKNOWN :SERVICE COMPANY
DATE        .                                             UNKNOWN :LOG DATE
UWI         .                                          3060000666 :UNIQUE WELL ID
XCOORD      .                                       601717.100000 :SURFACE X
YCOORD      .                                      2142375.260000 :SURFACE Y
LAT         .                                           19.374067 :LATITUDE
LON         .                                          -92.031430 :LONGITUDE
ELEV        .M                                            30.0000 :SURFACE ELEV
ELEV_TYPEF  .b/elec                                            KB :ELEV TYPE
~CURVE INFORMATION
#MNEMONIC.UNIT        API CODE       : CURVE DESCRIPTION
#------------------------------------------------------------------------------
DEPTH    .M                          : Measured Depth
CALI     .in          UNKNOWN        : CALI:UNKNOWN:rC:NONE:v0 (auto-composite)
CGR      .API         UNKNOWN        : CGR:UNKNOWN:rC:NONE:v0 (auto-composite)
DRHO     .g/cm3       UNKNOWN        : DRHO:UNKNOWN:rC:NONE:v0 (auto-composite)
DT       .us/ft       UNKNOWN        : DT:DT:rC:NONE:v0 (auto-composite)
GR       .API         UNKNOWN        : GR:UNKNOWN:rC:NONE:v0 (auto-composite)
ILD      .ohmm        UNKNOWN        : ILD:UNKNOWN:rC:NONE:v0 (auto-composite)
ILM      .ohmm        UNKNOWN        : ILM:UNKNOWN:rC:NONE:v0 (auto-composite)
LLD      .ohmm        UNKNOWN        : LLD:UNKNOWN:rC:NONE:v0 (auto-composite)
LLS      .ohmm        UNKNOWN        : LLS:UNKNOWN:rC:NONE:v0 (auto-composite)
NPHI     .v/v_decimal UNKNOWN        : NPHI:NPHI:rC:NONE:v0 (auto-composite)
PEF      .b/elec      UNKNOWN        : PEF:UNKNOWN:rC:NONE:v0 (auto-composite)
POTA     .%           UNKNOWN        : POTA:UNKNOWN:rC:NONE:v0 (auto-composite)
RHOB     .g/cm3       UNKNOWN        : RHOB:UNKNOWN:rC:NONE:v0 (auto-composite)
THOR     .ppm         UNKNOWN        : THOR:UNKNOWN:rC:NONE:v0 (auto-composite)
URAN     .ppm         UNKNOWN        : URAN:UNKNOWN:rC:NONE:v0 (auto-composite)
~A     DEPTH         CALI          CGR         DRHO           DT           GR          ILD          ILM          LLD          LLS         NPHI          PEF         POTA         RHOB         THOR         URAN
# ...
   1664.4849      15.6175    -999.2500      -0.0059      88.6256      10.9338       1.7671       2.1629    -999.2500    -999.2500      19.4938       6.2021    -999.2500       2.3395    -999.2500    -999.2500
   1664.6372      15.6385    -999.2500      -0.0031      88.2823      12.0702       1.7647       2.1688    -999.2500    -999.2500      19.7199       6.2653    -999.2500       2.3481    -999.2500    -999.2500
   1664.7896      15.6620    -999.2500      -0.0001      88.1579      13.3032       1.7611       2.1738    -999.2500    -999.2500      19.7316       6.3379    -999.2500       2.3566    -999.2500    -999.2500
   1664.9420      15.6217    -999.2500       0.0038      88.8379      13.8833       1.7600       2.1889    -999.2500    -999.2500      18.9561       6.1705    -999.2500       2.3479    -999.2500    -999.2500
   1665.0944      15.5786    -999.2500       0.0079      89.7601      14.4349       1.7590       2.2044    -999.2500    -999.2500      18.1714       5.9925    -999.2500       2.3383    -999.2500    -999.2500
   1665.2468      15.5390    -999.2500       0.0051      90.5587      16.1142       1.7547       2.1934    -999.2500    -999.2500      18.8208       6.1073    -999.2500       2.3255    -999.2500    -999.2500
   1665.3992      15.4995    -999.2500       0.0021      91.2708      17.8363       1.7502       2.1815    -999.2500    -999.2500      19.6192       6.2332    -999.2500       2.3125    -999.2500    -999.2500
   1665.5516      15.5607    -999.2500       0.0001      91.6320      17.9319       1.7269       2.1323    -999.2500    -999.2500      19.3873       6.2800    -999.2500       2.3009    -999.2500    -999.2500
   1665.7040      15.6259    -999.2500      -0.0019      91.9395      17.9630       1.7028       2.0817    -999.2500    -999.2500      19.0329       6.3236    -999.2500       2.2894    -999.2500    -999.2500
   1665.8564      15.6981    -999.2500      -0.0025      92.3344      17.0197       1.6595       2.0157    -999.2500    -999.2500      19.0652       6.4439    -999.2500       2.2856    -999.2500    -999.2500
   1666.0088      15.7705    -999.2500      -0.0030      92.7516      16.0435       1.6155       1.9493    -999.2500    -999.2500      19.2487       6.5668    -999.2500       2.2821    -999.2500    -999.2500
   1666.1613      15.8456    -999.2500      -0.0025      93.0703      16.1407       1.5791       1.8923    -999.2500    -999.2500      19.8720       6.4897    -999.2500       2.2854    -999.2500    -999.2500
   1666.3136      15.9208    -999.2500      -0.0020      93.3343      16.2761       1.5430       1.8356    -999.2500    -999.2500      20.4485       6.4054    -999.2500       2.2889    -999.2500    -999.2500
   1666.4661      15.8948    -999.2500      -0.0039      93.4591      15.5646       1.5103       1.7946    -999.2500    -999.2500      20.7450       6.3684    -999.2500       2.2841    -999.2500    -999.2500
   1666.6184      15.8657    -999.2500      -0.0060      93.5321      14.8281       1.4778       1.7539    -999.2500    -999.2500      20.9353       6.3328    -999.2500       2.2791    -999.2500    -999.2500
   1666.7708      15.8157    -999.2500      -0.0080      93.5921      13.2714       1.4585       1.7262    -999.2500    -999.2500      21.0128       6.4208    -999.2500       2.2805    -999.2500    -999.2500
   1666.9232      15.7653    -999.2500      -0.0100      93.6528      11.6952       1.4395       1.6987    -999.2500    -999.2500      21.2427       6.5117    -999.2500       2.2820    -999.2500    -999.2500
   1667.0756      15.7415    -999.2500      -0.0080      93.7180      11.1461       1.4336       1.6809    -999.2500    -999.2500      21.9890       6.4431    -999.2500       2.2864    -999.2500    -999.2500
   1667.2280      15.7184    -999.2500      -0.0060      93.7673      10.6231       1.4281       1.6633    -999.2500    -999.2500      22.8118       6.3704    -999.2500       2.2909    -999.2500    -999.2500
   1667.3804      15.6798    -999.2500      -0.0040      93.6856      10.3744       1.4236       1.6488    -999.2500    -999.2500      22.8644       6.2676    -999.2500       2.2910    -999.2500    -999.2500
   1667.5328      15.6408    -999.2500      -0.0020      93.5847      10.1311       1.4191       1.6343    -999.2500    -999.2500      22.6956       6.1642    -999.2500       2.2910    -999.2500    -999.2500
   1667.6852      15.6749    -999.2500       0.0005      93.4907      10.7749       1.4303       1.6428    -999.2500    -999.2500      22.0886       6.3441    -999.2500       2.2939    -999.2500    -999.2500
   1667.8376      15.7105    -999.2500       0.0030      93.3624      11.4378       1.4418       1.6519    -999.2500    -999.2500      21.4433       6.5301    -999.2500       2.2970    -999.2500    -999.2500
   1667.9900      15.5245    -999.2500      -0.0009      93.0861      12.1704       1.4677       1.6870    -999.2500    -999.2500      21.1073       7.0245    -999.2500       2.3039    -999.2500    -999.2500
   1668.1425      15.3330    -999.2500      -0.0050      92.7104      12.9120       1.4940       1.7230    -999.2500    -999.2500      20.9441       7.5290    -999.2500       2.3110    -999.2500    -999.2500
   1668.2948      15.3716    -999.2500      -0.0060      91.8419      13.4158       1.5316       1.7754    -999.2500    -999.2500      21.5229       7.2121    -999.2500       2.3184    -999.2500    -999.2500
   1668.4473      15.4110    -999.2500      -0.0070      90.8456      13.9310       1.5700       1.8290    -999.2500    -999.2500      21.9966       6.8880    -999.2500       2.3260    -999.2500    -999.2500
   1668.5996      15.3813    -999.2500      -0.0065      89.6590      13.1686       1.6210       1.8860    -999.2500    -999.2500      21.8311       6.5378    -999.2500       2.3334    -999.2500    -999.2500
   1668.7520      15.3510    -999.2500      -0.0060      88.4241      12.3920       1.6730       1.9440    -999.2500    -999.2500      21.4527       6.1810    -999.2500       2.3410    -999.2500    -999.2500
   1668.9044      15.2909    -999.2500       0.0029      87.1025      14.0360       1.7281       1.9946    -999.2500    -999.2500      20.9338       5.9427    -999.2500       2.3673    -999.2500    -999.2500
   1669.0568      15.2300    -999.2500       0.0120      85.7525      15.7040       1.7840       2.0460    -999.2500    -999.2500      20.3066       5.7010    -999.2500       2.3940    -999.2500    -999.2500
   1669.2092      15.2479    -999.2500       0.0155      84.2706      15.8975       1.8651       2.1221    -999.2500    -999.2500      19.3463       5.8776    -999.2500       2.4204    -999.2500    -999.2500
   1669.3616      15.2660    -999.2500       0.0190      82.7514      16.0930       1.9470       2.1990    -999.2500    -999.2500      18.2614       6.0560    -999.2500       2.4470    -999.2500    -999.2500
   1669.5140      15.3740    -999.2500       0.0215      81.3317      15.8021       2.0680       2.3545    -999.2500    -999.2500      17.0897       5.9640    -999.2500       2.4795    -999.2500    -999.2500
   1669.6664      15.4820    -999.2500       0.0240      80.1264      15.5110       2.1890       2.5100    -999.2500    -999.2500      15.8288       5.8720    -999.2500       2.5120    -999.2500    -999.2500
   1669.8188      15.5511    -999.2500       0.0325      79.6368      16.6379       2.3679       2.7666    -999.2500    -999.2500      14.2845       5.7402    -999.2500       2.5546    -999.2500    -999.2500
   1669.9712      15.6200    -999.2500       0.0410      79.6313      17.7600       2.5460       3.0220    -999.2500    -999.2500      12.8184       5.6090    -999.2500       2.5970    -999.2500    -999.2500
   1670.1237      15.6381    -999.2500       0.0355      81.0011      19.5222       2.7162       3.2695    -999.2500    -999.2500      12.1108       5.5001    -999.2500       2.5769    -999.2500    -999.2500
   1670.2760      15.6560    -999.2500       0.0300      82.5090      21.2700       2.8850       3.5150    -999.2500    -999.2500      11.8207       5.3920    -999.2500       2.5570    -999.2500    -999.2500
