#------------------------------------------------------------------------------
#
#   Created by  : [OpenWorks] Log Export Utility (LEXP)
#   Created on  : 2016-05-23 11:51:57
#   Project     : CANT971
#   User        : R5K
#   Interpreter : PEP
#
#------------------------------------------------------------------------------
~VERSION INFORMATION
VERS. 2.0 : CWLS Log ASCII Standard - version 2.0
WRAP. YES : Mulitple lines per depth step
~WELL INFORMATION
#MNEMONIC   .UNIT                                           VALUE :DESCRIPTION
#------------------------------------------------------------------------------
STRT        .M                                           782.8787 :START DEPTH
STOP        .M                                          2966.0088 :STOP DEPTH
STEP        .M                                             0.1524 :STEP
NULL        .                                           -999.2500 :NULL VALUE
COMP        .                                   PEMEX EXPL & PROD :COMPANY
WELL        .                                                 178 :WELL
FLD         .                                           CANTARELL :FIELD
LOC         .                                             UNKNOWN :LOCATION
CNTY        .                                      CD. DEL CARMEN :COUNTY
STAT        .                                            CAMPECHE :STATE
CTRY        .                                              MEXICO :COUNTRY
SRVC        .                                             UNKNOWN :SERVICE COMPANY
DATE        .                                             UNKNOWN :LOG DATE
UWI         .                                          3060000702 :UNIQUE WELL ID
XCOORD      .                                       602144.590000 :SURFACE X
YCOORD      .                                      2147185.340000 :SURFACE Y
LAT         .                                           19.417512 :LATITUDE
LON         .                                          -92.027103 :LONGITUDE
ELEV        .M                                            28.1700 :SURFACE ELEV
ELEV_TYPE   .                                                  KB :ELEV TYPE
~CURVE INFORMATION
#MNEMONIC.UNIT        API CODE       : CURVE DESCRIPTION
#------------------------------------------------------------------------------
DEPTH    .M                          : Measured Depth
CALI     .inches      UNKNOWN        : CALI:registros:rC:NONE:v0 (auto-composite)
CGR      .API         UNKNOWN        : CGR:registros:rC:NONE:v0 (auto-composite)
DRHO     .g/cm3       UNKNOWN        : DRHO:registros:rC:NONE:v0 (auto-composite)
DT       .UNKNOWN     UNKNOWN        : DT:registros:rC:NONE:v0 (auto-composite)
GR       .API         UNKNOWN        : GR:registros:rC:NONE:v0 (auto-composite)
GR-LWD   .UNKNOWN     UNKNOWN        : GR-LWD:registros:rC:NONE:v0 (auto-composite)
ILD      .ohm.m       UNKNOWN        : ILD:registros:rC:NONE:v0 (auto-composite)
ILM      .ohm.m       UNKNOWN        : ILM:registros:rC:NONE:v0 (auto-composite)
LLD      .ohm.m       UNKNOWN        : LLD:registros:rC:NONE:v0 (auto-composite)
LLD-LWD  .UNKNOWN     UNKNOWN        : LLD-LWD:registros:rC:NONE:v0 (auto-composite)
LLS      .ohm.m       UNKNOWN        : LLS:registros:rC:NONE:v0 (auto-composite)
LLS-LWD  .UNKNOWN     UNKNOWN        : LLS-LWD:registros:rC:NONE:v0 (auto-composite)
MSFL     .ohm.m       UNKNOWN        : MSFL:registros:rC:NONE:v0 (auto-composite)
MSFL-LWD .UNKNOWN     UNKNOWN        : MSFL-LWD:registros:rC:NONE:v0 (auto-composite)
NPHI     .v/v_decimal UNKNOWN        : NPHI:registros:rC:NONE:v0 (auto-composite)
PEF      .b/elec      UNKNOWN        : PEF:registros:rC:NONE:v0 (auto-composite)
POTA     .wtpercent   UNKNOWN        : POTA:registros:rC:NONE:v0 (auto-composite)
RHOB     .g/cm3       UNKNOWN        : RHOB:registros:rC:NONE:v0 (auto-composite)
THOR     .ppm         UNKNOWN        : THOR:registros:rC:NONE:v0 (auto-composite)
URAN     .ppm         UNKNOWN        : URAN:registros:rC:NONE:v0 (auto-composite)
~A
# ...
   2254.6055
      17.1895      14.0025       0.2102     132.2028      42.4646    -999.2500
    -999.2500    -999.2500    -999.2500    -999.2500    -999.2500    -999.2500
    -999.2500    -999.2500       0.2276       3.1758       0.0052       2.3446
       1.5974       3.6345
   2254.7578
      17.7738      14.6878       0.2007     131.8182      43.4873    -999.2500
    -999.2500    -999.2500    -999.2500    -999.2500    -999.2500    -999.2500
    -999.2500    -999.2500       0.2264       3.2992       0.0055       2.3766
       1.6398       3.6410
   2254.9104
      18.3317      15.2868       0.1911     131.5949      44.3521    -999.2500
    -999.2500    -999.2500    -999.2500    -999.2500    -999.2500    -999.2500
    -999.2500    -999.2500       0.2240       3.4193       0.0056       2.4075
       1.6729       3.6455
   2255.0627
      18.5766      14.8611       0.1796     133.2120      43.3491    -999.2500
    -999.2500    -999.2500    -999.2500    -999.2500    -999.2500    -999.2500
    -999.2500    -999.2500       0.2204       3.4977       0.0057       2.4260
       1.5976       3.6265
   2255.2151
      18.7727      14.4029       0.1701     134.9553      42.3077    -999.2500
    -999.2500    -999.2500    -999.2500    -999.2500    -999.2500    -999.2500
    -999.2500    -999.2500       0.2158       3.5654       0.0057       2.4411
       1.5266       3.6061
   2255.3674
      18.4036      13.5839       0.1841     138.1781      40.7604    -999.2500
    -999.2500    -999.2500    -999.2500    -999.2500    -999.2500    -999.2500
    -999.2500    -999.2500       0.2092       3.5091       0.0054       2.4176
       1.5091       3.5702
   2255.5200
      18.0850      12.7752       0.1929     141.4283      39.3420    -999.2500
    -999.2500    -999.2500    -999.2500    -999.2500    -999.2500    -999.2500
    -999.2500    -999.2500       0.2032       3.4439       0.0050       2.3950
       1.4919       3.5404
   2255.6724
      18.3465      12.1294       0.1414     145.0338      39.4444    -999.2500
    -999.2500    -999.2500    -999.2500    -999.2500    -999.2500    -999.2500
    -999.2500    -999.2500       0.1998       3.2810       0.0046       2.3825
       1.4779       3.5823
   2255.8247
      18.5667      11.4111       0.0923     148.4563      39.4665    -999.2500
    -999.2500    -999.2500    -999.2500    -999.2500    -999.2500    -999.2500
    -999.2500    -999.2500       0.1994       3.1377       0.0041       2.3721
       1.4551       3.6351
   2255.9771
      18.3107       9.9047       0.0719     149.9053      38.5323    -999.2500
    -999.2500    -999.2500    -999.2500    -999.2500    -999.2500    -999.2500
    -999.2500    -999.2500       0.2055       3.2205       0.0036       2.3861
       1.3330       3.8100
   2256.1296
      18.0883       8.4242       0.0546     151.1961      37.7316    -999.2500
    -999.2500    -999.2500    -999.2500    -999.2500    -999.2500    -999.2500
    -999.2500    -999.2500       0.2103       3.3053       0.0031       2.3979
       1.2022       3.9905
   2256.2820
      18.2537       7.3518       0.0746     150.6849      38.5555    -999.2500
    -999.2500    -999.2500    -999.2500    -999.2500    -999.2500    -999.2500
    -999.2500    -999.2500       0.2074       3.4093       0.0028       2.3844
       0.9796       4.2216
   2256.4343
      18.4245       6.3160       0.0946     150.0607      39.3512    -999.2500
    -999.2500    -999.2500    -999.2500    -999.2500    -999.2500    -999.2500
    -999.2500    -999.2500       0.2038       3.5087       0.0025       2.3723
       0.7614       4.4472
   2256.5867
      18.6580       5.7595       0.1141     148.1398      39.7964    -999.2500
    -999.2500    -999.2500    -999.2500    -999.2500    -999.2500    -999.2500
    -999.2500    -999.2500       0.2033       3.5546       0.0024       2.3763
       0.6054       4.5987
   2256.7390
      18.8695       5.2351       0.1326     146.1556      40.1634    -999.2500
    -999.2500    -999.2500    -999.2500    -999.2500    -999.2500    -999.2500
    -999.2500    -999.2500       0.2051       3.5918       0.0024       2.3806
       0.4598       4.7411
   2256.8916
      18.8260       5.1238       0.1401     143.3620      39.6065    -999.2500
    -999.2500    -999.2500    -999.2500    -999.2500    -999.2500    -999.2500
    -999.2500    -999.2500       0.2112       3.5269       0.0024       2.3876
       0.4443       4.7670
   2257.0439
      18.7833       5.0973       0.1480     140.6501      39.1812    -999.2500
    -999.2500    -999.2500    -999.2500    -999.2500    -999.2500    -999.2500
    -999.2500    -999.2500       0.2184       3.4610       0.0024       2.3933
       0.4457       4.7825
   2257.1963
      18.7493       6.0431       0.1605     138.7568      40.2982    -999.2500
    -999.2500    -999.2500    -999.2500    -999.2500    -999.2500    -999.2500
    -999.2500    -999.2500       0.2253       3.3871       0.0025       2.3848
       0.6404       4.6771
   2257.3486
      18.7290       7.0181       0.1737     136.9646      41.3790    -999.2500
    -999.2500    -999.2500    -999.2500    -999.2500    -999.2500    -999.2500
    -999.2500    -999.2500       0.2279       3.3326       0.0028       2.3787
       0.8291       4.5669
   2257.5012
      18.8664       8.2727       0.1947     136.2338      41.9812    -999.2500
    -999.2500    -999.2500    -999.2500    -999.2500    -999.2500    -999.2500
    -999.2500    -999.2500       0.2186       3.5025       0.0032       2.4002
       0.9434       4.4021
   2257.6536
      18.9942       9.5316       0.2112     135.5499      42.4992    -999.2500
    -999.2500    -999.2500    -999.2500    -999.2500    -999.2500    -999.2500
    -999.2500    -999.2500       0.2115       3.6425       0.0037       2.4217
       1.0542       4.2321
   2257.8059
      19.0086      10.7800       0.1763     135.3757      41.9949    -999.2500
    -999.2500    -999.2500    -999.2500    -999.2500    -999.2500    -999.2500
    -999.2500    -999.2500       0.2178       3.4377       0.0042       2.4422
       1.1181       4.0100
   2257.9583
      19.0252      11.9609       0.1424     135.2364      41.4959    -999.2500
    -999.2500    -999.2500    -999.2500    -999.2500    -999.2500    -999.2500
    -999.2500    -999.2500       0.2230       3.2368       0.0047       2.4574
       1.1802       3.7982
   2258.1108
      19.0652      12.3233       0.1229     135.4918      41.0849    -999.2500
    -999.2500    -999.2500    -999.2500    -999.2500    -999.2500    -999.2500
    -999.2500    -999.2500       0.2160       3.0839       0.0050       2.4129
       1.2201       3.7123
   2258.2632
      19.0917      12.6833       0.1114     135.6884      40.7606    -999.2500
    -999.2500    -999.2500    -999.2500    -999.2500    -999.2500    -999.2500
    -999.2500    -999.2500       0.2092       2.9501       0.0051       2.3735
       1.2639       3.6315
   2258.4155
      18.9634      12.9982       0.1913     135.2206      41.4418    -999.2500
    -999.2500    -999.2500    -999.2500    -999.2500    -999.2500    -999.2500
    -999.2500    -999.2500       0.2111       3.0386       0.0050       2.3920
       1.3492       3.6130
   2258.5679
      18.8348      13.3315       0.2664     134.7223      42.0060    -999.2500
    -999.2500    -999.2500    -999.2500    -999.2500    -999.2500    -999.2500
    -999.2500    -999.2500       0.2116       3.1242       0.0050       2.4080
       1.4442       3.5864
   2258.7202
      18.7069      13.8661       0.2834     133.8636      41.1963    -999.2500
    -999.2500    -999.2500    -999.2500    -999.2500    -999.2500    -999.2500
    -999.2500    -999.2500       0.2031       3.1771       0.0050       2.3955
       1.6473       3.4651
   2258.8728
      18.5673      14.4348       0.2934     133.1395      40.4001    -999.2500
    -999.2500    -999.2500    -999.2500    -999.2500    -999.2500    -999.2500
    -999.2500    -999.2500       0.1935       3.2269       0.0052       2.3867
       1.8404       3.3393
