#------------------------------------------------------------------------------
#
#   Created by  : [OpenWorks] Log Export Utility (LEXP)
#   Created on  : 2016-05-23 11:51:58
#   Project     : CANT971
#   User        : R5K
#   Interpreter : PEP
#
#------------------------------------------------------------------------------
~VERSION INFORMATION
VERS. 2.0 : CWLS Log ASCII Standard - version 2.0
WRAP.  NO : One line per depth step
~WELL INFORMATION
#MNEMONIC   .UNIT                                           VALUE :DESCRIPTION
#------------------------------------------------------------------------------
STRT        .M                                           695.7060 :START DEPTH
STOP        .M                                          3054.7056 :STOP DEPTH
STEP        .M                                             0.1524 :STEP
NULL        .                                           -999.2500 :NULL VALUE
COMP        .                                   PEMEX EXPL & PROD :COMPANY
WELL        .                                                 17D :WELL
FLD         .                                           CANTARELL :FIELD
LOC         .                                             UNKNOWN :LOCATION
CNTY        .                                      CD. DEL CARMEN :COUNTY
STAT        .                                            CAMPECHE :STATE
CTRY        .                                              MEXICO :COUNTRY
SRVC        .                                             UNKNOWN :SERVICE COMPANY
DATE        .                                             UNKNOWN :LOG DATE
UWI         .                                          3060000460 :UNIQUE WELL ID
XCOORD      .                                       603362.626000 :SURFACE X
YCOORD      .                                      2145093.910000 :SURFACE Y
LAT         .                                           19.398550 :LATITUDE
LON         .                                          -92.015617 :LONGITUDE
ELEV        .M                                            27.1400 :SURFACE ELEV
ELEV_TYPE   .                                                  KB :ELEV TYPE
~CURVE INFORMATION
#MNEMONIC.UNIT        API CODE       : CURVE DESCRIPTION
#------------------------------------------------------------------------------
DEPTH    .M                          : Measured Depth
CALI     .in          UNKNOWN        : CALI:UNKNOWN:rC:NONE:v0 (auto-composite)
DT       .us/ft       UNKNOWN        : DT:DT:rC:NONE:v0 (auto-composite)
GR       .API         UNKNOWN        : GR:UNKNOWN:rC:NONE:v0 (auto-composite)
ILD      .ohmm        UNKNOWN        : ILD:UNKNOWN:rC:NONE:v0 (auto-composite)
LLD      .ohmm        UNKNOWN        : LLD:UNKNOWN:rC:NONE:v0 (auto-composite)
LLS      .ohmm        UNKNOWN        : LLS:UNKNOWN:rC:NONE:v0 (auto-composite)
MSFL     .ohmm        UNKNOWN        : MSFL:UNKNOWN:rC:NONE:v0 (auto-composite)
NPHI     .v/v_decimal UNKNOWN        : NPHI:UNKNOWN:rC:NONE:v0 (auto-composite)
PEF      .b/elec      UNKNOWN        : PEF:UNKNOWN:rC:NONE:v0 (auto-composite)
RHOB     .g/cm3       UNKNOWN        : RHOB:UNKNOWN:rC:NONE:v0 (auto-composite)
~A     DEPTH         CALI           DT           GR          ILD          LLD          LLS         MSFL         NPHI          PEF         RHOB
# ...
   2889.0469       5.7225      84.2814      83.9771    -999.2500       6.3203       8.7154      16.9403       0.0657       3.0831       2.6750
   2889.1992       5.7420      84.5098      84.9540    -999.2500       5.2640       7.2870       9.2460       0.0698       3.2660       2.6650
   2889.3516       5.7061      84.0181      87.2135    -999.2500       4.8754       6.7288       9.5541       0.0826       3.1503       2.6615
   2889.5039       5.6700      83.3894      89.4830    -999.2500       4.4850       6.1690       9.8630       0.0955       3.0340       2.6580
   2889.6565       5.6885      86.5323      88.9693    -999.2500       4.3821       5.9603      11.2570       0.1072       2.7028       2.6150
   2889.8088       5.7070      89.8587      88.4550    -999.2500       4.2790       5.7510      12.6550       0.1190       2.3700       2.5720
   2889.9612       5.6985      93.4315      88.5084    -999.2500       4.2880       5.7670       9.7594       0.1270       2.4518       2.4922
   2890.1135       5.6900      96.7739      88.5620    -999.2500       4.2970       5.7830       6.8550       0.1351       2.5340       2.4120
   2890.2661       5.6461      95.9382      85.0193    -999.2500       4.4525       6.0138       8.6791       0.1494       2.5310       2.4145
   2890.4185       5.6020      94.0444      81.4540    -999.2500       4.6090       6.2450      10.5060       0.1637       2.5280       2.4170
   2890.5708       5.6200      89.6753      73.5410    -999.2500       5.0523       6.8230      15.0776       0.1488       2.5440       2.4240
   2890.7231       5.6380      84.3737      65.5510    -999.2500       5.5000       7.4020      19.6570       0.1338       2.5600       2.4310
   2890.8755       5.7108      78.0651      58.4866    -999.2500       6.1897       8.2233      27.5998       0.1414       2.6044       2.4430
   2891.0281       5.7840      72.6438      51.3750    -999.2500       6.8840       9.0460      35.5570       0.1490       2.6490       2.4550
   2891.1804       5.7037      72.9491      52.9689    -999.2500       6.6033       8.7338      27.1807       0.1463       2.5562       2.4660
   2891.3328       5.6230      74.5797      54.5660    -999.2500       6.3220       8.4210      18.7880       0.1436       2.4630       2.4770
   2891.4851       5.6315      76.8515      56.3532    -999.2500       6.8610       8.9959      19.1276       0.1297       2.4869       2.4875
   2891.6377       5.6400      79.6180      58.1470    -999.2500       7.4020       9.5720      19.4680       0.1157       2.5110       2.4980
   2891.7900       5.6589      85.9228      57.1799    -999.2500       7.2615       9.3807      26.0747       0.0996       2.5973       2.5070
   2891.9424       5.6780      91.1017      56.2060    -999.2500       7.1200       9.1890      32.6960       0.0834       2.6840       2.5160
   2892.0947       5.6137      92.0274      58.2519    -999.2500       6.5082       8.4014      23.8263       0.0882       2.7932       2.4991
   2892.2473       5.5490      91.4377      60.3190    -999.2500       5.8900       7.6120      14.9360       0.0930       2.9030       2.4820
   2892.3997       5.6154      87.9550      65.7251    -999.2500       5.9628       7.6874      14.9640       0.0991       2.8646       2.4636
   2892.5520       5.6820      82.6784      71.1620    -999.2500       6.0360       7.7630      14.9920       0.1053       2.8260       2.4450
   2892.7043       5.6595      72.1495      68.9691    -999.2500       6.2204       7.9682      18.7716       0.1046       2.7856       2.4585
   2892.8567       5.6370      61.3148      66.7740    -999.2500       6.4050       8.1740      22.5610       0.1039       2.7450       2.4720
   2893.0093       5.6101      61.7619      64.2185    -999.2500       6.5387       8.3138      22.5450       0.1053       2.7360       2.4565
   2893.1616       5.5830      63.8479      61.6520    -999.2500       6.6730       8.4540      22.5290       0.1066       2.7270       2.4410
   2893.3140       5.5785      66.6809      62.0609    -999.2500       6.4668       8.1939      20.3411       0.1060       2.5733       2.4430
   2893.4663       5.5740      69.7236      62.4730    -999.2500       6.2590       7.9330      18.1470       0.1054       2.4190       2.4450
   2893.6189       5.5810      72.8284      64.2691    -999.2500       5.9077       7.4827      14.1349       0.1017       2.4275       2.4783
   2893.7712       5.5880      76.4176      66.0820    -999.2500       5.5530       7.0310      10.1110       0.0980       2.4360       2.5120
   2893.9236       5.6314      83.1432      67.9366    -999.2500       5.3844       6.8019      10.6791       0.0935       2.3916       2.5095
   2894.0759       5.6750      88.2989      69.8000    -999.2500       5.2150       6.5720      11.2490       0.0890       2.3470       2.5070
   2894.2285       5.6336      87.0462      72.9280    -999.2500       5.1346       6.5175      11.9844       0.0940       2.2931       2.4895
   2894.3809       5.5920      83.6212      76.0610    -999.2500       5.0540       6.4630      12.7210       0.0990       2.2390       2.4720
   2894.5332       5.6314      77.2146      81.5489    -999.2500       5.1298       6.5974      16.5442       0.1108       2.2215       2.4471
   2894.6855       5.6710      74.6633      87.0640    -999.2500       5.2060       6.7320      20.3740       0.1226       2.2040       2.4220
   2894.8379       5.6645      83.6526      94.6945    -999.2500       4.7859       6.2854      14.0958       0.1191       2.2235       2.4295
   2894.9905       5.6580      95.7301     102.3760    -999.2500       4.3630       5.8380       7.8060       0.1157       2.2430       2.4370
   2895.1428       5.6206      92.4610     112.5621    -999.2500       3.2840       4.8375       5.1611       0.1110       2.2949       2.4450
   2895.2952       5.5830      87.8836     122.8340    -999.2500       2.1960       3.8350       2.5110       0.1064       2.3470       2.4530
   2895.4475       5.6179      82.3276     128.2675    -999.2500       2.2050       3.2946       2.2293       0.0955       2.4253       2.4754
   2895.6001       5.6530      76.9891     133.7300    -999.2500       2.2140       2.7530       1.9470       0.0846       2.5040       2.4980
   2895.7524       5.9517      74.5921     120.5082    -999.2500       2.3798       2.9772       2.0898       0.0864       2.6222       2.4565
   2895.9048       6.2520      72.6663     107.2570    -999.2500       2.5460       3.2020       2.2330       0.0882       2.7410       2.4150
   2896.0571       6.6868      70.4919      82.1418    -999.2500       3.5545       4.5105       5.4852       0.1206       2.6881       2.4190
   2896.2095       7.1240      67.8617      56.9270    -999.2500       4.5670       5.8220       8.7450       0.1532       2.6350       2.4230
   2896.3621       7.3934      63.7778      44.2421    -999.2500       7.6572       9.6772      27.5996       0.2105       2.5741       2.4310
   2896.5144       7.6640      59.6842      31.4850    -999.2500      10.7650      13.5420      46.5010       0.2682       2.5130       2.4390
   2896.6667       7.4280      59.5672      29.3467    -999.2500      16.9993      21.2959      70.8103       0.2584       2.5774       2.4649
   2896.8191       7.1910      59.7922      27.1890    -999.2500      23.2900      29.0700      95.1830       0.2484       2.6420       2.4910
   2896.9717       6.4217      59.8024      24.4261    -999.2500      33.5319      41.2868     124.9898       0.2107       2.7079       2.5392
   2897.1240       5.6490      59.7380      21.6290    -999.2500      43.9010      53.5370     154.8780       0.1727       2.7740       2.5880
   2897.2764       5.6670      59.5238      18.0966    -999.2500      42.9123      52.1575     183.7103       0.1341       2.8214       2.6338
   2897.4287       5.6850      59.5645      14.5370    -999.2500      41.9160      50.7740     212.6250       0.0951       2.8690       2.6800
