#------------------------------------------------------------------------------
#
#   Created by  : [OpenWorks] Log Export Utility (LEXP)
#   Created on  : 2015-10-01 09:50:16
#   Project     : CANT971
#   User        : R5K
#   Interpreter : PEP
#
#------------------------------------------------------------------------------
~VERSION INFORMATION
VERS. 2.0 : CWLS Log ASCII Standard - version 2.0
WRAP.  NO : One line per depth step
~WELL INFORMATION
#MNEMONIC   .UNIT                                           VALUE :DESCRIPTION
#------------------------------------------------------------------------------
STRT        .M                                           352.7300 :START DEPTH
STOP        .M                                          2346.8840 :STOP DEPTH
STEP        .M                                             0.1524 :STEP
NULL        .                                           -999.2500 :NULL VALUE
COMP        .                                   PEMEX EXPL & PROD :COMPANY
WELL        .                                        CANTARELL-64 :WELL
FLD         .                                           CANTARELL :FIELD
LOC         .                                             UNKNOWN :LOCATION
CNTY        .                                      CD. DEL CARMEN :COUNTY
STAT        .                                            CAMPECHE :STATE
CTRY        .                                              MEXICO :COUNTRY
SRVC        .                                             UNKNOWN :SERVICE COMPANY
DATE        .                                             UNKNOWN :LOG DATE
UWI         .                                          3060000172 :UNIQUE WELL ID
XCOORD      .                                       599695.280000 :SURFACE X
YCOORD      .                                      2143036.290000 :SURFACE Y
LAT         .                                           19.380142 :LATITUDE
LON         .                                          -92.050647 :LONGITUDE
ELEV        .M                                            26.7400 :SURFACE ELEV
ELEV_TYPE   .                                                  KB :ELEV TYPE
~CURVE INFORMATION
#MNEMONIC.UNIT        API CODE       : CURVE DESCRIPTION
#------------------------------------------------------------------------------
DEPTH    .M                          : Measured Depth
CALI     .inches      UNKNOWN        : CALI:UNKNOWN:rC:NONE:v0 (auto-composite)
DRHO     .g/cm3       UNKNOWN        : DRHO:UNKNOWN:rC:NONE:v0 (auto-composite)
DT       .us/ft       UNKNOWN        : DT:DT:rC:NONE:v0 (auto-composite)
GR       .API         UNKNOWN        : GR:GR-Load:rC:NONE:v0 (auto-composite)
ILD      .ohm.m       UNKNOWN        : ILD:ILD-Load:rC:NONE:v0 (auto-composite)
LLD      .ohm.m       UNKNOWN        : LLD:UNKNOWN:rC:NONE:v0 (auto-composite)
LLS      .ohm.m       UNKNOWN        : LLS:UNKNOWN:rC:NONE:v0 (auto-composite)
MSFL     .ohm.m       UNKNOWN        : MSFL:UNKNOWN:rC:NONE:v0 (auto-composite)
NPHI     .v/v_decimal UNKNOWN        : NPHI:NPHI:rC:NONE:v0 (auto-composite)
PEF      .b/elec      UNKNOWN        : PEF:UNKNOWN:rC:NONE:v0 (auto-composite)
RHOB     .g/cm3       UNKNOWN        : RHOB:RHOB-Load:rC:NONE:v0 (auto-composite)
~A     DEPTH        CALI         DRHO           DT           GR          ILD          LLD          LLS         MSFL         NPHI          PEF         RHOB
# ...
   1921.8405      7.1330       0.0148      66.9887      49.3108    -999.2500      83.1907      55.2489     118.0987      11.0832       3.6507       2.5905 
   1921.9928      7.0001       0.0022      65.7572      50.2152    -999.2500     128.3052      62.9207      87.1449      10.9707       3.1664       2.5935 
   1922.1453      6.9749       0.0009      61.8128      51.7869    -999.2500     278.4018      83.4399     187.9151      10.6963       3.0617       2.6028 
   1922.2976      6.9870       0.0034      55.1950      54.0163    -999.2500     464.7788     108.3991     334.2076      10.2628       3.0883       2.6183 
   1922.4501      6.9870       0.0040      52.2562      55.0643    -999.2500     401.0377     143.4029     312.1344       9.7218       3.1914       2.6378 
   1922.6024      6.9830       0.0040      52.9437      54.9478    -999.2500     252.9933     181.7924     233.3129       9.0750       3.3202       2.6613 
   1922.7549      7.0168       0.0059      56.5273      54.7699    -999.2500     173.7275     153.4953     300.8761       8.8333       3.3864       2.6727 
   1922.9072      7.0629       0.0084      62.9661      54.5314    -999.2500     116.9672     103.3774     416.3387       8.9883       3.4320       2.6722 
   1923.0597      7.0048       0.0147      65.7147      54.2937    -999.2500      86.9645      81.3458     316.9948       9.2372       3.3696       2.6790 
   1923.2120      6.9136       0.0222      64.8242      54.0567    -999.2500      65.4580      68.2322     149.4455       9.5782       3.2729       2.6930 
   1923.3645      6.9177       0.0198      63.2126      53.6611    -999.2500      76.4759      76.5393      98.1800       9.6914       3.3270       2.6992 
   1923.5168      6.9512       0.0143      60.8897      53.1091    -999.2500      97.5548      91.4727      82.8856       9.5815       3.4277       2.6977 
   1923.6692      6.9274       0.0107      59.0955      53.0147    -999.2500     137.1564     116.5802      83.5600       9.3207       3.4067       2.6907 
   1923.8217      6.8863       0.0077      57.8230      53.3717    -999.2500     182.3130     144.7390      89.0234       8.9122       3.3490       2.6782 
   1923.9740      6.8487       0.0089      57.0030      54.0759    -999.2500     207.6153     161.8320      95.7526       8.7130       3.3197       2.6748 
   1924.1265      6.8121       0.0114      56.6295      55.1229    -999.2500     227.1214     175.6944     102.8513       8.7190       3.2986       2.6803 
   1924.2788      6.8353       0.0159      56.1380      56.7194    -999.2500     242.1899     181.6037     122.0040       8.7021       3.3800       2.6830 
   1924.4313      6.8754       0.0209      55.5301      58.8583    -999.2500     256.0037     185.2644     144.5651       8.6626       3.4903       2.6830 
   1924.5836      6.8407       0.0173      55.2700      59.5041    -999.2500     261.0272     188.2361     117.4315       8.6599       3.5148       2.6725 
   1924.7361      6.7856       0.0113      55.3535      58.6757    -999.2500     263.6449     191.0192      76.6969       8.6934       3.5158       2.6515 
   1924.8884      6.7443       0.0128      55.4961      59.1228    -999.2500     258.3246     189.9708      79.5842       8.8104       3.4732       2.6415 
   1925.0409      6.7067       0.0163      55.6971      60.8297    -999.2500     250.8925     187.9030      94.0769       9.0094       3.4191       2.6425 
   1925.1932      6.7680       0.0218      55.8536      61.5374    -999.2500     240.6987     182.1236     108.5225       9.2596       3.4626       2.6453 
   1925.3456      6.8547       0.0278      55.9661      61.2579    -999.2500     229.7945     175.3894     122.9560       9.5601       3.5313       2.6498 
   1925.4980      6.8551       0.0226      56.1043      60.4822    -999.2500     224.4053     174.1237     113.0793       9.7537       3.4924       2.6445 
   1925.6504      6.8341       0.0146      56.2678      59.2163    -999.2500     220.3868     174.2169      97.1610       9.8422       3.4268       2.6295 
   1925.8029      6.8054       0.0118      56.4878      57.7981    -999.2500     225.3674     178.9739      74.6764       9.9385       3.4116       2.6225 
   1925.9552      6.7748       0.0103      56.7633      56.2295    -999.2500     232.5182     184.8557      50.6082      10.0425       3.4086       2.6235 
   1926.1077      6.7735       0.0104      56.9959      55.7764    -999.2500     233.2534     185.1712      46.9318      10.0874       3.4190       2.6270 
   1926.2600      6.7790       0.0109      57.1864      56.4223    -999.2500     232.4958     184.1915      48.0002      10.0744       3.4325       2.6330 
   1926.4125      6.7505       0.0122      57.3487      57.8285    -999.2500     225.9628     179.9949      77.6901       9.9869       3.4174       2.6433 
   1926.5648      6.7144       0.0137      57.4832      59.9839    -999.2500     218.1342     175.0768     113.8003       9.8264       3.3958       2.6578 
   1926.7173      6.6915       0.0119      56.6064      60.7881    -999.2500     215.6492     171.8178     270.2483       9.3767       3.4245       2.6635 
   1926.8696      6.6715       0.0094      54.7325      60.2602    -999.2500     214.3250     168.9193     452.8394       8.6438       3.4642       2.6605 
   1927.0221      6.6680       0.0065      53.9145      59.4895    -999.2500     223.3012     174.1819     365.9383       8.3143       3.4150       2.6520 
   1927.1744      6.6680       0.0035      54.1380      58.4795    -999.2500     234.4311     181.1509     222.6896       8.3803       3.3474       2.6380 
   1927.3268      6.6680       0.0030      54.5012      57.7150    -999.2500     243.2342     186.8047     194.7509       8.5309       3.2096       2.6335 
   1927.4792      6.6680       0.0030      55.0022      57.1925    -999.2500     251.5668     192.1927     190.1270       8.7644       3.0577       2.6385 
   1927.6316      6.6718       0.0022      55.3781      55.6870    -999.2500     246.8280     188.5616     181.1688       9.2564       3.0863       2.6402 
   1927.7841      6.6763       0.0012      55.6306      53.2116    -999.2500     239.5503     183.1786     171.3686      10.0019       3.1500       2.6387 
   1927.9364      6.6736      -0.0003      55.8315      52.3300    -999.2500     234.7710     180.5891     158.8478      10.3445       3.2766       2.6345 
   1928.0889      6.6696      -0.0018      55.9815      53.0215    -999.2500     230.4572     178.5202     145.8199      10.2920       3.4149       2.6275 
   1928.2412      6.6873       0.0027      55.9118      53.0711    -999.2500     225.0918     172.9006     129.4216      10.1890       3.4373       2.6290 
   1928.3937      6.7088       0.0082      55.6253      52.4871    -999.2500     219.5374     166.6427     112.4174      10.0365       3.4388       2.6390 
   1928.5460      6.6945       0.0103      55.9107      51.6161    -999.2500     211.5960     159.3586      79.2449      10.1523       3.3834       2.6407 
   1928.6985      6.6739       0.0118      56.7606      50.4617    -999.2500     203.2439     151.8979      43.2902      10.5313       3.3182       2.6342 
   1928.8508      6.6701       0.0103      57.1631      49.2886    -999.2500     211.9392     158.5341      45.1441      10.6978       3.3150       2.6194 
   1929.0033      6.6691       0.0083      57.1236      48.0971    -999.2500     223.4390     167.4894      53.2177      10.6558       3.3220       2.5964 
   1929.1556      6.6798       0.0084      56.9896      45.2761    -999.2500     232.6348     171.9287      83.4377      10.5336       3.3204       2.5873 
   1929.3080      6.6924       0.0089      56.7621      40.8453    -999.2500     241.4662     175.6541     117.1591      10.3326       3.3174       2.5918 
   1929.4604      6.7362       0.0051      56.2311      36.2462    -999.2500     228.8289     167.0239     104.5428      10.0097       3.3031       2.6008 
   1929.6128      6.7849       0.0006      55.4003      31.4808    -999.2500     212.9558     156.5315      84.9423       9.5672       3.2870       2.6143 
