#------------------------------------------------------------------------------
#
#   Created by  : [OpenWorks] Log Export Utility (LEXP)
#   Created on  : 2016-05-23 11:56:16
#   Project     : CANT971
#   User        : R5K
#   Interpreter : PEP
#
#------------------------------------------------------------------------------
~VERSION INFORMATION
VERS. 2.0 : CWLS Log ASCII Standard - version 2.0
WRAP.  NO : One line per depth step
~WELL INFORMATION
#MNEMONIC   .UNIT                                           VALUE :DESCRIPTION
#------------------------------------------------------------------------------
STRT        .M                                           785.0543 :START DEPTH
STOP        .M                                          3464.0940 :STOP DEPTH
STEP        .M                                             0.1524 :STEP
NULL        .                                           -999.2500 :NULL VALUE
COMP        .                                   PEMEX EXPL & PROD :COMPANY
WELL        .                                                448D :WELL
FLD         .                                           CANTARELL :FIELD
LOC         .                                             UNKNOWN :LOCATION
CNTY        .                                      CD. DEL CARMEN :COUNTY
STAT        .                                            CAMPECHE :STATE
CTRY        .                                              MEXICO :COUNTRY
SRVC        .                                             UNKNOWN :SERVICE COMPANY
DATE        .                                             UNKNOWN :LOG DATE
UWI         .                                          3060000822 :UNIQUE WELL ID
XCOORD      .                                       598710.240000 :SURFACE X
YCOORD      .                                      2143307.000000 :SURFACE Y
LAT         .                                           19.382637 :LATITUDE
LON         .                                          -92.060012 :LONGITUDE
ELEV        .M                                            28.0000 :SURFACE ELEV
ELEV_TYPE   .                                                  KB :ELEV TYPE
~CURVE INFORMATION
#MNEMONIC.UNIT        API CODE       : CURVE DESCRIPTION
#------------------------------------------------------------------------------
DEPTH    .M                          : Measured Depth
CALI     .inches      UNKNOWN        : CALI:registros:rC:NONE:v0 (auto-composite)
DRHO     .g/cm3       UNKNOWN        : DRHO:registros:rC:NONE:v0 (auto-composite)
DT       .us/ft       UNKNOWN        : DT:registros:rC:NONE:v0 (auto-composite)
GR       .API         UNKNOWN        : GR:registros:rC:NONE:v0 (auto-composite)
LLD      .ohm.m       UNKNOWN        : LLD:registros:rC:NONE:v0 (auto-composite)
LLS      .ohm.m       UNKNOWN        : LLS:registros:rC:NONE:v0 (auto-composite)
MSFL     .ohm.m       UNKNOWN        : MSFL:registros:rC:NONE:v0 (auto-composite)
NPHI     .v/v_decimal UNKNOWN        : NPHI:registros:rC:NONE:v0 (auto-composite)
PEF      .b/elec      UNKNOWN        : PEF:registros:rC:NONE:v0 (auto-composite)
RHOB     .g/cm3       UNKNOWN        : RHOB:registros:rC:NONE:v0 (auto-composite)
~A     DEPTH         CALI         DRHO           DT           GR          LLD          LLS         MSFL         NPHI          PEF         RHOB
# ...
   2551.6750      13.0051      -0.7909      65.3071      24.3073       1.5760       0.0827      17.4696       0.1834      25.4661       2.1765
   2551.8276      12.9998      -0.7773      65.0810      23.3300       2.5818       0.1111      13.7934       0.1765      21.8936       2.2208
   2551.9800      12.9947      -0.7680      64.9305      22.2711       3.5272       0.1750      11.6720       0.1674      20.0379       2.2522
   2552.1323      12.9947      -0.7818      63.5074      21.4493       3.5148       0.1405     554.9795       0.1600      22.2283       2.1991
   2552.2847      13.0017      -0.8226      63.5171      21.1434       2.5288       0.1203    1466.5308       0.1714      23.7477       2.0450
   2552.4370      12.9976      -0.8478      64.9053      21.0381       4.2235       0.0906      50.3918       0.1801      25.9288       1.9835
   2552.5896      13.0033      -0.8623      68.1532      23.1064       5.9113       0.0788       6.8825       0.1788      25.6249       1.9485
   2552.7419      13.0029      -0.8808      70.3560      25.9865       4.6251       0.1011       7.7177       0.1794      25.9046       1.9013
   2552.8943      12.9948      -0.9243      69.1041      27.3141       7.7870       0.2090      21.7235       0.2066      26.7850       1.7882
   2553.0466      13.0068      -0.9840      65.3785      25.3609       2.9546       0.3725      45.6380       0.2699      25.3823       1.6355
   2553.1992      13.0135      -0.9894      60.1144      21.6081       2.9078       0.8192     559.9573       0.2791      24.4318       1.6151
   2553.3516      13.0179      -0.9950      61.7492      19.5585       3.2258       1.2453    1452.3671       0.2763      23.7995       1.5966
   2553.5039      13.0161      -0.9934      65.2968      19.5552       1.4843       0.3361      16.0482       0.2509      23.1487       1.6106
   2553.6562      13.0135      -0.9755      64.7447      20.5170       0.4030       0.4118     572.8884       0.2500      21.1799       1.6795
   2553.8088      13.0105      -0.9656      64.2011      21.0133       0.1220       0.1275    1458.2924       0.2492      21.6568       1.7051
   2553.9612      13.0093      -0.9523      65.4718      21.9611       0.1264       0.0977      30.4330       0.2497      22.3632       1.7407
   2554.1135      13.0123      -0.9188      62.9129      22.1265       0.2784       0.1319      11.5793       0.2492      23.3517       1.8230
   2554.2659      13.0135      -0.8671      60.8848      21.7328       0.5071       0.1790      10.6540       0.2387      23.4488       1.9322
   2554.4182      13.0135      -0.8493      63.2452      21.9833       0.8645       0.1025      14.3336       0.2318      22.7692       1.9660
   2554.5708      13.0111      -0.8389      65.9413      24.1970       1.2736       0.0935      27.1986       0.2257      20.3604       1.9887
   2554.7231      13.0125      -0.8230      67.5503      26.5141       0.9059       0.0956      22.0493       0.2169      18.3674       2.0292
   2554.8755      13.0253      -0.7689      65.7216      26.9712       1.3382       0.1425      18.4801       0.1947      16.6679       2.1875
   2555.0278      13.0381      -0.6787      62.3279      26.3245       1.3944       0.2259     572.0400       0.1625      14.0602       2.4555
   2555.1804      13.0420      -0.6579      58.9668      24.8979       2.2723       0.3466    1462.4702       0.1473      14.6104       2.5202
   2555.3328      13.0472      -0.6394      58.6533      22.1481       2.1265       0.2754      37.9656       0.1298      16.2483       2.5720
   2555.4851      13.0531      -0.6261      58.8067      19.3415       0.9284       0.2809      18.4803       0.1125      17.6502       2.5684
   2555.6375      13.0553      -0.6129      60.2940      19.0906       0.6762       0.1749      19.7569       0.1123      12.8653       2.5264
   2555.7900      13.0633      -0.6058      60.8145      20.5808       0.3995       0.1583      43.6284       0.1150      13.2217       2.5273
   2555.9424      13.0672      -0.5987      57.8900      23.2575       0.4089       0.1568      71.8151       0.1200      14.3581       2.5213
   2556.0947      13.0677      -0.5913      59.3213      25.2391       0.5106       0.1520      13.7088       0.1426      17.1873       2.4857
   2556.2471      13.0787      -0.5721      62.6976      26.1410       0.4721       0.1419      18.3138       0.1807      19.7649       2.4491
   2556.3994      13.0727      -0.5328      60.6151      26.1211       0.4987       0.1321      20.5020       0.1756      22.9776       2.4804
   2556.5520      13.0855      -0.5147      57.0391      26.0504       0.5073       0.1392       9.2513       0.1654      23.0284       2.4894
   2556.7043      13.0981      -0.4914      56.2817      25.7656       0.4662       0.1388      12.4923       0.1536      22.9089       2.5042
   2556.8567      13.1101      -0.4610      56.2428      23.7576       0.4589       0.1204      11.3153       0.1415      23.0262       2.5095
   2557.0090      13.1210      -0.4533      56.5549      22.0021       0.5205       0.1060       5.2835       0.1395      23.9316       2.4642
   2557.1616      13.1274      -0.4555      56.9794      21.6740       0.7980       0.1426       6.3948       0.1410      22.1666       2.4567
   2557.3140      13.1345      -0.4538      56.7056      22.2207       1.0787       0.2032      13.0573       0.1443      20.5160       2.4553
   2557.4663      13.1438      -0.4380      56.0187      22.1874       0.6847       0.1303       7.6781       0.1459      19.4834       2.4531
   2557.6187      13.1534      -0.4149      55.6562      21.4507       0.5191       0.0828      16.3973       0.1330      19.2755       2.4047
   2557.7712      13.1640      -0.3945      55.7164      22.7234       0.6299       0.0810     564.6111       0.1281      19.0471       2.3525
   2557.9236      13.1747      -0.3680      56.0991      25.0606       0.4909       0.1009    1451.8317       0.1248      18.3653       2.2942
   2558.0759      13.1912      -0.3093      56.4325      26.0160       0.2592       0.1183      12.6734       0.1257      16.2773       2.2361
   2558.2283      13.2159      -0.2223      57.1584      25.4770       0.5447       0.2232     569.3920       0.1270      13.7538       2.2181
   2558.3806      13.2227      -0.1786      57.8164      24.6860       1.6199       1.0689    1449.3326       0.1287      11.9303       2.2036
   2558.5332      13.2242      -0.1515      58.0271      25.1899       3.4590       2.4488     553.1577       0.1264      11.1086       2.2112
   2558.6855      13.2443      -0.1212      56.1540      25.0699       3.1469       1.5637    1460.6776       0.1266      10.1770       2.2267
   2558.8379      13.3160      -0.0723      54.6011      24.3229       0.6115       0.5260      32.6464       0.1289       7.8897       2.2689
   2558.9902      13.3875      -0.0136      55.1249      25.6735       0.4074       0.2935      10.1982       0.1216       4.1060       2.2858
   2559.1428      13.4403      -0.0004      55.7536      28.4982       0.2659       0.3028      13.4579       0.1204       3.7704       2.1921
   2559.2952      13.6033       0.0260      57.0389      30.4687       0.0796       0.1387       3.8208       0.1232       3.2583       2.1117
   2559.4475      14.3108       0.0937      57.3221      30.8821       0.0960       0.1306       5.3763       0.1337       2.4978       2.1684
   2559.5999      15.3421       0.1625      56.7347      31.2174       0.2167       0.3142      10.5762       0.1366       2.3599       2.4316
   2559.7524      15.4724       0.1869      54.2833      32.7703       0.7521       1.0719       9.7037       0.1354       2.3621       2.5318
   2559.9048      15.5964       0.1834      52.9530      34.1982       4.1984       3.1094      49.3148       0.1371       2.4004       2.5832
   2560.0571      15.7479       0.1079      54.4409      35.6895     198.9245       7.1770     199.1054       0.1458       2.7028       2.5527
