#------------------------------------------------------------------------------
#
#   Created by  : [OpenWorks] Log Export Utility (LEXP)
#   Created on  : 2016-05-23 11:52:02
#   Project     : CANT971
#   User        : R5K
#   Interpreter : PEP
#
#------------------------------------------------------------------------------
~VERSION INFORMATION
VERS. 2.0 : CWLS Log ASCII Standard - version 2.0
WRAP.  NO : One line per depth step
~WELL INFORMATION
#MNEMONIC   .UNIT                                           VALUE :DESCRIPTION
#------------------------------------------------------------------------------
STRT        .M                                           300.3808 :START DEPTH
STOP        .M                                          2575.7129 :STOP DEPTH
STEP        .M                                             0.1524 :STEP
NULL        .                                           -999.2500 :NULL VALUE
COMP        .                                   PEMEX EXPL & PROD :COMPANY
WELL        .                                                  19 :WELL
FLD         .                                           CANTARELL :FIELD
LOC         .                                             UNKNOWN :LOCATION
CNTY        .                                      CD. DEL CARMEN :COUNTY
STAT        .                                            CAMPECHE :STATE
CTRY        .                                              MEXICO :COUNTRY
SRVC        .                                             UNKNOWN :SERVICE COMPANY
DATE        .                                             UNKNOWN :LOG DATE
UWI         .                                          3060000151 :UNIQUE WELL ID
XCOORD      .                                       603362.598000 :SURFACE X
YCOORD      .                                      2145096.350000 :SURFACE Y
LAT         .                                           19.398572 :LATITUDE
LON         .                                          -92.015617 :LONGITUDE
ELEV        .M                                            27.1400 :SURFACE ELEV
ELEV_TYPE   .                                                  KB :ELEV TYPE
~CURVE INFORMATION
#MNEMONIC.UNIT        API CODE       : CURVE DESCRIPTION
#------------------------------------------------------------------------------
DEPTH    .M                          : Measured Depth
CALI     .inches      UNKNOWN        : CALI:Import:rC:NONE:v0 (auto-composite)
DRHO     .g/cm3       UNKNOWN        : DRHO:Import:rC:NONE:v0 (auto-composite)
DT       .us/ft       UNKNOWN        : DT:Import:rC:NONE:v0 (auto-composite)
GR       .API         UNKNOWN        : GR:Import:rC:NONE:v0 (auto-composite)
ILD      .ohm.m       UNKNOWN        : ILD:Import:rC:NONE:v0 (auto-composite)
LLD      .ohm.m       UNKNOWN        : LLD:Import:rC:NONE:v0 (auto-composite)
LLS      .ohm.m       UNKNOWN        : LLS:Import:rC:NONE:v0 (auto-composite)
NPHI     .v/v_decimal UNKNOWN        : NPHI:Import:rC:NONE:v0 (auto-composite)
RHOB     .g/cm3       UNKNOWN        : RHOB:RHOB-Load:rC:NONE:v0 (auto-composite)
~A     DEPTH         CALI         DRHO           DT           GR          ILD          LLD          LLS         NPHI         RHOB
# ...
   2294.0776       5.8890      -0.0180      48.0970      32.9016       0.0010    1536.1725    1135.6309       0.0650       2.7755
   2294.2300       5.8890      -0.0230      47.7570      28.4070       0.0010    1101.1180    1086.9380       0.0648       2.7690
   2294.3823       5.8890      -0.0150      47.4165      27.0429       0.0010    1112.6147     947.5274       0.0665       2.7585
   2294.5349       5.8890      -0.0070      47.0770      25.6850       0.0010    1124.0780     808.7450       0.0677       2.7480
   2294.6873       5.8890      -0.0015      46.7786      25.2851       0.0010     848.0908     625.1011       0.0661       2.7355
   2294.8396       5.8890       0.0040      46.4810      24.8870       0.0010     572.8720     442.2610       0.0635       2.7230
   2294.9919       5.8890      -0.0035      47.0873      24.2151       0.0010     517.2642     396.2841       0.0617       2.7305
   2295.1443       5.8890      -0.0110      47.6920      23.5460       0.0010     461.8040     350.5030       0.0601       2.7380
   2295.2969       5.8890      -0.0185      48.1100      22.3355       0.0010     895.2095     543.3450       0.0584       2.7520
   2295.4492       5.8890      -0.0260      48.5270      21.1300       0.0010    1327.5170     735.3910       0.0572       2.7660
   2295.6016       5.8890      -0.0195      49.4181      21.4767       0.0010    1839.3583     839.2435       0.0571       2.7630
   2295.7539       5.8890      -0.0130      50.3070      21.8220       0.0010    2349.9680     942.6800       0.0583       2.7600
   2295.9065       5.8890      -0.0055      49.9826      22.8264       0.0010    2543.6594     927.4349       0.0611       2.7575
   2296.0588       5.8890       0.0020      49.6590      23.8270       0.0010    2736.9089     912.2490       0.0648       2.7550
   2296.2112       5.8890       0.0005      48.9487      26.0206       0.0010    2675.8171     933.1262       0.0686       2.7460
   2296.3635       5.8890      -0.0010      48.2410      28.2060       0.0010    2614.8569     953.9250       0.0721       2.7370
   2296.5161       5.8890       0.0045      49.3139      33.6965       0.0010    2254.6506     927.5004       0.0746       2.7260
   2296.6685       5.8890       0.0100      50.3830      39.1670       0.0010    1895.1760     901.2140       0.0762       2.7150
   2296.8208       5.8890       0.0190      50.3389      43.9278       0.0010    1744.4784     892.8276       0.0767       2.7180
   2296.9731       5.8890       0.0280      50.2950      48.6720       0.0010    1594.3090     884.4840       0.0767       2.7210
   2297.1255       5.8890       0.0250      50.2109      45.0754       0.0010    1660.1377     902.8301       0.0767       2.7050
   2297.2781       5.8890       0.0220      50.1270      41.4910       0.0010    1725.7440     921.0850       0.0762       2.6890
   2297.4304       5.8890       0.0130      49.9091      35.3926       0.0010    2149.5562     966.0284       0.0747       2.7010
   2297.5828       5.8890       0.0040      49.6920      29.3140       0.0010    2571.9890    1010.7540       0.0720       2.7130
   2297.7351       5.8890      -0.0025      49.2758      26.1435       0.0010    3257.7229    1008.5959       0.0678       2.7290
   2297.8877       5.8890      -0.0090      48.8610      22.9880       0.0010    3941.3130    1006.4480       0.0636       2.7450
   2298.0400       5.8890      -0.0055      50.0438      21.8569       0.0010    3841.3074     935.2363       0.0609       2.7320
   2298.1924       5.8890      -0.0020      51.2230      20.7310       0.0010    3741.6021     864.3520       0.0591       2.7190
   2298.3447       5.8890      -0.0055      51.0533      23.1208       0.0010    3039.6631     757.6964       0.0578       2.7320
   2298.4973       5.8890      -0.0090      50.8840      25.5000       0.0010    2339.7429     651.5180       0.0571       2.7450
   2298.6497       5.8845      -0.0065      50.2717      29.4280       0.0010    1942.4661     561.1877       0.0574       2.7525
   2298.8020       5.8800      -0.0040      49.6610      33.3390       0.0010    1546.2830     471.2500       0.0589       2.7600
   2298.9543       5.8504      -0.0050      50.2087      35.9746       0.0010    1175.7090     377.5345       0.0622       2.7785
   2299.1067       5.8210      -0.0060      50.7550      38.5990       0.0010     806.1080     284.2150       0.0662       2.7970
   2299.2593       5.8105       0.0005      50.3119      38.5349       0.0010     605.0764     235.0107       0.0702       2.8110
   2299.4116       5.8000       0.0070      49.8700      38.4710       0.0010     404.5480     186.0080       0.0737       2.8250
   2299.5640       5.8361       0.0210      50.5173      37.1589       0.0010     330.3504     168.9020       0.0766       2.8050
   2299.7163       5.8720       0.0350      51.1630      35.8520       0.0010     256.3290     151.8640       0.0785       2.7850
   2299.8689       5.8805       0.0435      52.6552      33.7900       0.0010     234.1626     154.3578       0.0792       2.7765
   2300.0212       5.8890       0.0520      54.1440      31.7360       0.0010     212.0460     156.8420       0.0787       2.7680
   2300.1736       5.8890       0.0380      53.7192      29.6556       0.0010     206.4991     146.8068       0.0769       2.7640
   2300.3259       5.8890       0.0240      53.2960      27.5830       0.0010     200.9640     136.8090       0.0745       2.7600
   2300.4785       5.8890       0.0105      51.9045      24.5636       0.0010     227.5656     126.9524       0.0720       2.7555
   2300.6309       5.8890      -0.0030      50.5180      21.5550       0.0010     254.1140     117.1470       0.0695       2.7510
   2300.7832       5.8890       0.0015      50.8135      20.2197       0.0010     238.2665     145.9449       0.0671       2.7445
   2300.9355       5.8890       0.0060      51.1080      18.8890       0.0010     222.4740     174.5970       0.0645       2.7380
   2301.0879       5.8890       0.0050      52.1517      19.3227       0.0010     151.2318     162.3342       0.0613       2.7315
   2301.2405       5.8890       0.0040      53.1920      19.7550       0.0010      80.2280     150.1320       0.0585       2.7250
   2301.3928       5.8890       0.0010      53.9778      20.9920       0.0010      54.7915     108.9724       0.0573       2.7290
   2301.5452       5.8890      -0.0020      54.7610      22.2250       0.0010      29.4370      68.0110       0.0573       2.7330
   2301.6975       5.8890      -0.0040      55.7656      22.5202       0.0010      24.9185      48.4436       0.0589       2.7445
   2301.8501       5.8890      -0.0060      56.7670      22.8140       0.0010      20.4140      28.9680       0.0617       2.7560
   2302.0024       5.8890      -0.0075      56.5707      23.1197       0.0010      22.9698      26.5695       0.0659       2.7680
   2302.1548       5.8890      -0.0090      56.3750      23.4240       0.0010      25.5180      24.1820       0.0701       2.7800
   2302.3071       5.8880      -0.0105      54.8388      26.0158       0.0010      43.9617      33.3183       0.0727       2.7850
   2302.4597       5.8870      -0.0120      53.3070      28.5960       0.0010      62.3530      42.4140       0.0735       2.7900
   2302.6121       5.8655      -0.0155      52.6776      31.7593       0.0010     134.0501      58.8765       0.0719       2.7840
   2302.7644       5.8440      -0.0190      52.0500      34.9090       0.0010     205.5520      75.2680       0.0691       2.7780
   2302.9167       5.8109      -0.0180      50.9401      36.9032       0.0010     291.5641     107.5377       0.0663       2.7645
   2303.0691       5.7780      -0.0170      49.8330      38.8890       0.0010     377.3530     139.6720       0.0649       2.7510
   2303.2217       5.7885      -0.0125      49.9156      38.6861       0.0010     336.7769     189.1992       0.0666       2.7340
   2303.3740       5.7990      -0.0080      49.9980      38.4840       0.0010     296.3010     238.5250       0.0708       2.7170
