#------------------------------------------------------------------------------
#
#   Created by  : [OpenWorks] Log Export Utility (LEXP)
#   Created on  : 2015-10-01 09:49:56
#   Project     : CANT971
#   User        : R5K
#   Interpreter : PEP
#
#------------------------------------------------------------------------------
~VERSION INFORMATION
VERS. 2.0 : CWLS Log ASCII Standard - version 2.0
WRAP.  NO : One line per depth step
~WELL INFORMATION
#MNEMONIC   .UNIT                                           VALUE :DESCRIPTION
#------------------------------------------------------------------------------
STRT        .M                                           799.8710 :START DEPTH
STOP        .M                                          1367.5610 :STOP DEPTH
STEP        .M                                             0.1524 :STEP
NULL        .                                           -999.2500 :NULL VALUE
COMP        .                                   PEMEX EXPL & PROD :COMPANY
WELL        .                                        CANTARELL-1A :WELL
FLD         .                                           CANTARELL :FIELD
LOC         .                                             UNKNOWN :LOCATION
CNTY        .                                      CD. DEL CARMEN :COUNTY
STAT        .                                            CAMPECHE :STATE
CTRY        .                                              MEXICO :COUNTRY
SRVC        .                                             UNKNOWN :SERVICE COMPANY
DATE        .                                             UNKNOWN :LOG DATE
UWI         .                                          3060000138 :UNIQUE WELL ID
XCOORD      .                                       600823.080000 :SURFACE X
YCOORD      .                                      2145118.550000 :SURFACE Y
LAT         .                                           19.398902 :LATITUDE
LON         .                                          -92.039798 :LONGITUDE
ELEV        .M                                            27.7000 :SURFACE ELEV
ELEV_TYPE   .                                                  KB :ELEV TYPE
~CURVE INFORMATION
#MNEMONIC.UNIT        API CODE       : CURVE DESCRIPTION
#------------------------------------------------------------------------------
DEPTH    .M                          : Measured Depth
CALI     .inches      UNKNOWN        : CALI:UNKNOWN:rC:NONE:v0 (auto-composite)
DRHO     .g/cm3       UNKNOWN        : DRHO:UNKNOWN:rC:NONE:v0 (auto-composite)
DT       .us/ft       UNKNOWN        : DT:DT:rC:NONE:v0 (auto-composite)
ILD      .ohm.m       UNKNOWN        : ILD:UNKNOWN:rC:NONE:v0 (auto-composite)
LLD      .ohm.m       UNKNOWN        : LLD:UNKNOWN:rC:NONE:v0 (auto-composite)
LLS      .ohm.m       UNKNOWN        : LLS:UNKNOWN:rC:NONE:v0 (auto-composite)
MSFL     .ohm.m       UNKNOWN        : MSFL:UNKNOWN:rC:NONE:v0 (auto-composite)
NPHI     .v/v_decimal UNKNOWN        : NPHI:NPHI:rC:NONE:v0 (auto-composite)
GR       .API         UNKNOWN        : RG:UNKNOWN:rC:NONE:v0 (auto-composite)
RHOB     .g/cm3       UNKNOWN        : RHOB:UNKNOWN:rC:NONE:v0 (auto-composite)
~A     DEPTH         CALI         DRHO           DT          ILD          LLD          LLS         MSFL         NPHI           GR         RHOB
# ...
   1269.2631      14.7552       0.0150      99.8806       1.7843       0.2000       0.2000       0.2000      33.8899      27.2096       2.4791
   1269.4154      14.7831       0.0169      96.1612       1.8111       0.2000       0.2000       0.2000      34.1604      26.3764       2.4937
   1269.5679      14.8232       0.0194     102.8033       1.8351       0.2000       0.2000       0.2000      34.3511      25.4938       2.5132
   1269.7202      14.8262       0.0189     119.9587       1.8410       0.2000       0.2000       0.2000      34.4616      24.6905       2.5138
   1269.8727      14.8172       0.0174     122.3168       1.8410       0.2000       0.2000       0.2000      34.8015      23.9129       2.5083
   1270.0250      14.8303       0.0143     109.6567       1.8227       0.2000       0.2000       0.2000      35.3720      23.7358       2.5020
   1270.1775      14.8503       0.0108     106.7233       1.7986       0.2000       0.2000       0.2000      36.0512      23.7473       2.4955
   1270.3298      14.8708       0.0142     113.6640       1.7761       0.2000       0.2000       0.2000      36.8396      23.9920       2.4936
   1270.4822      14.8913       0.0197     112.9710       1.7540       0.2000       0.2000       0.2000      37.4686      24.3078       2.4931
   1270.6346      14.9045       0.0222     104.5262       1.7536       0.2000       0.2000       0.2000      37.9371      24.4658       2.4996
   1270.7870      14.9155       0.0237      97.4920       1.7597       0.2000       0.2000       0.2000      38.6468      24.5772       2.5081
   1270.9395      14.9262       0.0267      91.8904       1.7637       0.2000       0.2000       0.2000      39.5993      24.6133       2.5100
   1271.0918      14.9367       0.0302      92.5369       1.7672       0.2000       0.2000       0.2000      39.9068      24.6278       2.5100
   1271.2443      14.9394       0.0318      99.5107       1.7927       0.2000       0.2000       0.2000      39.5653      24.8757       2.5139
   1271.3966      14.9399       0.0328     102.9952       1.8243       0.2000       0.2000       0.2000      39.0127      25.1884       2.5189
   1271.5491      14.9329       0.0346     102.9452       1.8480       0.2000       0.2000       0.2000      38.2478      25.7361       2.5164
   1271.7014      14.9239       0.0366     101.4199       1.8695       0.2000       0.2000       0.2000      37.3418      26.3473       2.5119
   1271.8539      14.9148       0.0334      98.4000       1.8788       0.2000       0.2000       0.2000      36.2938      26.0132       2.5170
   1272.0062      14.9058       0.0289      94.9729       1.8848       0.2000       0.2000       0.2000      35.1978      25.4318       2.5245
   1272.1587      14.9048       0.0256      91.1330       1.8452       0.2000       0.2000       0.2000      34.0534      23.4233       2.5248
   1272.3110      14.9058       0.0226      89.4485       1.7941       0.2000       0.2000       0.2000      33.2575      21.0522       2.5233
   1272.4634      14.9064       0.0156      89.9490       1.7264       0.2000       0.2000       0.2000      32.8115      19.0825       2.5045
   1272.6158      14.9069       0.0075      96.2312       1.6547       0.2000       0.2000       0.2000      32.3141      17.2114       2.4814
   1272.7682      14.9078       0.0032     108.3758       1.6260       0.2000       0.2000       0.2000      31.7651      16.1415       2.4523
   1272.9207      14.9088      -0.0003     110.2865       1.6075       0.2000       0.2000       0.2000      30.3701      15.2614       2.4217
   1273.0730      14.9098      -0.0006     101.8178       1.6366       0.2000       0.2000       0.2000      28.1251      15.2683       2.4437
   1273.2255      14.9108      -0.0001      97.5443       1.6767       0.2000       0.2000       0.2000      26.8209      15.4788       2.4778
   1273.3778      14.9114       0.0053      97.5268       1.7382       0.2000       0.2000       0.2000      26.4619      16.3454       2.4967
   1273.5303      14.9119       0.0119      97.5235       1.8044       0.2000       0.2000       0.2000      25.7745      17.3572       2.5123
   1273.6826      14.9046       0.0142      97.5345       1.8999       0.2000       0.2000       0.2000      24.7571      18.4480       2.5187
   1273.8351      14.8955       0.0157     101.6682       2.0016       0.2000       0.2000       0.2000      23.9014      19.5557       2.5232
   1273.9874      14.8865       0.0118     109.9864       2.0822       0.2000       0.2000       0.2000      23.2084      21.0760       2.5178
   1274.1399      14.8775       0.0068     114.1619       2.1584       0.2000       0.2000       0.2000      21.9962      22.6815       2.5102
   1274.2922      14.8848       0.0039     114.1314       2.1731       0.2000       0.2000       0.2000      20.2617      24.7041       2.5069
   1274.4446      14.8953       0.0014     110.2478       2.1756       0.2000       0.2000       0.2000      19.3945      26.8095       2.5044
   1274.5970      14.8890       0.0035     102.4514       2.1318       0.2000       0.2000       0.2000      19.3995      26.3207       2.4973
   1274.7494      14.8795       0.0065     100.0887       2.0792       0.2000       0.2000       0.2000      19.7340      25.3384       2.4892
   1274.9019      14.8458       0.0040     103.2276       2.0562       0.2000       0.2000       0.2000      20.4000      24.7785       2.4833
   1275.0542      14.8077       0.0005     104.3971       2.0386       0.2000       0.2000       0.2000      21.8475      24.2961       2.4778
   1275.2067      14.8020      -0.0009     103.5722       2.0629       0.2000       0.2000       0.2000      24.0814      25.2508       2.4868
   1275.3590      14.8020      -0.0019     106.2736       2.0944       0.2000       0.2000       0.2000      25.9383      26.4581       2.4983
   1275.5115      14.8196       0.0006     112.5474       2.1402       0.2000       0.2000       0.2000      27.4158      27.4983       2.5064
   1275.6638      14.8401       0.0036     115.6988       2.1883       0.2000       0.2000       0.2000      28.1553      28.5101       2.5140
   1275.8163      14.8266       0.0053     115.6863       2.2515       0.2000       0.2000       0.2000      28.1518      28.1474       2.5219
   1275.9686      14.8075       0.0068     113.8281       2.3172       0.2000       0.2000       0.2000      27.9952      27.5623       2.5299
   1276.1211      14.7885       0.0061     110.0992       2.3447       0.2000       0.2000       0.2000      27.6846      27.2387       2.5167
   1276.2734      14.7695       0.0051     108.3126       2.3662       0.2000       0.2000       0.2000      26.3629      26.9555       2.5001
   1276.4258      14.7849       0.0155     108.4951       2.3804       0.2000       0.2000       0.2000      24.0260      26.7587       2.5059
   1276.5782      14.8055       0.0275     116.1770       2.3934       0.2000       0.2000       0.2000      22.8570      26.5747       2.5149
   1276.7306      14.7913       0.0352     131.4635       2.4561       0.2000       0.2000       0.2000      22.8610      25.6906       2.5305
   1276.8831      14.7722       0.0422     139.1181       2.5258       0.2000       0.2000       0.2000      22.9992      24.7079       2.5470
   1277.0354      14.7360       0.0457     139.0316       2.5397       0.2000       0.2000       0.2000      23.2722      25.5469       2.5578
   1277.1879      14.6974       0.0487     136.4729       2.5463       0.2000       0.2000       0.2000      23.4070      26.6295       2.5679
   1277.3402      14.6934       0.0370     131.4060       2.4932       0.2000       0.2000       0.2000      23.4030      27.2385       2.5428
   1277.4927      14.6939       0.0235     124.6192       2.4325       0.2000       0.2000       0.2000      23.2920      27.7870       2.5132
   1277.6450      14.6595       0.0144     116.0870       2.3495       0.2000       0.2000       0.2000      23.0735      28.7440       2.4890
