#------------------------------------------------------------------------------
#
#   Created by  : [OpenWorks] Log Export Utility (LEXP)
#   Created on  : 2016-05-23 11:56:43
#   Project     : CANT971
#   User        : R5K
#   Interpreter : PEP
#
#------------------------------------------------------------------------------
~VERSION INFORMATION
VERS. 2.0 : CWLS Log ASCII Standard - version 2.0
WRAP.  NO : One line per depth step
~WELL INFORMATION
#MNEMONIC   .UNIT                                           VALUE :DESCRIPTION
#------------------------------------------------------------------------------
STRT        .M                                           650.2150 :START DEPTH
STOP        .M                                          2618.6135 :STOP DEPTH
STEP        .M                                             0.1524 :STEP
NULL        .                                           -999.2500 :NULL VALUE
COMP        .                                   PEMEX EXPL & PROD :COMPANY
WELL        .                                                  4D :WELL
FLD         .                                           CANTARELL :FIELD
LOC         .                                             UNKNOWN :LOCATION
CNTY        .                                      CD. DEL CARMEN :COUNTY
STAT        .                                            CAMPECHE :STATE
CTRY        .                                              MEXICO :COUNTRY
SRVC        .                                             UNKNOWN :SERVICE COMPANY
DATE        .                                             UNKNOWN :LOG DATE
UWI         .                                          3060000662 :UNIQUE WELL ID
XCOORD      .                                       598468.500000 :SURFACE X
YCOORD      .                                      2145023.700000 :SURFACE Y
LAT         .                                           19.398162 :LATITUDE
LON         .                                          -92.062225 :LONGITUDE
ELEV        .M                                            26.5400 :SURFACE ELEV
ELEV_TYPE   .                                                  KB :ELEV TYPE
~CURVE INFORMATION
#MNEMONIC.UNIT        API CODE       : CURVE DESCRIPTION
#------------------------------------------------------------------------------
DEPTH    .M                          : Measured Depth
CAL      .inches      UNKNOWN        : CAL:UNKNOWN:rC:NONE:v0 (auto-composite)
CGR      .UNKNOWN     UNKNOWN        : CGR:UNKNOWN:rC:NONE:v0 (auto-composite)
DRHO     .UNKNOWN     UNKNOWN        : DRHO:UNKNOWN:rC:NONE:v0 (auto-composite)
DT       .us/ft       UNKNOWN        : DT:DT:rC:NONE:v0 (auto-composite)
GR       .API         UNKNOWN        : GR:UNKNOWN:rC:NONE:v0 (auto-composite)
ILD      .UNKNOWN     UNKNOWN        : ILD:UNKNOWN:rC:NONE:v0 (auto-composite)
ILM      .UNKNOWN     UNKNOWN        : ILM:UNKNOWN:rC:NONE:v0 (auto-composite)
LLD      .UNKNOWN     UNKNOWN        : LLD:UNKNOWN:rC:NONE:v0 (auto-composite)
LLS      .UNKNOWN     UNKNOWN        : LLS:UNKNOWN:rC:NONE:v0 (auto-composite)
MSFL     .UNKNOWN     UNKNOWN        : MSFL:UNKNOWN:rC:NONE:v0 (auto-composite)
NPHI     .v/v_decimal UNKNOWN        : NPHI:PETROWORKS:rC:NONE:v1 
PEF      .UNKNOWN     UNKNOWN        : PEF:UNKNOWN:rC:NONE:v0 (auto-composite)
POTA     .UNKNOWN     UNKNOWN        : POTA:UNKNOWN:rC:NONE:v0 (auto-composite)
RHOB     .UNKNOWN     UNKNOWN        : RHOB:UNKNOWN:rC:NONE:v0 (auto-composite)
THOR     .UNKNOWN     UNKNOWN        : THOR:UNKNOWN:rC:NONE:v0 (auto-composite)
URAN     .UNKNOWN     UNKNOWN        : URAN:UNKNOWN:rC:NONE:v0 (auto-composite)
~A     DEPTH          CAL          CGR         DRHO           DT           GR          ILD          ILM          LLD          LLS         MSFL         NPHI          PEF         POTA         RHOB         THOR         URAN
# ...
   2612.5173       6.5127      16.9637       0.0929      56.9460      34.5914    -999.2500    -999.2500      94.1050      74.9840      12.7608       0.1010       3.1723       0.0068       2.7656       1.5822       2.0885
   2612.6699       6.5002      19.7606       0.0859      56.9460      38.2793    -999.2500    -999.2500      94.1050      74.9840       2.5617       0.1010       3.1763       0.0083       2.7769       1.5695       2.2020
   2612.8223       6.5882      23.6771       0.0624      56.9460      43.6953    -999.2500    -999.2500      94.1050      74.9840       3.8481       0.1010       3.2593       0.0098       2.7704       1.8501       2.3790
   2612.9746       6.6575      26.4911       0.0407      56.9460      47.4182    -999.2500    -999.2500      94.1050      74.9840       4.6835       0.1010       3.3212       0.0108       2.7597       2.0365       2.4915
   2613.1270       6.6375      23.9203       0.0272      56.9460      43.1440    -999.2500    -999.2500      94.1050      74.9840       3.3151       0.1010       3.2822       0.0098       2.7292       1.7632       2.2886
   2613.2795       6.6178      22.1300       0.0183      56.9460      40.1750    -999.2500    -999.2500      94.1050      74.9840       2.1011       0.1010       3.2763       0.0091       2.7057       1.5878       2.1440
   2613.4319       6.5993      24.1768       0.0313      56.9460      43.4075    -999.2500    -999.2500      94.1050      74.9840       1.6465       0.1010       3.4278       0.0096       2.7157       1.8939       2.2861
   2613.5842       6.5509      24.5381       0.0481      56.9460      44.7172    -999.2500    -999.2500      94.1050      74.9840       1.3209       0.1010       3.5474       0.0094       2.7208       2.0619       2.4161
   2613.7366       6.3593      16.6585       0.0837      56.9460      36.7311    -999.2500    -999.2500      94.1050      74.9840       1.6262       0.1010       3.5149       0.0059       2.7023       1.5552       2.4876
   2613.8889       6.2249      10.6175       0.1133      56.9460      31.1967    -999.2500    -999.2500      94.1050      74.9840       1.8067       0.1010       3.5676       0.0033       2.6971       1.1625       2.6005
   2614.0415       6.3623      13.6216       0.1148      56.9460      37.5864    -999.2500    -999.2500      94.1050      74.9840       1.3725       0.1010       4.0259       0.0048       2.7550       1.3310       2.9171
   2614.1938       6.4752      16.2684       0.1125      56.9460      43.0988    -999.2500    -999.2500      94.1050      74.9840       1.0120       0.1010       4.4012       0.0062       2.8020       1.4266       3.1901
   2614.3462       6.4707      17.1665       0.0919      56.9460      44.5062    -999.2500    -999.2500      94.1050      74.9840       1.0120       0.1010       4.3792       0.0072       2.7960       1.1653       3.2496
   2614.4985       6.4578      17.6847       0.0692      56.9460      45.4566    -999.2500    -999.2500      94.1050      74.9840       1.0120       0.1010       4.3722       0.0080       2.7862       0.9164       3.2940
   2614.6511       6.4048      16.3322       0.0357      56.9460      44.2555    -999.2500    -999.2500      94.1050      74.9840       1.0120       0.1010       4.4367       0.0080       2.7587       0.7294       3.2645
   2614.8035       6.3629      12.9820       0.0084      56.9460      42.6805    -999.2500    -999.2500      94.1050      74.9840       1.0120       0.1010       4.4525       0.0072       2.7382       0.3229       3.4451
   2614.9558       6.3739      -0.1528       0.0109      56.9460      39.3145    -999.2500    -999.2500      94.1050      74.9840       1.0120       0.1010       4.2354       0.0027       2.7513      -1.1582       4.6545
   2615.1082       6.2790     -17.5664       0.0132      56.9460      37.0692    -999.2500    -999.2500      94.1050      74.9840       1.0120       0.1010       4.0212      -0.0043       2.7748      -2.5984       6.4932
   2615.2607       5.6792     -55.8278       0.0142      56.9460      40.2239    -999.2500    -999.2500      94.1050      74.9840       1.0120       0.1010       3.8208      -0.0238       2.8488      -3.8399      11.3981
   2615.4131       5.1830     -88.2154       0.0141      56.9460      42.8417    -999.2500    -999.2500      94.1050      74.9840       1.0120       0.1010       3.6550      -0.0403       2.9091      -4.9161      15.5481
   2615.5654       5.1830     -91.8068       0.0085      56.9460      42.8572    -999.2500    -999.2500      94.1050      74.9840       1.0120       0.1010       3.6550      -0.0418       2.9041      -5.1822      15.9973
   2615.7178       5.1830     -95.2057       0.0046      56.9460      42.8700    -999.2500    -999.2500      94.1050      74.9840       1.0120       0.1010       3.6550      -0.0432       2.9006      -5.4499      16.4198
   2615.8701       5.1830     -97.6661       0.0081      56.9460      42.8700    -999.2500    -999.2500      94.1050      74.9840       1.0120       0.1010       3.6550      -0.0442       2.9041      -5.7252      16.7127
   2616.0227       5.1830    -100.0053       0.0110      56.9460      42.8700    -999.2500    -999.2500      94.1050      74.9840       1.0120       0.1010       3.6550      -0.0451       2.9070      -5.9941      16.9911
   2616.1750       5.1830    -101.7494       0.0110      56.9460      42.8700    -999.2500    -999.2500      94.1050      74.9840       1.0120       0.1010       3.6550      -0.0456       2.9070      -6.2312      17.1987
   2616.3274    -999.2500    -103.4096    -999.2500    -999.2500      42.8700    -999.2500    -999.2500      94.1050      74.9840       1.0120    -999.2500    -999.2500      -0.0460    -999.2500      -6.4600      17.3963
   2616.4797    -999.2500    -104.6601    -999.2500    -999.2500      42.8700    -999.2500    -999.2500      94.1050      74.9840       1.0120    -999.2500    -999.2500      -0.0460    -999.2500      -6.6485      17.5453
   2616.6323    -999.2500    -105.8495    -999.2500    -999.2500      42.8700    -999.2500    -999.2500      94.1050      74.9840       1.0120    -999.2500    -999.2500      -0.0461    -999.2500      -6.8291      17.6869
   2616.7847    -999.2500    -106.7394    -999.2500    -999.2500      42.8700    -999.2500    -999.2500      94.1050      74.9840       1.0120    -999.2500    -999.2500      -0.0466    -999.2500      -6.9717      17.7930
   2616.9370    -999.2500    -107.5827    -999.2500    -999.2500      42.8700    -999.2500    -999.2500      94.1050      74.9840       1.0120    -999.2500    -999.2500      -0.0470    -999.2500      -7.1074      17.8934
   2617.0894    -999.2500    -108.1989    -999.2500    -999.2500      42.8700    -999.2500    -999.2500      94.1050      74.9840       1.0120    -999.2500    -999.2500      -0.0470    -999.2500      -7.2099      17.9664
   2617.2419    -999.2500    -108.7825    -999.2500    -999.2500      42.8700    -999.2500    -999.2500      94.1050      74.9840       1.0120    -999.2500    -999.2500      -0.0470    -999.2500      -7.3071      18.0355
   2617.3943    -999.2500    -109.2057    -999.2500    -999.2500      42.8700    -999.2500    -999.2500      94.1050      74.9840       1.0120    -999.2500    -999.2500      -0.0470    -999.2500      -7.3786      18.0861
   2617.5466    -999.2500    -109.6088    -999.2500    -999.2500      42.8700    -999.2500    -999.2500      94.1050      74.9840       1.0120    -999.2500    -999.2500      -0.0470    -999.2500      -7.4469      18.1342
   2617.6990    -999.2500    -109.9142    -999.2500    -999.2500      42.8700    -999.2500    -999.2500      94.1050      74.9840       1.0120    -999.2500    -999.2500      -0.0470    -999.2500      -7.4994      18.1707
   2617.8513    -999.2500    -110.2117    -999.2500    -999.2500      42.8700    -999.2500    -999.2500      94.1050      74.9840       1.0120    -999.2500    -999.2500      -0.0470    -999.2500      -7.5505      18.2062
   2618.0039    -999.2500    -110.4703    -999.2500    -999.2500      42.8700    -999.2500    -999.2500      94.1050      74.9840       1.0120    -999.2500    -999.2500      -0.0470    -999.2500      -7.5950      18.2367
