#------------------------------------------------------------------------------
#
#   Created by  : [OpenWorks] Log Export Utility (LEXP)
#   Created on  : 2016-05-12 17:18:19
#   Project     : CANT971
#   User        : R5K
#   Interpreter : PEP
#
#------------------------------------------------------------------------------
~VERSION INFORMATION
VERS. 2.0 : CWLS Log ASCII Standard - version 2.0
WRAP.  NO : One line per depth step
~WELL INFORMATION
#MNEMONIC   .UNIT                                           VALUE :DESCRIPTION
#------------------------------------------------------------------------------
STRT        .M                                           134.7982 :START DEPTH
STOP        .M                                          2692.2227 :STOP DEPTH
STEP        .M                                             0.1524 :STEP
NULL        .                                           -999.2500 :NULL VALUE
COMP        .                                   PEMEX EXPL & PROD :COMPANY
WELL        .                                                 57A :WELL
FLD         .                                           CANTARELL :FIELD
LOC         .                                             UNKNOWN :LOCATION
CNTY        .                                      CD. DEL CARMEN :COUNTY
STAT        .                                            CAMPECHE :STATE
CTRY        .                                              MEXICO :COUNTRY
SRVC        .                                             UNKNOWN :SERVICE COMPANY
DATE        .                                             UNKNOWN :LOG DATE
UWI         .                                          3060000169 :UNIQUE WELL ID
XCOORD      .                                       602151.210000 :SURFACE X
YCOORD      .                                      2147168.830000 :SURFACE Y
LAT         .                                           19.417362 :LATITUDE
LON         .                                          -92.027041 :LONGITUDE
ELEV        .M                                            28.1700 :SURFACE ELEV
ELEV_TYPE   .                                                  KB :ELEV TYPE
~CURVE INFORMATION
#MNEMONIC.UNIT        API CODE       : CURVE DESCRIPTION
#------------------------------------------------------------------------------
DEPTH    .M                          : Measured Depth
CALI     .inches      UNKNOWN        : CALI:UNKNOWN:r1:MAIN:v1 
DRHO     .UNKNOWN     UNKNOWN        : DRHO:UNKNOWN:r1:MAIN:v1 
DT       .us/ft       UNKNOWN        : DT:UNKNOWN:r1:MAIN:v1 
GR       .API         UNKNOWN        : GR:GR:r1:MAIN:v1 
ILD      .UNKNOWN     UNKNOWN        : ILD:UNKNOWN:r1:MAIN:v1 
LLD      .UNKNOWN     UNKNOWN        : LLD:UNKNOWN:r1:MAIN:v1 
LLS      .UNKNOWN     UNKNOWN        : LLS:UNKNOWN:r1:MAIN:v1 
MSFL     .UNKNOWN     UNKNOWN        : MSFL:UNKNOWN:r1:MAIN:v1 
NORM     .UNKNOWN     UNKNOWN        : NORM:NORM-Load:r1:MAIN:v1 
NPHI     .v/v_decimal UNKNOWN        : NPHI:UNKNOWN:r1:MAIN:v1 
RHOB     .UNKNOWN     UNKNOWN        : RHOB:UNKNOWN:r1:MAIN:v1 
SP       .mV          UNKNOWN        : SP:PETROWORKS:rC:NONE:v1 
~A     DEPTH         CALI         DRHO           DT           GR          ILD          LLD          LLS         MSFL         NORM         NPHI         RHOB           SP
# ...
   2541.4990       9.6743       0.1303      67.2668      56.9594      13.6280      13.9765      22.6398       3.4099    -999.2500       0.2134       2.8043     189.7873
   2541.6514       9.5954       0.1282      67.9296      55.6722      14.8174      13.7300      19.5176       2.2728    -999.2500       0.2347       2.8005     190.3278
   2541.8037       9.4776       0.1247      70.3327      55.0073      16.0197      13.9541      14.6461       2.3561    -999.2500       0.2575       2.7900     190.8336
   2541.9563       9.6390       0.1187      74.7586      55.6790      17.4247      17.3294      14.3510       2.6562    -999.2500       0.2585       2.7580     190.8367
   2542.1086       9.8667       0.1122      79.6637      56.6672      18.8778      21.4514      15.1402       3.0076    -999.2500       0.2544       2.7209     190.8084
   2542.2610       9.8857       0.1000      79.0581      54.7854      19.3843      30.9913      18.4570       9.7383    -999.2500       0.2367       2.6805     190.3659
   2542.4133       9.8572       0.0864      77.1935      52.2479      19.6746      41.7692      22.3513      17.9265    -999.2500       0.2159       2.6394     189.9259
   2542.5659       9.7313       0.0918      73.4816      48.5090      19.7779      44.8879      33.7994      30.3334    -999.2500       0.1961       2.6673     189.5158
   2542.7183       9.5840       0.1013      69.3630      44.5056      19.8400      46.3202      46.9108      43.6692    -999.2500       0.1765       2.7104     189.1488
   2542.8706       9.7294       0.1113      66.7367      42.1933      21.1434      38.0125      58.2958      49.1308    -999.2500       0.1458       2.7795     189.2674
   2543.0229       9.9374       0.1213      64.4303      40.2434      22.7127      27.6172      69.3109      52.9048    -999.2500       0.1126       2.8542     189.3761
   2543.1755      10.2598       0.1109      66.0691      40.8810      24.8095      27.0571      59.0655      33.8559    -999.2500       0.1337       2.8666     189.3780
   2543.3279      10.6058       0.0964      68.5213      42.0523      27.0152      28.5252      44.4360      10.1005    -999.2500       0.1658       2.8661     189.3656
   2543.4802      10.4910       0.0768      66.3058      43.0093      27.5080      26.1686      43.4756       5.5098    -999.2500       0.1821       2.8451     189.2092
   2543.6326      10.2849       0.0563      63.1651      43.9238      27.6615      23.0539      45.2244       4.7177    -999.2500       0.1953       2.8200     189.0821
   2543.7849      10.0616       0.0728      61.2611      44.4373      25.0280      21.8104      45.8258      27.0831    -999.2500       0.1862       2.7713     189.2287
   2543.9375       9.8350       0.0964      59.5925      44.8745      21.8643      20.9230      46.2089      53.8553    -999.2500       0.1729       2.7182     189.3648
   2544.0898       9.8674       0.0975      61.1184      48.0733      21.1907      20.6291      40.9390      50.8076    -999.2500       0.1524       2.7363     189.4090
   2544.2422       9.9471       0.0944      63.2272      51.7761      20.9716      20.4436      34.6376      42.3181    -999.2500       0.1307       2.7674     189.4439
   2544.3945      10.0268       0.0778      65.4178      54.8279      20.9697      20.1073      29.0470      27.2496    -999.2500       0.1268       2.7733     189.4022
   2544.5471      10.1065       0.0588      67.6226      57.7644      21.0058      19.7445      23.5807      11.0311    -999.2500       0.1260       2.7748     189.3226
   2544.6995       9.9666       0.0714      69.0319      56.8930      20.5033      17.9461      22.4396       7.7203    -999.2500       0.1360       2.7304     188.9412
   2544.8518       9.7897       0.0895      70.3065      55.3851      19.9097      15.9044      22.0309       6.5957    -999.2500       0.1477       2.6783     188.5626
   2545.0042       9.6722       0.0929      66.9790      54.2869      18.7874      17.6081      22.0858       9.7580    -999.2500       0.1381       2.6745     188.2048
   2545.1567       9.5644       0.0939      62.9067      53.2550      17.5796      19.9180      22.2156      13.6142    -999.2500       0.1249       2.6785     187.8502
   2545.3091       9.7046       0.0749      72.2208      55.5631      14.8520      16.9565      23.0508      17.0587    -999.2500       0.1446       2.7007     187.5176
   2545.4614       9.8831       0.0528      83.6018      58.3870      11.8898      13.1811      23.9950      20.4395    -999.2500       0.1693       2.7258     187.2183
   2545.6138      10.2163       0.0771      92.0315      63.2923       9.9819       9.5857      17.8151      12.1816    -999.2500       0.2279       2.7106     187.1452
   2545.7661      10.5723       0.1082     100.0272      68.5037       8.2290       6.0168      10.5876       2.2119    -999.2500       0.2915       2.6896     187.0811
   2545.9187      10.4525       0.1124      93.6533      68.3987       7.4501       5.3355       8.3697       1.0510    -999.2500       0.2978       2.6303     187.0744
   2546.0710      10.2661       0.1129      85.2703      67.5504       6.8073       5.0580       6.8522       1.1216    -999.2500       0.2960       2.5657     187.0742
   2546.2234      10.2444       0.1042      77.9188      60.8389       6.8256       6.7686       7.8310       1.2360    -999.2500       0.2514       2.5677     187.1145
   2546.3757      10.2449       0.0941      70.7063      53.3496       6.9329       8.7471       9.1462       1.3564    -999.2500       0.2010       2.5788     187.2173
   2546.5283      10.1583       0.0814      66.6263      47.4509       8.5817      14.9634      16.2497      14.0027    -999.2500       0.1527       2.6574     187.6948
   2546.6807      10.0605       0.0684      62.9461      41.7551      10.4273      21.7207      24.0919      28.2477    -999.2500       0.1046       2.7446     188.2071
   2546.8330       9.9274       0.0393      65.1325      40.6803      16.1857      26.1357      41.8602      35.8507    -999.2500       0.1058       2.7947     188.9195
   2546.9854       9.7900       0.0082      68.0265      40.1628      22.4159      30.2681      60.8258      42.6526    -999.2500       0.1128       2.8403     189.5188
   2547.1379       9.7679       0.0226      68.7618      40.8650      30.8184      29.9872      59.3697      32.3152    -999.2500       0.1303       2.8486     189.4982
   2547.2903       9.7589       0.0421      69.2517      41.7058      39.4679      29.2046      55.5918      20.0292    -999.2500       0.1489       2.8526     189.4172
   2547.4426       9.9723       0.0363      66.3727      40.0919      42.2141      29.9638      59.9321      12.6689    -999.2500       0.1220       2.8535     189.0186
   2547.5950      10.2094       0.0278      63.1338      38.2157      44.3295      30.8879      65.1401       5.8349    -999.2500       0.0903       2.8540     188.6593
   2547.7473      10.1777       0.0197      61.3685      37.0741      41.8525      39.3035      89.3766      16.5751    -999.2500       0.0865       2.7953     188.4980
   2547.8999      10.1191       0.0117      59.7508      36.0060      38.9157      48.4690     115.5181      29.0748    -999.2500       0.0855       2.7306     188.3267
   2548.0522      10.0517       0.0073      57.8624      41.5427      34.2996      63.3823      97.3514      33.9879    -999.2500       0.1338       2.5941     188.1063
   2548.2046       9.9836       0.0033      55.9480      47.7093      29.5233      78.8436      74.9593      38.1775    -999.2500       0.1868       2.4507     187.8795
   2548.3569      10.3142       0.0159      60.8379      52.2899      26.4764      57.1647      48.3669      32.6640    -999.2500       0.2236       2.3699     187.6229
   2548.5095      10.6802       0.0299      66.3316      56.7297      23.5828      32.1894      21.4016      26.2893    -999.2500       0.2589       2.2947     187.4041
   2548.6619      10.5625       0.0236      71.3268      58.0816      22.0213      21.3768      17.1264      18.5776    -999.2500       0.2601       2.3353     187.3572
