#------------------------------------------------------------------------------
#
#   Created by  : [OpenWorks] Log Export Utility (LEXP)
#   Created on  : 2016-05-23 11:55:56
#   Project     : CANT971
#   User        : R5K
#   Interpreter : PEP
#
#------------------------------------------------------------------------------
~VERSION INFORMATION
VERS. 2.0 : CWLS Log ASCII Standard - version 2.0
WRAP.  NO : One line per depth step
~WELL INFORMATION
#MNEMONIC   .UNIT                                           VALUE :DESCRIPTION
#------------------------------------------------------------------------------
STRT        .M                                          3767.4790 :START DEPTH
STOP        .M                                          5548.2729 :STOP DEPTH
STEP        .M                                             0.1524 :STEP
NULL        .                                           -999.2500 :NULL VALUE
COMP        .                                             UNKNOWN :COMPANY
WELL        .                                            418D-ST2 :WELL
FLD         .                                             UNKNOWN :FIELD
LOC         .                                             UNKNOWN :LOCATION
CNTY        .                                             UNKNOWN :COUNTY
STAT        .                                             UNKNOWN :STATE
CTRY        .                                             UNKNOWN :COUNTRY
SRVC        .                                             UNKNOWN :SERVICE COMPANY
DATE        .                                             UNKNOWN :LOG DATE
UWI         .                                            418D-ST2 :UNIQUE WELL ID
XCOORD      .                                       597130.010000 :SURFACE X
YCOORD      .                                      2144879.410000 :SURFACE Y
LAT         .                                           19.396924 :LATITUDE
LON         .                                          -92.074978 :LONGITUDE
ELEV        .M                                             0.0000 :SURFACE ELEV
ELEV_TYPE   .                                                  NA :ELEV TYPE
~CURVE INFORMATION
#MNEMONIC.UNIT        API CODE       : CURVE DESCRIPTION
#------------------------------------------------------------------------------
DEPTH    .M                          : Measured Depth
CALI     .inches      UNKNOWN        : CALI:PETROWORKS:rC:NONE:v1 
CGR      .API         UNKNOWN        : CGR:PETROWORKS:rC:NONE:v2 
DRHO     .g/cm3       UNKNOWN        : DRHO:PETROWORKS:rC:NONE:v1 
DT       .us/ft       UNKNOWN        : DT:PETROWORKS:rC:NONE:v2 
GR       .API         UNKNOWN        : GR:PETROWORKS:rC:NONE:v2 
ILD      .ohm.m       UNKNOWN        : ILD:PETROWORKS:rC:NONE:v2 
ILM      .ohm.m       UNKNOWN        : ILM:PETROWORKS:rC:NONE:v2 
NPHI     .v/v_decimal UNKNOWN        : NPHI:PETROWORKS:rC:NONE:v3 
PEF      .b/elec      UNKNOWN        : PEF:PETROWORKS:rC:NONE:v1 
POTA     .wtpercent   UNKNOWN        : POTA:PETROWORKS:rC:NONE:v2 
RHOB     .UNKNOWN     UNKNOWN        : RHOB:PETROWORKS:rC:NONE:v1 
THOR     .ppm         UNKNOWN        : THOR:PETROWORKS:rC:NONE:v2 
URAN     .ppm         UNKNOWN        : URAN:PETROWORKS:rC:NONE:v2 
~A     DEPTH         CALI          CGR         DRHO           DT           GR          ILD          ILM         NPHI          PEF         POTA         RHOB         THOR         URAN
# ...
   5175.6548       6.4272      25.1393       0.0696      55.9878      91.1671      71.1426     670.8096       0.0668       4.6657       0.0134       2.7757       1.8084       8.9956
   5175.8076       6.4373      27.7135       0.0808      51.9669      96.6735      99.2521     746.5928       0.0604       4.5071       0.0138       2.8113       1.7727       9.3951
   5175.9600       6.6606      28.0541       0.0783      48.3063      96.2214     159.9183     794.6362       0.0479       4.4405       0.0139       2.8390       1.6793       9.2871
   5176.1123       6.8880      26.5798       0.0538      45.5815      89.8799     593.0300     675.8804       0.0325       4.4830       0.0123       2.8418       1.3040       8.6240
   5176.2646       6.6731      22.4336       0.0333      44.7807      79.1118    1690.1211     563.5318       0.0229       4.5318       0.0104       2.8364       0.8021       7.7218
   5176.4170       6.4098      18.3782       0.0283      45.6707      64.2519    9291.4482     518.4922       0.0189       4.5923       0.0085       2.8270       0.6799       6.2499
   5176.5693       6.3704      15.6214       0.0283      46.4002      51.6390    8969.2471     547.4778       0.0163       4.6641       0.0067       2.8211       0.7864       4.9071
   5176.7217       6.3827      13.2476       0.0297      46.1183      42.6862    3113.9592     821.3549       0.0147       4.7372       0.0054       2.8225       0.8576       4.0107
   5176.8740       6.3889      11.3859       0.0314      45.4651      36.1602     819.2745    1288.8246       0.0140       4.7891       0.0047       2.8262       0.9236       3.3753
   5177.0264       6.3805       9.0434       0.0332      44.8773      32.5623     394.0757    4078.8572       0.0147       4.8288       0.0036       2.8288       0.8630       3.2042
   5177.1792       6.3733       6.9739       0.0336      44.9425      30.8384     253.1172   10416.8623       0.0156       4.8649       0.0023       2.8291       0.7004       3.2513
   5177.3315       6.3769       4.9666       0.0312      45.9122      30.2278     255.0336   17629.9707       0.0169       4.8808       0.0013       2.8273       0.6064       3.4416
   5177.4839       6.3842       3.2234       0.0256      46.9819      29.9116     321.0579   19965.5840       0.0186       4.8992       0.0006       2.8201       0.5763       3.6360
   5177.6362       6.3879       2.6430       0.0219      48.3339      30.0140     776.6687   20000.0000       0.0196       4.9354       0.0004       2.8119       0.5801       3.7290
   5177.7886       6.4001       2.6948       0.0240      48.9925      30.4357    1756.5897   20000.0000       0.0205       5.0137       0.0005       2.8064       0.6338       3.7795
   5177.9409       6.4089       2.8900       0.0284      48.7663      30.8941   12299.3994   20000.0000       0.0209       5.0786       0.0006       2.8026       0.6696       3.8152
   5178.0933       6.4198       4.6867       0.0304      48.3320      32.8985   19068.3750   20000.0000       0.0207       5.0789       0.0021       2.7952       0.7696       3.8435
   5178.2456       6.4162       7.0931       0.0276      47.2311      35.4307   20000.0000   20000.0000       0.0203       5.0324       0.0041       2.7870       0.8626       3.8607
   5178.3984       6.4094      10.4598       0.0182      46.2073      40.6314   20000.0000   20000.0000       0.0196       4.9093       0.0048       2.7871       1.1801       4.1106
   5178.5508       6.4194      12.3976       0.0102      45.1166      44.6545   20000.0000   20000.0000       0.0190       4.7943       0.0048       2.7936       1.4351       4.3946
   5178.7031       6.4083      11.9297       0.0076      44.5798      45.4633   20000.0000   20000.0000       0.0179       4.7607       0.0046       2.8055       1.3641       4.5686
   5178.8555       6.3809      11.3803       0.0075      44.5121      45.6854   20000.0000   20000.0000       0.0169       4.7973       0.0042       2.8131       1.2852       4.6737
   5179.0078       6.3459      10.2238       0.0129      44.5229      44.8295   20000.0000   20000.0000       0.0161       4.9303       0.0034       2.8102       1.2800       4.7147
   5179.1602       6.3351       9.3403       0.0212      44.4726      43.9086   20000.0000   20000.0000       0.0157       5.0310       0.0030       2.8067       1.3619       4.7096
   5179.3125       6.3737       9.2798       0.0313      44.3719      43.6789   20000.0000   20000.0000       0.0155       4.9819       0.0030       2.8127       1.4237       4.6865
   5179.4648       6.3954       9.5591       0.0377      44.4149      44.0041   20000.0000   20000.0000       0.0157       4.8805       0.0031       2.8230       1.4916       4.6928
   5179.6172       6.3841       9.7364       0.0346      44.9199      45.0823   20000.0000   20000.0000       0.0164       4.7894       0.0030       2.8287       1.5343       4.8156
   5179.7700       6.3740       9.5177       0.0302      45.4048      45.9758   20000.0000   20000.0000       0.0174       4.7448       0.0031       2.8269       1.4740       4.9671
   5179.9224       6.3745      10.1601       0.0267      45.8965      46.6415   20000.0000   20000.0000       0.0204       4.7551       0.0039       2.8150       1.4203       4.9702
   5180.0747       6.3854      11.2220       0.0246      46.2497      47.4123   20000.0000   20000.0000       0.0238       4.7859       0.0047       2.8033       1.3936       4.9306
   5180.2271       6.3931      11.7557       0.0250      46.9907      49.2518   20000.0000   20000.0000       0.0266       4.8422       0.0045       2.7937       1.3233       5.1084
   5180.3794       6.3939      11.3752       0.0259      47.7218      53.9451   20000.0000   20000.0000       0.0282       4.8859       0.0044       2.7866       1.3185       5.7997
   5180.5317       6.3939      15.6067       0.0289      48.4391      66.2864   20000.0000   20000.0000       0.0281       5.0080       0.0067       2.7837       1.8513       6.9045
   5180.6841       6.3971      20.5743       0.0335      48.5240      77.2604   20000.0000   20000.0000       0.0262       5.3364       0.0084       2.7852       2.3549       7.7229
   5180.8364       6.4057      21.5437       0.0346      47.5034      79.9049   20000.0000   20000.0000       0.0241       5.5857       0.0077       2.7900       2.4595       7.9511
   5180.9888       6.4171      18.5136       0.0274      46.6480      73.7379   20000.0000   20000.0000       0.0223       5.4922       0.0055       2.7970       2.4335       7.5238
   5181.1416       6.4267      14.5005       0.0190      46.4648      64.1086   20000.0000   20000.0000       0.0210       5.2869       0.0041       2.8013       2.2097       6.7586
   5181.2939       6.4145      10.9855       0.0156      46.6549      52.3746   20000.0000   20000.0000       0.0205       5.1835       0.0040       2.7984       1.4267       5.6388
   5181.4463       6.4001       9.2033       0.0154      46.6205      43.6669   20000.0000   20000.0000       0.0202       5.1843       0.0040       2.7934       0.8597       4.6953
   5181.5986       6.4009       8.8715       0.0157      46.2442      41.1012   20000.0000   20000.0000       0.0208       5.1837       0.0039       2.7845       0.8161       4.3909
   5181.7510       6.4062       8.9580       0.0149      45.7495      40.9123   20000.0000   20000.0000       0.0221       5.1487       0.0042       2.7774       0.8545       4.3535
   5181.9033       6.4155      10.1663       0.0163      46.3963      42.2032   20000.0000   20000.0000       0.0238       5.1537       0.0051       2.7793       0.9532       4.3647
   5182.0557       6.4268      11.7426       0.0190      47.3754      45.1747   20000.0000   20000.0000       0.0248       5.1927       0.0067       2.7862       1.0026       4.5548
   5182.2080       6.4242      14.6225       0.0209      48.1831      51.5084   20000.0000   20000.0000       0.0250       5.2090       0.0076       2.7968       1.1383       5.0253
