#------------------------------------------------------------------------------
#
#   Created by  : [OpenWorks] Log Export Utility (LEXP)
#   Created on  : 2016-05-23 11:57:25
#   Project     : CANT971
#   User        : R5K
#   Interpreter : PEP
#
#------------------------------------------------------------------------------
~VERSION INFORMATION
VERS. 2.0 : CWLS Log ASCII Standard - version 2.0
WRAP.  NO : One line per depth step
~WELL INFORMATION
#MNEMONIC   .UNIT                                           VALUE :DESCRIPTION
#------------------------------------------------------------------------------
STRT        .M                                           497.5860 :START DEPTH
STOP        .M                                          2904.1343 :STOP DEPTH
STEP        .M                                             0.1524 :STEP
NULL        .                                           -999.2500 :NULL VALUE
COMP        .                                   PEMEX EXPL & PROD :COMPANY
WELL        .                                                 82A :WELL
FLD         .                                           CANTARELL :FIELD
LOC         .                                             UNKNOWN :LOCATION
CNTY        .                                      CD. DEL CARMEN :COUNTY
STAT        .                                            CAMPECHE :STATE
CTRY        .                                              MEXICO :COUNTRY
SRVC        .                                             UNKNOWN :SERVICE COMPANY
DATE        .                                             UNKNOWN :LOG DATE
UWI         .                                          3060000184 :UNIQUE WELL ID
XCOORD      .                                       601716.340000 :SURFACE X
YCOORD      .                                      2142348.150000 :SURFACE Y
LAT         .                                           19.373822 :LATITUDE
LON         .                                          -92.031440 :LONGITUDE
ELEV        .M                                            24.0000 :SURFACE ELEV
ELEV_TYPE   .                                                  KB :ELEV TYPE
~CURVE INFORMATION
#MNEMONIC.UNIT        API CODE       : CURVE DESCRIPTION
#------------------------------------------------------------------------------
DEPTH    .M                          : Measured Depth
CAL      .inches      UNKNOWN        : CAL:UNKNOWN:rC:NONE:v0 (auto-composite)
DRHO     .g/cm3       UNKNOWN        : DRHO:UNKNOWN:rC:NONE:v0 (auto-composite)
DT       .us/ft       UNKNOWN        : DT:DT:rC:NONE:v0 (auto-composite)
GR       .api         UNKNOWN        : GR:GR-Load:rC:NONE:v0 (auto-composite)
ILD      .ohm.m       UNKNOWN        : ILD:PETROWORKS:rC:NONE:v1 
LLD      .ohmm        UNKNOWN        : LLD:UNKNOWN:rC:NONE:v0 (auto-composite)
LLS      .ohmm        UNKNOWN        : LLS:UNKNOWN:rC:NONE:v0 (auto-composite)
MSFL     .ohmm        UNKNOWN        : MSFL:PETROWORKS:rC:NONE:v1 
NPHI     .v/v_decimal UNKNOWN        : NPHI:NPHI:rC:NONE:v0 (auto-composite)
PEF      .b/elec      UNKNOWN        : PEF:UNKNOWN:rC:NONE:v0 (auto-composite)
RG       .API         UNKNOWN        : RG:UNKNOWN:rC:NONE:v0 (auto-composite)
RHOB     .g/cm3       UNKNOWN        : RHOB:UNKNOWN:rC:NONE:v0 (auto-composite)
~A     DEPTH          CAL         DRHO           DT           GR          ILD          LLD          LLS         MSFL         NPHI          PEF           RG         RHOB
# ...
   2465.3748       8.1932       0.0562    -999.2500      29.0050    -999.2500      34.8741     766.6780    2000.6870       5.3878       2.9575      42.2701       2.7224
   2465.5271       8.1353       0.0787    -999.2500      31.4911    -999.2500      35.2986     755.6611    2000.6870       5.7998       2.8361      39.3402       2.7299
   2465.6797       8.1219       0.0961    -999.2500      34.0140    -999.2500      36.7312     743.6036    2000.6870       6.2335       2.7988      36.8996       2.7356
   2465.8320       8.1259       0.1116    -999.2500      35.0557    -999.2500      38.5584     731.1390    2000.3868       6.1643       2.7943      34.6506       2.7406
   2465.9844       8.1701       0.1117    -999.2500      36.1130    -999.2500      39.7047     744.7623    1999.6440       5.8592       2.8099      34.0874       2.7506
   2466.1367       8.2300       0.1057    -999.2500      38.5635    -999.2500      40.5833     768.6400    1999.4875       5.5330       2.8334      34.1869       2.7626
   2466.2893       8.2760       0.0857    -999.2500      41.0510    -999.2500      40.4665     765.8266    2000.2303       5.1969       2.8687      34.9707       2.7707
   2466.4417       8.3165       0.0602    -999.2500      42.7505    -999.2500      39.9567     752.4769    2000.6870       4.9859       2.9086      36.0248       2.7772
   2466.5940       8.3473       0.0469    -999.2500      44.4730    -999.2500      38.8461     757.5970    2000.6870       4.8334       2.9268      37.4290       2.7822
   2466.7463       8.3743       0.0384    -999.2500      43.5612    -999.2500      37.4972     770.0391    2000.6870       4.6142       2.9363      38.9721       2.7867
   2466.8987       8.3531       0.0356    -999.2500      42.6370    -999.2500      36.6566     814.5033    2000.6870       4.3641       2.9811      40.5550       2.7805
   2467.0513       8.3126       0.0351    -999.2500      42.0004    -999.2500      36.0199     871.8166    2000.6870       4.3226       3.0401      42.1538       2.7700
   2467.2036       8.2739       0.0329    -999.2500      41.3550    -999.2500      35.1160     858.4941    2000.6870       4.3776       3.0919      42.8788       2.7631
   2467.3560       8.2359       0.0299    -999.2500      39.6779    -999.2500      34.1044     816.7087    1999.5291       4.7835       3.1409      43.2516       2.7576
   2467.5083       8.2478       0.0247    -999.2500      37.9800    -999.2500      32.8993     782.9565    1996.6818       5.3512       3.1091      43.4454       2.7549
   2467.6609       8.2797       0.0187    -999.2500      37.9025    -999.2500      31.6159     752.4551    1994.9370       5.1743       3.0447      43.5667       2.7534
   2467.8132       8.3177       0.0195    -999.2500      37.8240    -999.2500      31.4628     747.5454    1994.9370       4.6551       3.0253      42.7223       2.7495
   2467.9656       8.3582       0.0230    -999.2500      39.2257    -999.2500      31.7727     753.1165    1996.0980       5.0364       3.0243      41.4823       2.7445
   2468.1179       8.3650       0.0240    -999.2500      40.6450    -999.2500      31.0425     761.1411    1998.9452       5.8302       3.0350      40.4364       2.7310
   2468.2705       8.3580       0.0240    -999.2500      45.3842    -999.2500      29.8845     770.1747    2000.6870       7.0810       3.0505      39.4704       2.7140
   2468.4229       8.2895       0.0523    -999.2500      50.1760    -999.2500      29.9390     771.7362    2000.6870       8.5406       2.9938      39.7805       2.7069
   2468.5752       8.1955       0.0923    -999.2500      50.1874    -999.2500      30.4942     770.2119    2000.6870       8.5016       2.9073      40.6176       2.7039
   2468.7275       8.1461       0.1005    -999.2500      50.1990    -999.2500      31.4784     775.5213    2000.6870       7.7809       2.8696      45.3940       2.6843
   2468.8799       8.1152       0.0955    -999.2500      47.8881    -999.2500      32.6405     783.6648    1998.8123       7.2872       2.8522      51.8041       2.6578
   2469.0325       8.1268       0.0771    -999.2500      45.5510    -999.2500      31.3808     789.3820    1994.2319       6.8966       2.9406      53.0967       2.6549
   2469.1848       8.1563       0.0531    -999.2500      44.2952    -999.2500      29.1048     794.0809    1991.4370       7.2669       3.0736      52.2415       2.6619
   2469.3372       8.1590       0.0604    -999.2500      43.0270    -999.2500      28.1582     767.0675    1991.4370       7.9812       3.0982      48.5035       2.6837
   2469.4895       8.1505       0.0809    -999.2500      45.2932    -999.2500      27.7719     726.6904    1993.3165       7.7988       3.0772      43.5506       2.7117
   2469.6421       8.1491       0.0786    -999.2500      47.5820    -999.2500      29.0126     725.4020    1997.8969       7.2126       3.0282      43.0961       2.7098
   2469.7944       8.1506       0.0666    -999.2500      48.8491    -999.2500      30.9417     740.6539    2000.6870       6.4620       2.9672      44.5450       2.6953
   2469.9468       8.1689       0.0521    -999.2500      50.1290    -999.2500      30.1737     730.2314    2000.6870       5.6377       2.9798      45.8325       2.6987
   2470.0991       8.1943       0.0367    -999.2500      53.0150    -999.2500      28.2595     708.8997    1999.6685       5.9310       3.0238      47.0515       2.7097
   2470.2517       8.1926       0.0376    -999.2500      55.9260    -999.2500      25.8344     720.1667    1997.1926       6.7242       3.0087      48.0527       2.7263
   2470.4041       8.1791       0.0456    -999.2500      53.5380    -999.2500      23.1895     745.4488    1995.6870       7.1764       2.9682      48.9603       2.7453
   2470.5564       8.1771       0.0581    -999.2500      51.1290    -999.2500      20.8571     731.3857    1995.6870       7.4755       3.0377      50.7410       2.7513
   2470.7087       8.1801       0.0726    -999.2500      50.1060    -999.2500      18.6595     700.3376    1996.7081       7.6399       3.1546      52.8986       2.7518
   2470.8611       8.1974       0.0746    -999.2500      49.0740    -999.2500      17.0823     672.6569    1999.1840       7.7439       3.2297      52.3547       2.7530
   2471.0137       8.2208       0.0711    -999.2500      50.4987    -999.2500      15.7739     646.4357    2000.6870       8.0590       3.2866      50.6398       2.7545
   2471.1660       8.2165       0.0683    -999.2500      51.9340    -999.2500      18.3614     859.2318    2000.6870       8.4681       3.2060      49.9666       2.7560
   2471.3184       8.2000       0.0658    -999.2500      55.6336    -999.2500      22.6576    1176.8491    2000.6870       8.5348       3.0651      49.7502       2.7575
   2471.4707       8.2019       0.0553    -999.2500      59.3550    -999.2500      24.9315    1078.5653    2000.6870       8.4493       3.0463      51.3579       2.7438
   2471.6233       8.2119       0.0413    -999.2500      55.5968    -999.2500      26.3149     797.1434    2000.6870       8.5034       3.0813      53.7688       2.7233
   2471.7756       8.2292       0.0360    -999.2500      51.8160    -999.2500      26.4351     670.3745    2000.6870       8.6195       3.0806      56.7471       2.7076
   2471.9280       8.2497       0.0345    -999.2500      44.5185    -999.2500      25.9968     611.9833    2000.6870       8.2653       3.0641      59.9762       2.6941
   2472.0803       8.2442       0.0281    -999.2500      37.1760    -999.2500      24.2140     638.4305    2000.6870       7.7036       3.0798      57.7550       2.6886
   2472.2329       8.2273       0.0196    -999.2500      34.6459    -999.2500      21.8345     702.5405    2000.6870       7.4514       3.1097      53.1142       2.6866
   2472.3853       8.2096       0.0111    -999.2500      32.1040    -999.2500      21.4547     727.1409    2000.6870       7.3354       3.1235      46.5322       2.6932
   2472.5376       8.1916       0.0026    -999.2500      33.7505    -999.2500      21.9729     733.9980    2000.6870       7.2364       3.1300      39.0785       2.7037
