#------------------------------------------------------------------------------
#
#   Created by  : [OpenWorks] Log Export Utility (LEXP)
#   Created on  : 2016-05-23 11:50:23
#   Project     : CANT971
#   User        : R5K
#   Interpreter : PEP
#
#------------------------------------------------------------------------------
~VERSION INFORMATION
VERS. 2.0 : CWLS Log ASCII Standard - version 2.0
WRAP.  NO : One line per depth step
~WELL INFORMATION
#MNEMONIC   .UNIT                                           VALUE :DESCRIPTION
#------------------------------------------------------------------------------
STRT        .M                                           790.6004 :START DEPTH
STOP        .M                                          2649.8804 :STOP DEPTH
STEP        .M                                             0.1524 :STEP
NULL        .                                           -999.2500 :NULL VALUE
COMP        .                                             UNKNOWN :COMPANY
WELL        .                                               1012D :WELL
FLD         .                                             UNKNOWN :FIELD
LOC         .                                             UNKNOWN :LOCATION
CNTY        .                                             UNKNOWN :COUNTY
STAT        .                                             UNKNOWN :STATE
CTRY        .                                             UNKNOWN :COUNTRY
SRVC        .                                             UNKNOWN :SERVICE COMPANY
DATE        .                                             UNKNOWN :LOG DATE
UWI         .                                               1012D :UNIQUE WELL ID
XCOORD      .                                       594334.990000 :SURFACE X
YCOORD      .                                      2152041.060000 :SURFACE Y
LAT         .                                           19.461774 :LATITUDE
LON         .                                          -92.101239 :LONGITUDE
ELEV        .M                                             0.0000 :SURFACE ELEV
ELEV_TYPE   .                                                  KB :ELEV TYPE
~CURVE INFORMATION
#MNEMONIC.UNIT        API CODE       : CURVE DESCRIPTION
#------------------------------------------------------------------------------
DEPTH    .M                          : Measured Depth
DT       .us/ft       UNKNOWN        : DT:UNKNOWN:rC:NONE:v0 (auto-composite)
GR       .API         UNKNOWN        : GR:PETROWORKS:rC:NONE:v1 
GR-LWD   .API         UNKNOWN        : GR-LWD:PETROWORKS:rC:NONE:v1 
ILD      .ohm.m       UNKNOWN        : ILD:resistivos:rC:NONE:v0 (auto-composite)
ILD-LWD  .ohm.m       UNKNOWN        : ILD-LWD:PETROWORKS:rC:NONE:v1 
ILM      .ohm.m       UNKNOWN        : ILM:resistivos:rC:NONE:v0 (auto-composite)
ILM-LWD  .ohm.m       UNKNOWN        : ILM-LWD:PETROWORKS:rC:NONE:v1 
~A     DEPTH           DT           GR       GR-LWD          ILD      ILD-LWD          ILM      ILM-LWD
# ...
   2104.8979     130.4469      35.2937    -999.2500    -999.2500    -999.2500    -999.2500    -999.2500
   2105.0503     130.6578      37.9293    -999.2500    -999.2500    -999.2500    -999.2500    -999.2500
   2105.2029     130.8010      40.6018    -999.2500    -999.2500    -999.2500    -999.2500    -999.2500
   2105.3552     129.6780      42.0007    -999.2500    -999.2500    -999.2500    -999.2500    -999.2500
   2105.5076     128.1655      42.5894    -999.2500    -999.2500    -999.2500    -999.2500    -999.2500
   2105.6599     127.5192      42.6842    -999.2500    -999.2500    -999.2500    -999.2500    -999.2500
   2105.8125     127.4932      43.3696    -999.2500    -999.2500    -999.2500    -999.2500    -999.2500
   2105.9648     127.6264      42.3937    -999.2500    -999.2500    -999.2500    -999.2500    -999.2500
   2106.1172     128.3233      41.2866    -999.2500    -999.2500    -999.2500    -999.2500    -999.2500
   2106.2695     126.0226      40.0490    -999.2500    -999.2500    -999.2500    -999.2500    -999.2500
   2106.4221     123.4950      39.6573    -999.2500    -999.2500    -999.2500    -999.2500    -999.2500
   2106.5745     118.9877      39.5816    -999.2500    -999.2500    -999.2500    -999.2500    -999.2500
   2106.7268     117.9856      41.5540    -999.2500    -999.2500    -999.2500    -999.2500    -999.2500
   2106.8792     122.8008      42.1458    -999.2500    -999.2500    -999.2500    -999.2500    -999.2500
   2107.0315     124.9938      40.7532    -999.2500    -999.2500    -999.2500    -999.2500    -999.2500
   2107.1841     127.4734      39.1699    -999.2500    -999.2500    -999.2500    -999.2500    -999.2500
   2107.3364     129.8343      38.2238    -999.2500    -999.2500    -999.2500    -999.2500    -999.2500
   2107.4888     131.4028      38.5527    -999.2500    -999.2500    -999.2500    -999.2500    -999.2500
   2107.6411     131.4299      37.7684    -999.2500    -999.2500    -999.2500    -999.2500    -999.2500
   2107.7937     130.0061      39.6889    -999.2500    -999.2500    -999.2500    -999.2500    -999.2500
   2107.9460     129.3049      40.2451    -999.2500    -999.2500    -999.2500    -999.2500    -999.2500
   2108.0984     129.2263      39.3822    -999.2500    -999.2500    -999.2500    -999.2500    -999.2500
   2108.2507     126.3664      38.9317    -999.2500    -999.2500    -999.2500    -999.2500    -999.2500
   2108.4033     122.1812      39.0277    -999.2500    -999.2500    -999.2500    -999.2500    -999.2500
   2108.5557     119.6882      39.4406    -999.2500    -999.2500    -999.2500    -999.2500    -999.2500
   2108.7080     117.3402      37.7050    -999.2500    -999.2500    -999.2500    -999.2500    -999.2500
   2108.8604     115.1588      36.5311    -999.2500    -999.2500    -999.2500    -999.2500    -999.2500
   2109.0127     114.8700      35.3612    -999.2500    -999.2500    -999.2500    -999.2500    -999.2500
   2109.1653     115.0471      34.7731    -999.2500    -999.2500    -999.2500    -999.2500    -999.2500
   2109.3176     115.0238      36.3354    -999.2500    -999.2500    -999.2500    -999.2500    -999.2500
   2109.4700     116.7541      36.7287    -999.2500    -999.2500    -999.2500    -999.2500    -999.2500
   2109.6223     117.8875      35.7508    -999.2500    -999.2500    -999.2500    -999.2500    -999.2500
   2109.7749     114.3192      33.9932      79.9062    -999.2500       0.8276    -999.2500       0.8204
   2109.9272     111.7245      34.3174      79.8562    -999.2500       0.8026    -999.2500       0.8024
   2110.0796     110.8349      35.6204      79.9206    -999.2500       0.7631    -999.2500       0.7701
   2110.2319     112.7102      33.7657      80.2980    -999.2500       0.7731    -999.2500       0.7799
   2110.3845     117.5417      33.1459      81.1388    -999.2500       0.8385    -999.2500       0.8418
   2110.5369     123.5052      33.9923      81.5725    -999.2500       0.9168    -999.2500       0.9181
   2110.6892     128.4310      34.2426      80.0493    -999.2500       0.9575    -999.2500       0.9569
   2110.8416     132.1759      32.7350      79.1574    -999.2500       1.0162    -999.2500       1.0118
   2110.9939     134.4551      31.3660      79.2603    -999.2500       1.0555    -999.2500       1.0504
   2111.1465     133.6593      31.5067      74.7141    -999.2500       1.0978    -999.2500       1.0987
   2111.2988     131.5475      32.5589      71.5265    -999.2500       1.0930    -999.2500       1.1040
   2111.4512     129.7199      33.9242      69.7647    -999.2500       1.0893    -999.2500       1.0996
   2111.6035     125.5892      36.8614      69.8204    -999.2500       1.0976    -999.2500       1.1057
   2111.7561     122.7475      39.6791      69.8911    -999.2500       1.1024    -999.2500       1.1041
   2111.9084     118.9213      40.3956      70.1109    -999.2500       1.0877    -999.2500       1.0905
   2112.0608     116.2996      40.5876      73.2546    -999.2500       1.0633    -999.2500       1.0687
   2112.2131     114.2007      39.1991      76.5109    -999.2500       1.0326    -999.2500       1.0382
   2112.3657     113.1222      40.9601      79.1321    -999.2500       1.0051    -999.2500       1.0102
   2112.5181     112.8906      41.0975      81.1381    -999.2500       0.9677    -999.2500       0.9763
   2112.6704     112.4825      40.3971      82.2156    -999.2500       0.9545    -999.2500       0.9610
   2112.8228     111.6838      37.0123      82.2235    -999.2500       0.9589    -999.2500       0.9649
   2112.9751     112.3602      34.9838      79.6618    -999.2500       0.9858    -999.2500       0.9911
   2113.1277     113.8050      34.6433      74.5580    -999.2500       1.0123    -999.2500       1.0136
   2113.2800     115.4915      34.7667      72.3764    -999.2500       0.9691    -999.2500       0.9682
   2113.4324     116.4260      35.0752      76.4675    -999.2500       0.8985    -999.2500       0.9009
   2113.5847     118.4202      36.3160      82.5527    -999.2500       0.8357    -999.2500       0.8409
   2113.7373     118.5247      36.3858      86.9702    -999.2500       0.8090    -999.2500       0.8114
   2113.8896     117.0411      37.0533      84.2899    -999.2500       0.8037    -999.2500       0.8017
   2114.0420     116.0137      35.6525      78.7156    -999.2500       0.8231    -999.2500       0.8225
   2114.1943     115.3971      38.2919      77.1967    -999.2500       0.8562    -999.2500       0.8536
   2114.3469     117.2496      37.1822      78.5486    -999.2500       0.8922    -999.2500       0.8843
   2114.4993     119.5081      37.1186      80.3224    -999.2500       0.9073    -999.2500       0.8999
   2114.6516     120.4023      35.9448      81.1802    -999.2500       0.9066    -999.2500       0.9010
   2114.8040     121.2521      38.5473      82.6052    -999.2500       0.9065    -999.2500       0.9005
   2114.9563     121.3575      42.3021      84.8458    -999.2500       0.9161    -999.2500       0.9081
   2115.1089     120.3779      45.7789      84.2333    -999.2500       0.9283    -999.2500       0.9214
   2115.2612     119.3070      46.0390      80.5972    -999.2500       0.9585    -999.2500       0.9531
   2115.4136     119.4222      45.5329      76.1755    -999.2500       1.0300    -999.2500       1.0221
   2115.5659     121.6000      43.4987      70.8155    -999.2500       1.0754    -999.2500       1.0656
   2115.7185     124.2480      43.5015      67.2636    -999.2500       1.0482    -999.2500       1.0399
   2115.8708     124.2610      41.3507      70.7185    -999.2500       0.9829    -999.2500       0.9814
   2116.0232     124.3313      40.4065      78.6876    -999.2500       0.9582    -999.2500       0.9531
   2116.1755     124.0067      37.3756      83.5699    -999.2500       0.9609    -999.2500       0.9523
   2116.3279     122.4472      39.7871      84.3117    -999.2500       0.9228    -999.2500       0.9167
   2116.4805     120.4915      39.6219      81.4729    -999.2500       0.8625    -999.2500       0.8610
