#------------------------------------------------------------------------------
#
#   Created by  : [OpenWorks] Log Export Utility (LEXP)
#   Created on  : 2016-05-23 11:53:41
#   Project     : CANT971
#   User        : R5K
#   Interpreter : PEP
#
#------------------------------------------------------------------------------
~VERSION INFORMATION
VERS. 2.0 : CWLS Log ASCII Standard - version 2.0
WRAP.  NO : One line per depth step
~WELL INFORMATION
#MNEMONIC   .UNIT                                           VALUE :DESCRIPTION
#------------------------------------------------------------------------------
STRT        .M                                           901.1412 :START DEPTH
STOP        .M                                          2449.6777 :STOP DEPTH
STEP        .M                                             0.1524 :STEP
NULL        .                                           -999.2500 :NULL VALUE
COMP        .                                   PEMEX EXPL & PROD :COMPANY
WELL        .                                                  25 :WELL
FLD         .                                           CANTARELL :FIELD
LOC         .                                             UNKNOWN :LOCATION
CNTY        .                                      CD. DEL CARMEN :COUNTY
STAT        .                                            CAMPECHE :STATE
CTRY        .                                              MEXICO :COUNTRY
SRVC        .                                             UNKNOWN :SERVICE COMPANY
DATE        .                                             UNKNOWN :LOG DATE
UWI         .                                          3060000154 :UNIQUE WELL ID
XCOORD      .                                       603358.080000 :SURFACE X
YCOORD      .                                      2145091.420000 :SURFACE Y
LAT         .                                           19.398528 :LATITUDE
LON         .                                          -92.015660 :LONGITUDE
ELEV        .M                                            27.1400 :SURFACE ELEV
ELEV_TYPE   .                                                  KB :ELEV TYPE
~CURVE INFORMATION
#MNEMONIC.UNIT        API CODE       : CURVE DESCRIPTION
#------------------------------------------------------------------------------
DEPTH    .M                          : Measured Depth
CALI     .in          UNKNOWN        : CALI:registros:rC:NONE:v0 (auto-composite)
DRHO     .g/cm3       UNKNOWN        : DRHO:registros:rC:NONE:v0 (auto-composite)
DT       .us/ft       UNKNOWN        : DT:registros:rC:NONE:v0 (auto-composite)
GR       .api         UNKNOWN        : GR:registros:rC:NONE:v0 (auto-composite)
ILD      .ohmm        UNKNOWN        : ILD:registros:rC:NONE:v0 (auto-composite)
LLD      .ohmm        UNKNOWN        : LLD:registros:rC:NONE:v0 (auto-composite)
LLS      .ohmm        UNKNOWN        : LLS:registros:rC:NONE:v0 (auto-composite)
MSFL     .ohmm        UNKNOWN        : MSFL:registros:rC:NONE:v0 (auto-composite)
NPHI     .v/v_decimal UNKNOWN        : NPHI:registros:rC:NONE:v0 (auto-composite)
PEF      .b/elec      UNKNOWN        : PEF:registros:rC:NONE:v0 (auto-composite)
RHOB     .g/cm3       UNKNOWN        : RHOB:registros:rC:NONE:v0 (auto-composite)
~A     DEPTH         CALI         DRHO           DT           GR          ILD          LLD          LLS         MSFL         NPHI          PEF         RHOB
# ...
   1653.9972    -999.2500      -0.2860    -999.2500      42.8707    -999.2500      10.1777       4.2982       5.9291       0.6161    -999.2500       2.5195
   1654.1497    -999.2500      -0.2860    -999.2500      44.2090    -999.2500      17.0590       5.2040       7.2640       0.5959    -999.2500       2.5140
   1654.3020    -999.2500      -0.2860    -999.2500      43.7768    -999.2500      22.3643       5.1077       8.2260       0.5922    -999.2500       2.5080
   1654.4545    -999.2500      -0.2860    -999.2500      43.3430    -999.2500      27.6970       5.0110       9.1930       0.5884    -999.2500       2.5020
   1654.6068    -999.2500      -0.2850    -999.2500      44.4490    -999.2500      14.5544       3.0801       9.3142       0.5749    -999.2500       2.4776
   1654.7593    -999.2500      -0.2840    -999.2500      45.5590    -999.2500       1.3420       1.1390       9.4360       0.5613    -999.2500       2.4530
   1654.9116    -999.2500      -0.2730    -999.2500      51.0655    -999.2500       2.0222       1.6332      10.0184       0.5640    -999.2500       2.4092
   1655.0641    -999.2500      -0.2620    -999.2500      56.5930    -999.2500       2.7060       2.1300      10.6040       0.5667    -999.2500       2.3650
   1655.2164    -999.2500      -0.2277    -999.2500      62.9205    -999.2500      11.2403       3.5650      12.9445       0.6033    -999.2500       2.2948
   1655.3688    -999.2500      -0.1930    -999.2500      69.2730    -999.2500      19.8220       5.0080      15.2980       0.6400    -999.2500       2.2240
   1655.5212    -999.2500      -0.1377    -999.2500      73.6087    -999.2500      24.9828       5.7643      17.2245       0.6791    -999.2500       2.1662
   1655.6736    -999.2500      -0.0820    -999.2500      77.9620    -999.2500      30.1730       6.5250      19.1620       0.7183    -999.2500       2.1080
   1655.8260    -999.2500      -0.0168    -999.2500      78.9164    -999.2500      17.5547       6.2099      19.7433       0.6875    -999.2500       2.1239
   1655.9784    -999.2500       0.0490    -999.2500      79.8740    -999.2500       4.8630       5.8930      20.3280       0.6566    -999.2500       2.1400
   1656.1309    -999.2500       0.0938    -999.2500      79.9369    -999.2500       5.1656       6.3835      21.0848       0.5721    -999.2500       2.1803
   1656.2832    -999.2500       0.1390    -999.2500      80.0000    -999.2500       5.4700       6.8770      21.8460       0.4875    -999.2500       2.2210
   1656.4357    -999.2500       0.1335    -999.2500      79.7284    -999.2500       5.9351       7.4717      21.7907       0.4258    -999.2500       2.2429
   1656.5880    -999.2500       0.1280    -999.2500      79.4560    -999.2500       6.4030       8.0700      21.7350       0.3640    -999.2500       2.2650
   1656.7405    -999.2500       0.1126    -999.2500      79.5564    -999.2500       7.1756       8.7499      24.8897       0.3554    -999.2500       2.2640
   1656.8928    -999.2500       0.0970    -999.2500      79.6570    -999.2500       7.9530       9.4340      28.0640       0.3468    -999.2500       2.2630
   1657.0453    -999.2500       0.0841    -999.2500      81.6195    -999.2500       8.8570      10.1799      33.5160       0.3439    -999.2500       2.2615
   1657.1976    -999.2500       0.0710    -999.2500      83.5880    -999.2500       9.7660      10.9300      38.9980       0.3411    -999.2500       2.2600
   1657.3500    -999.2500       0.0760    -999.2500      85.5543    -999.2500      10.4488      11.4418      42.2601       0.3388    -999.2500       2.2650
   1657.5024    -999.2500       0.0810    -999.2500      87.5270    -999.2500      11.1350      11.9560      45.5380       0.3365    -999.2500       2.2700
   1657.6548    -999.2500       0.0890    -999.2500      88.5163    -999.2500      11.3210      11.7126      43.6781       0.3265    -999.2500       2.2620
   1657.8073    -110.9830       0.0970    -999.2500      89.5090    -999.2500      11.5080      11.4680      41.8090       0.3164    -999.2500       2.2540
   1657.9596     -54.1562       0.0826    -999.2500      90.9425    -999.2500      11.0512      11.0974      45.0697       0.2942    -999.2500       2.1947
   1658.1121       2.5040       0.0680    -999.2500      92.3810    -999.2500      10.5920      10.7250      48.3470       0.2720    -999.2500       2.1350
   1658.2644       5.8342       0.0441    -999.2500      87.6635    -999.2500      10.6753      10.8826      47.4887       0.2842    -999.2500       2.0538
   1658.4169       9.1550       0.0200    -999.2500      82.9290    -999.2500      10.7590      11.0410      46.6260       0.2964    -999.2500       1.9720
   1658.5692      11.9743       0.0026    -999.2500      75.1186    -999.2500      11.4302      11.4659      45.6800       0.3094    -999.2500       1.9366
   1658.7217      14.7860      -0.0150    -999.2500      67.2790    -999.2500      12.1050      11.8930      44.7290       0.3224    -999.2500       1.9010
   1658.8740      14.3815      -0.0070    -999.2500      65.7884    -999.2500      11.9773      11.4707      52.4270       0.3287    -999.2500       1.9314
   1659.0265      13.9780       0.0010    -999.2500      64.2920    -999.2500      11.8490      11.0460      60.1670       0.3349    -999.2500       1.9620
   1659.1788      13.7587       0.0090    -999.2500      68.7057    -999.2500      10.8264      10.0553      50.8426       0.3302    -999.2500       1.9615
   1659.3312      13.5400       0.0170    -999.2500      73.1370    -999.2500       9.7980       9.0590      41.4660       0.3255    -999.2500       1.9610
   1659.4836      13.4899       0.0120    -999.2500      72.8895    -999.2500       9.4550       8.7803      32.8337       0.3108    -999.2500       1.9471
   1659.6360      13.4400       0.0070    -999.2500      72.6410    -999.2500       9.1100       8.5000      24.1520       0.2959    -999.2500       1.9330
   1659.7885      13.3819       0.0060    -999.2500      71.8718    -999.2500       9.1678       8.5833      23.3219       0.2973    -999.2500       1.9176
   1659.9408      13.3240       0.0050    -999.2500      71.1000    -999.2500       9.2260       8.6670      22.4870       0.2986    -999.2500       1.9020
   1660.0933      13.2674       0.0070    -999.2500      72.1406    -999.2500       9.2664       8.7193      24.7981       0.3101    -999.2500       1.9075
   1660.2456      13.2110       0.0090    -999.2500      73.1840    -999.2500       9.3070       8.7720      27.1230       0.3216    -999.2500       1.9130
   1660.3981      13.2556       0.0090    -999.2500      72.5155    -999.2500       9.2083       8.6937      29.2141       0.3302    -999.2500       1.9399
   1660.5504      13.3000       0.0090    -999.2500      71.8450    -999.2500       9.1090       8.6150      31.3180       0.3388    -999.2500       1.9670
   1660.7029      13.2730       0.0075    -999.2500      72.3128    -999.2500       8.9305       8.4335      29.8874       0.3152    -999.2500       2.0009
   1660.8552      13.2460       0.0060    -999.2500      72.7820    -999.2500       8.7510       8.2510      28.4490       0.2914    -999.2500       2.0350
   1661.0077      13.2936       0.0065    -999.2500      74.3031    -999.2500       8.4597       7.9208      26.5310       0.2589    -999.2500       2.0534
   1661.1600      13.3410       0.0070    -999.2500      75.8290    -999.2500       8.1670       7.5890      24.6040       0.2262    -999.2500       2.0720
   1661.3124      13.5008       0.0075    -999.2500      77.6915    -999.2500       8.8049       7.9696      30.1151       0.2393    -999.2500       2.0845
   1661.4648      13.6600       0.0080    -999.2500      79.5600    -999.2500       9.4460       8.3520      35.6530       0.2524    -999.2500       2.0970
   1661.6172      13.8598       0.0100    -999.2500      80.1610    -999.2500      11.2231       9.8114      56.8297       0.2586    -999.2500       2.1005
   1661.7697      14.0590       0.0120    -999.2500      80.7640    -999.2500      13.0090      11.2780      78.1120       0.2647    -999.2500       2.1040
