#------------------------------------------------------------------------------
#
#   Created by  : [OpenWorks] Log Export Utility (LEXP)
#   Created on  : 2016-05-23 11:55:46
#   Project     : CANT971
#   User        : R5K
#   Interpreter : PEP
#
#------------------------------------------------------------------------------
~VERSION INFORMATION
VERS. 2.0 : CWLS Log ASCII Standard - version 2.0
WRAP.  NO : One line per depth step
~WELL INFORMATION
#MNEMONIC   .UNIT                                           VALUE :DESCRIPTION
#------------------------------------------------------------------------------
STRT        .M                                           325.5260 :START DEPTH
STOP        .M                                          2414.9299 :STOP DEPTH
STEP        .M                                             0.1524 :STEP
NULL        .                                           -999.2500 :NULL VALUE
COMP        .                                   PEMEX EXPL & PROD :COMPANY
WELL        .                                                   4 :WELL
FLD         .                                           CANTARELL :FIELD
LOC         .                                             UNKNOWN :LOCATION
CNTY        .                                      CD. DEL CARMEN :COUNTY
STAT        .                                            CAMPECHE :STATE
CTRY        .                                              MEXICO :COUNTRY
SRVC        .                                             UNKNOWN :SERVICE COMPANY
DATE        .                                             UNKNOWN :LOG DATE
UWI         .                                          3060000140 :UNIQUE WELL ID
XCOORD      .                                       598455.270000 :SURFACE X
YCOORD      .                                      2145027.190000 :SURFACE Y
LAT         .                                           19.398194 :LATITUDE
LON         .                                          -92.062351 :LONGITUDE
ELEV        .M                                            26.5400 :SURFACE ELEV
ELEV_TYPE   .                                                  KB :ELEV TYPE
~CURVE INFORMATION
#MNEMONIC.UNIT        API CODE       : CURVE DESCRIPTION
#------------------------------------------------------------------------------
DEPTH    .M                          : Measured Depth
CALI     .inches      UNKNOWN        : CALI:Import:rC:NONE:v0 (auto-composite)
CGR      .API         UNKNOWN        : CGR:Import:rC:NONE:v0 (auto-composite)
DRHO     .g/cm3       UNKNOWN        : DRHO:Import:rC:NONE:v0 (auto-composite)
DT       .us/ft       UNKNOWN        : DT:Import:rC:NONE:v0 (auto-composite)
GR       .API         UNKNOWN        : GR:Import:rC:NONE:v0 (auto-composite)
ILD      .ohm.m       UNKNOWN        : ILD:Import:rC:NONE:v0 (auto-composite)
LLD      .ohm.m       UNKNOWN        : LLD:Import:rC:NONE:v0 (auto-composite)
LLS      .ohm.m       UNKNOWN        : LLS:Import:rC:NONE:v0 (auto-composite)
MSFL     .ohm.m       UNKNOWN        : MSFL:Import:rC:NONE:v0 (auto-composite)
NPHI     .v/v_decimal UNKNOWN        : NPHI:Import:rC:NONE:v0 (auto-composite)
POTA     .wtpercent   UNKNOWN        : POTA:Import:rC:NONE:v0 (auto-composite)
RHOB     .g/cm3       UNKNOWN        : RHOB:Import:rC:NONE:v0 (auto-composite)
THOR     .ppm         UNKNOWN        : THOR:Import:rC:NONE:v0 (auto-composite)
URAN     .ppm         UNKNOWN        : URAN:Import:rC:NONE:v0 (auto-composite)
~A     DEPTH         CALI          CGR         DRHO           DT           GR          ILD          LLD          LLS         MSFL         NPHI         POTA         RHOB         THOR         URAN
# ...
   1996.1348      10.1720    -999.2500      -0.0020      50.6120      30.4600    -999.2500    3881.3521     795.6670     225.3140       0.0240    -999.2500       2.7340    -999.2500    -999.2500
   1996.2872      10.0723    -999.2500       0.0105      49.5326      30.9140    -999.2500    4320.7798     851.5870     336.7059       0.0179    -999.2500       2.7681    -999.2500    -999.2500
   1996.4396       9.9730    -999.2500       0.0230      48.4580      31.3670    -999.2500    4758.6260     907.3950     447.8750       0.0157    -999.2500       2.8020    -999.2500    -999.2500
   1996.5920       9.9890    -999.2500       0.0200      48.0304      29.6134    -999.2500    4732.2944     882.4651     428.5288       0.0143    -999.2500       2.7950    -999.2500    -999.2500
   1996.7444      10.0050    -999.2500       0.0170      47.6050      27.8630    -999.2500    4706.0542     857.5820     409.2190       0.0144    -999.2500       2.7880    -999.2500    -999.2500
   1996.8969      10.0836    -999.2500       0.0135      47.3789      28.2343    -999.2500    4682.8481     858.9517     465.7840       0.0148    -999.2500       2.7920    -999.2500    -999.2500
   1997.0492      10.1620    -999.2500       0.0100      47.1540      28.6050    -999.2500    4659.7202     860.3190     522.2500       0.0154    -999.2500       2.7960    -999.2500    -999.2500
   1997.2017      10.2491    -999.2500      -0.0000      47.4342      28.4028    -999.2500    4777.5015     864.0355     477.4891       0.0161    -999.2500       2.7765    -999.2500    -999.2500
   1997.3540      10.3360    -999.2500      -0.0100      47.7130      28.2010    -999.2500    4894.9028     867.7460     432.8010       0.0169    -999.2500       2.7570    -999.2500    -999.2500
   1997.5063      10.1778    -999.2500      -0.0060      48.6823      29.8582    -999.2500    4459.4272     815.8043     293.2400       0.0178    -999.2500       2.7580    -999.2500    -999.2500
   1997.6588      10.0200    -999.2500      -0.0020      49.6470      31.5130    -999.2500    4025.3010     763.9820     154.0000       0.0188    -999.2500       2.7590    -999.2500    -999.2500
   1997.8112      10.0315    -999.2500      -0.0045      50.1942      36.3808    -999.2500    4165.1929     774.9984     114.8874       0.0198    -999.2500       2.7420    -999.2500    -999.2500
   1997.9636      10.0430    -999.2500      -0.0070      50.7390      41.2420    -999.2500    4304.6689     785.9820      75.8910       0.0194    -999.2500       2.7250    -999.2500    -999.2500
   1998.1160      10.1251    -999.2500      -0.0125      50.4138      40.9428    -999.2500    4870.4761     864.3045      80.2452       0.0187    -999.2500       2.7125    -999.2500    -999.2500
   1998.2684      10.2070    -999.2500      -0.0180      50.0900      40.6440    -999.2500    5434.6719     942.4040      84.5870       0.0195    -999.2500       2.7000    -999.2500    -999.2500
   1998.4208      10.1229    -999.2500      -0.0130      50.2213      38.5168    -999.2500    5905.8145    1006.5027     155.6718       0.0207    -999.2500       2.7200    -999.2500    -999.2500
   1998.5732      10.0390    -999.2500      -0.0080      50.3520      36.3920    -999.2500    6375.6748    1070.4270     226.5630       0.0229    -999.2500       2.7400    -999.2500    -999.2500
   1998.7256      10.0956    -999.2500       0.0005      50.4898      33.7982    -999.2500    6646.6538    1094.9489     204.1118       0.0253    -999.2500       2.7525    -999.2500    -999.2500
   1998.8781      10.1520    -999.2500       0.0090      50.6270      31.2070    -999.2500    6916.7119    1119.4070     181.7190       0.0252    -999.2500       2.7650    -999.2500    -999.2500
   1999.0304      10.1325    -999.2500       0.0060      50.2818      28.0156    -999.2500    7811.1006    1244.4340     240.7034       0.0244    -999.2500       2.7675    -999.2500    -999.2500
   1999.1829      10.1130    -999.2500       0.0030      49.9380      24.8270    -999.2500    8701.8506    1369.1520     299.5420       0.0223    -999.2500       2.7700    -999.2500    -999.2500
   1999.3352      10.1776    -999.2500       0.0065      49.5973      22.7717    -999.2500   11513.4424    1628.0432     577.4720       0.0199    -999.2500       2.7730    -999.2500    -999.2500
   1999.4875      10.2420    -999.2500       0.0100      49.2580      20.7180    -999.2500   14313.9482    1886.3270     854.7500       0.0188    -999.2500       2.7760    -999.2500    -999.2500
   1999.6400      10.1674    -999.2500       0.0115      49.7259      21.1211    -999.2500   12496.9316    1643.3097     614.9036       0.0180    -999.2500       2.7750    -999.2500    -999.2500
   1999.7924      10.0930    -999.2500       0.0130      50.1920      21.5240    -999.2500   10686.8535    1400.8320     375.5900       0.0206    -999.2500       2.7740    -999.2500    -999.2500
   1999.9448      10.0424    -999.2500       0.0150      51.3406      24.5730    -999.2500    8553.7900    1119.0312     266.8581       0.0241    -999.2500       2.7585    -999.2500    -999.2500
   2000.0972       9.9920    -999.2500       0.0170      52.4850      27.6180    -999.2500    6428.6040     837.8210     158.3540       0.0321    -999.2500       2.7430    -999.2500    -999.2500
   2000.2496      10.0686    -999.2500       0.0110      53.8359      29.8412    -999.2500    6489.9038     851.3243     138.4229       0.0411    -999.2500       2.6974    -999.2500    -999.2500
   2000.4020      10.1450    -999.2500       0.0050      55.1810      32.0600    -999.2500    6550.9849     864.8010     118.5310       0.0507    -999.2500       2.6520    -999.2500    -999.2500
   2000.5544      10.0724    -999.2500      -0.0005      54.9750      32.7456    -999.2500    7385.3833    1003.3344     118.6716       0.0603    -999.2500       2.6595    -999.2500    -999.2500
   2000.7068      10.0000    -999.2500      -0.0060      54.7700      33.4300    -999.2500    8216.9092    1141.6121     118.8120       0.0637    -999.2500       2.6670    -999.2500    -999.2500
   2000.8593      10.0000    -999.2500      -0.0090      54.0472      31.8411    -999.2500    9059.0000    1266.0210     162.3064       0.0655    -999.2500       2.6650    -999.2500    -999.2500
   2001.0116      10.0000    -999.2500      -0.0120      53.3280      30.2550    -999.2500    9898.2979    1390.2159     205.7260       0.0645    -999.2500       2.6630    -999.2500    -999.2500
   2001.1639      10.0080    -999.2500      -0.0095      53.0253      27.1876    -999.2500    8871.6631    1289.8618     384.3268       0.0628    -999.2500       2.6685    -999.2500    -999.2500
   2001.3164      10.0160    -999.2500      -0.0070      52.7240      24.1250    -999.2500    7848.3052    1189.7480     562.5000       0.0621    -999.2500       2.6740    -999.2500    -999.2500
   2001.4688      10.0085    -999.2500      -0.0045      53.1294      26.4277    -999.2500    7087.1191    1112.7786     323.2856       0.0616    -999.2500       2.6655    -999.2500    -999.2500
   2001.6212      10.0010    -999.2500      -0.0020      53.5330      28.7270    -999.2500    6328.2681    1036.0450      84.8050       0.0566    -999.2500       2.6570    -999.2500    -999.2500
   2001.7736       9.9479    -999.2500      -0.0015      52.6831      28.3733    -999.2500    7157.8965    1083.7317     164.1717       0.0505    -999.2500       2.6946    -999.2500    -999.2500
   2001.9260       9.8950    -999.2500      -0.0010      51.8370      28.0200    -999.2500    7985.0840    1131.2780     243.3050       0.0434    -999.2500       2.7320    -999.2500    -999.2500
   2002.0784       9.9180    -999.2500      -0.0005      52.0284      28.1076    -999.2500    7094.0435    1065.0978     231.5524       0.0362    -999.2500       2.7490    -999.2500    -999.2500
   2002.2308       9.9410    -999.2500       0.0000      52.2190      28.1950    -999.2500    6205.5132     999.1040     219.8330       0.0331    -999.2500       2.7660    -999.2500    -999.2500
   2002.3832       9.9119    -999.2500       0.0020      52.5242      31.9165    -999.2500    6352.3027    1038.9186     175.2275       0.0311    -999.2500       2.7515    -999.2500    -999.2500
