#------------------------------------------------------------------------------
#
#   Created by  : [OpenWorks] Log Export Utility (LEXP)
#   Created on  : 2016-05-12 17:01:28
#   Project     : CANT971
#   User        : R5K
#   Interpreter : PEP
#
#------------------------------------------------------------------------------
~VERSION INFORMATION
VERS. 2.0 : CWLS Log ASCII Standard - version 2.0
WRAP.  NO : One line per depth step
~WELL INFORMATION
#MNEMONIC   .UNIT                                           VALUE :DESCRIPTION
#------------------------------------------------------------------------------
STRT        .M                                           350.5962 :START DEPTH
STOP        .M                                          2218.5630 :STOP DEPTH
STEP        .M                                             0.1524 :STEP
NULL        .                                           -999.2500 :NULL VALUE
COMP        .                                   PEMEX EXPL & PROD :COMPANY
WELL        .                                                  79 :WELL
FLD         .                                           CANTARELL :FIELD
LOC         .                                             UNKNOWN :LOCATION
CNTY        .                                      CD. DEL CARMEN :COUNTY
STAT        .                                            CAMPECHE :STATE
CTRY        .                                              MEXICO :COUNTRY
SRVC        .                                             UNKNOWN :SERVICE COMPANY
DATE        .                                             UNKNOWN :LOG DATE
UWI         .                                          3060000183 :UNIQUE WELL ID
XCOORD      .                                       602154.470000 :SURFACE X
YCOORD      .                                      2147172.410000 :SURFACE Y
LAT         .                                           19.417394 :LATITUDE
LON         .                                          -92.027010 :LONGITUDE
ELEV        .M                                            28.1700 :SURFACE ELEV
ELEV_TYPE   .                                                  KB :ELEV TYPE
~CURVE INFORMATION
#MNEMONIC.UNIT        API CODE       : CURVE DESCRIPTION
#------------------------------------------------------------------------------
DEPTH    .M                          : Measured Depth
CALI     .inches      UNKNOWN        : CALI:CALI-Load:rC:NONE:v0 (auto-composite)
DT       .us/ft       UNKNOWN        : DT:DT:rC:NONE:v0 (auto-composite)
GR       .UNKNOWN     UNKNOWN        : GR:GR-Load:rC:NONE:v0 (auto-composite)
ILD      .UNKNOWN     UNKNOWN        : ILD:ILD-Load:rC:NONE:v0 (auto-composite)
LLD      .UNKNOWN     UNKNOWN        : LLD:LLD-Load:rC:NONE:v0 (auto-composite)
LLS      .UNKNOWN     UNKNOWN        : LLS:LLS-Load:rC:NONE:v0 (auto-composite)
MSFL     .UNKNOWN     UNKNOWN        : MSFL:MSFL-Load:rC:NONE:v0 (auto-composite)
NPHI     .v/v_decimal UNKNOWN        : NPHI:NPHI:rC:NONE:v0 (auto-composite)
RG       .API         UNKNOWN        : RG:UNKNOWN:rC:NONE:v0 (auto-composite)
RHOB     .UNKNOWN     UNKNOWN        : RHOB:RHOB-Load:rC:NONE:v0 (auto-composite)
SP       .UNKNOWN     UNKNOWN        : SP:SP-Load:rC:NONE:v0 (auto-composite)
~A     DEPTH         CALI           DT           GR          ILD          LLD          LLS         MSFL         NPHI           RG         RHOB           SP
# ...
   1190.6250      15.9358    -999.2500      52.1781       1.2287    -999.2500    -999.2500    -999.2500       0.3238    -999.2500       2.3322      31.6353
   1190.7773      16.0453    -999.2500      51.4291       1.2382    -999.2500    -999.2500    -999.2500       0.3288    -999.2500       2.3267      31.6818
   1190.9298      16.0437    -999.2500      50.8360       1.2440    -999.2500    -999.2500    -999.2500       0.3310    -999.2500       2.3288      31.8061
   1191.0822      15.9312    -999.2500      50.3986       1.2460    -999.2500    -999.2500    -999.2500       0.3305    -999.2500       2.3383      32.0081
   1191.2346      15.8875    -999.2500      49.8988       1.2450    -999.2500    -999.2500    -999.2500       0.3352    -999.2500       2.3385      32.2571
   1191.3870      15.9125    -999.2500      49.3368       1.2410    -999.2500    -999.2500    -999.2500       0.3453    -999.2500       2.3295      32.5531
   1191.5394      15.9125    -999.2500      49.1123       1.2363    -999.2500    -999.2500    -999.2500       0.3545    -999.2500       2.3217      32.8566
   1191.6918      15.8875    -999.2500      49.2248       1.2308    -999.2500    -999.2500    -999.2500       0.3629    -999.2500       2.3152      33.1676
   1191.8442      15.9125    -999.2500      49.7120       1.2260    -999.2500    -999.2500    -999.2500       0.3613    -999.2500       2.3062      33.3618
   1191.9966      15.9875    -999.2500      50.5735       1.2220    -999.2500    -999.2500    -999.2500       0.3499    -999.2500       2.2947      33.4393
   1192.1490      16.0500    -999.2500      50.8417       1.2155    -999.2500    -999.2500    -999.2500       0.3476    -999.2500       2.2958      33.4080
   1192.3014      16.1000    -999.2500      50.5172       1.2065    -999.2500    -999.2500    -999.2500       0.3544    -999.2500       2.3093      33.2680
   1192.4537      16.0830    -999.2500      50.7011       1.2020    -999.2500    -999.2500    -999.2500       0.3516    -999.2500       2.3147      33.0815
   1192.6062      15.9990    -999.2500      51.3931       1.2020    -999.2500    -999.2500    -999.2500       0.3392    -999.2500       2.3122      32.8485
   1192.7585      15.9240    -999.2500      52.6298       1.2010    -999.2500    -999.2500    -999.2500       0.3350    -999.2500       2.3097      32.6307
   1192.9110      15.8580    -999.2500      54.4109       1.1990    -999.2500    -999.2500    -999.2500       0.3390    -999.2500       2.3072      32.4281
   1193.0634      15.8047    -999.2500      55.0999       1.1935    -999.2500    -999.2500    -999.2500       0.3434    -999.2500       2.3017      32.2802
   1193.2158      15.7642    -999.2500      54.7004       1.1845    -999.2500    -999.2500    -999.2500       0.3481    -999.2500       2.2932      32.1867
   1193.3682      15.7157    -999.2500      54.9762       1.1745    -999.2500    -999.2500    -999.2500       0.3535    -999.2500       2.2852      32.1012
   1193.5206      15.6592    -999.2500      55.9252       1.1635    -999.2500    -999.2500    -999.2500       0.3596    -999.2500       2.2777      32.0237
   1193.6730      15.5669    -999.2500      56.2678       1.1530    -999.2500    -999.2500    -999.2500       0.3637    -999.2500       2.2788      32.0551
   1193.8254      15.4389    -999.2500      56.0058       1.1430    -999.2500    -999.2500    -999.2500       0.3658    -999.2500       2.2883      32.1951
   1193.9778      15.3938    -999.2500      55.6810       1.1405    -999.2500    -999.2500    -999.2500       0.3711    -999.2500       2.2887      32.2883
   1194.1302      15.4313    -999.2500      55.2935       1.1455    -999.2500    -999.2500    -999.2500       0.3796    -999.2500       2.2802      32.3348
   1194.2826      15.4217    -999.2500      54.7125       1.1430    -999.2500    -999.2500    -999.2500       0.3818    -999.2500       2.2785      32.1402
   1194.4349      15.3652    -999.2500      53.9386       1.1330    -999.2500    -999.2500    -999.2500       0.3777    -999.2500       2.2835      31.7053
   1194.5874      15.2652    -999.2500      53.8899       1.1245    -999.2500    -999.2500    -999.2500       0.3587    -999.2500       2.2945      31.5113
   1194.7397      15.1217    -999.2500      54.5648       1.1175    -999.2500    -999.2500    -999.2500       0.3249    -999.2500       2.3115      31.5578
   1194.8922      15.0688    -999.2500      55.8266       1.1125    -999.2500    -999.2500    -999.2500       0.3148    -999.2500       2.3082      31.6511
   1195.0446      15.1063    -999.2500      57.6741       1.1095    -999.2500    -999.2500    -999.2500       0.3284    -999.2500       2.2847      31.7911
   1195.1970      15.1780    -999.2500      57.6222       1.1003    -999.2500    -999.2500    -999.2500       0.3434    -999.2500       2.2635      31.6431
   1195.3494      15.2840    -999.2500      55.6743       1.0848    -999.2500    -999.2500    -999.2500       0.3597    -999.2500       2.2445      31.2076
   1195.5018      15.3668    -999.2500      54.7758       1.0655    -999.2500    -999.2500    -999.2500       0.3719    -999.2500       2.2272      31.0133
   1195.6542      15.4263    -999.2500      54.9253       1.0425    -999.2500    -999.2500    -999.2500       0.3800    -999.2500       2.2117      31.0598
   1195.8066      15.5295    -999.2500      55.2999       1.0210    -999.2500    -999.2500    -999.2500       0.3836    -999.2500       2.1992      31.3011
   1195.9590      15.6765    -999.2500      55.8994       1.0010    -999.2500    -999.2500    -999.2500       0.3827    -999.2500       2.1897      31.7371
   1196.1115      15.7360    -999.2500      55.4769       0.9845    -999.2500    -999.2500    -999.2500       0.3797    -999.2500       2.1870      32.1648
   1196.2638      15.7080    -999.2500      54.0335       0.9715    -999.2500    -999.2500    -999.2500       0.3746    -999.2500       2.1910      32.5843
   1196.4161      15.6330    -999.2500      52.7628       0.9585    -999.2500    -999.2500    -999.2500       0.3725    -999.2500       2.1985      32.8873
   1196.5686      15.5110    -999.2500      51.6649       0.9455    -999.2500    -999.2500    -999.2500       0.3733    -999.2500       2.2095      33.0738
   1196.7209      15.4187    -999.2500      50.9632       0.9343    -999.2500    -999.2500    -999.2500       0.3745    -999.2500       2.2178      33.2058
   1196.8734      15.3562    -999.2500      50.6576       0.9248    -999.2500    -999.2500    -999.2500       0.3761    -999.2500       2.2233      33.2833
   1197.0258      15.3530    -999.2500      51.0389       0.9158    -999.2500    -999.2500    -999.2500       0.3769    -999.2500       2.2240      33.3298
   1197.1782      15.4090    -999.2500      52.1049       0.9073    -999.2500    -999.2500    -999.2500       0.3767    -999.2500       2.2200      33.3453
   1197.3306      15.5842    -999.2500      52.9850       0.8983    -999.2500    -999.2500    -999.2500       0.3775    -999.2500       2.2200      33.3062
   1197.4830      15.8782    -999.2500      53.6800       0.8888    -999.2500    -999.2500    -999.2500       0.3791    -999.2500       2.2240      33.2127
   1197.6354      15.9028    -999.2500      54.1331       0.8790    -999.2500    -999.2500    -999.2500       0.3805    -999.2500       2.2250      33.0571
   1197.7878      15.6588    -999.2500      54.3451       0.8690    -999.2500    -999.2500    -999.2500       0.3817    -999.2500       2.2230      32.8396
   1197.9402      15.4652    -999.2500      54.1384       0.8590    -999.2500    -999.2500    -999.2500       0.3838    -999.2500       2.2260      32.6376
   1198.0927      15.3217    -999.2500      53.5139       0.8490    -999.2500    -999.2500    -999.2500       0.3869    -999.2500       2.2340      32.4511
   1198.2450      15.2780    -999.2500      53.5522       0.8415    -999.2500    -999.2500    -999.2500       0.3849    -999.2500       2.2393      32.3893
   1198.3973      15.3340    -999.2500      54.2516       0.8365    -999.2500    -999.2500    -999.2500       0.3779    -999.2500       2.2418      32.4518
