#------------------------------------------------------------------------------
#
#   Created by  : [OpenWorks] Log Export Utility (LEXP)
#   Created on  : 2016-05-23 11:56:46
#   Project     : CANT971
#   User        : R5K
#   Interpreter : PEP
#
#------------------------------------------------------------------------------
~VERSION INFORMATION
VERS. 2.0 : CWLS Log ASCII Standard - version 2.0
WRAP.  NO : One line per depth step
~WELL INFORMATION
#MNEMONIC   .UNIT                                           VALUE :DESCRIPTION
#------------------------------------------------------------------------------
STRT        .M                                           170.6880 :START DEPTH
STOP        .M                                          2221.8396 :STOP DEPTH
STEP        .M                                             0.1524 :STEP
NULL        .                                           -999.2500 :NULL VALUE
COMP        .                                   PEMEX EXPL & PROD :COMPANY
WELL        .                                                  51 :WELL
FLD         .                                           CANTARELL :FIELD
LOC         .                                             UNKNOWN :LOCATION
CNTY        .                                      CD. DEL CARMEN :COUNTY
STAT        .                                            CAMPECHE :STATE
CTRY        .                                              MEXICO :COUNTRY
SRVC        .                                             UNKNOWN :SERVICE COMPANY
DATE        .                                             UNKNOWN :LOG DATE
UWI         .                                          3060000165 :UNIQUE WELL ID
XCOORD      .                                       599727.990000 :SURFACE X
YCOORD      .                                      2147220.270000 :SURFACE Y
LAT         .                                           19.417949 :LATITUDE
LON         .                                          -92.050116 :LONGITUDE
ELEV        .M                                            27.8000 :SURFACE ELEV
ELEV_TYPE   .                                                  KB :ELEV TYPE
~CURVE INFORMATION
#MNEMONIC.UNIT        API CODE       : CURVE DESCRIPTION
#------------------------------------------------------------------------------
DEPTH    .M                          : Measured Depth
CAL      .inches      UNKNOWN        : CAL:CAL-Load:rC:NONE:v0 (auto-composite)
DRHO     .UNKNOWN     UNKNOWN        : DRHO:DRHO-Load:rC:NONE:v0 (auto-composite)
DT       .us/ft       UNKNOWN        : DT:DT:rC:NONE:v0 (auto-composite)
GR       .UNKNOWN     UNKNOWN        : GR:GR-Load:rC:NONE:v0 (auto-composite)
ILD      .UNKNOWN     UNKNOWN        : ILD:ILD-Load:rC:NONE:v0 (auto-composite)
NPHI     .v/v_decimal UNKNOWN        : NPHI:NPHI:rC:NONE:v0 (auto-composite)
RHOB     .UNKNOWN     UNKNOWN        : RHOB:RHOB-Load:rC:NONE:v0 (auto-composite)
SN       .UNKNOWN     UNKNOWN        : SN:SN-Load:rC:NONE:v0 (auto-composite)
~A     DEPTH          CAL         DRHO           DT           GR          ILD         NPHI         RHOB           SN
# ...
    948.8424    -999.2500    -999.2500    -999.2500      31.5220       0.7430      42.2120    -999.2500       0.6700
    948.9948    -999.2500    -999.2500    -999.2500      31.2817       0.7410      42.6175    -999.2500       0.6745
    949.1472    -999.2500    -999.2500    -999.2500      31.0420       0.7390      43.0230    -999.2500       0.6790
    949.2996    -999.2500    -999.2500    -999.2500      30.9013       0.7360      42.4915    -999.2500       0.6820
    949.4520    -999.2500    -999.2500    -999.2500      30.7610       0.7330      41.9600    -999.2500       0.6850
    949.6044    -999.2500    -999.2500    -999.2500      30.6689       0.7310      41.5474    -999.2500       0.6810
    949.7568    -999.2500    -999.2500    -999.2500      30.5770       0.7290      41.1350    -999.2500       0.6770
    949.9092    -999.2500    -999.2500    -999.2500      30.3378       0.7120      41.4220    -999.2500       0.6640
    950.0616    -999.2500    -999.2500    -999.2500      30.0990       0.6950      41.7090    -999.2500       0.6510
    950.2140    -999.2500    -999.2500    -999.2500      29.9349       0.6850      42.1800    -999.2500       0.6380
    950.3664    -999.2500    -999.2500    -999.2500      29.7710       0.6750      42.6510    -999.2500       0.6250
    950.5188    -999.2500    -999.2500    -999.2500      29.9972       0.6705      43.1310    -999.2500       0.6250
    950.6712    -999.2500    -999.2500    -999.2500      30.2230       0.6660      43.6110    -999.2500       0.6250
    950.8236    -999.2500    -999.2500    -999.2500      30.3782       0.6685      43.4775    -999.2500       0.6305
    950.9760    -999.2500    -999.2500    -999.2500      30.5330       0.6710      43.3440    -999.2500       0.6360
    951.1284    -999.2500    -999.2500    -999.2500      30.6631       0.6820      42.9235    -999.2500       0.6435
    951.2808    -999.2500    -999.2500    -999.2500      30.7930       0.6930      42.5030    -999.2500       0.6510
    951.4332    -999.2500    -999.2500    -999.2500      30.7520       0.6995      42.2674    -999.2500       0.6470
    951.5856    -999.2500    -999.2500    -999.2500      30.7110       0.7060      42.0320    -999.2500       0.6430
    951.7380    -999.2500    -999.2500    -999.2500      30.7520       0.7070      41.7590    -999.2500       0.6495
    951.8904    -999.2500    -999.2500    -999.2500      30.7930       0.7080      41.4860    -999.2500       0.6560
    952.0428    -999.2500    -999.2500    -999.2500      31.1103       0.7090      41.5080    -999.2500       0.6635
    952.1952    -999.2500    -999.2500    -999.2500      31.4270       0.7100      41.5300    -999.2500       0.6710
    952.3476    -999.2500    -999.2500    -999.2500      31.2093       0.7145      41.7365    -999.2500       0.6685
    952.5000    -999.2500    -999.2500    -999.2500      30.9920       0.7190      41.9430    -999.2500       0.6660
    952.6524    -999.2500    -999.2500    -999.2500      30.5325       0.7155      42.4070    -999.2500       0.6610
    952.8048    -999.2500    -999.2500    -999.2500      30.0740       0.7120      42.8710    -999.2500       0.6560
    952.9572    -999.2500    -999.2500    -999.2500      30.0790       0.7055      43.5636    -999.2500       0.6590
    953.1096    -999.2500    -999.2500    -999.2500      30.0840       0.6990      44.2560    -999.2500       0.6620
    953.2620    -999.2500    -999.2500    -999.2500      30.3863       0.6930      44.2120    -999.2500       0.6600
    953.4144    -999.2500    -999.2500    -999.2500      30.6880       0.6870      44.1680    -999.2500       0.6580
    953.5668    -999.2500    -999.2500    -999.2500      30.7936       0.6825      43.3998    -999.2500       0.6515
    953.7192    -999.2500    -999.2500    -999.2500      30.8990       0.6780      42.6320    -999.2500       0.6450
    953.8716    -999.2500    -999.2500    -999.2500      31.1277       0.6805      41.7399    -999.2500       0.6365
    954.0240    -999.2500    -999.2500    -999.2500      31.3560       0.6830      40.8480    -999.2500       0.6280
    954.1764    -999.2500    -999.2500    -999.2500      31.5837       0.6880      40.1924    -999.2500       0.6280
    954.3288    -999.2500    -999.2500    -999.2500      31.8110       0.6930      39.5370    -999.2500       0.6280
    954.4812    -999.2500    -999.2500    -999.2500      32.0658       0.7030      39.6030    -999.2500       0.6330
    954.6336    -999.2500    -999.2500    -999.2500      32.3200       0.7130      39.6690    -999.2500       0.6380
    954.7860    -999.2500    -999.2500    -999.2500      32.1298       0.7165      40.0660    -999.2500       0.6490
    954.9384    -999.2500    -999.2500    -999.2500      31.9400       0.7200      40.4630    -999.2500       0.6600
    955.0908    -999.2500    -999.2500    -999.2500      31.9455       0.7130      40.6775    -999.2500       0.6740
    955.2432    -999.2500    -999.2500    -999.2500      31.9510       0.7060      40.8920    -999.2500       0.6880
    955.3956    -999.2500    -999.2500    -999.2500      31.6612       0.6985      40.8030    -999.2500       0.6850
    955.5480    -999.2500    -999.2500    -999.2500      31.3720       0.6910      40.7140    -999.2500       0.6820
    955.7004    -999.2500    -999.2500    -999.2500      31.1833       0.6975      41.0015    -999.2500       0.6675
    955.8528    -999.2500    -999.2500    -999.2500      30.9950       0.7040      41.2890    -999.2500       0.6530
    956.0052    -999.2500    -999.2500    -999.2500      31.0010       0.7155      41.4140    -999.2500       0.6565
    956.1576    -999.2500    -999.2500    -999.2500      31.0070       0.7270      41.5390    -999.2500       0.6600
    956.3100    -999.2500    -999.2500    -999.2500      31.3083       0.7425      41.1260    -999.2500       0.6790
    956.4624    -999.2500    -999.2500    -999.2500      31.6090       0.7580      40.7130    -999.2500       0.6980
    956.6148    -999.2500    -999.2500    -999.2500      32.3068       0.7770      40.7130    -999.2500       0.7125
    956.7672    -999.2500    -999.2500    -999.2500      33.0030       0.7960      40.7130    -999.2500       0.7270
    956.9196    -999.2500    -999.2500    -999.2500      33.3053       0.8160      41.0670    -999.2500       0.7430
    957.0720    -999.2500    -999.2500    -999.2500      33.6070       0.8360      41.4210    -999.2500       0.7590
    957.2244    -999.2500    -999.2500    -999.2500      33.3167       0.8350      41.6266    -999.2500       0.7635
    957.3768    -999.2500    -999.2500    -999.2500      33.0270       0.8340      41.8320    -999.2500       0.7680
    957.5292    -999.2500    -999.2500    -999.2500      32.2477       0.8235      41.3894    -999.2500       0.7540
    957.6816    -999.2500    -999.2500    -999.2500      31.4700       0.8130      40.9470    -999.2500       0.7400
    957.8340    -999.2500    -999.2500    -999.2500      31.4750       0.7955      40.9470    -999.2500       0.7230
    957.9864    -999.2500    -999.2500    -999.2500      31.4800       0.7780      40.9470    -999.2500       0.7060
    958.1388    -999.2500    -999.2500    -999.2500      31.7823       0.7670      41.2125    -999.2500       0.6930
    958.2912    -999.2500    -999.2500    -999.2500      32.0840       0.7560      41.4780    -999.2500       0.6800
    958.4436    -999.2500    -999.2500    -999.2500      32.4114       0.7455      41.8755    -999.2500       0.6750
    958.5960    -999.2500    -999.2500    -999.2500      32.7380       0.7350      42.2730    -999.2500       0.6700
    958.7484    -999.2500    -999.2500    -999.2500      32.9658       0.7350      42.8185    -999.2500       0.6640
    958.9008    -999.2500    -999.2500    -999.2500      33.1930       0.7350      43.3640    -999.2500       0.6580
    959.0532    -999.2500    -999.2500    -999.2500      33.3221       0.7400      43.3415    -999.2500       0.6560
    959.2056    -999.2500    -999.2500    -999.2500      33.4510       0.7450      43.3190    -999.2500       0.6540
