#------------------------------------------------------------------------------
#
#   Created by  : [OpenWorks] Log Export Utility (LEXP)
#   Created on  : 2016-05-23 11:57:09
#   Project     : CANT971
#   User        : R5K
#   Interpreter : PEP
#
#------------------------------------------------------------------------------
~VERSION INFORMATION
VERS. 2.0 : CWLS Log ASCII Standard - version 2.0
WRAP.  NO : One line per depth step
~WELL INFORMATION
#MNEMONIC   .UNIT                                           VALUE :DESCRIPTION
#------------------------------------------------------------------------------
STRT        .M                                           143.0270 :START DEPTH
STOP        .M                                          2096.0330 :STOP DEPTH
STEP        .M                                             0.1524 :STEP
NULL        .                                           -999.2500 :NULL VALUE
COMP        .                                   PEMEX EXPL & PROD :COMPANY
WELL        .                                                   7 :WELL
FLD         .                                           CANTARELL :FIELD
LOC         .                                             UNKNOWN :LOCATION
CNTY        .                                      CD. DEL CARMEN :COUNTY
STAT        .                                            CAMPECHE :STATE
CTRY        .                                              MEXICO :COUNTRY
SRVC        .                                             UNKNOWN :SERVICE COMPANY
DATE        .                                             UNKNOWN :LOG DATE
UWI         .                                            W-C-0007 :UNIQUE WELL ID
XCOORD      .                                       603360.340000 :SURFACE X
YCOORD      .                                      2145093.880000 :SURFACE Y
LAT         .                                           19.398550 :LATITUDE
LON         .                                          -92.015638 :LONGITUDE
ELEV        .M                                            27.1400 :SURFACE ELEV
ELEV_TYPE   .                                                  KB :ELEV TYPE
~CURVE INFORMATION
#MNEMONIC.UNIT        API CODE       : CURVE DESCRIPTION
#------------------------------------------------------------------------------
DEPTH    .M                          : Measured Depth
CAL      .inches      UNKNOWN        : CAL:UNKNOWN:rC:NONE:v0 (auto-composite)
DRHO     .g/cm3       UNKNOWN        : DRHO:UNKNOWN:rC:NONE:v0 (auto-composite)
DT       .us/ft       UNKNOWN        : DT:UNKNOWN:rC:NONE:v0 (auto-composite)
GR       .api         UNKNOWN        : GR:UNKNOWN:rC:NONE:v0 (auto-composite)
ILD      .ohmm        UNKNOWN        : ILD:UNKNOWN:rC:NONE:v0 (auto-composite)
NPHI     .v/v_decimal UNKNOWN        : NPHI:UNKNOWN:rC:NONE:v0 (auto-composite)
RHOB     .g/cm3       UNKNOWN        : RHOB:UNKNOWN:rC:NONE:v0 (auto-composite)
~A     DEPTH          CAL         DRHO           DT           GR          ILD         NPHI         RHOB
# ...
   1046.6066       0.0000       0.2500      40.0000       0.0000       0.9088      -0.1500       1.9500
   1046.7590       0.0000       0.2500      40.0000       0.0000       0.9145      -0.1500       1.9500
   1046.9114       0.0000       0.2500      40.0000       0.0000       0.9242      -0.1500       1.9500
   1047.0638       0.0000       0.2500      40.0000       0.0000       0.9346      -0.1500       1.9500
   1047.2162       0.0000       0.2500      40.0000       0.0000       0.9477      -0.1500       1.9500
   1047.3687       0.0000       0.2500      40.0000       0.0000       0.9598      -0.1500       1.9500
   1047.5210       0.0000       0.2500      40.0000       0.0000       0.9651      -0.1500       1.9500
   1047.6733       0.0000       0.2500      40.0000       0.0000       0.9702      -0.1500       1.9500
   1047.8258       0.0000       0.2500      40.0000       0.0000       0.9721      -0.1500       1.9500
   1047.9781       0.0000       0.2500      40.0000       0.0000       0.9741      -0.1500       1.9500
   1048.1306       0.0000       0.2500      40.0000       0.0000       0.9804      -0.1500       1.9500
   1048.2830       0.0000       0.2500      40.0000       0.0000       0.9867      -0.1500       1.9500
   1048.4354       0.0000       0.2500      40.0000       0.0000       0.9945      -0.1500       1.9500
   1048.5878       0.0000       0.2500      40.0000       0.0000       1.0022      -0.1500       1.9500
   1048.7402       0.0000       0.2500      40.0000       0.0000       1.0069      -0.1500       1.9500
   1048.8926       0.0000       0.2500      40.0000       0.0000       1.0113      -0.1500       1.9500
   1049.0450       0.0000       0.2500      40.0000       0.0000       1.0124      -0.1500       1.9500
   1049.1974       0.0000       0.2500      40.0000       0.0000       1.0129      -0.1500       1.9500
   1049.3499       0.0000       0.2500      40.0000       0.0000       1.0202      -0.1500       1.9500
   1049.5022       0.0000       0.2500      40.0000       0.0000       1.0294      -0.1500       1.9500
   1049.6545       0.0000       0.2500      40.0000       0.0000       1.0425      -0.1500       1.9500
   1049.8070       0.0000       0.2500      40.0000       0.0000       1.0570      -0.1500       1.9500
   1049.9594       0.0000       0.2500      40.0000       0.0000       1.0652      -0.1500       1.9500
   1050.1118       0.0000       0.2500      40.0000       0.0000       1.0700      -0.1500       1.9500
   1050.2642       0.0000       0.2500      40.0000       0.0000       1.0755      -0.1500       1.9500
   1050.4166       0.0000       0.2500      40.0000       0.0000       1.0813      -0.1500       1.9500
   1050.5690       0.0000       0.2500      40.0000       0.0000       1.0900      -0.1500       1.9500
   1050.7214       0.0000       0.2500      40.0000       0.0000       1.1012      -0.1500       1.9500
   1050.8738       0.0000       0.2500      40.0000       0.0000       1.1089      -0.1500       1.9500
   1051.0262       0.0000       0.2500      40.0000       0.0000       1.1127      -0.1500       1.9500
   1051.1786       0.0000       0.2500      40.0000       0.0000       1.1152      -0.1500       1.9500
   1051.3309       0.0000       0.2500      40.0000       0.0000       1.1157      -0.1500       1.9500
   1051.4834       0.0000       0.2500      40.0000       0.0000       1.1181      -0.1500       1.9500
   1051.6357       0.0000       0.2500      40.0000       0.0000       1.1239      -0.1500       1.9500
   1051.7882       0.0000       0.2500      40.0000       0.0000       1.1300      -0.1500       1.9500
   1051.9406       0.0000       0.2500      40.0000       0.0000       1.1368      -0.1500       1.9500
   1052.0930       0.0000       0.2500      40.0000       0.0000       1.1411      -0.1500       1.9500
   1052.2454       0.0000       0.2500      40.0000       0.0000       1.1372      -0.1500       1.9500
   1052.3978       0.0000       0.2500      40.0000       0.0000       1.1320      -0.1500       1.9500
   1052.5502       0.0000       0.2500      40.0000       0.0000       1.1209      -0.1500       1.9500
   1052.7026       0.0000       0.2500      40.0000       0.0000       1.1102      -0.1500       1.9500
   1052.8550       0.0000       0.2500      40.0000       0.0000       1.1034      -0.1500       1.9500
   1053.0074       0.0000       0.2500      40.0000       0.0000       1.0974      -0.1500       1.9500
   1053.1598       0.0000       0.2500      40.0000       0.0000       1.1057      -0.1500       1.9500
   1053.3121       0.0000       0.2500      40.0000       0.0000       1.1140      -0.1500       1.9500
   1053.4646       0.0000       0.2500      40.0000       0.0000       1.1299      -0.1500       1.9500
   1053.6169       0.0000       0.2500      40.0000       0.0000       1.1459      -0.1500       1.9500
   1053.7694       0.0000       0.2500      40.0000       0.0000       1.1547      -0.1500       1.9500
   1053.9218       0.0000       0.2500      40.0000       0.0000       1.1630      -0.1500       1.9500
   1054.0742       0.0000       0.2500      40.0000       0.0000       1.1691      -0.1500       1.9500
   1054.2266       0.0000       0.2500      40.0000       0.0000       1.1749      -0.1500       1.9500
   1054.3790       0.0000       0.2500      40.0000       0.0000       1.1618      -0.1500       1.9500
   1054.5314       0.0000       0.2500      40.0000       0.0000       1.1443      -0.1500       1.9500
   1054.6838       0.0000       0.2500      40.0000       0.0000       1.1272      -0.1500       1.9500
   1054.8362       0.0000       0.2500      40.0000       0.0000       1.1102      -0.1500       1.9500
   1054.9886       0.0000       0.2500      40.0000       0.0000       1.0983      -0.1500       1.9500
   1055.1410       0.0000       0.2500      40.0000       0.0000       1.0886      -0.1500       1.9500
   1055.2933       0.0000       0.2500      40.0000       0.0000       1.0829      -0.1500       1.9500
   1055.4458       0.0000       0.2500      40.0000       0.0000       1.0795      -0.1500       1.9500
   1055.5981       0.0000       0.2500      40.0000       0.0000       1.0780      -0.1500       1.9500
   1055.7506       0.0000       0.2500      40.0000       0.0000       1.0780      -0.1500       1.9500
   1055.9030       0.0000       0.2500      40.0000       0.0000       1.0780      -0.1500       1.9500
   1056.0554       0.0000       0.2500      40.0000       0.0000       1.0780      -0.1500       1.9500
   1056.2078       0.0000       0.2500      40.0000       0.0000       1.0782      -0.1500       1.9500
   1056.3602       0.0000       0.2500      40.0000       0.0000       1.0787      -0.1500       1.9500
   1056.5126       0.0000       0.2500      40.0000       0.0000       1.0790      -0.1500       1.9500
   1056.6650       0.0000       0.2500      40.0000       0.0000       1.0790      -0.1500       1.9500
   1056.8174       0.0000       0.2500      40.0000       0.0000       1.0792      -0.1500       1.9500
   1056.9698       0.0000       0.2500      40.0000       0.0000       1.0796      -0.1500       1.9500
   1057.1222       0.0000       0.2500      40.0000       0.0000       1.0800      -0.1500       1.9500
   1057.2745       0.0000       0.2500      40.0000       0.0000       1.0800      -0.1500       1.9500
   1057.4270       0.0000       0.2500      40.0000       0.0000       1.0800      -0.1500       1.9500
   1057.5793       0.0000       0.2500      40.0000       0.0000       1.0800      -0.1500       1.9500
   1057.7318       0.0000       0.2500      40.0000       0.0000       1.0800      -0.1500       1.9500
   1057.8842       0.0000       0.2500      40.0000       0.0000       1.0800      -0.1500       1.9500
   1058.0366       0.0000       0.2500      40.0000       0.0000       1.0794      -0.1500       1.9500
   1058.1890       0.0000       0.2500      40.0000       0.0000       1.0726      -0.1500       1.9500
