#------------------------------------------------------------------------------
#
#   Created by  : [OpenWorks] Log Export Utility (LEXP)
#   Created on  : 2016-05-23 11:55:49
#   Project     : CANT971
#   User        : R5K
#   Interpreter : PEP
#
#------------------------------------------------------------------------------
~VERSION INFORMATION
VERS. 2.0 : CWLS Log ASCII Standard - version 2.0
WRAP.  NO : One line per depth step
~WELL INFORMATION
#MNEMONIC   .UNIT                                           VALUE :DESCRIPTION
#------------------------------------------------------------------------------
STRT        .M                                           773.4315 :START DEPTH
STOP        .M                                          2865.1216 :STOP DEPTH
STEP        .M                                             0.1524 :STEP
NULL        .                                           -999.2500 :NULL VALUE
COMP        .                                             UNKNOWN :COMPANY
WELL        .                                                408D :WELL
FLD         .                                             UNKNOWN :FIELD
LOC         .                                             UNKNOWN :LOCATION
CNTY        .                                             UNKNOWN :COUNTY
STAT        .                                             UNKNOWN :STATE
CTRY        .                                             UNKNOWN :COUNTRY
SRVC        .                                             UNKNOWN :SERVICE COMPANY
DATE        .                                             UNKNOWN :LOG DATE
UWI         .                                                408D :UNIQUE WELL ID
XCOORD      .                                       597130.770000 :SURFACE X
YCOORD      .                                      2144867.260000 :SURFACE Y
LAT         .                                           19.396814 :LATITUDE
LON         .                                          -92.074972 :LONGITUDE
ELEV        .M                                             0.0000 :SURFACE ELEV
ELEV_TYPE   .                                                  KB :ELEV TYPE
~CURVE INFORMATION
#MNEMONIC.UNIT        API CODE       : CURVE DESCRIPTION
#------------------------------------------------------------------------------
DEPTH    .M                          : Measured Depth
CALI     .inches      UNKNOWN        : CALI:litodensidad:rC:NONE:v0 (auto-composite)
CGR      .API         UNKNOWN        : CGR:PETROWORKS:rC:NONE:v1 
DRHO     .g/cm3       UNKNOWN        : DRHO:litodensidad:rC:NONE:v0 (auto-composite)
DT       .us/ft       UNKNOWN        : DT:PETROWORKS:rC:NONE:v1 
GR       .API         UNKNOWN        : GR:PETROWORKS:rC:NONE:v3 
GR-LWD   .UNKNOWN     UNKNOWN        : GR-LWD:resistivos-LWD:rC:NONE:v0 (auto-composite)
LLD      .ohm.m       UNKNOWN        : LLD:PETROWORKS:rC:NONE:v1 
LLD-LWD  .UNKNOWN     UNKNOWN        : LLD-LWD:resistivos-LWD:rC:NONE:v0 (auto-composite)
LLS      .UNKNOWN     UNKNOWN        : LLS:PETROWORKS:rC:NONE:v1 
LLS-LWD  .UNKNOWN     UNKNOWN        : LLS-LWD:resistivos-LWD:rC:NONE:v0 (auto-composite)
MSFL     .UNKNOWN     UNKNOWN        : MSFL:PETROWORKS:rC:NONE:v1 
MSFL-LWD .UNKNOWN     UNKNOWN        : MSFL-LWD:resistivos-LWD:rC:NONE:v0 (auto-composite)
NPHI     .v/v_decimal UNKNOWN        : NPHI:PETROWORKS:rC:NONE:v3 
PEF      .UNKNOWN     UNKNOWN        : PEF:litodensidad:rC:NONE:v0 (auto-composite)
POTA     .wtpercent   UNKNOWN        : POTA:PETROWORKS:rC:NONE:v1 
RHOB     .g/cm3       UNKNOWN        : RHOB:litodensidad:rC:NONE:v0 (auto-composite)
THOR     .ppm         UNKNOWN        : THOR:PETROWORKS:rC:NONE:v1 
URAN     .ppm         UNKNOWN        : URAN:PETROWORKS:rC:NONE:v1 
~A     DEPTH         CALI          CGR         DRHO           DT           GR       GR-LWD          LLD      LLD-LWD          LLS      LLS-LWD         MSFL     MSFL-LWD         NPHI          PEF         POTA         RHOB         THOR         URAN
# ...
   1784.3007    -999.2500    -999.2500    -999.2500     114.8013      55.4566      55.6670       0.7300       0.7300       0.8400       0.8400       1.0400       1.0400    -999.2500    -999.2500    -999.2500    -999.2500    -999.2500    -999.2500
   1784.4531    -999.2500    -999.2500    -999.2500     115.2932      55.4075      55.4360       0.6723       0.6730       0.8706       0.8700       1.0693       1.0690    -999.2500    -999.2500    -999.2500    -999.2500    -999.2500    -999.2500
   1784.6055    -999.2500    -999.2500    -999.2500     111.8465      54.2009      54.0840       0.6343       0.6340       0.8950       0.8950       1.0872       1.0870    -999.2500    -999.2500    -999.2500    -999.2500    -999.2500    -999.2500
   1784.7579    -999.2500    -999.2500    -999.2500     115.5000      53.9210      53.9340       0.6896       0.6890       0.8834       0.8840       1.0680       1.0680    -999.2500    -999.2500    -999.2500    -999.2500    -999.2500    -999.2500
   1784.9103    -999.2500    -999.2500    -999.2500     118.0653      54.0492      54.0810       0.7325       0.7320       0.8367       0.8370       1.0164       1.0170    -999.2500    -999.2500    -999.2500    -999.2500    -999.2500    -999.2500
   1785.0627    -999.2500    -999.2500    -999.2500     119.3000      53.7998      53.8120       0.7200       0.7200       0.8012       0.8010       0.9772       0.9770    -999.2500    -999.2500    -999.2500    -999.2500    -999.2500    -999.2500
   1785.2151    -999.2500    -999.2500    -999.2500     119.9906      53.3370      53.3610       0.6877       0.6880       0.8130       0.8130       0.9942       0.9940    -999.2500    -999.2500    -999.2500    -999.2500    -999.2500    -999.2500
   1785.3676    -999.2500    -999.2500    -999.2500     117.1000      52.4929      52.4280       0.6716       0.6720       0.8418       0.8420       1.0327       1.0320    -999.2500    -999.2500    -999.2500    -999.2500    -999.2500    -999.2500
   1785.5199    -999.2500    -999.2500    -999.2500     115.6202      52.1544      52.1010       0.6610       0.6610       0.8615       0.8610       1.0555       1.0550    -999.2500    -999.2500    -999.2500    -999.2500    -999.2500    -999.2500
   1785.6724    -999.2500    -999.2500    -999.2500     114.7000      53.3643      53.3830       0.6659       0.6660       0.8675       0.8670       1.0521       1.0520    -999.2500    -999.2500    -999.2500    -999.2500    -999.2500    -999.2500
   1785.8247    -999.2500    -999.2500    -999.2500     113.9109      54.9639      54.9580       0.6999       0.7000       0.8575       0.8580       1.0332       1.0330    -999.2500    -999.2500    -999.2500    -999.2500    -999.2500    -999.2500
   1785.9772    -999.2500    -999.2500    -999.2500     115.0000      55.2993      55.4370       0.7304       0.7300       0.8423       0.8420       1.0084       1.0090    -999.2500    -999.2500    -999.2500    -999.2500    -999.2500    -999.2500
   1786.1295    -999.2500    -999.2500    -999.2500     115.3946      53.7047      53.7600       0.7609       0.7610       0.8293       0.8290       1.0055       1.0050    -999.2500    -999.2500    -999.2500    -999.2500    -999.2500    -999.2500
   1786.2819    -999.2500    -999.2500    -999.2500     117.4722      52.1112      51.9380       0.7832       0.7830       0.8377       0.8380       1.0289       1.0290    -999.2500    -999.2500    -999.2500    -999.2500    -999.2500    -999.2500
   1786.4343    -999.2500    -999.2500    -999.2500     118.3877      52.2962      52.2910       0.7631       0.7630       0.8728       0.8720       1.0736       1.0730    -999.2500    -999.2500    -999.2500    -999.2500    -999.2500    -999.2500
   1786.5867    -999.2500    -999.2500    -999.2500     116.4266      52.6954      52.8340       0.7500       0.7500       0.9207       0.9200       1.1167       1.1160    -999.2500    -999.2500    -999.2500    -999.2500    -999.2500    -999.2500
   1786.7391    -999.2500    -999.2500    -999.2500     116.1000      52.0112      52.0230       0.7490       0.7490       0.9460       0.9460       1.1360       1.1360    -999.2500    -999.2500    -999.2500    -999.2500    -999.2500    -999.2500
   1786.8915    -999.2500    -999.2500    -999.2500     113.4361      51.0819      50.8970       0.7544       0.7540       0.9361       0.9360       1.1284       1.1280    -999.2500    -999.2500    -999.2500    -999.2500    -999.2500    -999.2500
   1787.0439    -999.2500    -999.2500    -999.2500     111.0000      51.2864      51.2800       0.7484       0.7490       0.8979       0.8980       1.0918       1.0920    -999.2500    -999.2500    -999.2500    -999.2500    -999.2500    -999.2500
   1787.1963    -999.2500    -999.2500    -999.2500     112.3812      51.8164      51.9480       0.7231       0.7230       0.8608       0.8610       1.0509       1.0510    -999.2500    -999.2500    -999.2500    -999.2500    -999.2500    -999.2500
   1787.3488    -999.2500    -999.2500    -999.2500     110.0000      51.6017      51.6130       0.7137       0.7140       0.8388       0.8390       1.0338       1.0340    -999.2500    -999.2500    -999.2500    -999.2500    -999.2500    -999.2500
   1787.5011    -999.2500    -999.2500    -999.2500     110.1973      51.1244      51.1090       0.7350       0.7350       0.8475       0.8470       1.0475       1.0470    -999.2500    -999.2500    -999.2500    -999.2500    -999.2500    -999.2500
   1787.6536    -999.2500    -999.2500    -999.2500     109.4000      50.6681      50.6590       0.7966       0.7960       0.9079       0.9070       1.1079       1.1070    -999.2500    -999.2500    -999.2500    -999.2500    -999.2500    -999.2500
   1787.8059    -999.2500    -999.2500    -999.2500     110.1892      50.2514      50.3590       0.8619       0.8610       0.9826       0.9820       1.1854       1.1850    -999.2500    -999.2500    -999.2500    -999.2500    -999.2500    -999.2500
   1787.9584    -999.2500    -999.2500    -999.2500     110.7000      49.3078      49.2840       0.9012       0.9010       1.0410       1.0410       1.2500       1.2500    -999.2500    -999.2500    -999.2500    -999.2500    -999.2500    -999.2500
   1788.1107    -999.2500    -999.2500    -999.2500     111.2918      48.8679      48.6920       0.9163       0.9160       1.0663       1.0660       1.2763       1.2760    -999.2500    -999.2500    -999.2500    -999.2500    -999.2500    -999.2500
   1788.2631    -999.2500    -999.2500    -999.2500     108.7344      50.3946      50.3450       0.9338       0.9340       1.0838       1.0840       1.2938       1.2940    -999.2500    -999.2500    -999.2500    -999.2500    -999.2500    -999.2500
   1788.4155    -999.2500    -999.2500    -999.2500     112.2508      52.7962      52.8440       0.9356       0.9360       1.0819       1.0820       1.2886       1.2890    -999.2500    -999.2500    -999.2500    -999.2500    -999.2500    -999.2500
   1788.5679    -999.2500    -999.2500    -999.2500     108.6492      54.1206      54.2500       0.9131       0.9130       1.0463       1.0470       1.2471       1.2480    -999.2500    -999.2500    -999.2500    -999.2500    -999.2500    -999.2500
   1788.7203    -999.2500    -999.2500    -999.2500     107.1000      53.6098      53.6570       0.9075       0.9070       1.0290       1.0290       1.2295       1.2290    -999.2500    -999.2500    -999.2500    -999.2500    -999.2500    -999.2500
   1788.8727    -999.2500    -999.2500    -999.2500     104.4361      51.9062      51.8770       0.9284       0.9280       1.0423       1.0420       1.2466       1.2460    -999.2500    -999.2500    -999.2500    -999.2500    -999.2500    -999.2500
   1789.0251    -999.2500    -999.2500    -999.2500     103.0000      50.5086      50.4780       0.9506       0.9500       1.0688       1.0680       1.2719       1.2710    -999.2500    -999.2500    -999.2500    -999.2500    -999.2500    -999.2500
   1789.1775    -999.2500    -999.2500    -999.2500     103.3947      50.6950      50.6240       0.9658       0.9660       1.1030       1.1030       1.3158       1.3150    -999.2500    -999.2500    -999.2500    -999.2500    -999.2500    -999.2500
