#------------------------------------------------------------------------------
#
#   Created by  : [OpenWorks] Log Export Utility (LEXP)
#   Created on  : 2016-05-23 11:56:05
#   Project     : CANT971
#   User        : R5K
#   Interpreter : PEP
#
#------------------------------------------------------------------------------
~VERSION INFORMATION
VERS. 2.0 : CWLS Log ASCII Standard - version 2.0
WRAP.  NO : One line per depth step
~WELL INFORMATION
#MNEMONIC   .UNIT                                           VALUE :DESCRIPTION
#------------------------------------------------------------------------------
STRT        .M                                          1100.3549 :START DEPTH
STOP        .M                                          2766.5439 :STOP DEPTH
STEP        .M                                             0.1524 :STEP
NULL        .                                           -999.2500 :NULL VALUE
COMP        .                                   PEMEX EXPL & PROD :COMPANY
WELL        .                                                  43 :WELL
FLD         .                                           CANTARELL :FIELD
LOC         .                                             UNKNOWN :LOCATION
CNTY        .                                      CD. DEL CARMEN :COUNTY
STAT        .                                            CAMPECHE :STATE
CTRY        .                                              MEXICO :COUNTRY
SRVC        .                                             UNKNOWN :SERVICE COMPANY
DATE        .                                             UNKNOWN :LOG DATE
UWI         .                                          3060000465 :UNIQUE WELL ID
XCOORD      .                                       601717.960000 :SURFACE X
YCOORD      .                                      2142346.560000 :SURFACE Y
LAT         .                                           19.373808 :LATITUDE
LON         .                                          -92.031425 :LONGITUDE
ELEV        .M                                            24.0000 :SURFACE ELEV
ELEV_TYPE   .                                                  KB :ELEV TYPE
~CURVE INFORMATION
#MNEMONIC.UNIT        API CODE       : CURVE DESCRIPTION
#------------------------------------------------------------------------------
DEPTH    .M                          : Measured Depth
CAL      .inches      UNKNOWN        : CAL:UNKNOWN:rC:NONE:v0 (auto-composite)
CALI     .in          UNKNOWN        : CALI:UNKNOWN:rC:NONE:v0 (auto-composite)
CNL      .v/v_decimal UNKNOWN        : CNL:UNKNOWN:rC:NONE:v0 (auto-composite)
DT       .us/ft       UNKNOWN        : DT:DT:rC:NONE:v0 (auto-composite)
GR       .API         UNKNOWN        : GR:UNKNOWN:rC:NONE:v0 (auto-composite)
ILD      .ohmm        UNKNOWN        : ILD:UNKNOWN:rC:NONE:v0 (auto-composite)
ILM      .ohmm        UNKNOWN        : ILM:UNKNOWN:rC:NONE:v0 (auto-composite)
LLD      .ohmm        UNKNOWN        : LLD:UNKNOWN:rC:NONE:v0 (auto-composite)
LLS      .ohmm        UNKNOWN        : LLS:UNKNOWN:rC:NONE:v0 (auto-composite)
NPHI     .v/v_decimal UNKNOWN        : NPHI:UNKNOWN:rC:NONE:v0 (auto-composite)
PEF      .b/elec      UNKNOWN        : PEF:UNKNOWN:rC:NONE:v0 (auto-composite)
RHOB     .g/cm3       UNKNOWN        : RHOB:UNKNOWN:rC:NONE:v0 (auto-composite)
~A     DEPTH          CAL         CALI          CNL           DT           GR          ILD          ILM          LLD          LLS         NPHI          PEF         RHOB
# ...
   2124.4829       9.8681       9.7492       1.4351      47.2535      26.0413    -999.2500    -999.2500     750.0089     175.8925       3.4877       3.4436       2.8112
   2124.6353       9.8182       9.6650       2.7451      48.9671      30.6596    -999.2500    -999.2500     710.6227     168.7938       4.6459       3.6231       2.7842
   2124.7876       9.7315       9.5837       4.1856      51.0760      35.0222    -999.2500    -999.2500     706.5992     163.1716       5.7402       3.7614       2.7576
   2124.9399       9.5998       9.5157       5.5517      55.5237      38.2313    -999.2500    -999.2500     862.1330     164.2112       6.5458       3.7139       2.7337
   2125.0925       9.5155       9.4751       6.5021      59.3169      39.5895    -999.2500    -999.2500    1015.6487     167.7201       7.1033       3.6840       2.7168
   2125.2449       9.4618       9.5590       7.1830      59.2615      32.5477    -999.2500    -999.2500    1160.0059     182.4359       6.5345       3.7340       2.7323
   2125.3972       9.5866       9.6414       6.3478      58.4750      25.8696    -999.2500    -999.2500    1289.2798     198.2605       5.8221       3.8049       2.7494
   2125.5496       9.6955       9.7163       5.1322      53.3591      20.8697    -999.2500    -999.2500    1348.9440     219.2020       4.4472       3.9728       2.7739
   2125.7021       9.7582       9.7583       3.2394      48.9871      16.9449    -999.2500    -999.2500    1446.6805     241.8334       3.2326       4.0704       2.7937
   2125.8545       9.7701       9.6474       2.3854      48.9946      18.0110    -999.2500    -999.2500    1721.1660     272.3102       2.7618       3.8415       2.7922
   2126.0068       9.7534       9.5581       2.0325      49.0644      18.8749    -999.2500    -999.2500    1907.4073     294.4224       2.3655       3.6193       2.7926
   2126.1592       9.6297       9.5701       2.2002      49.5035      18.7949    -999.2500    -999.2500    1681.5420     277.4712       2.3176       3.4284       2.8016
   2126.3118       9.5634       9.6022       2.2933      49.9530      18.5782    -999.2500    -999.2500    1479.4379     260.2526       2.2536       3.2502       2.8115
   2126.4641       9.5817       9.7290       2.2769      50.4627      17.7190    -999.2500    -999.2500    1388.9645     241.7771       2.1143       3.1320       2.8255
   2126.6165       9.7323       9.8450       2.1458      50.9173      16.9023    -999.2500    -999.2500    1285.3812     224.0565       2.0000       3.0249       2.8358
   2126.7688       9.9051       9.9120       2.0000      51.0444      16.2801    -999.2500    -999.2500    1121.8483     209.7871       2.0000       2.9684       2.8293
   2126.9211       9.9459       9.9335       2.0000      51.3413      15.7416    -999.2500    -999.2500    1011.2334     198.3641       2.0000       2.9535       2.8209
   2127.0737       9.8754       9.7461       2.0000      52.6408      15.5882    -999.2500    -999.2500    1144.0286     200.0334       2.0000       3.1299       2.8034
   2127.2261       9.6858       9.6146       2.0000      53.8028      15.3728    -999.2500    -999.2500    1268.0245     203.0054       2.0023       3.3042       2.7892
   2127.3784       9.6231       9.7415       2.0000      54.1484      14.8710    -999.2500    -999.2500    1351.3071     212.0050       2.0153       3.4687       2.7902
   2127.5308       9.6317       9.8683       2.0041      54.4436      14.3057    -999.2500    -999.2500    1448.1296     221.7438       2.0485       3.6096       2.7928
   2127.6833       9.8280       9.9941       2.0242      54.4411      13.4442    -999.2500    -999.2500    1607.9735     234.9230       2.1759       3.6410       2.8028
   2127.8357       9.9770      10.0885       2.1402      54.4137      13.0330    -999.2500    -999.2500    1764.1377     249.9413       2.3176       3.6679       2.8109
   2127.9880      10.0892      10.0338       2.3310      54.2382      14.7533    -999.2500    -999.2500    1902.8804     273.6666       2.5277       3.6729       2.8104
   2128.1404      10.0205       9.9613       2.5449      53.6317      16.4967    -999.2500    -999.2500    2072.3286     296.6911       2.6939       3.6853       2.8092
   2128.2930       9.9122       9.8074       2.6853      50.4781      18.3459    -999.2500    -999.2500    2381.7251     316.5215       2.6599       3.7313       2.8047
   2128.4453       9.7421       9.7095       2.6328      47.7783      19.8634    -999.2500    -999.2500    2588.2798     335.2926       2.5128       3.7797       2.8006
   2128.5977       9.7298       9.8690       2.3394      47.7803      19.8599    -999.2500    -999.2500    2323.3542     349.2071       1.8471       3.8397       2.7981
   2128.7500       9.8060       9.9979       1.9110      47.9424      19.7566    -999.2500    -999.2500    2089.8096     355.3492       1.3000       3.8858       2.7972
   2128.9023       9.9243       9.9859       1.5384      49.0518      19.1933    -999.2500    -999.2500    2000.9822     325.6483       1.3000       3.8678       2.8042
   2129.0549       9.9934       9.9610       1.3000      49.9997      18.4638    -999.2500    -999.2500    1943.3317     301.1670       1.3000       3.8288       2.8120
   2129.2073       9.9751       9.8755       1.3000      49.9977      16.9550    -999.2500    -999.2500    2031.9109     301.1670       1.3000       3.6914       2.8235
   2129.3596       9.8792       9.7957       1.3000      49.7916      15.8213    -999.2500    -999.2500    2103.6902     301.3245       1.3050       3.5468       2.8329
   2129.5120       9.7599       9.7426       1.3027      48.3766      16.4575    -999.2500    -999.2500    2096.2000     302.2250       1.3336       3.3683       2.8324
   2129.6646       9.7209       9.7261       1.3375      47.3601      17.4918    -999.2500    -999.2500    2092.3296     305.5412       1.3519       3.2232       2.8317
   2129.8169       9.7541       9.8766       1.4332      48.6906      20.3341    -999.2500    -999.2500    2104.9036     319.8315       1.3234       3.2297       2.8302
   2129.9692       9.8797       9.9976       1.6070      49.8278      22.3701    -999.2500    -999.2500    2122.6875     334.4007       1.3000       3.2433       2.8294
   2130.1216       9.9512       9.9841       1.4756      49.8193      20.7221    -999.2500    -999.2500    2164.2778     350.2436       1.3000       3.2898       2.8314
   2130.2742       9.9967       9.9578       1.3000      49.7360      19.1737    -999.2500    -999.2500    2193.3962     364.2830       1.3000       3.3392       2.8328
   2130.4265       9.9760       9.8718       1.3000      49.2123      18.0876    -999.2500    -999.2500    2164.5586     369.9410       1.3000       3.4021       2.8318
   2130.5789       9.9010       9.7908       1.3000      48.5995      17.4298    -999.2500    -999.2500    2155.5842     377.6663       1.3000       3.4696       2.8298
   2130.7312       9.7754       9.7328       1.3000      47.4586      18.7738    -999.2500    -999.2500    2239.4626     395.0547       1.3000       3.5581       2.8228
   2130.8835       9.7199       9.6955       1.3000      46.4861      20.2025    -999.2500    -999.2500    2313.3657     408.5035       1.3117       3.6178       2.8155
   2131.0361       9.7063       9.7551       1.3239      46.5076      22.0300    -999.2500    -999.2500    2340.3589     403.4254       1.3784       3.5426       2.8070
   2131.1885       9.7966       9.8183       1.4251      46.7123      24.0073    -999.2500    -999.2500    2318.5715     396.8871       1.6329       3.4676       2.7976
   2131.3408       9.9271       9.8972       1.8738      48.0058      26.6626    -999.2500    -999.2500    2075.9146     383.7374       2.7381       3.3937       2.7841
   2131.4932      10.0850       9.9456       2.5577      49.6954      28.4050    -999.2500    -999.2500    1905.0376     374.3413       3.7510       3.3373       2.7723
   2131.6458      10.0163       9.8536       3.5115      53.7247      25.9445    -999.2500    -999.2500    2064.6482     382.2285       4.3392       3.3613       2.7683
