#------------------------------------------------------------------------------
#
#   Created by  : [OpenWorks] Log Export Utility (LEXP)
#   Created on  : 2016-05-23 11:51:57
#   Project     : CANT971
#   User        : R5K
#   Interpreter : PEP
#
#------------------------------------------------------------------------------
~VERSION INFORMATION
VERS. 2.0 : CWLS Log ASCII Standard - version 2.0
WRAP. YES : Mulitple lines per depth step
~WELL INFORMATION
#MNEMONIC   .UNIT                                           VALUE :DESCRIPTION
#------------------------------------------------------------------------------
STRT        .M                                           782.8787 :START DEPTH
STOP        .M                                          2966.0088 :STOP DEPTH
STEP        .M                                             0.1524 :STEP
NULL        .                                           -999.2500 :NULL VALUE
COMP        .                                   PEMEX EXPL & PROD :COMPANY
WELL        .                                                 178 :WELL
FLD         .                                           CANTARELL :FIELD
LOC         .                                             UNKNOWN :LOCATION
CNTY        .                                      CD. DEL CARMEN :COUNTY
STAT        .                                            CAMPECHE :STATE
CTRY        .                                              MEXICO :COUNTRY
SRVC        .                                             UNKNOWN :SERVICE COMPANY
DATE        .                                             UNKNOWN :LOG DATE
UWI         .                                          3060000702 :UNIQUE WELL ID
XCOORD      .                                       602144.590000 :SURFACE X
YCOORD      .                                      2147185.340000 :SURFACE Y
LAT         .                                           19.417512 :LATITUDE
LON         .                                          -92.027103 :LONGITUDE
ELEV        .M                                            28.1700 :SURFACE ELEV
ELEV_TYPE   .                                                  KB :ELEV TYPE
~CURVE INFORMATION
#MNEMONIC.UNIT        API CODE       : CURVE DESCRIPTION
#------------------------------------------------------------------------------
DEPTH    .M                          : Measured Depth
CALI     .inches      UNKNOWN        : CALI:registros:rC:NONE:v0 (auto-composite)
CGR      .API         UNKNOWN        : CGR:registros:rC:NONE:v0 (auto-composite)
DRHO     .g/cm3       UNKNOWN        : DRHO:registros:rC:NONE:v0 (auto-composite)
DT       .UNKNOWN     UNKNOWN        : DT:registros:rC:NONE:v0 (auto-composite)
GR       .API         UNKNOWN        : GR:registros:rC:NONE:v0 (auto-composite)
GR-LWD   .UNKNOWN     UNKNOWN        : GR-LWD:registros:rC:NONE:v0 (auto-composite)
ILD      .ohm.m       UNKNOWN        : ILD:registros:rC:NONE:v0 (auto-composite)
ILM      .ohm.m       UNKNOWN        : ILM:registros:rC:NONE:v0 (auto-composite)
LLD      .ohm.m       UNKNOWN        : LLD:registros:rC:NONE:v0 (auto-composite)
LLD-LWD  .UNKNOWN     UNKNOWN        : LLD-LWD:registros:rC:NONE:v0 (auto-composite)
LLS      .ohm.m       UNKNOWN        : LLS:registros:rC:NONE:v0 (auto-composite)
LLS-LWD  .UNKNOWN     UNKNOWN        : LLS-LWD:registros:rC:NONE:v0 (auto-composite)
MSFL     .ohm.m       UNKNOWN        : MSFL:registros:rC:NONE:v0 (auto-composite)
MSFL-LWD .UNKNOWN     UNKNOWN        : MSFL-LWD:registros:rC:NONE:v0 (auto-composite)
NPHI     .v/v_decimal UNKNOWN        : NPHI:registros:rC:NONE:v0 (auto-composite)
PEF      .b/elec      UNKNOWN        : PEF:registros:rC:NONE:v0 (auto-composite)
POTA     .wtpercent   UNKNOWN        : POTA:registros:rC:NONE:v0 (auto-composite)
RHOB     .g/cm3       UNKNOWN        : RHOB:registros:rC:NONE:v0 (auto-composite)
THOR     .ppm         UNKNOWN        : THOR:registros:rC:NONE:v0 (auto-composite)
URAN     .ppm         UNKNOWN        : URAN:registros:rC:NONE:v0 (auto-composite)
~A
# ...
   1852.4219
      11.2341       7.7485      -0.5210      56.2459      32.0919    -999.2500
    -999.2500    -999.2500     240.0859    -999.2500      52.3097    -999.2500
      23.2188    -999.2500       0.0724      15.0027       0.0025       1.8882
       1.0653       3.0721
   1852.5743
      11.2697       7.1826      -0.5276      56.2624      28.7682    -999.2500
    -999.2500    -999.2500     253.6003    -999.2500      55.2967    -999.2500
      41.1022    -999.2500       0.0706      15.2623       0.0023       1.8276
       1.1060       2.7906
   1852.7267
      11.2787       6.7569      -0.5346      56.2679      26.5600    -999.2500
    -999.2500    -999.2500     316.1470    -999.2500      69.5462    -999.2500
      67.2673    -999.2500       0.0694      15.3033       0.0021       1.7727
       1.1305       2.6119
   1852.8792
      11.2879       6.3442      -0.5397      56.2736      24.4662    -999.2500
    -999.2500    -999.2500     372.4201    -999.2500      82.4415    -999.2500
      88.1469    -999.2500       0.0686      15.3269       0.0019       1.7309
       1.1480       2.4423
   1853.0315
      11.2994       6.0981      -0.5237      56.2816      23.6420    -999.2500
    -999.2500    -999.2500     355.7290    -999.2500      79.5794    -999.2500
      48.2886    -999.2500       0.0680      15.1527       0.0019       1.8419
       1.0856       2.3834
   1853.1840
      11.3089       5.8488      -0.5098      56.2906      22.8359    -999.2500
    -999.2500    -999.2500     337.6334    -999.2500      76.2988    -999.2500
      12.4954    -999.2500       0.0674      14.9802       0.0018       1.9473
       1.0232       2.3302
   1853.3363
      11.2954       5.5728      -0.5193      56.3101      22.2420    -999.2500
    -999.2500    -999.2500     303.4018    -999.2500      68.2004    -999.2500
      23.3900    -999.2500       0.0667      14.8338       0.0019       1.9883
       0.9633       2.3457
   1853.4888
      11.2855       5.3875      -0.5286      56.3260      21.8526    -999.2500
    -999.2500    -999.2500     273.5967    -999.2500      61.0731    -999.2500
      32.8389    -999.2500       0.0666      14.7191       0.0019       2.0231
       0.9132       2.3658
   1853.6411
      11.3170       6.2508      -0.5366      56.3015      23.8671    -999.2500
    -999.2500    -999.2500     294.7644    -999.2500      65.1259    -999.2500
      25.6392    -999.2500       0.0677      14.9684       0.0022       1.9865
       0.9782       2.4372
   1853.7936
      11.3424       7.1492      -0.5436      56.2759      25.8390    -999.2500
    -999.2500    -999.2500     317.5540    -999.2500      69.5800    -999.2500
      19.5028    -999.2500       0.0692      15.1948       0.0025       1.9536
       1.0491       2.5003
   1853.9459
      11.2980       8.4074      -0.5381      56.2374      27.1642    -999.2500
    -999.2500    -999.2500     359.1288    -999.2500      78.6811    -999.2500
      25.5023    -999.2500       0.0703      15.1548       0.0029       1.9606
       1.1864       2.4663
   1854.0983
      11.2511       9.6289      -0.5325      56.2008      28.3708    -999.2500
    -999.2500    -999.2500     399.3211    -999.2500      87.3514    -999.2500
      30.6391    -999.2500       0.0717      15.1336       0.0033       1.9674
       1.3197       2.4293
   1854.2507
      11.1777      10.3994      -0.5260      56.1858      28.1537    -999.2500
    -999.2500    -999.2500     423.3907    -999.2500      91.0262    -999.2500
      25.9138    -999.2500       0.0737      15.3280       0.0038       1.9729
       1.4026       2.3584
   1854.4031
      11.1165      11.1593      -0.5200      56.1717      28.0609    -999.2500
    -999.2500    -999.2500     444.8342    -999.2500      94.2968    -999.2500
      21.7159    -999.2500       0.0758      15.4947       0.0042       1.9781
       1.4801       2.2966
   1854.5555
      11.1974      11.7848      -0.5205      56.1677      29.4128    -999.2500
    -999.2500    -999.2500     435.7992    -999.2500      92.8749    -999.2500
      23.5567    -999.2500       0.0774      15.3413       0.0044       1.9796
       1.4936       2.3410
   1854.7079
      11.2785      12.3188      -0.5208      56.1668      30.7407    -999.2500
    -999.2500    -999.2500     426.4109    -999.2500      91.5294    -999.2500
      25.5720    -999.2500       0.0774      15.1858       0.0046       1.9816
       1.4968       2.3960
   1854.8604
      11.3601      11.7932      -0.5188      56.2018      31.7618    -999.2500
    -999.2500    -999.2500     413.1414    -999.2500      91.0857    -999.2500
      29.5834    -999.2500       0.0749      15.0089       0.0044       1.9896
       1.3819       2.5704
   1855.0127
      11.4342      11.2126      -0.5181      56.2374      32.6485    -999.2500
    -999.2500    -999.2500     401.0378    -999.2500      90.6465    -999.2500
      32.5460    -999.2500       0.0722      14.8444       0.0042       1.9962
       1.2699       2.7441
   1855.1652
      11.4247      10.0101      -0.5316      56.2794      31.9201    -999.2500
    -999.2500    -999.2500     402.5690    -999.2500      90.2669    -999.2500
      23.4704    -999.2500       0.0709      14.8249       0.0038       1.9867
       1.1934       2.9080
   1855.3175
      11.4097       8.7996      -0.5440      56.3204      31.1877    -999.2500
    -999.2500    -999.2500     405.3452    -999.2500      90.0915    -999.2500
      15.9494    -999.2500       0.0715      14.8157       0.0035       1.9762
       1.1135       3.0762
   1855.4700
      11.3307       7.5213      -0.5440      56.3499      30.4492    -999.2500
    -999.2500    -999.2500     422.3792    -999.2500      92.2695    -999.2500
      26.3102    -999.2500       0.0742      14.9231       0.0031       1.9542
       0.9968       3.2889
   1855.6223
      11.2557       6.3343      -0.5439      56.3780      29.9382    -999.2500
    -999.2500    -999.2500     439.6344    -999.2500      94.4678    -999.2500
      34.7589    -999.2500       0.0773      15.0263       0.0027       1.9335
       0.8789       3.5000
   1855.7748
      11.2267       6.2254      -0.5424      56.3900      32.0964    -999.2500
    -999.2500    -999.2500     459.0452    -999.2500      96.8509    -999.2500
      21.1876    -999.2500       0.0796      15.0793       0.0027       1.9270
       0.7541       3.6852
   1855.9271
      11.2024       6.1265      -0.5413      56.4018      33.9903    -999.2500
    -999.2500    -999.2500     479.7615    -999.2500      99.3635    -999.2500
       9.9094    -999.2500       0.0813      15.1355       0.0026       1.9219
       0.6406       3.8477
   1856.0795
      11.2319       6.1455      -0.5453      56.4118      32.8519    -999.2500
    -999.2500    -999.2500     515.0190    -999.2500     103.3066    -999.2500
      24.8574    -999.2500       0.0826      15.2278       0.0027       1.9329
       0.6601       3.7444
   1856.2319
      11.2568       6.1478      -0.5493      56.4199      31.5895    -999.2500
    -999.2500    -999.2500     549.3030    -999.2500     107.3515    -999.2500
      52.9813    -999.2500       0.0830      15.3231       0.0027       1.9427
       0.6853       3.6246
   1856.3843
      11.2293       5.9591      -0.5533      56.4059      28.8770    -999.2500
    -999.2500    -999.2500     572.0895    -999.2500     112.5359    -999.2500
     232.8112    -999.2500       0.0825      15.4480       0.0025       1.9387
       0.7756       3.3226
   1856.5367
      11.1956       5.7639      -0.5559      56.3909      26.3150    -999.2500
    -999.2500    -999.2500     589.8443    -999.2500     117.0555    -999.2500
     391.4940    -999.2500       0.0828      15.5559       0.0023       1.9393
       0.8597       3.0401
   1856.6891
      11.0917       5.5024      -0.5419      56.3649      25.5895    -999.2500
    -999.2500    -999.2500     549.4339    -999.2500     113.8699    -999.2500
     307.9608    -999.2500       0.0851      15.4680       0.0022       1.9923
       0.8682       2.9917
