#------------------------------------------------------------------------------
#
#   Created by  : [OpenWorks] Log Export Utility (LEXP)
#   Created on  : 2016-05-12 17:01:16
#   Project     : CANT971
#   User        : R5K
#   Interpreter : PEP
#
#------------------------------------------------------------------------------
~VERSION INFORMATION
VERS. 2.0 : CWLS Log ASCII Standard - version 2.0
WRAP.  NO : One line per depth step
~WELL INFORMATION
#MNEMONIC   .UNIT                                           VALUE :DESCRIPTION
#------------------------------------------------------------------------------
STRT        .M                                          4907.2798 :START DEPTH
STOP        .M                                          5813.7549 :STOP DEPTH
STEP        .M                                             0.1524 :STEP
NULL        .                                           -999.2500 :NULL VALUE
COMP        .                                   PEMEX EXPL & PROD :COMPANY
WELL        .                                            3026D_ST :WELL
FLD         .                                           CANTARELL :FIELD
LOC         .                                             UNKNOWN :LOCATION
CNTY        .                                      CD. DEL CARMEN :COUNTY
STAT        .                                            CAMPECHE :STATE
CTRY        .                                              MEXICO :COUNTRY
SRVC        .                                             UNKNOWN :SERVICE COMPANY
DATE        .                                             UNKNOWN :LOG DATE
UWI         .                                      3060000820D_ST :UNIQUE WELL ID
XCOORD      .                                       601717.200000 :SURFACE X
YCOORD      .                                      2148573.570000 :SURFACE Y
LAT         .                                           19.430078 :LATITUDE
LON         .                                          -92.031099 :LONGITUDE
ELEV        .M                                            30.0000 :SURFACE ELEV
ELEV_TYPE   .                                                  KB :ELEV TYPE
~CURVE INFORMATION
#MNEMONIC.UNIT        API CODE       : CURVE DESCRIPTION
#------------------------------------------------------------------------------
DEPTH    .M                          : Measured Depth
CALI     .inches      UNKNOWN        : CALI:registros:rC:NONE:v0 (auto-composite)
CGR      .API         UNKNOWN        : CGR:registros:rC:NONE:v0 (auto-composite)
DRHO     .g/cm3       UNKNOWN        : DRHO:registros:rC:NONE:v0 (auto-composite)
DT       .us/ft       UNKNOWN        : DT:registros:rC:NONE:v0 (auto-composite)
GR       .API         UNKNOWN        : GR:registros:rC:NONE:v0 (auto-composite)
ILD      .ohm.m       UNKNOWN        : ILD:registros:rC:NONE:v0 (auto-composite)
ILM      .ohm.m       UNKNOWN        : ILM:registros:rC:NONE:v0 (auto-composite)
NPHI     .UNKNOWN     UNKNOWN        : NPHI:registros:rC:NONE:v0 (auto-composite)
PEF      .b/elec      UNKNOWN        : PEF:registros:rC:NONE:v0 (auto-composite)
POTA     .UNKNOWN     UNKNOWN        : POTA:registros:rC:NONE:v0 (auto-composite)
RHOB     .g/cm3       UNKNOWN        : RHOB:registros:rC:NONE:v0 (auto-composite)
THOR     .ppm         UNKNOWN        : THOR:registros:rC:NONE:v0 (auto-composite)
URAN     .ppm         UNKNOWN        : URAN:registros:rC:NONE:v0 (auto-composite)
~A     DEPTH         CALI          CGR         DRHO           DT           GR          ILD          ILM         NPHI          PEF         POTA         RHOB         THOR         URAN
# ...
   5095.0366       8.2075      85.6792       0.0017      72.0237     113.9956       3.1807       3.2088       0.2592       9.9220       0.0325       2.5914      12.0092       4.1271
   5095.1890       8.1455      84.9375       0.0052      75.8806     112.5526       3.1474       3.1766       0.2570       9.0549       0.0321       2.6287      11.9485       4.0249
   5095.3413       8.1176      90.6170      -0.0010      76.7576     121.2155       3.1389       3.1688       0.2667       7.8994       0.0363       2.6318      11.9120       4.4597
   5095.4937       8.1239      92.0870       0.0013      78.4197     123.7064       3.1811       3.2077       0.2875       7.0751       0.0368       2.6345      12.1298       4.6085
   5095.6460       8.1132      91.2417       0.0056      79.4068     122.9596       2.8643       2.8904       0.2896       6.6078       0.0364       2.6393      12.0485       4.6229
   5095.7988       8.1211      88.8791       0.0065      80.3938     119.7345       2.7897       2.8145       0.2880       6.1525       0.0352       2.6423      11.8290       4.4972
   5095.9512       8.1520      87.7840       0.0074      78.4933     118.2320       2.6544       2.6798       0.2747       5.8537       0.0348       2.6453      11.6903       4.4378
   5096.1035       8.1808      86.0176       0.0055      78.1791     115.6621       2.6127       2.6391       0.2850       5.6486       0.0340       2.6493      11.4906       4.3207
   5096.2559       8.1484      85.4192       0.0072      80.3455     114.8601       2.5931       2.6167       0.2776       5.9095       0.0335       2.6585      11.5031       4.2910
   5096.4082       8.1642      85.5919       0.0067      83.2993     115.0663       2.6042       2.6226       0.2800       6.2525       0.0332       2.6642      11.7020       4.2959
   5096.5605       8.1436      84.9902       0.0019      81.1662     114.2654       2.6628       2.6759       0.2669       6.3094       0.0324       2.6642      11.8477       4.2669
   5096.7129       8.0578      85.0603       0.0036      81.5538     114.8924       2.6810       2.6868       0.2679       5.9269       0.0319       2.6713      12.0846       4.3480
   5096.8652       8.0056      86.5945       0.0036      80.8803     117.7222       2.5259       2.5263       0.2553       5.7853       0.0320       2.6714      12.5279       4.5369
   5097.0176       7.9721      88.2548       0.0033      80.8333     119.7784       2.4350       2.4328       0.2593       5.9489       0.0321       2.6752      12.9597       4.5946
   5097.1704       7.9345      85.3075       0.0026      80.7863     115.0034       2.3629       2.3565       0.2611       6.5039       0.0310       2.6741      12.5413       4.3282
   5097.3228       7.8944      85.0737       0.0019      81.2448     113.9673       2.3504       2.3410       0.2676       6.0368       0.0314       2.6731      12.2964       4.2112
   5097.4751       7.9032      85.7284       0.0026      82.5021     114.2695       2.4619       2.4484       0.2713       5.7795       0.0319       2.6779      12.3003       4.1599
   5097.6274       7.8720      85.0046      -0.0002      83.8542     112.4355       2.5947       2.5786       0.2700       5.3610       0.0317       2.6784      12.1779       3.9981
   5097.7798       7.8268      88.7123       0.0008      81.6849     117.6262       2.5084       2.4913       0.2689       5.7404       0.0333       2.6865      12.5896       4.2142
   5097.9321       7.7549      89.6953       0.0016      81.7322     118.9585       2.3926       2.3765       0.2665       5.4641       0.0337       2.6872      12.7298       4.2651
   5098.0845       7.7343      88.9806      -0.0007      81.1418     117.4607       2.3289       2.3118       0.2650       5.7489       0.0333       2.6674      12.6942       4.1510
   5098.2368       7.7306      92.7769       0.0002      82.2366     122.5058       2.2903       2.2684       0.2733       5.3003       0.0339       2.6740      13.5445       4.3330
   5098.3892       7.7044      90.0260      -0.0016      82.5446     118.9466       2.2225       2.1945       0.2652       5.2526       0.0331       2.6634      13.0928       4.2152
   5098.5420       7.6443      91.9139      -0.0029      82.8526     121.9432       2.2403       2.2115       0.2651       5.0046       0.0339       2.6655      13.2870       4.3768
   5098.6943       7.6188      89.8470      -0.0042      82.9688     118.6970       2.2411       2.2135       0.2582       4.9950       0.0335       2.6677      12.8466       4.2049
   5098.8467       7.6188      92.0117      -0.0039      83.9475     121.1763       2.2099       2.1810       0.2605       4.9010       0.0346       2.6688      13.0450       4.2508
   5098.9990       7.6147      89.5844      -0.0052      86.3516     116.5487       2.1954       2.1654       0.2534       4.6469       0.0339       2.6692      12.6015       3.9300
   5099.1514       7.6012      91.8881      -0.0092      85.6048     119.2710       2.2127       2.1827       0.2563       4.4476       0.0349       2.6520      12.8907       3.9911
   5099.3037       7.5825      91.4613      -0.0107      86.5243     118.6217       2.2248       2.1964       0.2526       4.3362       0.0347       2.6489      12.8233       3.9586
   5099.4561       7.5902      91.6214      -0.0102      84.4514     117.9134       2.2790       2.2519       0.2512       4.3447       0.0348       2.6582      12.8519       3.8321
   5099.6084       7.6079      90.6780      -0.0057      85.0144     116.7062       2.3631       2.3365       0.2428       4.8926       0.0346       2.6620      12.6546       3.7936
   5099.7607       7.6025      92.5653      -0.0037      85.5774     119.3485       2.3429       2.3198       0.2423       5.0830       0.0355       2.6680      12.8097       3.9037
   5099.9136       7.6149      91.4624      -0.0016      85.1855     117.2948       2.2953       2.2771       0.2456       5.4014       0.0351       2.6740      12.6432       3.7651
   5100.0659       7.5742      92.7547       0.0005      83.0292     117.8048       2.2081       2.1935       0.2530       5.3361       0.0356       2.6724      12.8477       3.6511
   5100.2183       7.5701      93.6733       0.0065      84.7257     119.2161       2.1279       2.1203       0.2574       6.0101       0.0360       2.6907      12.9409       3.7229
   5100.3706       7.5733      94.9885       0.0082      83.1303     119.9713       2.0726       2.0705       0.2646       5.7201       0.0364       2.6855      13.1493       3.6412
   5100.5229       7.5811      96.6080       0.0002      85.0401     122.5307       1.9882       1.9907       0.2728       5.2037       0.0368       2.6690      13.4708       3.7782
   5100.6753       7.5661      94.4781       0.0026      84.6997     119.6168       2.1035       2.1109       0.2695       4.6508       0.0359       2.6759      13.2162       3.6640
   5100.8276       7.5032      94.5040       0.0014      84.8396     119.8561       2.1303       2.1467       0.2706       4.3855       0.0357       2.6764      13.3144       3.6951
   5100.9800       7.4787      95.4462      -0.0008      84.7850     120.8843       2.1612       2.1851       0.2593       4.5170       0.0358       2.6840      13.5512       3.7076
   5101.1328       7.4695      92.1552       0.0011      84.7305     116.2312       2.2532       2.2795       0.2655       4.8397       0.0346       2.6891      13.0736       3.5091
   5101.2852       7.4611      92.2152       0.0029      84.6812     115.7773       2.2052       2.2386       0.2642       5.1211       0.0346       2.6943      13.1064       3.4342
   5101.4375       7.4422      93.5856       0.0049      84.6101     118.7465       2.2205       2.2576       0.2721       5.1774       0.0353       2.6998      13.2323       3.6672
   5101.5898       7.4059      88.4917      -0.0009      82.2957     108.8778       2.5041       2.5563       0.2633       4.7092       0.0335       2.6822      12.4516       2.9713
