#------------------------------------------------------------------------------
#
#   Created by  : [OpenWorks] Log Export Utility (LEXP)
#   Created on  : 2016-05-23 11:57:25
#   Project     : CANT971
#   User        : R5K
#   Interpreter : PEP
#
#------------------------------------------------------------------------------
~VERSION INFORMATION
VERS. 2.0 : CWLS Log ASCII Standard - version 2.0
WRAP.  NO : One line per depth step
~WELL INFORMATION
#MNEMONIC   .UNIT                                           VALUE :DESCRIPTION
#------------------------------------------------------------------------------
STRT        .M                                           497.5860 :START DEPTH
STOP        .M                                          2904.1343 :STOP DEPTH
STEP        .M                                             0.1524 :STEP
NULL        .                                           -999.2500 :NULL VALUE
COMP        .                                   PEMEX EXPL & PROD :COMPANY
WELL        .                                                 82A :WELL
FLD         .                                           CANTARELL :FIELD
LOC         .                                             UNKNOWN :LOCATION
CNTY        .                                      CD. DEL CARMEN :COUNTY
STAT        .                                            CAMPECHE :STATE
CTRY        .                                              MEXICO :COUNTRY
SRVC        .                                             UNKNOWN :SERVICE COMPANY
DATE        .                                             UNKNOWN :LOG DATE
UWI         .                                          3060000184 :UNIQUE WELL ID
XCOORD      .                                       601716.340000 :SURFACE X
YCOORD      .                                      2142348.150000 :SURFACE Y
LAT         .                                           19.373822 :LATITUDE
LON         .                                          -92.031440 :LONGITUDE
ELEV        .M                                            24.0000 :SURFACE ELEV
ELEV_TYPE   .                                                  KB :ELEV TYPE
~CURVE INFORMATION
#MNEMONIC.UNIT        API CODE       : CURVE DESCRIPTION
#------------------------------------------------------------------------------
DEPTH    .M                          : Measured Depth
CAL      .inches      UNKNOWN        : CAL:UNKNOWN:rC:NONE:v0 (auto-composite)
DRHO     .g/cm3       UNKNOWN        : DRHO:UNKNOWN:rC:NONE:v0 (auto-composite)
DT       .us/ft       UNKNOWN        : DT:DT:rC:NONE:v0 (auto-composite)
GR       .api         UNKNOWN        : GR:GR-Load:rC:NONE:v0 (auto-composite)
ILD      .ohm.m       UNKNOWN        : ILD:PETROWORKS:rC:NONE:v1 
LLD      .ohmm        UNKNOWN        : LLD:UNKNOWN:rC:NONE:v0 (auto-composite)
LLS      .ohmm        UNKNOWN        : LLS:UNKNOWN:rC:NONE:v0 (auto-composite)
MSFL     .ohmm        UNKNOWN        : MSFL:PETROWORKS:rC:NONE:v1 
NPHI     .v/v_decimal UNKNOWN        : NPHI:NPHI:rC:NONE:v0 (auto-composite)
PEF      .b/elec      UNKNOWN        : PEF:UNKNOWN:rC:NONE:v0 (auto-composite)
RG       .API         UNKNOWN        : RG:UNKNOWN:rC:NONE:v0 (auto-composite)
RHOB     .g/cm3       UNKNOWN        : RHOB:UNKNOWN:rC:NONE:v0 (auto-composite)
~A     DEPTH          CAL         DRHO           DT           GR          ILD          LLD          LLS         MSFL         NPHI          PEF           RG         RHOB
# ...
   2326.3860       8.9328       0.0172    -999.2500      39.6267    -999.2500      57.1891    7612.7158     995.4100       4.6182       3.1320      47.4416       2.7305
   2326.5383       8.9457       0.0222    -999.2500      41.1478    -999.2500      56.0254    6856.5239     612.9120       4.6215       3.0905      43.8075       2.7373
   2326.6909       8.9542       0.0197    -999.2500      42.7029    -999.2500      55.0289    6252.1660     358.4096       4.3529       3.1454      40.7678       2.7413
   2326.8433       8.9657       0.0185    -999.2500      42.2683    -999.2500      53.7263    5650.6475     141.8140       4.0190       3.2180      38.8989       2.7396
   2326.9956       8.9837       0.0200    -999.2500      41.5926    -999.2500      51.7636    5055.2539     143.7948       3.5797       3.3284      39.5551       2.7256
   2327.1479       9.0233       0.0314    -999.2500      39.8573    -999.2500      50.7965    4661.2476     197.4567       3.4664       3.3448      40.2104       2.7128
   2327.3003       9.1097       0.0644    -999.2500      37.9946    -999.2500      51.9850    4703.3345     506.5370       3.8816       3.1576      40.8635       2.7029
   2327.4529       9.1923       0.0942    -999.2500      39.1030    -999.2500      52.7864    4747.5679     872.4855       4.2967       3.0190      41.2368       2.6980
   2327.6052       9.2668       0.1172    -999.2500      40.5721    -999.2500      52.7400    4796.5029    1482.0593       4.7119       2.9870      40.9969       2.7045
   2327.7576       9.3094       0.1344    -999.2500      39.8198    -999.2500      52.0826    4560.3164    1950.7975       4.9680       2.9766      40.7484       2.7152
   2327.9099       9.2819       0.1389    -999.2500      38.7999    -999.2500      50.0820    3697.1028    1655.9357       4.9680       3.0135      40.4810       2.7352
   2328.0625       9.2431       0.1309    -999.2500      37.0379    -999.2500      49.1996    3200.7278    1307.1132       4.9868       3.0174      40.1273       2.7426
   2328.2148       9.1792       0.0955    -999.2500      35.1872    -999.2500      50.7861    3514.3396     729.0504       5.0358       2.9479      39.5830       2.7221
   2328.3672       9.1316       0.0637    -999.2500      33.4235    -999.2500      52.1505    4187.5479     281.0342       5.1481       2.9119      38.7149       2.6950
   2328.5195       9.1206       0.0402    -999.2500      31.6704    -999.2500      53.0186    5663.9502     534.8162       5.3617       2.9504      37.1236       2.6530
   2328.6721       9.1113       0.0308    -999.2500      29.0989    -999.2500      53.6381    6692.9561     819.3986       5.1213       3.0023      36.2416       2.6331
   2328.8245       9.1058       0.0528    -999.2500      26.4294    -999.2500      53.7001    6718.6055    1223.8361       4.1564       3.0842      36.9502       2.6626
   2328.9768       9.1135       0.0691    -999.2500      25.3499    -999.2500      54.0724    6628.3418    1525.0630       3.2719       3.1730      37.1293       2.6836
   2329.1292       9.1510       0.0726    -999.2500      24.4593    -999.2500      55.1434    6277.0684    1279.6565       2.5151       3.2769      36.1157       2.6856
   2329.2815       9.2010       0.0868    -999.2500      23.0414    -999.2500      55.4217    5985.3989    1014.5798       1.9990       3.3047      34.3286       2.6905
   2329.4341       9.2794       0.1252    -999.2500      21.5604    -999.2500      53.9075    5828.4888     683.2428       1.8644       3.1604      30.7925       2.7020
   2329.5864       9.3606       0.1449    -999.2500      22.1084    -999.2500      52.7645    5575.0181     469.7647       1.7820       3.0138      27.4788       2.7136
   2329.7388       9.4481       0.1214    -999.2500      22.8977    -999.2500      52.4701    5100.6787     860.8884       1.7820       2.8618      24.6740       2.7256
   2329.8911       9.5360       0.0947    -999.2500      23.1455    -999.2500      52.8293    4665.1870    1242.9824       1.8319       2.7621      22.5520       2.7340
   2330.0437       9.6249       0.0607    -999.2500      23.3294    -999.2500      54.6895    4318.9160    1536.5968       1.9605       2.7821      21.9983       2.7340
   2330.1960       9.7284       0.0385    -999.2500      24.0700    -999.2500      55.4937    4149.3760    1803.6848       2.0437       2.8165      21.7419       2.7369
   2330.3484       9.8652       0.0435    -999.2500      24.8767    -999.2500      53.8627    4387.3999    1910.3953       2.0557       2.8845      22.1714       2.7464
   2330.5007       9.9327       0.0466    -999.2500      27.0014    -999.2500      52.8645    4420.6089    1974.9882       2.1486       2.9339      22.8705       2.7502
   2330.6533       9.8382       0.0451    -999.2500      29.2817    -999.2500      53.3428    3975.9231    1827.1780       2.3682       2.9404      24.1990       2.7407
   2330.8057       9.7411       0.0431    -999.2500      31.2862    -999.2500      54.2602    3680.7766    1639.0302       2.5641       2.9206      25.9258       2.7336
   2330.9580       9.6376       0.0401    -999.2500      33.2584    -999.2500      56.2063    3735.9902    1276.8550       2.7232       2.8392      28.5862       2.7321
   2331.1104       9.5584       0.0349    -999.2500      32.6829    -999.2500      57.7303    5351.3745    1016.5690       2.9204       2.7757      31.0073       2.7289
   2331.2627       9.5365       0.0244    -999.2500      31.8061    -999.2500      58.2611   10637.2305    1278.3629       3.1770       2.7547      32.8655       2.7219
   2331.4153       9.5180       0.0152    -999.2500      30.5345    -999.2500      57.6324   13279.6475    1501.8333       3.3544       2.7598      34.0566       2.7167
   2331.5676       9.5080       0.0092    -999.2500      29.2165    -999.2500      54.2645    9677.3438    1515.3110       3.4089       2.8262      33.6721       2.7157
   2331.7200       9.4386       0.0056    -999.2500      30.9927    -999.2500      51.8614    6574.8296    1558.3552       3.5667       2.8860      32.9921       2.7129
   2331.8723       9.2272       0.0076    -999.2500      33.1293    -999.2500      51.7644    4667.0386    1738.3519       3.8843       2.9300      31.6057       2.7059
   2332.0249       9.0836       0.0108    -999.2500      35.7042    -999.2500      52.4759    3406.1904    1871.9390       4.0363       2.9616      31.1642       2.7000
   2332.1772       9.1026       0.0168    -999.2500      38.3307    -999.2500      55.1277    3698.2737    1768.5248       3.9327       2.9636      32.9909       2.6965
   2332.3296       9.1292       0.0223    -999.2500      37.9264    -999.2500      57.1732    4030.1440    1617.6780       3.7304       2.9694      35.3921       2.6940
   2332.4819       9.1741       0.0268    -999.2500      37.1686    -999.2500      57.7570    4457.9189    1257.9321       3.3763       2.9844      39.1779       2.6940
   2332.6343       9.2059       0.0312    -999.2500      34.4350    -999.2500      57.9910    4688.4629     900.4045       2.9860       2.9946      41.9017       2.6949
   2332.7869       9.2054       0.0352    -999.2500      31.4727    -999.2500      57.3717    4437.8926     593.6927       2.5404       2.9931      42.0346       2.6979
   2332.9392       9.1954       0.0438    -999.2500      29.3724    -999.2500      56.2538    4308.9902     346.6556       2.1237       2.9730      40.9369       2.7061
   2333.0916       9.1625       0.0638    -999.2500      27.3726    -999.2500      53.9143    4478.1245     409.6322       1.7514       2.9075      36.8247       2.7271
   2333.2439       9.1261       0.0735    -999.2500      25.7185    -999.2500      52.2805    4601.3442     502.3579       1.5187       2.8561      33.0612       2.7458
   2333.3965       9.0817       0.0580    -999.2500      24.1044    -999.2500      52.3824    4611.6172     724.9125       1.5002       2.8391      30.1554       2.7587
   2333.5488       9.0487       0.0420    -999.2500      23.9994    -999.2500      53.4246    4856.7104    1001.7610       1.5060       2.8774      27.7780       2.7706
