#------------------------------------------------------------------------------
#
#   Created by  : [OpenWorks] Log Export Utility (LEXP)
#   Created on  : 2016-05-23 11:50:53
#   Project     : CANT971
#   User        : R5K
#   Interpreter : PEP
#
#------------------------------------------------------------------------------
~VERSION INFORMATION
VERS. 2.0 : CWLS Log ASCII Standard - version 2.0
WRAP.  NO : One line per depth step
~WELL INFORMATION
#MNEMONIC   .UNIT                                           VALUE :DESCRIPTION
#------------------------------------------------------------------------------
STRT        .M                                           494.4622 :START DEPTH
STOP        .M                                          2707.4626 :STOP DEPTH
STEP        .M                                             0.1524 :STEP
NULL        .                                           -999.2500 :NULL VALUE
COMP        .                                   PEMEX EXPL & PROD :COMPANY
WELL        .                                                1042 :WELL
FLD         .                                           CANTARELL :FIELD
LOC         .                                             UNKNOWN :LOCATION
CNTY        .                                      CD. DEL CARMEN :COUNTY
STAT        .                                            CAMPECHE :STATE
CTRY        .                                              MEXICO :COUNTRY
SRVC        .                                             UNKNOWN :SERVICE COMPANY
DATE        .                                             UNKNOWN :LOG DATE
UWI         .                                          3060000495 :UNIQUE WELL ID
XCOORD      .                                       596162.680000 :SURFACE X
YCOORD      .                                      2150604.600000 :SURFACE Y
LAT         .                                           19.448706 :LATITUDE
LON         .                                          -92.083900 :LONGITUDE
ELEV        .M                                            30.0000 :SURFACE ELEV
ELEV_TYPE   .                                                  KB :ELEV TYPE
~CURVE INFORMATION
#MNEMONIC.UNIT        API CODE       : CURVE DESCRIPTION
#------------------------------------------------------------------------------
DEPTH    .M                          : Measured Depth
CALI     .inches      UNKNOWN        : CALI:litodensidad:rC:NONE:v0 (auto-composite)
DT       .us/ft       UNKNOWN        : DT:DT:rC:NONE:v0 (auto-composite)
GR       .API         UNKNOWN        : GR:GR-Load:rC:NONE:v0 (auto-composite)
ILD      .ohmm        UNKNOWN        : ILD:UNKNOWN:rC:NONE:v0 (auto-composite)
LLD      .ohmm        UNKNOWN        : LLD:UNKNOWN:rC:NONE:v0 (auto-composite)
LLS      .ohmm        UNKNOWN        : LLS:UNKNOWN:rC:NONE:v0 (auto-composite)
MSFL     .ohmm        UNKNOWN        : MSFL:UNKNOWN:rC:NONE:v0 (auto-composite)
NPHI     .v/v_decimal UNKNOWN        : NPHI:NPHI:rC:NONE:v0 (auto-composite)
~A     DEPTH         CALI           DT           GR          ILD          LLD          LLS         MSFL         NPHI
# ...
   2471.3950       7.6857    -999.2500      29.8766       0.2000     311.0009      64.1667      15.0117       0.0956
   2471.5474       7.6832    -999.2500      30.1307       0.2000     311.3740      64.1231      36.0635       0.0808
   2471.7000       7.6694    -999.2500      29.8661       0.2000     311.7641      64.0888      58.0152       0.0712
   2471.8523       7.6444    -999.2500      29.0809       0.2000     312.2079      64.0838      82.7970       0.0667
   2472.0046       7.6411    -999.2500      29.2363       0.2000     312.5155      64.0743      94.7082       0.0669
   2472.1570       7.6590    -999.2500      30.3387       0.2000     312.4032      64.0513      66.9938       0.0718
   2472.3096       7.6821    -999.2500      30.5787       0.2000     312.3478      64.0389      45.7118       0.0775
   2472.4619       7.7101    -999.2500      29.9530       0.2000     312.4626      64.0585      43.6531       0.0840
   2472.6143       7.7180    -999.2500      26.5698       0.2000     312.5178      64.0765      38.3401       0.0860
   2472.7666       7.7060    -999.2500      20.4264       0.2000     312.4000      64.0900      23.5822       0.0836
   2472.9189       7.7008    -999.2500      17.5671       0.2000     312.3992      64.0898      13.6759       0.0780
   2473.0715       7.7023    -999.2500      18.0063       0.2000     312.7286      64.0507      17.4494       0.0694
   2473.2239       7.6960    -999.2500      18.5012       0.2000     312.9374      64.0205      19.5503       0.0674
   2473.3762       7.6820    -999.2500      19.0519       0.2000     312.8156      64.0150      17.0680       0.0722
   2473.5286       7.6629    -999.2500      18.9014       0.2000     312.6767      64.0155      14.3197       0.0767
   2473.6812       7.6389    -999.2500      18.0461       0.2000     312.4923      64.0320      10.8628       0.0809
   2473.8335       7.6454    -999.2500      17.0044       0.2000     312.3407      64.0476       8.6607       0.0853
   2473.9858       7.6819    -999.2500      15.7759       0.2000     312.2745      64.0606       9.7362       0.0898
   2474.1382       7.7211    -999.2500      15.6279       0.2000     312.2722      64.0692       9.7838       0.1084
   2474.2908       7.7631    -999.2500      16.5662       0.2000     312.4321      64.0661       7.2192       0.1409
   2474.4431       7.8114    -999.2500      17.5671       0.2000     312.6144      64.0590       4.8056       0.1638
   2474.5955       7.8659    -999.2500      18.6307       0.2000     312.8521      64.0414       2.7654       0.1772
   2474.7478       7.9134    -999.2500      18.8027       0.2000     313.0221      64.0343       1.2317       0.1850
   2474.9001       7.9539    -999.2500      18.0779       0.2000     313.0291      64.0523       0.9174       0.1873
   2475.0527       7.9966    -999.2500      17.3357       0.2000     313.0130      64.0632       0.6849       0.1922
   2475.2051       8.0416    -999.2500      16.5761       0.2000     312.9429      64.0572       0.6443       0.1994
   2475.3574       8.0907    -999.2500      16.8262       0.2000     312.8129      64.0609       0.6154       0.1873
   2475.5098       8.1436    -999.2500      18.0927       0.2000     312.5451      64.0870       0.6134       0.1560
   2475.6624       8.1258    -999.2500      17.1843       0.2000     312.4072      64.1089       0.6106       0.1308
   2475.8147       8.0377    -999.2500      14.0937       0.2000     312.5601      64.1214       0.6061       0.1117
   2475.9670       7.9460    -999.2500      13.2937       0.2000     312.7307      64.1281       0.6030       0.0961
   2476.1194       7.8505    -999.2500      14.8002       0.2000     312.9398      64.1221       0.6030       0.0840
   2476.2717       7.7879    -999.2500      15.3705       0.2000     313.0583      64.0997       0.6030       0.0780
   2476.4243       7.7579    -999.2500      15.0009       0.2000     312.9841      64.0426       0.6030       0.0780
   2476.5767       7.7367    -999.2500      15.1175       0.2000     312.9573      64.0038       0.6030       0.0780
   2476.7290       7.7242    -999.2500      15.7207       0.2000     313.0289      64.0033       0.6030       0.0780
   2476.8813       7.7137    -999.2500      15.7969       0.2000     312.9874      64.0051       0.6030       0.0780
   2477.0339       7.7052    -999.2500      15.3438       0.2000     312.7151      64.0117       0.6030       0.0780
   2477.1863       7.6992    -999.2500      15.4818       0.2000     312.4641      64.0264       0.6030       0.0776
   2477.3386       7.6957    -999.2500      16.2120       0.2000     312.2550      64.0575       0.6030       0.0768
   2477.4910       7.6915    -999.2500      16.2135       0.2000     312.1835      64.0841       0.6030       0.0769
   2477.6436       7.6865    -999.2500      15.4828       0.2000     312.3791      64.1022       0.6030       0.0778
   2477.7959       7.6840    -999.2500      15.3190    -999.2500    -999.2500    -999.2500    -999.2500       0.0791
   2477.9482       7.6840    -999.2500      15.7233    -999.2500    -999.2500    -999.2500    -999.2500       0.0808
   2478.1006       7.6848    -999.2500      15.9250    -999.2500    -999.2500    -999.2500    -999.2500       0.0814
   2478.2529       7.6863    -999.2500      15.9230    -999.2500    -999.2500    -999.2500    -999.2500       0.0809
   2478.4055       7.6852    -999.2500      16.2924    -999.2500    -999.2500    -999.2500    -999.2500       0.0772
   2478.5579       7.6817    -999.2500      17.0341    -999.2500    -999.2500    -999.2500    -999.2500       0.0706
   2478.7102       7.6800    -999.2500      16.1164    -999.2500    -999.2500    -999.2500    -999.2500       0.0650
   2478.8625       7.6800    -999.2500      13.5294    -999.2500    -999.2500    -999.2500    -999.2500       0.0605
   2479.0151       7.6810    -999.2500      13.4564    -999.2500    -999.2500    -999.2500    -999.2500       0.0608
   2479.1675       7.6830    -999.2500      15.9048    -999.2500    -999.2500    -999.2500    -999.2500       0.0658
   2479.3198       7.6837    -999.2500      16.9939    -999.2500    -999.2500    -999.2500    -999.2500       0.0718
   2479.4722       7.6832    -999.2500      16.7148    -999.2500    -999.2500    -999.2500    -999.2500       0.0786
   2479.6248       7.6835    -999.2500      16.0896    -999.2500    -999.2500    -999.2500    -999.2500       0.0836
   2479.7771       7.6845    -999.2500      15.1170    -999.2500    -999.2500    -999.2500    -999.2500       0.0870
   2479.9294       7.6870    -999.2500      15.1683    -999.2500    -999.2500    -999.2500    -999.2500       0.0898
   2480.0818       7.6910    -999.2500      16.2507    -999.2500    -999.2500    -999.2500    -999.2500       0.0920
   2480.2341       7.6920    -999.2500      16.6927    -999.2500    -999.2500    -999.2500    -999.2500       0.0981
   2480.3867       7.6900    -999.2500      16.4916    -999.2500    -999.2500    -999.2500    -999.2500       0.1081
   2480.5391       7.6872    -999.2500      16.5703    -999.2500    -999.2500    -999.2500    -999.2500       0.1196
   2480.6914       7.6837    -999.2500      16.9292    -999.2500    -999.2500    -999.2500    -999.2500       0.1327
   2480.8438       7.6812    -999.2500      16.3567    -999.2500    -999.2500    -999.2500    -999.2500       0.1448
   2480.9963       7.6797    -999.2500      14.8486    -999.2500    -999.2500    -999.2500    -999.2500       0.1560
   2481.1487       7.6782    -999.2500      14.5003    -999.2500    -999.2500    -999.2500    -999.2500       0.1603
   2481.3010       7.6767    -999.2500      15.3134    -999.2500    -999.2500    -999.2500    -999.2500       0.1578
   2481.4534       7.6763    -999.2500      15.9420    -999.2500    -999.2500    -999.2500    -999.2500       0.1475
   2481.6060       7.6768    -999.2500      16.3852    -999.2500    -999.2500    -999.2500    -999.2500       0.1295
   2481.7583       7.6773    -999.2500      17.1752    -999.2500    -999.2500    -999.2500    -999.2500       0.1207
