#------------------------------------------------------------------------------
#
#   Created by  : [OpenWorks] Log Export Utility (LEXP)
#   Created on  : 2016-05-23 11:55:56
#   Project     : CANT971
#   User        : R5K
#   Interpreter : PEP
#
#------------------------------------------------------------------------------
~VERSION INFORMATION
VERS. 2.0 : CWLS Log ASCII Standard - version 2.0
WRAP.  NO : One line per depth step
~WELL INFORMATION
#MNEMONIC   .UNIT                                           VALUE :DESCRIPTION
#------------------------------------------------------------------------------
STRT        .M                                          3767.4790 :START DEPTH
STOP        .M                                          5548.2729 :STOP DEPTH
STEP        .M                                             0.1524 :STEP
NULL        .                                           -999.2500 :NULL VALUE
COMP        .                                             UNKNOWN :COMPANY
WELL        .                                            418D-ST2 :WELL
FLD         .                                             UNKNOWN :FIELD
LOC         .                                             UNKNOWN :LOCATION
CNTY        .                                             UNKNOWN :COUNTY
STAT        .                                             UNKNOWN :STATE
CTRY        .                                             UNKNOWN :COUNTRY
SRVC        .                                             UNKNOWN :SERVICE COMPANY
DATE        .                                             UNKNOWN :LOG DATE
UWI         .                                            418D-ST2 :UNIQUE WELL ID
XCOORD      .                                       597130.010000 :SURFACE X
YCOORD      .                                      2144879.410000 :SURFACE Y
LAT         .                                           19.396924 :LATITUDE
LON         .                                          -92.074978 :LONGITUDE
ELEV        .M                                             0.0000 :SURFACE ELEV
ELEV_TYPE   .                                                  NA :ELEV TYPE
~CURVE INFORMATION
#MNEMONIC.UNIT        API CODE       : CURVE DESCRIPTION
#------------------------------------------------------------------------------
DEPTH    .M                          : Measured Depth
CALI     .inches      UNKNOWN        : CALI:PETROWORKS:rC:NONE:v1 
CGR      .API         UNKNOWN        : CGR:PETROWORKS:rC:NONE:v2 
DRHO     .g/cm3       UNKNOWN        : DRHO:PETROWORKS:rC:NONE:v1 
DT       .us/ft       UNKNOWN        : DT:PETROWORKS:rC:NONE:v2 
GR       .API         UNKNOWN        : GR:PETROWORKS:rC:NONE:v2 
ILD      .ohm.m       UNKNOWN        : ILD:PETROWORKS:rC:NONE:v2 
ILM      .ohm.m       UNKNOWN        : ILM:PETROWORKS:rC:NONE:v2 
NPHI     .v/v_decimal UNKNOWN        : NPHI:PETROWORKS:rC:NONE:v3 
PEF      .b/elec      UNKNOWN        : PEF:PETROWORKS:rC:NONE:v1 
POTA     .wtpercent   UNKNOWN        : POTA:PETROWORKS:rC:NONE:v2 
RHOB     .UNKNOWN     UNKNOWN        : RHOB:PETROWORKS:rC:NONE:v1 
THOR     .ppm         UNKNOWN        : THOR:PETROWORKS:rC:NONE:v2 
URAN     .ppm         UNKNOWN        : URAN:PETROWORKS:rC:NONE:v2 
~A     DEPTH         CALI          CGR         DRHO           DT           GR          ILD          ILM         NPHI          PEF         POTA         RHOB         THOR         URAN
# ...
   4659.3237       6.4745      15.7169       0.0463      49.1674      50.4264     852.5072     937.4314       0.0281       3.9812       0.0048       2.8121       2.5566       4.1879
   4659.4761       6.4248      15.8006       0.0464      48.7413      48.6647    1716.1328    1235.0876       0.0289       3.9460       0.0049       2.8117       2.5271       3.9598
   4659.6284       6.4333      16.2621       0.0481      48.5177      47.7298    8798.6260    1018.8295       0.0289       3.9971       0.0049       2.8105       2.6622       3.7681
   4659.7808       6.5028      16.8802       0.0493      47.9443      46.9639   17371.3926     734.7036       0.0279       4.0524       0.0051       2.8059       2.7376       3.5828
   4659.9336       6.5455      17.3998       0.0493      47.5328      46.5324   20000.0000     662.2465       0.0268       4.0512       0.0054       2.8027       2.7670       3.4693
   4660.0859       6.6203      17.4715       0.0507      47.5136      46.9695   20000.0000    1267.2648       0.0249       4.0497       0.0054       2.8013       2.7934       3.5204
   4660.2383       6.7004      17.4102       0.0521      47.8321      47.5700   20000.0000    1686.5300       0.0234       4.0753       0.0053       2.7988       2.7961       3.6043
   4660.3906       6.6620      17.2899       0.0539      48.8197      48.6331   20000.0000    9700.5967       0.0243       4.1138       0.0052       2.7879       2.8087       3.7365
   4660.5430       6.5620      16.7937       0.0525      49.6561      49.5639   20000.0000   18267.7363       0.0268       4.0895       0.0050       2.7726       2.7766       3.8883
   4660.6953       6.5733      15.1541       0.0531      50.0140      49.5624   20000.0000   20000.0000       0.0288       4.0867       0.0045       2.7687       2.5019       4.0623
   4660.8477       6.6501      13.2800       0.0592      49.8600      48.9916   20000.0000   20000.0000       0.0292       4.1710       0.0041       2.7772       2.1152       4.1992
   4661.0000       6.6780      12.5486       0.0632      50.6749      48.1295   20000.0000   20000.0000       0.0272       4.2412       0.0039       2.7907       1.9792       4.1618
   4661.1528       6.6803      12.8571       0.0654      52.5275      47.6507   20000.0000   20000.0000       0.0236       4.2492       0.0038       2.8083       2.1309       4.0461
   4661.3052       6.6740      13.6923       0.0672      52.2828      45.2115   20000.0000   20000.0000       0.0207       4.2496       0.0041       2.8221       2.2568       3.6862
   4661.4575       6.7091      14.2584       0.0688      50.6670      42.7996   20000.0000   20000.0000       0.0196       4.2576       0.0045       2.8286       2.2286       3.3746
   4661.6099       6.7629      14.3010       0.0691      50.2862      42.3848   20000.0000   20000.0000       0.0212       4.2731       0.0047       2.8250       2.1581       3.3340
   4661.7622       6.7805      13.9186       0.0653      50.3672      42.5812   20000.0000   20000.0000       0.0250       4.2979       0.0046       2.8066       2.0495       3.4039
   4661.9146       6.7528      13.4135       0.0607      50.3737      43.3712   20000.0000   19927.3301       0.0295       4.2729       0.0045       2.7858       1.9303       3.5448
   4662.0669       6.7121      12.7092       0.0576      51.0637      45.6273   20000.0000   20518.7324       0.0329       4.2183       0.0042       2.7685       1.8646       3.8766
   4662.2192       6.6860      12.1138       0.0563      52.0564      47.4586   20000.0000   13647.8301       0.0354       4.2266       0.0040       2.7606       1.8121       4.1576
   4662.3716       6.6585      12.3114       0.0575      52.0665      47.7316   20000.0000    5075.7983       0.0379       4.3310       0.0042       2.7614       1.7823       4.1700
   4662.5244       6.6497      13.3419       0.0565      50.8263      47.3406   20000.0000    2477.2729       0.0396       4.3953       0.0047       2.7607       1.8190       4.0119
   4662.6768       6.6279      14.5915       0.0544      50.4101      46.7982   20000.0000    2052.6975       0.0406       4.3236       0.0054       2.7638       1.8413       3.8142
   4662.8291       6.6249      15.3020       0.0542      51.9352      46.8359   20000.0000    2564.0640       0.0413       4.2468       0.0060       2.7727       1.7831       3.7432
   4662.9814       6.6456      16.1037       0.0562      52.2306      48.4201   20000.0000    8825.0811       0.0382       4.2627       0.0064       2.7874       1.8011       3.8449
   4663.1338       6.6580      17.0019       0.0588      51.2563      50.3909   20000.0000   17081.7578       0.0342       4.2804       0.0068       2.7998       1.8917       3.9821
   4663.2861       6.6555      16.8738       0.0621      50.5945      51.0911   20000.0000   20000.0000       0.0297       4.2326       0.0066       2.8074       1.9796       4.0800
   4663.4385       6.6669      15.9360       0.0636      49.7881      51.1482   20000.0000   20000.0000       0.0266       4.1857       0.0060       2.8084       1.9820       4.1941
   4663.5908       6.6405      13.3796       0.0661      48.1997      44.6581   20000.0000   18325.4688       0.0272       4.2702       0.0046       2.8035       1.8766       3.7290
   4663.7432       6.5523      12.3217       0.0693      47.0245      36.4846   20000.0000   11552.5635       0.0291       4.3597       0.0042       2.8027       1.7548       2.9165
   4663.8960       6.4907      13.6556       0.0692      47.1558      32.3664   20000.0000    5552.6895       0.0302       4.3414       0.0051       2.7997       1.7405       2.3246
   4664.0483       6.4671      14.9835       0.0703      47.7584      30.3135   20000.0000    3307.1973       0.0305       4.2951       0.0057       2.7978       1.8283       1.9646
   4664.2007       6.4557      15.6722       0.0687      48.1820      29.8806   20000.0000    2149.8499       0.0302       4.2562       0.0060       2.7931       1.8838       1.8516
   4664.3530       6.4633      15.5674       0.0616      48.2455      30.2422   20000.0000    1546.3136       0.0290       4.2324       0.0060       2.7824       1.8512       1.9095
   4664.5054       6.4503      15.3632       0.0585      48.1650      31.1868   20000.0000    1260.1855       0.0274       4.2063       0.0060       2.7801       1.8024       2.0432
   4664.6577       6.4288      15.5821       0.0590      48.0885      32.6398   20000.0000    1200.7194       0.0259       4.1715       0.0061       2.7868       1.8044       2.1912
   4664.8101       6.4327      16.8074       0.0592      47.9011      37.0016   20000.0000    1277.4629       0.0251       4.1233       0.0064       2.7954       2.0423       2.5553
   4664.9624       6.4562      17.4627       0.0596      47.8197      46.0047   20000.0000    1446.3757       0.0247       4.0590       0.0057       2.8051       2.6164       3.4878
   4665.1152       6.4806      16.8193       0.0551      48.3927      51.7973   20000.0000    1650.8293       0.0261       4.1268       0.0047       2.8014       2.9475       4.2021
   4665.2676       6.4861      16.6682       0.0243      49.2874      52.7704   20000.0000    1916.7812       0.0290       4.6363       0.0044       2.7535       3.0598       4.3310
   4665.4199       6.4793      16.7010      -0.0061      50.7948      52.7251   20000.0000    2368.3203       0.0339       5.2101       0.0042       2.7049       3.1829       4.3196
   4665.5723       6.5024      16.8839      -0.0134      52.2166      52.4842   20000.0000    3299.4385       0.0415       5.3974       0.0039       2.6993       3.3898       4.2610
   4665.7246       6.5177      17.0374      -0.0136      52.4579      52.5758   20000.0000    4457.4058       0.0479       5.3622       0.0038       2.7081       3.4662       4.2607
   4665.8770       6.5146      16.6174      -0.0131      51.3810      53.3160   20000.0000    4074.4158       0.0508       5.4915       0.0040       2.7186       3.2610       4.4161
