#------------------------------------------------------------------------------
#
#   Created by  : [OpenWorks] Log Export Utility (LEXP)
#   Created on  : 2016-05-23 11:55:55
#   Project     : CANT971
#   User        : R5K
#   Interpreter : PEP
#
#------------------------------------------------------------------------------
~VERSION INFORMATION
VERS. 2.0 : CWLS Log ASCII Standard - version 2.0
WRAP.  NO : One line per depth step
~WELL INFORMATION
#MNEMONIC   .UNIT                                           VALUE :DESCRIPTION
#------------------------------------------------------------------------------
STRT        .M                                          1803.5016 :START DEPTH
STOP        .M                                          3154.9849 :STOP DEPTH
STEP        .M                                             0.1524 :STEP
NULL        .                                           -999.2500 :NULL VALUE
COMP        .                                             UNKNOWN :COMPANY
WELL        .                                             418D-ST :WELL
FLD         .                                             UNKNOWN :FIELD
LOC         .                                             UNKNOWN :LOCATION
CNTY        .                                             UNKNOWN :COUNTY
STAT        .                                             UNKNOWN :STATE
CTRY        .                                             UNKNOWN :COUNTRY
SRVC        .                                             UNKNOWN :SERVICE COMPANY
DATE        .                                             UNKNOWN :LOG DATE
UWI         .                                             418D-ST :UNIQUE WELL ID
XCOORD      .                                       597130.010000 :SURFACE X
YCOORD      .                                      2144879.410000 :SURFACE Y
LAT         .                                           19.396924 :LATITUDE
LON         .                                          -92.074978 :LONGITUDE
ELEV        .M                                             0.0000 :SURFACE ELEV
ELEV_TYPE   .                                                  NA :ELEV TYPE
~CURVE INFORMATION
#MNEMONIC.UNIT        API CODE       : CURVE DESCRIPTION
#------------------------------------------------------------------------------
DEPTH    .M                          : Measured Depth
CALI     .inches      UNKNOWN        : CALI:PETROWORKS:rC:NONE:v1 
CGR      .API         UNKNOWN        : CGR:PETROWORKS:rC:NONE:v1 
DRHO     .g/cm3       UNKNOWN        : DRHO:PETROWORKS:rC:NONE:v1 
DT       .us/ft       UNKNOWN        : DT:PETROWORKS:rC:NONE:v1 
GR       .API         UNKNOWN        : GR:PETROWORKS:rC:NONE:v3 
ILD      .ohm.m       UNKNOWN        : ILD:registros:rC:NONE:v0 (auto-composite)
ILM      .ohm.m       UNKNOWN        : ILM:registros:rC:NONE:v0 (auto-composite)
LLD      .ohm.m       UNKNOWN        : LLD:PETROWORKS:rC:NONE:v2 
LLS      .ohm.m       UNKNOWN        : LLS:PETROWORKS:rC:NONE:v2 
MSFL     .ohm.m       UNKNOWN        : MSFL:PETROWORKS:rC:NONE:v1 
NPHI     .v/v_decimal UNKNOWN        : NPHI:PETROWORKS:rC:NONE:v1 
PEF      .b/elec      UNKNOWN        : PEF:PETROWORKS:rC:NONE:v1 
POTA     .wtpercent   UNKNOWN        : POTA:PETROWORKS:rC:NONE:v1 
RHOB     .g/cm3       UNKNOWN        : RHOB:PETROWORKS:rC:NONE:v1 
THOR     .ppm         UNKNOWN        : THOR:PETROWORKS:rC:NONE:v1 
URAN     .ppm         UNKNOWN        : URAN:PETROWORKS:rC:NONE:v1 
~A     DEPTH         CALI          CGR         DRHO           DT           GR          ILD          ILM          LLD          LLS         MSFL         NPHI          PEF         POTA         RHOB         THOR         URAN
# ...
   2322.2712      15.6094       9.4823      -0.0029      75.3000      38.2682    -999.2500    -999.2500     341.6938      32.7501      44.6563       0.0745       3.8320       0.0051       2.6768       0.5785       4.0087
   2322.4236      15.5391       7.8161      -0.0061      64.3000      34.0927    -999.2500    -999.2500     381.4918      36.1850      48.5938       0.0630       3.8340       0.0051       2.6738       0.0906       3.6593
   2322.5759      15.5703       7.9976      -0.0070      66.7000      34.3172    -999.2500    -999.2500     392.5792      35.6776      48.5000       0.0591       3.8516       0.0049       2.6777       0.2311       3.6653
   2322.7283      15.2734       7.3378      -0.0009      66.8000      33.5817    -999.2500    -999.2500     326.0838      32.7784      48.5625       0.0578       3.6172       0.0042       2.6926       0.3431       3.6547
   2322.8809      15.3047       7.2479       0.0016      64.7000      33.2271    -999.2500    -999.2500     275.2875      31.7627      48.6250       0.0572       3.5664       0.0040       2.7012       0.4095       3.6179
   2323.0332      15.3125       7.3465       0.0026      57.0000      33.5536    -999.2500    -999.2500     221.8376      29.6732      48.4688       0.0598       3.5410       0.0041       2.7065       0.4074       3.6496
   2323.1855      15.7891       9.3941       0.0040      64.4000      42.6816    -999.2500    -999.2500     260.1609      29.5227      48.4375       0.0584       3.7051       0.0032       2.7104       1.3861       4.6356
   2323.3379      15.8281      11.2525       0.0057      64.7000      45.8161    -999.2500    -999.2500     267.8639      29.4157      48.4063       0.0583       3.7832       0.0039       2.7170       1.6189       4.8133
   2323.4905      15.8281      11.1101       0.0070      64.5000      46.1850    -999.2500    -999.2500     217.2072      28.9996      48.2813       0.0598       3.7656       0.0037       2.7270       1.6755       4.8845
   2323.6428      15.7734      10.6785       0.0047      57.8000      45.9277    -999.2500    -999.2500     239.1450      28.1286      36.9375       0.0620       3.7930       0.0036       2.7281       1.5759       4.9088
   2323.7952      15.8828      11.0136       0.0033      57.7000      46.5731    -999.2500    -999.2500     256.3860      29.6733      18.2188       0.0597       3.8008       0.0041       2.7402       1.4565       4.9520
   2323.9475      15.5703      12.7699       0.0039      58.4000      49.5227    -999.2500    -999.2500     278.3954      29.7487      15.2813       0.0600       3.7539       0.0049       2.7520       1.6337       5.1182
   2324.1001      15.6172      17.7464       0.0036      30.5000      62.1914    -999.2500    -999.2500     235.2803      29.6921      15.2656       0.0590       3.6309       0.0080       2.7704       1.7637       6.1894
   2324.2524      15.6250      20.6721       0.0026      28.1000      68.2175    -999.2500    -999.2500     294.8937      29.8702      15.2578       0.0595       3.5176       0.0087       2.7742       2.3191       6.6211
   2324.4048      15.4531      20.9287       0.0026      30.3000      68.9786    -999.2500    -999.2500     319.3190      32.3924      46.0625       0.0615       3.4707       0.0086       2.7638       2.4261       6.6914
   2324.5571      15.4688      19.1065       0.0023      58.3000      89.5275    -999.2500    -999.2500     433.5661      42.4339     919.0000       0.0570       3.4609       0.0090       2.7519       1.7178       9.8068
   2324.7095      15.5625      19.8064      -0.0012      61.3000     106.3113    -999.2500    -999.2500     491.7597      41.2326    1082.0000       0.0576       3.6836       0.0094       2.7377       1.7571      12.0466
   2324.8621      15.5000      20.8936      -0.0002      59.3000     107.8624    -999.2500    -999.2500     468.5076      41.2865    1085.0000       0.0548       3.6348       0.0098       2.7353       1.8874      12.1112
   2325.0144      15.4766      20.0714      -0.0026      59.5000     106.6254    -999.2500    -999.2500     388.5150      41.3066    1085.0000       0.0543       3.5469       0.0095       2.7216       1.7915      12.0535
   2325.1667      15.5156      19.2626      -0.0020      59.7000     105.5183    -999.2500    -999.2500     424.7466      40.6252    1087.0000       0.0506       3.4434       0.0090       2.7193       1.7613      12.0119
   2325.3191      15.4844      13.4051      -0.0009      59.6000      95.7151    -999.2500    -999.2500     467.5117      41.6956      52.6563       0.0523       3.5078       0.0074       2.7201       0.7253      11.4625
   2325.4717      15.5391      14.8516       0.0024      58.8000      62.5798    -999.2500    -999.2500     634.7264      49.6607      44.2500       0.0553       3.5508       0.0089       2.7333       0.5310       6.6466
   2325.6240      15.4688      16.2058       0.0003      59.6000      64.6082    -999.2500    -999.2500     593.3220      50.6268      44.5938       0.0570       3.5195       0.0092       2.7160       0.7855       6.7405
   2325.7764      15.0938      14.4283      -0.0005      60.6000      61.8722    -999.2500    -999.2500     563.0873      50.9950      44.5938       0.0579       3.4629       0.0083       2.6866       0.6373       6.6070
   2325.9287      15.2734      12.8704      -0.0053      37.9000      59.6965    -999.2500    -999.2500     793.2664      58.0130      44.4375       0.0598       3.6094       0.0075       2.6555       0.5371       6.5210
   2326.0813      15.2266      11.9273      -0.0036      37.1000      57.9687    -999.2500    -999.2500     804.7854      59.6729      44.3438       0.0642       3.6016       0.0072       2.6415       0.3996       6.4117
   2326.2336      15.1563      11.9876      -0.0004      36.3000      41.4666    -999.2500    -999.2500     928.3585      60.8120      38.5000       0.0675       3.7188       0.0075       2.6465       0.2636       4.1052
   2326.3860      15.1563      10.1741       0.0024      62.2000      38.3513    -999.2500    -999.2500     828.3020      60.9026      78.0625       0.0664       3.6191       0.0069       2.6463       0.0249       3.9240
   2326.5383      15.1719      10.4033       0.0038      62.3000      38.6750    -999.2500    -999.2500     956.2471      61.9614     260.2500       0.0656       3.6055       0.0068       2.6488       0.1326       3.9371
   2326.6907      15.1641      11.9027       0.0099      61.9000      40.8717    -999.2500    -999.2500     858.0468      60.0420     259.5000       0.0669       3.5273       0.0072       2.6537       0.4078       4.0342
   2326.8433      15.1563      12.1239       0.0089      60.3000      41.5388    -999.2500    -999.2500     539.2150      52.0434     258.7500       0.0708       3.5215       0.0071       2.6529       0.4924       4.0963
   2326.9956      15.2109      11.3756       0.0109      61.9000      40.3311    -999.2500    -999.2500     534.6952      51.3587     257.5000       0.0716       3.5508       0.0069       2.6605       0.3763       4.0323
   2327.1479      15.1719       5.3889       0.0107      62.0000      34.1805    -999.2500    -999.2500     559.2797      51.4505     256.5000       0.0656       3.6426       0.0026       2.6627       0.4487       4.0095
   2327.3003      15.1563       9.0797       0.0083      63.0000      39.7360    -999.2500    -999.2500     572.1942      50.8152     255.6250       0.0592       3.6543       0.0035       2.6839       1.1585       4.2692
   2327.4529      15.1094       9.3911       0.0086      63.6000      40.2566    -999.2500    -999.2500     415.9160      47.8893      53.2188       0.0436       3.6934       0.0036       2.7273       1.1886       4.2983
   2327.6052      15.1328       9.5976       0.0127      58.8000      40.3834    -999.2500    -999.2500     482.8032      45.9291      72.1250       0.0292       3.7129       0.0038       2.7837       1.1703       4.2872
   2327.7576      15.1484       9.9653       0.0168      54.7000      40.6124    -999.2500    -999.2500     552.8439      45.1938      55.9688       0.0178       3.7227       0.0042       2.8161       1.1122       4.2679
