#------------------------------------------------------------------------------
#
#   Created by  : [OpenWorks] Log Export Utility (LEXP)
#   Created on  : 2016-05-23 11:52:56
#   Project     : CANT971
#   User        : R5K
#   Interpreter : PEP
#
#------------------------------------------------------------------------------
~VERSION INFORMATION
VERS. 2.0 : CWLS Log ASCII Standard - version 2.0
WRAP.  NO : One line per depth step
~WELL INFORMATION
#MNEMONIC   .UNIT                                           VALUE :DESCRIPTION
#------------------------------------------------------------------------------
STRT        .M                                           340.6189 :START DEPTH
STOP        .M                                          3243.0769 :STOP DEPTH
STEP        .M                                             0.1524 :STEP
NULL        .                                           -999.2500 :NULL VALUE
COMP        .                                   PEMEX EXPL & PROD :COMPANY
WELL        .                                                2098 :WELL
FLD         .                                           CANTARELL :FIELD
LOC         .                                             UNKNOWN :LOCATION
CNTY        .                                      CD. DEL CARMEN :COUNTY
STAT        .                                            CAMPECHE :STATE
CTRY        .                                              MEXICO :COUNTRY
SRVC        .                                             UNKNOWN :SERVICE COMPANY
DATE        .                                             UNKNOWN :LOG DATE
UWI         .                                          3060000229 :UNIQUE WELL ID
XCOORD      .                                       599692.800000 :SURFACE X
YCOORD      .                                      2143031.510000 :SURFACE Y
LAT         .                                           19.380099 :LATITUDE
LON         .                                          -92.050671 :LONGITUDE
ELEV        .M                                            26.7400 :SURFACE ELEV
ELEV_TYPE   .                                                  KB :ELEV TYPE
~CURVE INFORMATION
#MNEMONIC.UNIT        API CODE       : CURVE DESCRIPTION
#------------------------------------------------------------------------------
DEPTH    .M                          : Measured Depth
CALI     .inches      UNKNOWN        : CALI:litodensidad:rC:NONE:v0 (auto-composite)
CGR      .API         UNKNOWN        : CGR:Espectrometria:rC:NONE:v0 (auto-composite)
DRHO     .g/cm3       UNKNOWN        : DRHO:litodensidad:rC:NONE:v0 (auto-composite)
DT       .us/ft       UNKNOWN        : DT:DT-Load:rC:NONE:v0 (auto-composite)
GR       .API         UNKNOWN        : GR:GR-load:rC:NONE:v0 (auto-composite)
ILD      .UNKNOWN     UNKNOWN        : ILD:resistivos:rC:NONE:v0 (auto-composite)
LLD      .ohm.m       UNKNOWN        : LLD:resistivos:rC:NONE:v0 (auto-composite)
LLS      .UNKNOWN     UNKNOWN        : LLS:resistivos:rC:NONE:v0 (auto-composite)
MSFL     .UNKNOWN     UNKNOWN        : MSFL:resistivos:rC:NONE:v0 (auto-composite)
NPHI     .v/v_decimal UNKNOWN        : NPHI:porosidad:rC:NONE:v0 (auto-composite)
PEF      .UNKNOWN     UNKNOWN        : PEF:litodensidad:rC:NONE:v0 (auto-composite)
POTA     .UNKNOWN     UNKNOWN        : POTA:Espectrometria:rC:NONE:v0 (auto-composite)
RHOB     .UNKNOWN     UNKNOWN        : RHOB:litodensidad:rC:NONE:v0 (auto-composite)
THOR     .ppm         UNKNOWN        : THOR:Espectrometria:rC:NONE:v0 (auto-composite)
URAN     .ppm         UNKNOWN        : URAN:Espectrometria:rC:NONE:v0 (auto-composite)
~A     DEPTH         CALI          CGR         DRHO           DT           GR          ILD          LLD          LLS         MSFL         NPHI          PEF         POTA         RHOB         THOR         URAN
# ...
   2961.7466       8.4572      10.8529      -0.0159      53.3105      15.8138    -999.2500      47.8714      72.3707      51.9185       0.0206      76.8968       0.0024       2.6451       1.2444       0.4916
   2961.8989       8.4678      11.3183      -0.0129      54.3299      15.7798    -999.2500      43.6283      68.7048      62.8300       0.0195      82.3336       0.0026       2.6471       1.2714       0.5056
   2962.0513       8.4800      11.7749      -0.0099      55.3456      15.7087    -999.2500      39.1043      64.5491      74.0287       0.0184      67.4628       0.0023       2.6491       1.4716       0.5794
   2962.2036       8.5673      11.2006      -0.0064      56.2622      14.5803    -999.2500      27.4099      47.8900      92.5325       0.0178      47.6398       0.0018       2.6521       1.5678       0.5051
   2962.3560       8.6507      10.6906      -0.0030      57.1430      13.4951    -999.2500      16.1678      31.8716     109.6213       0.0172      49.8902       0.0012       2.6553       1.6894       0.4204
   2962.5085       8.5929       9.9016      -0.0030      57.0274      13.6130    -999.2500      16.2413      31.8881      91.4217       0.0165      51.1184       0.0011       2.6638       1.5773       0.3570
   2962.6609       8.5378      10.1033      -0.0030      56.9002      13.7436    -999.2500      16.3502      31.9508      74.5167       0.0158      61.7182       0.0009       2.6716       1.6932       0.4661
   2962.8132       8.5734      10.7337      -0.0020      56.4554      14.2338    -999.2500      17.3671      33.1963      90.6657       0.0138      56.6015       0.0007       2.6591       1.8989       0.5003
   2962.9656       8.6107       7.7320      -0.0009      56.0073      14.7224    -999.2500      18.4888      34.7637     106.1009       0.0117      52.3938       0.0004       2.6470       1.4086       0.4631
   2963.1182       8.7359       7.1571       0.0016      55.4671      15.1662    -999.2500      22.2422      44.4120     103.6784       0.0097      38.1436       0.0006       2.6480       1.2077       0.4567
   2963.2705       8.8567       8.8819       0.0041      54.9208      15.6085    -999.2500      25.9828      53.6808     100.9813       0.0078      35.5445       0.0022       2.6495       0.9156       0.5842
   2963.4229       8.8426       9.3459       0.0056      54.2086      16.0102    -999.2500      29.3951      53.1962      91.2502       0.0080      39.1042       0.0026       2.6656       0.8418       0.6211
   2963.5752       8.8279       8.7485       0.0069      53.5179      16.3895    -999.2500      32.7086      52.7464      81.4513       0.0083      58.0371       0.0027       2.6810       0.6768       0.6017
   2963.7278       8.7781       8.0139       0.0034      53.4294      16.1431    -999.2500      33.5352      53.1752      69.9513       0.0092      47.4593       0.0031       2.6810       0.3758       0.4743
   2963.8801       8.7295       6.8822       0.0001      53.3494      15.8731    -999.2500      35.3806      53.7684      57.8889       0.0101      35.7982       0.0034       2.6809       0.0359       0.2801
   2964.0325       8.7063       7.3265       0.0026      53.5040      14.9227    -999.2500      63.4935      58.6002      31.3776       0.0092      44.6633       0.0026       2.6794       0.4567       0.4645
   2964.1848       8.6834       6.9983       0.0048      53.6508      13.9692    -999.2500      89.4135      63.1750       5.9032       0.0083      37.3921       0.0022       2.6775       0.5393       0.4305
   2964.3372       8.6557       3.7265      -0.0007      53.5893      12.9266    -999.2500      59.9342      61.2589       6.5364       0.0083      38.6146       0.0014       2.6625       0.1993       0.4664
   2964.4897       8.6290       5.2215      -0.0060      53.5225      11.9202    -999.2500      31.8536      59.4194       7.3120       0.0083      34.4729       0.0023       2.6480       0.1162       0.4433
   2964.6421       8.6290       8.9351      -0.0055      53.3084      11.9547    -999.2500      39.9587      59.5639      11.7571       0.0084      39.7260       0.0017       2.6490       1.1588       0.4996
   2964.7944       8.6290       6.3633      -0.0049      53.1116      11.9951    -999.2500      47.5114      59.8062      15.9425       0.0086      40.0739       0.0005       2.6502       1.1169       0.4683
   2964.9468       8.6290       7.0002      -0.0014      53.3800      12.2011    -999.2500      41.0672      62.5240      13.5665       0.0089      46.6754       0.0010       2.6557       1.0447       0.5995
   2965.0994       8.6290       6.1027       0.0022      53.6387      12.4172    -999.2500      35.5721      65.1130      12.5670       0.0092      39.2381       0.0007       2.6613       0.9542       0.6114
   2965.2517       8.6290       7.2111       0.0067      53.6297      12.9100    -999.2500      54.7132      64.3582      47.1683       0.0097      46.9421       0.0016       2.6708       0.8173       0.6047
   2965.4041       8.6290       6.8092       0.0109      53.6126      13.4058    -999.2500      72.9377      63.5458      80.2519       0.0102      48.6689       0.0019       2.6799       0.6421       0.6066
   2965.5564       8.6295       6.7499       0.0094      53.3772      13.9865    -999.2500      67.8548      61.2674      74.8752       0.0117      49.0951      -0.0009       2.6774       1.7656       0.9571
   2965.7090       8.6306       8.3725       0.0078      53.1525      14.5552    -999.2500      62.0845      58.4041      68.4401       0.0132      57.6731      -0.0003       2.6744       1.8456       0.9107
   2965.8613       8.6588       8.5047       0.0028      53.2230      14.7911    -999.2500      39.1869      40.9636      34.5411       0.0158      58.4878       0.0002       2.6569       1.6443       0.8845
   2966.0137       8.6857       8.8070      -0.0019      53.2893      15.0171    -999.2500      17.2287      24.2966       1.9609       0.0185      58.0587       0.0007       2.6400       1.5394       0.8231
   2966.1660       8.6711       8.9427      -0.0004      53.2413      14.9606    -999.2500      19.2349      27.3597       2.9098       0.0213      34.7027       0.0010       2.6405       1.4345       0.8072
   2966.3184       8.6572       8.7944       0.0013      53.1804      14.8920    -999.2500      21.5919      30.8845       4.4360       0.0240      34.4694       0.0017       2.6412       1.0964       0.4265
   2966.4709       8.6657      14.4756       0.0093      52.7602      14.4876    -999.2500      32.7156      45.9506      20.3456       0.0233      34.5842       0.0036       2.6482       1.4967       0.3412
   2966.6233       8.6733      14.1325       0.0168      52.3236      14.0716    -999.2500      45.2304      62.2827      36.9419       0.0226      38.8232       0.0036       2.6554       1.4222       0.2558
   2966.7756       8.6417      13.8299       0.0103      51.4380      13.3213    -999.2500      93.3427     111.0163      71.0485       0.0203      45.1093       0.0035       2.6684       1.4120       0.2844
   2966.9280       8.6114      12.1679       0.0040      50.5762      12.5800    -999.2500     139.0964     157.3367     103.1991       0.0181      66.8199       0.0027       2.6812       1.3787       0.1889
   2967.0806       8.6321      12.7916       0.0045      50.3786      12.0887    -999.2500     125.7037     143.1428      86.4618       0.0167      57.4259       0.0032       2.6862       1.3285       0.2347
   2967.2329       8.6517      12.5216       0.0050      50.1884      11.6145    -999.2500     111.8121     128.3898      70.6335       0.0154      56.0554       0.0031       2.6910       1.2970       0.1815
   2967.3853       8.6402      11.9381       0.0050      50.2009      11.6305    -999.2500      85.1132      99.2814      78.0653       0.0155      40.0425       0.0030       2.6900       1.2340       0.1572
   2967.5376       8.6293      12.1407       0.0050      50.2204      11.6508    -999.2500      59.4117      71.2550      86.8037       0.0155      47.8096       0.0026       2.6883       1.4443       0.2491
