#------------------------------------------------------------------------------
#
#   Created by  : [OpenWorks] Log Export Utility (LEXP)
#   Created on  : 2016-05-23 11:56:16
#   Project     : CANT971
#   User        : R5K
#   Interpreter : PEP
#
#------------------------------------------------------------------------------
~VERSION INFORMATION
VERS. 2.0 : CWLS Log ASCII Standard - version 2.0
WRAP.  NO : One line per depth step
~WELL INFORMATION
#MNEMONIC   .UNIT                                           VALUE :DESCRIPTION
#------------------------------------------------------------------------------
STRT        .M                                           785.0543 :START DEPTH
STOP        .M                                          3464.0940 :STOP DEPTH
STEP        .M                                             0.1524 :STEP
NULL        .                                           -999.2500 :NULL VALUE
COMP        .                                   PEMEX EXPL & PROD :COMPANY
WELL        .                                                448D :WELL
FLD         .                                           CANTARELL :FIELD
LOC         .                                             UNKNOWN :LOCATION
CNTY        .                                      CD. DEL CARMEN :COUNTY
STAT        .                                            CAMPECHE :STATE
CTRY        .                                              MEXICO :COUNTRY
SRVC        .                                             UNKNOWN :SERVICE COMPANY
DATE        .                                             UNKNOWN :LOG DATE
UWI         .                                          3060000822 :UNIQUE WELL ID
XCOORD      .                                       598710.240000 :SURFACE X
YCOORD      .                                      2143307.000000 :SURFACE Y
LAT         .                                           19.382637 :LATITUDE
LON         .                                          -92.060012 :LONGITUDE
ELEV        .M                                            28.0000 :SURFACE ELEV
ELEV_TYPE   .                                                  KB :ELEV TYPE
~CURVE INFORMATION
#MNEMONIC.UNIT        API CODE       : CURVE DESCRIPTION
#------------------------------------------------------------------------------
DEPTH    .M                          : Measured Depth
CALI     .inches      UNKNOWN        : CALI:registros:rC:NONE:v0 (auto-composite)
DRHO     .g/cm3       UNKNOWN        : DRHO:registros:rC:NONE:v0 (auto-composite)
DT       .us/ft       UNKNOWN        : DT:registros:rC:NONE:v0 (auto-composite)
GR       .API         UNKNOWN        : GR:registros:rC:NONE:v0 (auto-composite)
LLD      .ohm.m       UNKNOWN        : LLD:registros:rC:NONE:v0 (auto-composite)
LLS      .ohm.m       UNKNOWN        : LLS:registros:rC:NONE:v0 (auto-composite)
MSFL     .ohm.m       UNKNOWN        : MSFL:registros:rC:NONE:v0 (auto-composite)
NPHI     .v/v_decimal UNKNOWN        : NPHI:registros:rC:NONE:v0 (auto-composite)
PEF      .b/elec      UNKNOWN        : PEF:registros:rC:NONE:v0 (auto-composite)
RHOB     .g/cm3       UNKNOWN        : RHOB:registros:rC:NONE:v0 (auto-composite)
~A     DEPTH         CALI         DRHO           DT           GR          LLD          LLS         MSFL         NPHI          PEF         RHOB
# ...
   3003.9983      17.7714       0.0793      27.4360      36.4400      56.0105      31.4107      72.6904       0.1706       3.0735       2.5025
   3004.1506      18.1607       0.0954      53.0350      35.8667      41.9864      25.0268      50.3629       0.2016       3.1420       2.4408
   3004.3032      19.3443       0.1066      83.0087      32.3342      33.9858      20.9880      33.3063       0.2450       3.3330       2.2884
   3004.4556      20.5837       0.1117      88.1037      27.4621      32.0002      19.9853      26.3569       0.2763       3.6622       2.1462
   3004.6079      20.9136       0.1161      87.7071      25.5153      33.6409      20.8534      28.5953       0.3131       4.0851       2.0748
   3004.7603      20.9940       0.1292      90.7647      27.1126      41.3545      24.7169      23.1058       0.3404       4.1350       2.0774
   3004.9128      21.1559       0.1420      90.4511      30.6167      43.7646      26.0453      28.8517       0.3478       3.7751       2.0893
   3005.0652      21.5353       0.1238      83.7762      32.5936      45.9034      27.2908      43.6022       0.3282       3.5890       2.0219
   3005.2175      21.8709       0.0931      84.5028      32.3412      49.6685      29.0425      28.5393       0.3222       3.4611       1.9930
   3005.3699      19.8666       0.0621      89.6464      31.1520      55.3480      31.2794      26.9894       0.3297       3.6800       2.1124
   3005.5222      19.3280       0.0666      85.4401      29.5208      63.7053      34.6046      20.3794       0.2870       3.4144       2.4109
   3005.6748      20.7372       0.0866      78.5969      29.3454      66.9543      36.0928      26.0313       0.1884       3.3409       2.7813
   3005.8271      21.0231       0.0346      73.9505      30.0862      64.6360      35.5489      27.1378       0.0969       3.4134       2.7856
   3005.9795      21.1290       0.0031      68.4497      30.4239      60.8057      34.1568      32.6694       0.0639       3.6163       2.7591
   3006.1318      20.1652       0.0059      61.3890      29.1825      58.0030      33.1389      30.5849       0.0614       3.5860       2.7642
   3006.2844      17.9319       0.0154      57.5706      26.1734      57.0852      33.0159      35.4010       0.0631       3.5518       2.7707
   3006.4368      17.5965       0.0390      57.1145      23.5420      57.4896      33.7121      60.8420       0.0560       3.4866       2.7783
   3006.5891      17.6385       0.0601      55.8885      22.7502      58.9418      34.8144      92.2630       0.0574       3.5277       2.7729
   3006.7415      17.7321       0.0831      55.5454      24.5427      60.8304      36.0879      99.0306       0.0624       3.5714       2.7715
   3006.8940      17.8855       0.0952      55.1608      26.4792      64.5147      38.0437      72.5205       0.0648       3.7105       2.7640
   3007.0464      17.9850       0.0865      56.7353      26.4791      69.9336      41.1025      67.8345       0.0662       3.8201       2.7518
   3007.1987      17.9343       0.0591      59.4517      23.6937      71.9334      42.7104      53.7954       0.0757       3.8050       2.7183
   3007.3511      18.0032       0.0350      59.7385      20.1301      72.3221      43.1327      60.2471       0.0941       3.7931       2.6919
   3007.5034      18.1808       0.0095      59.7934      20.7568      76.9118      45.3828      51.8782       0.1066       3.8277       2.6604
   3007.6560      18.0649       0.0018      61.4261      24.9229      80.4816      47.1650      56.2010       0.1117       3.7841       2.6662
   3007.8083      17.8017       0.0072      62.0351      28.7462      79.7128      46.8412      42.9259       0.1070       3.6710       2.7047
   3007.9607      17.7308       0.0149      60.3855      30.3801      72.3202      43.5667     174.5274       0.0967       3.5348       2.7512
   3008.1130      17.8345       0.0217      58.7213      28.7649      74.2578      45.1511     376.6715       0.0775       3.5605       2.7770
   3008.2656      17.8931       0.0274      58.1628      26.5894      73.4676      45.1250      82.2223       0.0528       3.6260       2.7913
   3008.4180      18.0482       0.0379      58.0599      25.3784      83.7452      50.7245     142.6969       0.0350       3.8243       2.8020
   3008.5703      18.0891       0.0387      58.0125      27.0930      91.6170      55.6536     173.7565       0.0264       3.8701       2.7999
   3008.7227      17.9135       0.0325      57.5908      31.0874      83.2873      52.2172     159.3371       0.0302       3.8009       2.7729
   3008.8750      17.7890       0.0344      58.4471      33.4653      86.1565      53.8221     118.2999       0.0407       3.7252       2.7400
   3009.0276      17.7525       0.0428      60.4031      33.5605      83.8235      52.7954     110.7449       0.0558       3.6895       2.7147
   3009.1799      17.8241       0.0447      60.5031      32.5501      77.5742      49.6526      81.0889       0.0741       3.6325       2.6854
   3009.3323      18.0155       0.0518      58.7687      31.5866      73.7769      47.7483      56.5146       0.0924       3.5173       2.6692
   3009.4846      18.1558       0.0527      57.1733      29.5131      70.9960      46.8678      51.4369       0.1169       3.4805       2.7097
   3009.6372      18.6585       0.0448      56.5481      26.1517      68.3415      45.9878      60.7079       0.1298       3.7354       2.7514
   3009.7896      19.3138       0.0370      55.9277      23.2668      83.8540      55.1230      93.4701       0.1180       3.9196       2.8029
   3009.9419      19.8518       0.0161      56.1139      22.5980     116.2405      72.2131      73.6192       0.0745       3.9811       2.7785
   3010.0942      20.6974       0.0023      57.7192      25.1711     145.3933      88.3438      85.8260       0.0283       3.7704       2.7652
   3010.2468      21.6892       0.0066      57.8348      27.2272     155.3456      94.3987     108.8451       0.0078       3.4957       2.7660
   3010.3992      20.3855       0.0103      56.9661      26.8707     157.7785      95.8663     218.5752       0.0079       3.4349       2.7662
   3010.5515      17.9244       0.0166      56.5520      24.7266     162.0398      97.1227     365.9049       0.0144       3.5255       2.7691
   3010.7039      18.3585       0.0297      57.1490      22.0016     162.8139      95.2403     191.5373       0.0162       3.7007       2.7744
   3010.8562      19.6406       0.0399      59.5941      20.6157     169.8114      95.7219     150.2339       0.0153       3.7480       2.7697
   3011.0088      19.4648       0.0399      60.5629      19.3924     180.8383      97.8700     159.3889       0.0155       3.6388       2.7602
   3011.1611      17.9670       0.0507      60.3719      18.8543     179.3051      94.5647     194.6887       0.0145       3.6410       2.7756
   3011.3135      18.3477       0.0615      59.9255      19.8187     179.9996      92.1168     143.2121       0.0104       3.6270       2.7987
   3011.4658      18.5237       0.0649      57.6359      22.3906     196.1171      98.3630     117.8070       0.0074       3.5771       2.8005
   3011.6184      18.4272       0.0698      56.6400      27.4627     235.4997     113.2902     197.2032       0.0075       3.5494       2.7985
   3011.7708      18.2150       0.0646      57.0497      33.9865     232.3286     114.2291     284.0489       0.0107       3.6530       2.7834
   3011.9231      18.2319       0.0571      58.6025      39.9378     167.6032      93.4419     237.2317       0.0236       3.8746       2.7729
   3012.0754      17.8506       0.0535      60.5688      43.0689      99.1457      64.7693     173.3757       0.0482       3.9784       2.7548
   3012.2280      17.7655       0.0490      61.7132      45.3467      76.2062      52.1346     305.5823       0.0675       3.9169       2.7324
   3012.3804      17.7529       0.0398      62.0262      48.7229      70.4071      48.5264      83.3833       0.0705       3.7922       2.7068
