#------------------------------------------------------------------------------
#
#   Created by  : [OpenWorks] Log Export Utility (LEXP)
#   Created on  : 2016-05-23 11:56:31
#   Project     : CANT971
#   User        : R5K
#   Interpreter : PEP
#
#------------------------------------------------------------------------------
~VERSION INFORMATION
VERS. 2.0 : CWLS Log ASCII Standard - version 2.0
WRAP.  NO : One line per depth step
~WELL INFORMATION
#MNEMONIC   .UNIT                                           VALUE :DESCRIPTION
#------------------------------------------------------------------------------
STRT        .M                                          1639.8856 :START DEPTH
STOP        .M                                          2789.8960 :STOP DEPTH
STEP        .M                                             0.1524 :STEP
NULL        .                                           -999.2500 :NULL VALUE
COMP        .                                             UNKNOWN :COMPANY
WELL        .                                                 477 :WELL
FLD         .                                             UNKNOWN :FIELD
LOC         .                                             UNKNOWN :LOCATION
CNTY        .                                             UNKNOWN :COUNTY
STAT        .                                             UNKNOWN :STATE
CTRY        .                                             UNKNOWN :COUNTRY
SRVC        .                                             UNKNOWN :SERVICE COMPANY
DATE        .                                             UNKNOWN :LOG DATE
UWI         .                                                 477 :UNIQUE WELL ID
XCOORD      .                                       598704.070000 :SURFACE X
YCOORD      .                                      2143268.860000 :SURFACE Y
LAT         .                                           19.382293 :LATITUDE
LON         .                                          -92.060073 :LONGITUDE
ELEV        .M                                             0.0000 :SURFACE ELEV
ELEV_TYPE   .                                                  KB :ELEV TYPE
~CURVE INFORMATION
#MNEMONIC.UNIT        API CODE       : CURVE DESCRIPTION
#------------------------------------------------------------------------------
DEPTH    .M                          : Measured Depth
CALI     .inches      UNKNOWN        : CALI:litodensidad:rC:NONE:v0 (auto-composite)
CGR      .API         UNKNOWN        : CGR:Espectrometria:rC:NONE:v0 (auto-composite)
DRHO     .g/cm3       UNKNOWN        : DRHO:litodensidad:rC:NONE:v0 (auto-composite)
DT       .us/ft       UNKNOWN        : DT:Sonico:rC:NONE:v0 (auto-composite)
GR       .API         UNKNOWN        : GR:Espectrometria:rC:NONE:v0 (auto-composite)
GR-LWD   .API         UNKNOWN        : GR-LWD:resistivos-LWD:rC:NONE:v0 (auto-composite)
LLD      .ohm.m       UNKNOWN        : LLD:resistivos:rC:NONE:v0 (auto-composite)
LLD-LWD  .ohm.m       UNKNOWN        : LLD-LWD:resistivos-LWD:rC:NONE:v0 (auto-composite)
LLS      .ohm.m       UNKNOWN        : LLS:resistivos:rC:NONE:v0 (auto-composite)
LLS-LWD  .ohm.m       UNKNOWN        : LLS-LWD:resistivos-LWD:rC:NONE:v0 (auto-composite)
MSFL     .ohm.m       UNKNOWN        : MSFL:resistivos:rC:NONE:v0 (auto-composite)
MSFL-LWD .ohm.m       UNKNOWN        : MSFL-LWD:resistivos-LWD:rC:NONE:v0 (auto-composite)
NPHI     .UNKNOWN     UNKNOWN        : NPHI:porosidad:rC:NONE:v0 (auto-composite)
PEF      .UNKNOWN     UNKNOWN        : PEF:litodensidad:rC:NONE:v0 (auto-composite)
POTA     .wtpercent   UNKNOWN        : POTA:PETROWORKS:rC:NONE:v1 
RHOB     .g/cm3       UNKNOWN        : RHOB:litodensidad:rC:NONE:v0 (auto-composite)
THOR     .ppm         UNKNOWN        : THOR:Espectrometria:rC:NONE:v0 (auto-composite)
URAN     .ppm         UNKNOWN        : URAN:Espectrometria:rC:NONE:v0 (auto-composite)
~A     DEPTH         CALI          CGR         DRHO           DT           GR       GR-LWD          LLD      LLD-LWD          LLS      LLS-LWD         MSFL     MSFL-LWD         NPHI          PEF         POTA         RHOB         THOR         URAN
# ...
   1906.4332       8.5483      18.7168      -1.7602      56.7868      29.0699      55.8022    -999.2500       1.5478    -999.2500       1.4869    -999.2500       1.5823       0.2763      10.9694       0.0113       1.5605       0.8251       1.1527
   1906.5856       8.5483      17.9536      -1.7878      58.2593      29.8489      55.8917    -999.2500       1.7209    -999.2500       1.6438    -999.2500       1.7557       0.2744      10.9139       0.0104       1.5316       0.9694       1.3243
   1906.7380       8.5483      18.2755      -1.7909      58.5523      30.5485      56.7482    -999.2500       2.0482    -999.2500       1.8951    -999.2500       2.0076       0.2685      10.8994       0.0101       1.5386       1.1616       1.3664
   1906.8904       8.5483      20.1422      -1.7887      58.1236      30.4780      48.8452    -999.2500       2.2359    -999.2500       2.0697    -999.2500       2.0984       0.2581      10.8659       0.0108       1.5578       1.4125       1.1507
   1907.0428       8.5483      21.9936      -1.7899      57.6144      29.3892      54.5799    -999.2500       2.1167    -999.2500       1.9734    -999.2500       2.0703       0.2475      10.8078       0.0111       1.5687       1.8240       0.8234
   1907.1952       8.5483      23.6536      -1.7805      57.2708      27.5947      51.8211    -999.2500       2.2448    -999.2500       2.0780    -999.2500       2.1041       0.2411      10.7957       0.0115       1.5820       2.1659       0.4388
   1907.3477       8.5483      23.6461      -1.7406      57.2582      26.2526      50.5748    -999.2500       2.1525    -999.2500       2.0808    -999.2500       2.1992       0.2393      10.8945       0.0115       1.6230       2.1482       0.2902
   1907.5000       8.5483      21.8363      -1.6987      57.4852      25.6793      45.2034       0.2292       2.3147    -999.2500       2.2055    -999.2500       2.3307       0.2372      11.0121       0.0111       1.6613       1.7740       0.4278
   1907.6525       8.5483      19.6095      -1.6866      57.3057      25.7243      48.6536       0.2295       2.4947       1.2171       2.3404       0.1000       2.5086       0.2258      11.0610       0.0100       1.6731       1.5978       0.6808
   1907.8048       8.5529      19.0521      -1.7071      56.3296      25.6672      40.0354       0.2201       2.5521       1.2234       2.6362       0.1000       2.8973       0.2095      11.0542       0.0089       1.6559       1.8850       0.7365
   1907.9573       8.5557      20.3866      -1.7394      55.3322      25.4291      44.4440       0.1962       3.4479       1.2209       3.3062       0.1000       3.3453       0.2075      11.0664       0.0083       1.6350       2.4880       0.5614
   1908.1096       8.5558      22.0634      -1.7684      55.3962      25.7752      47.2725       0.1853       3.8843       1.2286       3.7869       0.1000       3.8619       0.2206      11.0883       0.0085       1.6152       2.9023       0.4133
   1908.2620       8.5563      22.9853      -1.7926      56.1491      26.6837      46.9617       0.1969       3.3355       1.2307       3.4222       0.1000       3.7265       0.2342      11.1085       0.0094       1.5947       2.7876       0.4117
   1908.4144       8.5557      23.5558      -1.8392      56.4214      27.8203      53.1886       0.2060       2.8656       1.2469       3.1266       0.1000       3.4408       0.2416      11.0821       0.0104       1.5421       2.5663       0.4747
   1908.5668       8.5557      22.8987      -1.8886      56.3019      28.7216      45.1869       0.1930       2.5370       1.2401       2.6465       0.1000       2.7720       0.2501      11.0458       0.0112       1.4855       2.0571       0.6483
   1908.7192       8.5560      21.8014      -1.9279      56.4911      29.3659    -999.2500       0.1928       2.7445       1.2426       2.6507       0.1000       2.6604       0.2598      10.9792       0.0117       1.4324       1.5572       0.8422
   1908.8716       8.5562      19.2600      -1.9234      56.7822      29.7654    -999.2500       0.1845       2.6484       1.2592       2.4125       0.1000       2.3633       0.2627      10.8894       0.0112       1.4248       1.0025       1.1696
   1909.0240       8.5557      18.4236      -1.8646      56.3908      29.6725    -999.2500       0.1913       2.3308       1.2618       2.0583       0.1000       2.1276       0.2503      10.8182       0.0102       1.4823       1.1731       1.2524
   1909.1764       8.5557      18.8545      -1.7688      55.2628      28.7285    -999.2500       0.3104       2.7912       1.2850       2.2252       0.1000       2.2506       0.2231      10.8505       0.0090       1.5923       1.7837       1.0993
   1909.3289       8.5557      19.2346      -1.7052      54.4030      26.7795    -999.2500       0.3334       3.1331       1.2976       2.5120       0.1000       2.5710       0.2005      10.9366       0.0081       1.6671       2.2621       0.8400
   1909.4812       8.5534      18.2147      -1.6999      54.6513      25.1014    -999.2500       0.3644       3.7535       1.2852       3.4736       0.1000       3.7392       0.1952      10.9973       0.0074       1.6692       2.2482       0.7667
   1909.6337       8.5492      16.1907      -1.7172      55.7866      24.7180    -999.2500       0.3390       3.6160       1.2903       3.9327       0.1000       4.4553       0.2067      10.9644       0.0070       1.6384       1.8184       0.9494
   1909.7860       8.5587      15.4208      -1.7407      56.8776      25.5268    -999.2500       0.2891       1.6491       1.2903       2.4250       0.1000       2.7135       0.2310      10.8725       0.0071       1.5923       1.5666       1.1251
   1909.9385       8.5596      16.1456      -1.7715      57.5492      26.2456    -999.2500       0.3038       2.0757       1.3195       2.7108       0.1000       2.9700       0.2609      10.8312       0.0076       1.5379       1.5765       1.1245
   1910.0908       8.5599      17.4400      -1.7828      58.2172      26.0814    -999.2500       0.3197       1.5196       1.3295       1.7791       0.1000       1.9551       0.2786      10.9140       0.0080       1.5198       1.7872       0.9621
   1910.2432       8.5631      17.7274      -1.7481      59.0816      25.6053    -999.2500       0.3228       1.3685       1.3446       1.2773       0.1000       1.3883       0.2716      11.0757       0.0079       1.5705       1.8772       0.8771
   1910.3956       8.5631      17.8131      -1.6868      59.6850      25.2976    -999.2500       0.3355       2.0944       1.3671       1.5446       0.1000       1.5185       0.2557      11.2049       0.0079       1.6474       1.9071       0.8333
   1910.5480       8.5631      17.5386      -1.6425      59.3557      25.4518    -999.2500       0.3306       2.7519       1.3719       2.0808       0.1000       2.2957       0.2498      11.2259       0.0084       1.6907       1.6357       0.8810
   1910.7004       8.5631      17.4137      -1.6247      58.1544      25.5291    -999.2500       0.3299       2.5973       1.3731       2.6973       0.1000       2.9770       0.2517      11.2121       0.0085       1.6961       1.5623       0.9035
   1910.8528       8.5623      16.8655      -1.6157      56.0290      25.6129    -999.2500       0.3402       2.5210       1.3601       2.7338       0.1000       2.8892       0.2541      11.2647       0.0082       1.6921       1.5110       0.9739
   1911.0052       8.5631      17.2717      -1.5962      53.5845      25.9568    -999.2500       0.3373       2.3815       1.3597       2.6211       0.1000       2.7313       0.2600      11.3745       0.0075       1.7015       1.9086       0.9670
   1911.1576       8.5623      19.5885      -1.5940      51.6051      26.7975    -999.2500       0.3594       2.3421       1.3848       2.4962       0.1000       2.6429       0.2707      11.4323       0.0074       1.6966       2.6049       0.8026
   1911.3101       8.5631      20.9911      -1.6092      50.3065      28.1380    -999.2500       0.3693       2.3132       1.4154       2.2049       0.1000       2.3633       0.2793      11.4099       0.0076       1.6811       2.9355       0.7957
