#------------------------------------------------------------------------------
#
#   Created by  : [OpenWorks] Log Export Utility (LEXP)
#   Created on  : 2016-05-23 11:55:55
#   Project     : CANT971
#   User        : R5K
#   Interpreter : PEP
#
#------------------------------------------------------------------------------
~VERSION INFORMATION
VERS. 2.0 : CWLS Log ASCII Standard - version 2.0
WRAP.  NO : One line per depth step
~WELL INFORMATION
#MNEMONIC   .UNIT                                           VALUE :DESCRIPTION
#------------------------------------------------------------------------------
STRT        .M                                          2870.4541 :START DEPTH
STOP        .M                                          3966.9722 :STOP DEPTH
STEP        .M                                             0.1524 :STEP
NULL        .                                           -999.2500 :NULL VALUE
COMP        .                                             UNKNOWN :COMPANY
WELL        .                                            418D-ST1 :WELL
FLD         .                                             UNKNOWN :FIELD
LOC         .                                             UNKNOWN :LOCATION
CNTY        .                                             UNKNOWN :COUNTY
STAT        .                                             UNKNOWN :STATE
CTRY        .                                             UNKNOWN :COUNTRY
SRVC        .                                             UNKNOWN :SERVICE COMPANY
DATE        .                                             UNKNOWN :LOG DATE
UWI         .                                            418D-ST1 :UNIQUE WELL ID
XCOORD      .                                       597130.010000 :SURFACE X
YCOORD      .                                      2144879.410000 :SURFACE Y
LAT         .                                           19.396924 :LATITUDE
LON         .                                          -92.074978 :LONGITUDE
ELEV        .M                                             0.0000 :SURFACE ELEV
ELEV_TYPE   .                                                  NA :ELEV TYPE
~CURVE INFORMATION
#MNEMONIC.UNIT        API CODE       : CURVE DESCRIPTION
#------------------------------------------------------------------------------
DEPTH    .M                          : Measured Depth
CALI     .inches      UNKNOWN        : CALI:litodensidad:rC:NONE:v0 (auto-composite)
CGR      .API         UNKNOWN        : CGR:litodensidad:rC:NONE:v0 (auto-composite)
DRHO     .g/cm3       UNKNOWN        : DRHO:litodensidad:rC:NONE:v0 (auto-composite)
DT       .us/ft       UNKNOWN        : DT:DT-Load:rC:NONE:v0 (auto-composite)
GR       .API         UNKNOWN        : GR:litodensidad:rC:NONE:v0 (auto-composite)
LLD      .ohm.m       UNKNOWN        : LLD:PETROWORKS:rC:NONE:v1 
LLS      .ohm.m       UNKNOWN        : LLS:PETROWORKS:rC:NONE:v1 
MSFL     .ohm.m       UNKNOWN        : MSFL:resistivos:rC:NONE:v0 (auto-composite)
NPHI     .v/v_decimal UNKNOWN        : NPHI:litodensidad:rC:NONE:v0 (auto-composite)
PEF      .UNKNOWN     UNKNOWN        : PEF:litodensidad:rC:NONE:v0 (auto-composite)
POTA     .UNKNOWN     UNKNOWN        : POTA:litodensidad:rC:NONE:v0 (auto-composite)
RHOB     .g/cm3       UNKNOWN        : RHOB:litodensidad:rC:NONE:v0 (auto-composite)
THOR     .ppm         UNKNOWN        : THOR:litodensidad:rC:NONE:v0 (auto-composite)
URAN     .ppm         UNKNOWN        : URAN:litodensidad:rC:NONE:v0 (auto-composite)
~A     DEPTH         CALI          CGR         DRHO           DT           GR          LLD          LLS         MSFL         NPHI          PEF         POTA         RHOB         THOR         URAN
# ...
   3145.6885      16.6563      86.0431       0.0440    -999.2500     100.0680       8.5581       6.4705       0.5171       0.2170       5.9453       0.0305       2.3926      10.1263       1.8025
   3145.8408      17.5938      86.4713       0.0342    -999.2500     101.0118       9.0073       6.6192       0.5029       0.2288       4.5938       0.0305       2.4592      10.2474       1.8688
   3145.9934      16.0469      87.3559       0.0239    -999.2500     102.5360       9.1559       6.6902       0.4707       0.1984       4.1250       0.0309       2.5308      10.3120       1.9510
   3146.1458      15.1094      84.9795       0.0280    -999.2500      99.3547       9.3796       6.7502       0.4648       0.1604       4.2266       0.0300       2.5857      10.0613       1.8476
   3146.2981      15.0703      80.4664       0.0224    -999.2500      93.3500      12.5170       8.0994       0.4697       0.1613       4.6250       0.0286       2.5987       9.4398       1.6558
   3146.4504      16.0625      79.0216       0.0170    -999.2500      92.0002      16.2949       9.8436       0.4858       0.1562       4.7852       0.0281       2.6161       9.2590       1.6681
   3146.6028      16.2344      77.6156       0.0148    -999.2500      90.0007      12.5927       7.4649       0.4731       0.1437       5.3672       0.0276       2.6368       9.1117       1.5918
   3146.7554      15.8750      75.1051       0.0094    -999.2500      86.3138      10.6734       6.3163       0.4917       0.1193       7.2891       0.0269       2.6553       8.7192       1.4406
   3146.9077      14.8359      73.6346      -0.0065    -999.2500      84.4845       9.2706       5.6343       0.5166       0.0939       8.4453       0.0265       2.4313       8.5074       1.3945
   3147.0601      17.3906      75.5651      -0.0110    -999.2500      87.5029       7.6903       4.7977       0.4624       0.0674      10.5547       0.0271       2.2092       8.7559       1.5343
   3147.2124      17.8750      76.5138      -0.0074    -999.2500      88.8558       6.2294       4.0130       0.3857       0.1936      10.7969       0.0273       2.0958       8.9152       1.5862
   3147.3650      22.4063      78.9940       0.0082    -999.2500      91.4764       6.2908       4.0962       0.3794       0.3018      11.2109       0.0279       2.1625       9.3397       1.6043
   3147.5173      25.0938      76.3797       0.0900    -999.2500      87.6231       7.5321       4.8225       0.4009       0.4069       7.0586       0.0268       2.3892       9.0938       1.4450
   3147.6697      25.5000      78.7080       0.1397    -999.2500      98.9218       9.0282       5.7879       0.4526       0.3414       5.3320       0.0277       2.5647       9.3507       2.5979
   3147.8220      17.2188      82.7881       0.1698    -999.2500     105.7396      13.4748       8.1282       0.4771       0.2838       5.5156       0.0290       2.5896       9.9085       2.9498
   3147.9746      15.1563      80.3889       0.1952    -999.2500     103.0223      11.6490       6.8894       0.4800       0.2072       6.1953       0.0283       2.5805       9.5616       2.9089
   3148.1270      15.1250      78.5448       0.1982    -999.2500     100.8322       8.8405       5.3678       0.4585       0.1592       7.7500       0.0277       2.5182       9.3222       2.8645
   3148.2793      14.8672      76.5901       0.1389    -999.2500      97.6996       8.2156       4.9768       0.4551       0.2325       7.0938       0.0270       2.3799       9.1026       2.7131
   3148.4316      16.1719      73.5319       0.0930    -999.2500      93.7639      19.9791      10.7917       0.3599       0.3083       7.8828       0.0255       2.3098       8.9020       2.6003
   3148.5840      19.2969      74.0480       0.0315    -999.2500      95.6212      50.6470      24.9071       0.3965       0.3215       6.8398       0.0256       2.3153       8.9926       2.7727
   3148.7366      21.6719      74.8185       0.0070    -999.2500      96.6169      54.9257      26.4725       0.4053       0.2060       6.9258       0.0258       2.4535       9.1008       2.8016
   3148.8889      21.9688      72.3371      -0.0002    -999.2500      93.2966      58.0770      27.5935       0.4302       0.0872       6.0547       0.0249       2.6031       8.8271       2.6938
   3149.0413      22.2969      55.8068      -0.0058    -999.2500      72.4519      59.3846      28.0843       0.4521       0.0284       4.8555       0.0197       2.6923       6.6198       2.1393
   3149.1936      14.1016      44.5009      -0.0146    -999.2500      59.4075      59.9454      28.4333       0.4580       0.0407       4.0078       0.0150       2.7510       5.5635       1.9158
   3149.3462      13.8438      35.4123      -0.0119    -999.2500      48.5943      64.5071      30.1642       0.4546       0.0296       3.7754       0.0136       2.8138       3.7027       1.6942
   3149.4985      13.8438      35.4145      -0.0085    -999.2500      48.9315      76.9916      34.8820       0.4600       0.0242       3.7480       0.0137       2.8458       3.6660       1.7373
   3149.6509      13.8438      34.0835      -0.0057    -999.2500      46.4125      80.6350      37.1993       0.4541       0.0249       3.8730       0.0133       2.8450       3.4743       1.5846
   3149.8032      13.9688      35.4835      -0.0017    -999.2500      48.4811      58.5001      29.4331       0.4512       0.0269       3.8633       0.0138       2.8614       3.6364       1.6705
   3149.9558      14.0078      34.3349      -0.0010    -999.2500      46.5175      46.8787      23.7614       0.4429       0.0272       4.0586       0.0135       2.8586       3.4761       1.5658
   3150.1082      14.0078      48.7160      -0.0005    -999.2500      59.6224      45.6416      22.1500       0.4434       0.0341       6.3633       0.0199       2.8709       4.6209       1.4017
   3150.2605      14.0547      62.3515      -0.0006    -999.2500      76.0988      44.0415      20.8962       0.4595       0.0626       9.2266       0.0219       2.8499       7.4168       1.7668
   3150.4128      14.6094      74.4434      -0.0356    -999.2500      89.8185      34.7937      16.8007       0.4756       0.0856      10.9844       0.0251       2.3676       9.3081       1.9761
   3150.5652      15.9922      86.9064      -0.0334    -999.2500     101.7467      20.2040      10.5463       0.4307       0.1384      11.9609       0.0318       2.1230       9.8167       1.9073
   3150.7178      16.3750      89.8031      -0.0113    -999.2500     106.0533      11.1086       5.7839       0.3945       0.2086      10.0234       0.0329       1.9945      10.1062       2.0885
   3150.8701      20.7344      88.9354       0.0222    -999.2500     104.6393       8.4781       4.5198       0.3945       0.2659       8.0391       0.0326       2.1008       9.9912       2.0183
   3151.0225      22.3750      88.9192       0.0833    -999.2500     104.6158       7.9493       4.2803       0.3965       0.3130       8.0938       0.0327       2.2656       9.9799       2.0174
   3151.1748      23.7031      89.1026       0.0902    -999.2500     104.9685       8.2489       4.3805       0.4976       0.2928       7.8086       0.0327       2.3839      10.0209       2.0391
   3151.3274      21.7500      90.7178       0.0686    -999.2500     107.7688       9.3307       4.8584       0.5020       0.2679       8.4531       0.0332       2.3570      10.2444       2.1914
   3151.4797      18.0000      87.4684       0.0286    -999.2500     103.5849      10.7335       5.7643       0.4961       0.2425       7.3906       0.0320       2.3284       9.8932       2.0713
   3151.6321      18.5781      89.7693       0.0240    -999.2500     107.8973      10.6071       5.7358       0.4800       0.2217       7.5078       0.0326       2.3269      10.2320       2.3299
   3151.7844      17.8750      90.5827       0.0217    -999.2500     109.3681      11.8078       5.9943       0.4541       0.2288       6.9727       0.0329       2.3665      10.3140       2.4144
   3151.9370      17.2656      90.2843       0.0198    -999.2500     109.3161      10.3811       5.1397       0.4595       0.2190       8.0391       0.0328       2.3503      10.2771       2.4460
