#------------------------------------------------------------------------------
#
#   Created by  : [OpenWorks] Log Export Utility (LEXP)
#   Created on  : 2016-05-23 11:55:56
#   Project     : CANT971
#   User        : R5K
#   Interpreter : PEP
#
#------------------------------------------------------------------------------
~VERSION INFORMATION
VERS. 2.0 : CWLS Log ASCII Standard - version 2.0
WRAP.  NO : One line per depth step
~WELL INFORMATION
#MNEMONIC   .UNIT                                           VALUE :DESCRIPTION
#------------------------------------------------------------------------------
STRT        .M                                          3767.4790 :START DEPTH
STOP        .M                                          5548.2729 :STOP DEPTH
STEP        .M                                             0.1524 :STEP
NULL        .                                           -999.2500 :NULL VALUE
COMP        .                                             UNKNOWN :COMPANY
WELL        .                                            418D-ST2 :WELL
FLD         .                                             UNKNOWN :FIELD
LOC         .                                             UNKNOWN :LOCATION
CNTY        .                                             UNKNOWN :COUNTY
STAT        .                                             UNKNOWN :STATE
CTRY        .                                             UNKNOWN :COUNTRY
SRVC        .                                             UNKNOWN :SERVICE COMPANY
DATE        .                                             UNKNOWN :LOG DATE
UWI         .                                            418D-ST2 :UNIQUE WELL ID
XCOORD      .                                       597130.010000 :SURFACE X
YCOORD      .                                      2144879.410000 :SURFACE Y
LAT         .                                           19.396924 :LATITUDE
LON         .                                          -92.074978 :LONGITUDE
ELEV        .M                                             0.0000 :SURFACE ELEV
ELEV_TYPE   .                                                  NA :ELEV TYPE
~CURVE INFORMATION
#MNEMONIC.UNIT        API CODE       : CURVE DESCRIPTION
#------------------------------------------------------------------------------
DEPTH    .M                          : Measured Depth
CALI     .inches      UNKNOWN        : CALI:PETROWORKS:rC:NONE:v1 
CGR      .API         UNKNOWN        : CGR:PETROWORKS:rC:NONE:v2 
DRHO     .g/cm3       UNKNOWN        : DRHO:PETROWORKS:rC:NONE:v1 
DT       .us/ft       UNKNOWN        : DT:PETROWORKS:rC:NONE:v2 
GR       .API         UNKNOWN        : GR:PETROWORKS:rC:NONE:v2 
ILD      .ohm.m       UNKNOWN        : ILD:PETROWORKS:rC:NONE:v2 
ILM      .ohm.m       UNKNOWN        : ILM:PETROWORKS:rC:NONE:v2 
NPHI     .v/v_decimal UNKNOWN        : NPHI:PETROWORKS:rC:NONE:v3 
PEF      .b/elec      UNKNOWN        : PEF:PETROWORKS:rC:NONE:v1 
POTA     .wtpercent   UNKNOWN        : POTA:PETROWORKS:rC:NONE:v2 
RHOB     .UNKNOWN     UNKNOWN        : RHOB:PETROWORKS:rC:NONE:v1 
THOR     .ppm         UNKNOWN        : THOR:PETROWORKS:rC:NONE:v2 
URAN     .ppm         UNKNOWN        : URAN:PETROWORKS:rC:NONE:v2 
~A     DEPTH         CALI          CGR         DRHO           DT           GR          ILD          ILM         NPHI          PEF         POTA         RHOB         THOR         URAN
# ...
   4806.8472       6.1334      13.7629       0.0459      52.4413      45.3474     100.8190      83.1275       0.0263       4.4988       0.0035       2.7699       2.5963       3.6726
   4806.9995       6.1346      14.4642       0.0467      51.8758      47.0765     117.1758      90.2450       0.0257       4.5264       0.0042       2.7772       2.4501       3.8118
   4807.1519       6.1254      14.8066       0.0474      51.2817      47.5879     122.4095      92.9768       0.0270       4.5372       0.0046       2.7788       2.3411       3.8317
   4807.3042       6.1280      14.2828       0.0460      50.6618      43.6650     100.2706      79.8627       0.0279       4.5398       0.0045       2.7729       2.2104       3.4724
   4807.4565       6.1576      13.7811       0.0420      50.2254      38.6458      69.8417      60.7908       0.0278       4.5430       0.0044       2.7652       2.1238       3.0009
   4807.6089       6.1754      13.6750       0.0426      50.6118      37.1381      53.4850      49.7373       0.0285       4.5321       0.0042       2.7649       2.1779       2.8517
   4807.7612       6.1764      13.7499       0.0453      51.1858      37.0559      44.5853      41.9400       0.0307       4.5152       0.0039       2.7686       2.3684       2.8252
   4807.9136       6.1704      14.1944       0.0474      52.1449      37.6427      35.8221      34.1337       0.0341       4.5596       0.0037       2.7717       2.6271       2.8320
   4808.0664       6.1546      15.2992       0.0471      53.2903      39.4313      27.8960      27.2739       0.0381       4.6409       0.0038       2.7659       2.9206       2.9077
   4808.2188       6.1193      16.7814       0.0429      54.9703      41.5085      23.7994      22.0006       0.0431       4.6813       0.0042       2.7458       3.1910       2.9493
   4808.3711       6.1041      17.7853       0.0412      56.0232      42.6219      23.9154      18.3691       0.0490       4.7340       0.0045       2.7239       3.3609       2.9263
   4808.5234       6.1377      18.3334       0.0388      54.7512      42.9427      23.5728      15.9766       0.0512       4.8674       0.0047       2.7027       3.4558       2.8845
   4808.6758       6.1991      18.6668       0.0362      53.2255      43.1379      20.2839      14.2991       0.0488       4.9392       0.0048       2.6862       3.5095       2.8619
   4808.8281       6.1960      18.5663       0.0405      52.0079      43.1098      17.4230      13.6936       0.0445       4.8654       0.0050       2.6927       3.3738       2.8655
   4808.9805       6.1236      17.9076       0.0450      51.9052      42.8464      18.6985      15.5233       0.0395       4.7041       0.0051       2.7098       3.0773       2.9070
   4809.1328       6.0564      15.9987       0.0499      52.1709      41.9189      27.0549      21.6171       0.0357       4.6263       0.0048       2.7302       2.6311       3.0311
   4809.2856       6.0682      14.3376       0.0555      51.5212      40.0326      43.9995      39.6183       0.0339       4.5966       0.0043       2.7631       2.3482       3.0158
   4809.4380       6.1102      14.0474       0.0556      50.9601      38.7314      52.0679      53.4547       0.0332       4.5310       0.0043       2.7794       2.2871       2.9049
   4809.5903       6.1194      13.2938       0.0481      51.0459      37.1192      48.3537      47.5143       0.0332       4.4844       0.0039       2.7768       2.2454       2.7910
   4809.7427       6.1162      12.3287       0.0411      51.5964      35.7519      46.7677      37.0775       0.0337       4.5255       0.0032       2.7735       2.2899       2.7126
   4809.8950       6.1064      12.1511       0.0392      52.8936      35.4539      44.0144      30.0659       0.0345       4.6069       0.0029       2.7669       2.3833       2.6790
   4810.0474       6.1058      12.1967       0.0395      54.1389      35.3527      36.5266      23.6023       0.0350       4.6227       0.0028       2.7605       2.4376       2.6562
   4810.1997       6.1173      12.2028       0.0420      54.7945      35.3220      28.1319      18.7191       0.0350       4.6259       0.0030       2.7513       2.3484       2.6686
   4810.3521       6.1083      12.6098       0.0449      54.7698      35.4398      20.3794      15.7486       0.0348       4.6424       0.0034       2.7339       2.2562       2.6651
   4810.5044       6.0981      12.9643       0.0458      53.6227      35.7143      15.5521      14.9056       0.0337       4.6412       0.0037       2.7164       2.2075       2.6788
   4810.6572       6.1066      13.0790       0.0456      52.3484      35.9789      14.4038      15.9491       0.0316       4.6739       0.0038       2.7061       2.2204       2.7025
   4810.8096       6.1116      13.1571       0.0504      51.0120      36.1656      16.9721      18.1389       0.0296       4.7066       0.0037       2.7149       2.2738       2.7108
   4810.9619       6.1071      13.1748       0.0596      50.0252      36.4224      22.5183      20.5966       0.0278       4.7583       0.0036       2.7398       2.3291       2.7285
   4811.1143       6.0830      12.9442       0.0631      49.5919      36.7598      27.1421      22.2616       0.0262       4.7495       0.0034       2.7587       2.3781       2.7745
   4811.2666       6.0689      12.6652       0.0651      49.3506      37.1764      29.6298      23.4007       0.0245       4.6844       0.0030       2.7769       2.4864       2.8255
   4811.4189       6.0767      12.8546       0.0685      49.0602      37.6351      32.4586      24.8621       0.0230       4.6301       0.0030       2.7867       2.5744       2.8456
   4811.5713       6.0850      13.7788       0.0719      48.6563      38.2389      39.7615      27.3939       0.0226       4.5563       0.0035       2.7870       2.6073       2.8320
   4811.7236       6.0712      14.4289       0.0737      47.9876      38.9994      51.2061      29.8789       0.0232       4.4898       0.0041       2.7852       2.5151       2.8794
   4811.8760       6.0549      14.6663       0.0716      47.3699      39.8935      61.5297      31.8331       0.0260       4.4515       0.0043       2.7814       2.4481       2.9755
   4812.0288       6.0811      15.5841       0.0689      46.9856      41.0306      64.6162      33.4592       0.0300       4.5061       0.0046       2.7767       2.6006       3.0069
   4812.1812       6.1362      17.7733       0.0673      47.0844      43.6388      55.0437      33.6294       0.0363       4.6804       0.0055       2.7724       2.8514       3.0554
   4812.3335       6.1667      19.1422       0.0664      47.6032      45.6585      45.4514      32.8838       0.0411       4.7909       0.0062       2.7685       2.9291       3.1310
   4812.4858       6.1338      21.2893       0.0621      48.6217      48.9949      33.4788      31.2010       0.0460       4.7713       0.0070       2.7464       3.1841       3.2870
   4812.6382       6.1054      23.1794       0.0583      49.7612      51.6068      23.9930      29.5452       0.0505       4.7693       0.0076       2.7243       3.4683       3.3822
   4812.7905       6.0955      23.7687       0.0524      51.4302      51.8070      21.5412      24.8647       0.0560       4.7871       0.0077       2.6988       3.6266       3.3245
   4812.9429       6.0819      24.0374       0.0482      53.0616      51.8148      20.6359      19.5386       0.0590       4.7672       0.0076       2.6814       3.7276       3.2841
   4813.0952       6.0918      24.5371       0.0479      54.8704      51.9401      19.6420      17.2688       0.0548       4.7191       0.0078       2.6884       3.8012       3.2597
   4813.2480       6.0814      25.9196       0.0467      56.4442      52.1655      17.6164      16.7644       0.0463       4.6870       0.0083       2.7063       3.9811       3.1536
   4813.4004       6.0731      27.7145       0.0443      57.0740      52.1165      19.0920      18.5086       0.0382       4.6990       0.0092       2.7264       4.1143       2.9718
