#------------------------------------------------------------------------------
#
#   Created by  : [OpenWorks] Log Export Utility (LEXP)
#   Created on  : 2016-05-23 11:51:58
#   Project     : CANT971
#   User        : R5K
#   Interpreter : PEP
#
#------------------------------------------------------------------------------
~VERSION INFORMATION
VERS. 2.0 : CWLS Log ASCII Standard - version 2.0
WRAP.  NO : One line per depth step
~WELL INFORMATION
#MNEMONIC   .UNIT                                           VALUE :DESCRIPTION
#------------------------------------------------------------------------------
STRT        .M                                           695.7060 :START DEPTH
STOP        .M                                          3054.7056 :STOP DEPTH
STEP        .M                                             0.1524 :STEP
NULL        .                                           -999.2500 :NULL VALUE
COMP        .                                   PEMEX EXPL & PROD :COMPANY
WELL        .                                                 17D :WELL
FLD         .                                           CANTARELL :FIELD
LOC         .                                             UNKNOWN :LOCATION
CNTY        .                                      CD. DEL CARMEN :COUNTY
STAT        .                                            CAMPECHE :STATE
CTRY        .                                              MEXICO :COUNTRY
SRVC        .                                             UNKNOWN :SERVICE COMPANY
DATE        .                                             UNKNOWN :LOG DATE
UWI         .                                          3060000460 :UNIQUE WELL ID
XCOORD      .                                       603362.626000 :SURFACE X
YCOORD      .                                      2145093.910000 :SURFACE Y
LAT         .                                           19.398550 :LATITUDE
LON         .                                          -92.015617 :LONGITUDE
ELEV        .M                                            27.1400 :SURFACE ELEV
ELEV_TYPE   .                                                  KB :ELEV TYPE
~CURVE INFORMATION
#MNEMONIC.UNIT        API CODE       : CURVE DESCRIPTION
#------------------------------------------------------------------------------
DEPTH    .M                          : Measured Depth
CALI     .in          UNKNOWN        : CALI:UNKNOWN:rC:NONE:v0 (auto-composite)
DT       .us/ft       UNKNOWN        : DT:DT:rC:NONE:v0 (auto-composite)
GR       .API         UNKNOWN        : GR:UNKNOWN:rC:NONE:v0 (auto-composite)
ILD      .ohmm        UNKNOWN        : ILD:UNKNOWN:rC:NONE:v0 (auto-composite)
LLD      .ohmm        UNKNOWN        : LLD:UNKNOWN:rC:NONE:v0 (auto-composite)
LLS      .ohmm        UNKNOWN        : LLS:UNKNOWN:rC:NONE:v0 (auto-composite)
MSFL     .ohmm        UNKNOWN        : MSFL:UNKNOWN:rC:NONE:v0 (auto-composite)
NPHI     .v/v_decimal UNKNOWN        : NPHI:UNKNOWN:rC:NONE:v0 (auto-composite)
PEF      .b/elec      UNKNOWN        : PEF:UNKNOWN:rC:NONE:v0 (auto-composite)
RHOB     .g/cm3       UNKNOWN        : RHOB:UNKNOWN:rC:NONE:v0 (auto-composite)
~A     DEPTH         CALI           DT           GR          ILD          LLD          LLS         MSFL         NPHI          PEF         RHOB
# ...
   2539.1365       6.3320      57.1349      39.0741    -999.2500     112.0359     115.6153     234.2462       0.0999       3.3314       2.7625
   2539.2888       6.3320      61.0873      39.8160    -999.2500     119.7880     122.8700     251.7850       0.1029       3.3820       2.7500
   2539.4412       6.3320      68.4907      39.9093    -999.2500     137.7480     139.8852     255.1922       0.0978       3.4379       2.7450
   2539.5935       6.3320      74.2339      40.0030    -999.2500     155.7870     156.9480     258.6090       0.0927       3.4940       2.7400
   2539.7461       6.3320      68.1492      36.6249    -999.2500     179.4075     179.7063     242.1166       0.0856       3.4340       2.7450
   2539.8984       6.3320      60.8550      33.2260    -999.2500     203.1730     202.5310     225.5760       0.0783       3.3740       2.7500
   2540.0508       6.3320      62.2206      30.5089    -999.2500     190.2060     189.5183     188.7536       0.0812       3.2836       2.7515
   2540.2031       6.3320      64.0791      27.7660    -999.2500     177.1160     176.4660     151.8190       0.0842       3.1930       2.7530
   2540.3557       6.3320      62.7141      30.0447    -999.2500     148.2804     148.2737     143.9065       0.0935       3.1705       2.7505
   2540.5081       6.3320      60.4883      32.3380    -999.2500     119.2600     119.9920     135.9690       0.1028       3.1480       2.7480
   2540.6604       6.3320      61.0983      36.4011    -999.2500     108.4706     110.0050     153.2151       0.1095       3.1700       2.7400
   2540.8127       6.3320      62.7532      40.4710    -999.2500      97.6630      99.9850     170.5180       0.1163       3.1920       2.7320
   2540.9651       6.3320      66.9742      42.0877    -999.2500     103.1396     105.9308     168.5499       0.1111       3.1680       2.7305
   2541.1177       6.3320      71.9763      43.7100    -999.2500     108.6350     111.8970     166.5750       0.1059       3.1440       2.7290
   2541.2700       6.3320      74.6090      43.0438    -999.2500     104.5757     109.0955     145.0627       0.1061       3.1305       2.7400
   2541.4224       6.3320      77.1047      42.3730    -999.2500     100.4890     106.2840     123.4740       0.1064       3.1170       2.7510
   2541.5747       6.3320      79.5438      45.0992    -999.2500      92.3875      99.0175     108.1998       0.1161       3.1285       2.7445
   2541.7273       6.3320      81.6277      47.8530    -999.2500      84.2040      91.7360      92.8940       0.1258       3.1400       2.7380
   2541.8796       6.3320      81.5417      53.4054    -999.2500      81.9880      89.2687     106.5021       0.1325       3.1655       2.7215
   2542.0320       6.3320      81.1846      58.9880    -999.2500      79.7600      86.7960     120.1400       0.1393       3.1910       2.7050
   2542.1843       6.3320      81.1864      61.8960    -999.2500      83.9705      90.4133     139.3722       0.1354       3.1745       2.7065
   2542.3369       6.3320      81.4056      64.8060    -999.2500      88.1840      94.0390     158.6490       0.1315       3.1580       2.7080
   2542.4893       6.3335      82.1347      63.6384    -999.2500      92.1739      97.3504     160.7135       0.1262       3.1370       2.7110
   2542.6416       6.3350      82.9536      62.4660    -999.2500      96.1800     100.6700     162.7830       0.1207       3.1160       2.7140
   2542.7939       6.3350      83.3707      64.3037    -999.2500      98.0914     102.2055     163.5246       0.1065       3.1749       2.7100
   2542.9463       6.3350      83.7346      66.1550    -999.2500     100.0170     103.7450     164.2680       0.0920       3.2340       2.7060
   2543.0989       6.3335      84.0839      68.5739    -999.2500      98.2386     102.2315     163.1490       0.0865       3.3044       2.7140
   2543.2512       6.3320      84.4256      71.0150    -999.2500      96.4440     100.7140     162.0270       0.0809       3.3750       2.7220
   2543.4036       6.3320      81.2102      68.3374    -999.2500      88.8584      93.7304     166.6390       0.0913       3.4100       2.7320
   2543.5559       6.3320      80.3434      65.6480    -999.2500      81.2390      86.7270     171.2640       0.1018       3.4450       2.7420
   2543.7085       6.3320      86.4108      61.8036    -999.2500      75.0926      81.2076     159.4120       0.1065       3.4435       2.7345
   2543.8608       6.3320      93.7906      57.9540    -999.2500      68.9380      75.6720     147.5250       0.1114       3.4420       2.7270
   2544.0132       6.3320      90.3186      60.0536    -999.2500      73.8695      81.4246     124.3577       0.1158       3.4555       2.7185
   2544.1655       6.3320      86.8829      62.1630    -999.2500      78.8240      87.1950     101.1190       0.1202       3.4690       2.7100
   2544.3181       6.3320      87.4172      67.2651    -999.2500      85.5898      94.5502     114.6498       0.1277       3.4770       2.6985
   2544.4705       6.3320      88.9747      72.4000    -999.2500      92.3990     101.9290     128.2240       0.1352       3.4850       2.6870
   2544.6228       6.3320      90.0217      80.5318    -999.2500      93.1360     102.7771     139.3789       0.1411       3.4845       2.6800
   2544.7751       6.3320      90.8701      88.7300    -999.2500      93.8790     103.6280     150.5710       0.1471       3.4840       2.6730
   2544.9275       6.3320      91.2114      94.7467    -999.2500      89.1236      98.4549     163.9878       0.1465       3.4780       2.6710
   2545.0801       6.3320      92.1424     100.7940    -999.2500      84.3440      93.2640     177.4510       0.1459       3.4720       2.6690
   2545.2324       6.3320      95.3277     102.2670    -999.2500      82.5063      91.5017     174.0201       0.1462       3.5020       2.6665
   2545.3848       6.3320      98.6828     103.7430    -999.2500      80.6650      89.7330     170.5770       0.1465       3.5320       2.6640
   2545.5371       6.3320      94.3575     107.8798    -999.2500      85.6083      96.3206     168.7649       0.1375       3.4686       2.6780
   2545.6897       6.3320      90.1449     112.0320    -999.2500      90.5700     102.9220     166.9490       0.1284       3.4050       2.6920
   2545.8420       6.3320      87.7905     110.3853    -999.2500      98.0163     112.3695     177.0273       0.1197       3.3086       2.7094
   2545.9944       6.3320      86.1544     108.7270    -999.2500     105.5150     121.8380     187.1280       0.1110       3.2120       2.7270
   2546.1467       6.3320      86.6620     104.1677    -999.2500     108.9979     126.7637     168.1333       0.1121       3.3508       2.7240
   2546.2991       6.3320      87.3370      99.5610    -999.2500     112.5170     131.7010     149.0940       0.1132       3.4900       2.7210
   2546.4517       6.3320      88.2826     100.3941    -999.2500     117.1204     137.5782     142.4617       0.1120       3.6633       2.7085
   2546.6040       6.3320      89.2421     101.2320    -999.2500     121.7500     143.4700     135.8130       0.1109       3.8370       2.6960
   2546.7563       6.3320      89.6983     103.7462    -999.2500     132.6705     157.8103     146.4991       0.1144       3.8874       2.6900
   2546.9087       6.3320      89.9693     106.2630    -999.2500     143.6020     172.1880     157.2130       0.1179       3.9380       2.6840
   2547.0613       6.3320      89.7782     106.8547    -999.2500     164.3526     199.7329     183.4487       0.1211       3.9700       2.6820
   2547.2136       6.3320      89.8370     107.4490    -999.2500     185.1930     227.3530     209.7560       0.1242       4.0020       2.6800
   2547.3660       6.3320      91.3293     108.1249    -999.2500     311.5326     384.6538     366.0293       0.1315       3.9920       2.6611
   2547.5183       6.3320      92.4755     108.8060    -999.2500     438.8430     542.4040     522.7490       0.1388       3.9820       2.6420
