#------------------------------------------------------------------------------
#
#   Created by  : [OpenWorks] Log Export Utility (LEXP)
#   Created on  : 2016-05-23 11:55:55
#   Project     : CANT971
#   User        : R5K
#   Interpreter : PEP
#
#------------------------------------------------------------------------------
~VERSION INFORMATION
VERS. 2.0 : CWLS Log ASCII Standard - version 2.0
WRAP.  NO : One line per depth step
~WELL INFORMATION
#MNEMONIC   .UNIT                                           VALUE :DESCRIPTION
#------------------------------------------------------------------------------
STRT        .M                                          2870.4541 :START DEPTH
STOP        .M                                          3966.9722 :STOP DEPTH
STEP        .M                                             0.1524 :STEP
NULL        .                                           -999.2500 :NULL VALUE
COMP        .                                             UNKNOWN :COMPANY
WELL        .                                            418D-ST1 :WELL
FLD         .                                             UNKNOWN :FIELD
LOC         .                                             UNKNOWN :LOCATION
CNTY        .                                             UNKNOWN :COUNTY
STAT        .                                             UNKNOWN :STATE
CTRY        .                                             UNKNOWN :COUNTRY
SRVC        .                                             UNKNOWN :SERVICE COMPANY
DATE        .                                             UNKNOWN :LOG DATE
UWI         .                                            418D-ST1 :UNIQUE WELL ID
XCOORD      .                                       597130.010000 :SURFACE X
YCOORD      .                                      2144879.410000 :SURFACE Y
LAT         .                                           19.396924 :LATITUDE
LON         .                                          -92.074978 :LONGITUDE
ELEV        .M                                             0.0000 :SURFACE ELEV
ELEV_TYPE   .                                                  NA :ELEV TYPE
~CURVE INFORMATION
#MNEMONIC.UNIT        API CODE       : CURVE DESCRIPTION
#------------------------------------------------------------------------------
DEPTH    .M                          : Measured Depth
CALI     .inches      UNKNOWN        : CALI:litodensidad:rC:NONE:v0 (auto-composite)
CGR      .API         UNKNOWN        : CGR:litodensidad:rC:NONE:v0 (auto-composite)
DRHO     .g/cm3       UNKNOWN        : DRHO:litodensidad:rC:NONE:v0 (auto-composite)
DT       .us/ft       UNKNOWN        : DT:DT-Load:rC:NONE:v0 (auto-composite)
GR       .API         UNKNOWN        : GR:litodensidad:rC:NONE:v0 (auto-composite)
LLD      .ohm.m       UNKNOWN        : LLD:PETROWORKS:rC:NONE:v1 
LLS      .ohm.m       UNKNOWN        : LLS:PETROWORKS:rC:NONE:v1 
MSFL     .ohm.m       UNKNOWN        : MSFL:resistivos:rC:NONE:v0 (auto-composite)
NPHI     .v/v_decimal UNKNOWN        : NPHI:litodensidad:rC:NONE:v0 (auto-composite)
PEF      .UNKNOWN     UNKNOWN        : PEF:litodensidad:rC:NONE:v0 (auto-composite)
POTA     .UNKNOWN     UNKNOWN        : POTA:litodensidad:rC:NONE:v0 (auto-composite)
RHOB     .g/cm3       UNKNOWN        : RHOB:litodensidad:rC:NONE:v0 (auto-composite)
THOR     .ppm         UNKNOWN        : THOR:litodensidad:rC:NONE:v0 (auto-composite)
URAN     .ppm         UNKNOWN        : URAN:litodensidad:rC:NONE:v0 (auto-composite)
~A     DEPTH         CALI          CGR         DRHO           DT           GR          LLD          LLS         MSFL         NPHI          PEF         POTA         RHOB         THOR         URAN
# ...
   3427.3237      11.7969      17.9618      -0.0016      47.8000      19.4833     490.7224     291.2651       0.8726       0.0400       4.0742       0.0054       2.7821       2.5316       0.1956
   3427.4761      11.7266      16.9927      -0.0034      19.6000      17.9958     507.2054     297.7214       0.9053       0.0425       3.9824       0.0052       2.7695       2.3558       0.1289
   3427.6284      11.7891      18.5277      -0.0016      19.4000      20.4698     514.8636     300.1040       0.8467       0.0431       3.6660       0.0055       2.7725       2.6184       0.2496
   3427.7810      11.7344      19.4387       0.0010      50.1000      22.4975     526.3243     304.0652       0.7949       0.0471       3.6250       0.0060       2.7851       2.6711       0.3931
   3427.9333      11.7109      18.9729       0.0028      46.0000      21.9645     539.7561     307.2913       0.7505       0.0518       3.5996       0.0058       2.7863       2.6093       0.3845
   3428.0857      11.7578      19.0180      -0.0013      70.9000      22.2011     567.9653     318.5622       0.6890       0.0563       3.7422       0.0059       2.7763       2.5829       0.4091
   3428.2380      11.7734      19.2828       0.0002      81.9000      22.6235     608.2141     334.3770       0.6616       0.0607       3.7207       0.0059       2.7652       2.6794       0.4294
   3428.3904      11.7500      17.3634       0.0028      50.2000      20.0908     636.6439     342.3004       0.6392       0.0675       3.7383       0.0048       2.7574       2.6327       0.3505
   3428.5430      11.7656      17.4415       0.0035      49.5000      20.9328     664.2900     350.4700       0.6362       0.0709       3.6367       0.0048       2.7548       2.6581       0.4487
   3428.6953      11.7969      17.7473       0.0063      49.2000      21.9755     685.1506     356.5414       0.6514       0.0711       3.7402       0.0050       2.7554       2.6309       0.5434
   3428.8477      11.8047      15.7891       0.0062      49.8000      19.5816     675.0961     350.9830       0.7236       0.0722       3.7676       0.0043       2.7482       2.4290       0.4874
   3429.0000      11.7969      16.8434       0.0044      50.2000      21.0276     649.9012     337.5543       0.8354       0.0781       3.8535       0.0046       2.7341       2.5609       0.5378
   3429.1526      11.6875      14.9931       0.0032      49.9000      17.8962     631.4039     328.1669       0.8921       0.0861       3.7598       0.0043       2.7171       2.2008       0.3731
   3429.3049      11.7500      15.9517       0.0011      50.2000      18.8196     621.5732     321.6489       0.8940       0.0913       3.7598       0.0048       2.7079       2.2347       0.3686
   3429.4573      11.7266      15.3754      -0.0026      50.9000      18.1683     617.6010     318.7528       0.7695       0.0921       3.8926       0.0050       2.6993       2.0206       0.3590
   3429.6096      11.7344      16.7007       0.0005      50.2000      20.6139     609.4137     313.8573       0.7344       0.0882       3.8906       0.0055       2.7035       2.1301       0.5029
   3429.7622      11.7734      14.4597      -0.0030      50.3000      18.0407     592.4352     306.2855       0.8096       0.0899       3.9238       0.0047       2.6893       1.8899       0.4602
   3429.9146      11.7891      16.3407      -0.0038      49.7000      21.8382     584.8322     303.5812       0.7349       0.0934       3.6816       0.0055       2.6846       2.0652       0.7065
   3430.0669      11.7891      15.7288      -0.0028      48.9000      21.0048     583.4220     303.6329       0.8784       0.0976       3.7051       0.0053       2.6812       1.9857       0.6781
   3430.2192      11.8125      16.5524      -0.0012      49.0000      22.9400     569.8771     293.9185       0.8501       0.0904       3.6816       0.0054       2.6946       2.1509       0.8210
   3430.3716      11.8125      15.1844      -0.0005      48.8000      21.0048     538.2639     281.9939       0.9985       0.0822       3.7383       0.0052       2.7055       1.8574       0.7481
   3430.5242      11.8125      12.7667       0.0026      45.2000      17.8582     510.6363     279.9389       0.9805       0.0780       3.7578       0.0044       2.7174       1.5666       0.6544
   3430.6765      11.7969      14.8181       0.0029      44.7000      20.2667     461.7865     266.0090       0.9517       0.0763       3.7500       0.0052       2.7256       1.7576       0.7003
   3430.8289      11.7188      15.3938       0.0027      44.8000      21.1648     435.5777     257.5498       0.8774       0.0693       3.9414       0.0053       2.7306       1.8883       0.7417
   3430.9812      11.7578      17.0983       0.0057      48.0000      23.1367     483.3289     280.6233       0.9688       0.0607       4.1914       0.0062       2.7525       1.9601       0.7761
   3431.1338      11.7578      17.5243       0.0074      49.2000      23.1008     418.2043     233.0998       0.7891       0.0518       4.0703       0.0067       2.7671       1.8711       0.7167
   3431.2861      11.7578      18.3605       0.0081      47.5000      23.9567     118.0336      89.2061       0.7192       0.0465       3.8633       0.0076       2.7779       1.7135       0.7192
   3431.4385      11.7266      17.7596       0.0093      49.7000      22.4531     111.8728      87.4932       0.7373       0.0410       3.8027       0.0080       2.7857       1.3429       0.6032
   3431.5908      11.7422      18.0627       0.0093      49.5000      22.7921     110.1199      88.9636       0.8027       0.0361       3.9297       0.0085       2.7793       1.2236       0.6078
   3431.7434      11.7813      25.7442       0.0090      48.6000      34.1759      94.3361      77.9541       0.9312       0.0317       4.0430       0.0116       2.7641       1.9783       1.0837
   3431.8958      11.7578      27.8577       0.0036      47.5000      37.4259      78.5087      65.4245       0.9956       0.0434       3.9316       0.0125       2.7315       2.1580       1.2297
   3432.0481      11.7500      26.8774       0.0032      49.9000      35.9170      55.5027      48.1965       0.8867       0.0745       3.6973       0.0122       2.7279       2.0209       1.1618
   3432.2004      11.7422      18.1549       0.0061      51.1000      28.2896      35.9916      33.0104       0.7656       0.0873       3.4434       0.0061       2.7386       2.2687       1.3025
   3432.3528      11.7578      22.1159       0.0073      43.6000      33.1003      28.2041      26.6774       0.7256       0.0740       3.2676       0.0083       2.7251       2.4251       1.4117
   3432.5054      11.8125      22.0662       0.0052      43.5000      38.9563      28.0937      26.5248       0.7173       0.0491       3.2637       0.0081       2.6827       2.4632       2.1708
   3432.6577      11.8359      37.5030       0.0065      41.6000      60.3061      33.8144      32.2325       0.7461       0.0445       3.4609       0.0159       2.6499       3.3196       2.9307
   3432.8101      11.8359      38.3009       0.0139      47.4000      61.4599      42.4615      41.0988       0.7236       0.0502       3.9434       0.0160       2.6535       3.4716       2.9765
   3432.9624      11.8359      39.4982       0.0317       7.8000      63.1271      53.9474      51.2425       0.7109       0.0497       4.3711       0.0162       2.6954       3.7091       3.0369
   3433.1150      11.8984      37.2826       0.0399      53.0000      59.4113      72.1802      66.9348       0.7568       0.0580       4.3672       0.0154       2.7394       3.4723       2.8441
   3433.2673      11.9922      28.6754       0.0483      56.1000      47.1336      92.5788      82.7133       0.6963       0.0620       4.3672       0.0110       2.7970       3.0384       2.3723
   3433.4197      12.0000      24.9368       0.0520      49.4000      40.8469      83.1439      74.3249       0.6465       0.0592       7.1797       0.0095       2.8459       2.6696       2.0448
   3433.5720      12.0391      22.9944       0.0291      44.7000      33.5267      51.3160      46.6399       0.8789       0.0437       9.6016       0.0069       2.6491       3.2307       1.3536
