#------------------------------------------------------------------------------
#
#   Created by  : [OpenWorks] Log Export Utility (LEXP)
#   Created on  : 2016-05-23 11:52:48
#   Project     : CANT971
#   User        : R5K
#   Interpreter : PEP
#
#------------------------------------------------------------------------------
~VERSION INFORMATION
VERS. 2.0 : CWLS Log ASCII Standard - version 2.0
WRAP.  NO : One line per depth step
~WELL INFORMATION
#MNEMONIC   .UNIT                                           VALUE :DESCRIPTION
#------------------------------------------------------------------------------
STRT        .M                                           688.5826 :START DEPTH
STOP        .M                                          3180.0178 :STOP DEPTH
STEP        .M                                             0.1524 :STEP
NULL        .                                           -999.2500 :NULL VALUE
COMP        .                                   PEMEX EXPL & PROD :COMPANY
WELL        .                                               2092D :WELL
FLD         .                                           CANTARELL :FIELD
LOC         .                                             UNKNOWN :LOCATION
CNTY        .                                      CD. DEL CARMEN :COUNTY
STAT        .                                            CAMPECHE :STATE
CTRY        .                                              MEXICO :COUNTRY
SRVC        .                                             UNKNOWN :SERVICE COMPANY
DATE        .                                             UNKNOWN :LOG DATE
UWI         .                                          3060000657 :UNIQUE WELL ID
XCOORD      .                                       601715.500000 :SURFACE X
YCOORD      .                                      2142373.650000 :SURFACE Y
LAT         .                                           19.374053 :LATITUDE
LON         .                                          -92.031447 :LONGITUDE
ELEV        .M                                            30.0000 :SURFACE ELEV
ELEV_TYPEF  .b/elec                                            KB :ELEV TYPE
~CURVE INFORMATION
#MNEMONIC.UNIT        API CODE       : CURVE DESCRIPTION
#------------------------------------------------------------------------------
DEPTH    .M                          : Measured Depth
CALI     .in          UNKNOWN        : CALI:UNKNOWN:rC:NONE:v0 (auto-composite)
CGR      .API         UNKNOWN        : CGR:UNKNOWN:rC:NONE:v0 (auto-composite)
DRHO     .g/cm3       UNKNOWN        : DRHO:UNKNOWN:rC:NONE:v0 (auto-composite)
DT       .us/ft       UNKNOWN        : DT:DT:rC:NONE:v0 (auto-composite)
GR       .API         UNKNOWN        : GR:UNKNOWN:rC:NONE:v0 (auto-composite)
ILD      .ohmm        UNKNOWN        : ILD:UNKNOWN:rC:NONE:v0 (auto-composite)
ILM      .ohmm        UNKNOWN        : ILM:UNKNOWN:rC:NONE:v0 (auto-composite)
LLD      .ohmm        UNKNOWN        : LLD:UNKNOWN:rC:NONE:v0 (auto-composite)
LLS      .ohmm        UNKNOWN        : LLS:UNKNOWN:rC:NONE:v0 (auto-composite)
MSFL     .ohmm        UNKNOWN        : MSFL:UNKNOWN:rC:NONE:v0 (auto-composite)
NPHI     .v/v_decimal UNKNOWN        : NPHI:PETROWORKS:rC:NONE:v1 
PEF      .b/elec      UNKNOWN        : PEF:UNKNOWN:rC:NONE:v0 (auto-composite)
POTA     .wtpercent   UNKNOWN        : POTA:UNKNOWN:rC:NONE:v0 (auto-composite)
RHOB     .g/cm3       UNKNOWN        : RHOB:UNKNOWN:rC:NONE:v0 (auto-composite)
SFLU     .ohmm       UNKNOWN        : SFLU:induccion:rC:NONE:v0 (auto-composite)
THOR     .ppm         UNKNOWN        : THOR:UNKNOWN:rC:NONE:v0 (auto-composite)
URAN     .ppm         UNKNOWN        : URAN:UNKNOWN:rC:NONE:v0 (auto-composite)
~A     DEPTH         CALI          CGR         DRHO           DT           GR          ILD          ILM          LLD          LLS         MSFL         NPHI          PEF         POTA         RHOB         SFLU         THOR         URAN
# ...
   2310.1187      10.0983       5.2493       0.0514      54.0498      15.0396    -999.2500    -999.2500    6876.2881     726.7690     452.2449       0.0380       3.4241       0.0018       2.7194    -999.2500       0.7193       1.0746
   2310.2710      10.1158       5.1982       0.0471      53.6156      15.2965    -999.2500    -999.2500    7084.6538     729.9598     420.7251       0.0364       3.4032       0.0019       2.7108    -999.2500       0.6547       1.1396
   2310.4233      10.1283       6.2113       0.0416      53.5223      16.0657    -999.2500    -999.2500    7412.1821     749.1015     401.3375       0.0348       3.3837       0.0024       2.6978    -999.2500       0.7292       1.1616
   2310.5757      10.1299       6.1235       0.0396      53.8022      16.5907    -999.2500    -999.2500    7378.9541     762.8963     462.2803       0.0333       3.3625       0.0023       2.6975    -999.2500       0.7305       1.1973
   2310.7283      10.1269       5.5797       0.0391      54.3384      17.0145    -999.2500    -999.2500    7196.2954     774.4763     556.4971       0.0318       3.3405       0.0020       2.7025    -999.2500       0.7015       1.2388
   2310.8806      10.1394       4.6431       0.0379      54.1783      16.0247    -999.2500    -999.2500    6878.5869     763.9209     537.9308       0.0293       3.3068       0.0016       2.7079    -999.2500       0.6132       1.2309
   2311.0330      10.1584       3.5431       0.0364      53.7233      14.4469    -999.2500    -999.2500    6504.7051     744.1584     472.4531       0.0265       3.2683       0.0012       2.7134    -999.2500       0.5003       1.2024
   2311.1853      10.1937       3.6788       0.0374      53.2337      14.3919    -999.2500    -999.2500    6186.8628     729.2872     421.7000       0.0259       3.2634       0.0014       2.7182    -999.2500       0.4387       1.1739
   2311.3379      10.2358       4.3305       0.0394      52.7203      14.9731    -999.2500    -999.2500    5892.4272     716.4589     377.0971       0.0268       3.2724       0.0018       2.7227    -999.2500       0.3987       1.1453
   2311.4902      10.2647       5.2903       0.0365      52.8594      14.8712    -999.2500    -999.2500    5502.4072     715.7670     404.9989       0.0272       3.2941       0.0017       2.7187    -999.2500       0.6649       1.0353
   2311.6426      10.2882       6.3764       0.0315      53.2123      14.4893    -999.2500    -999.2500    5073.2163     720.0487     462.6130       0.0273       3.3211       0.0014       2.7112    -999.2500       1.0568       0.8918
   2311.7949      10.2599       6.4650       0.0378      53.1048      14.3026    -999.2500    -999.2500    4726.7324     710.1957     564.8417       0.0257       3.3775       0.0016       2.7171    -999.2500       1.0446       0.8681
   2311.9473      10.2105       6.1431       0.0488      52.7254      14.1961    -999.2500    -999.2500    4414.2842     694.5259     685.4301       0.0232       3.4460       0.0020       2.7286    -999.2500       0.8662       0.8935
   2312.0999      10.1928       5.0331       0.0509      52.3862      14.9940    -999.2500    -999.2500    4450.0420     683.1722     637.5614       0.0230       3.4554       0.0017       2.7295    -999.2500       0.7112       1.1045
   2312.2522      10.1883       3.5974       0.0494      52.0712      16.1655    -999.2500    -999.2500    4629.6929     673.6020     520.0793       0.0238       3.4404       0.0011       2.7260    -999.2500       0.5659       1.3922
   2312.4045      10.2127       2.8748       0.0497      52.0664      17.0174    -999.2500    -999.2500    5011.2056     683.5944     441.1745       0.0235       3.4557       0.0007       2.7239    -999.2500       0.5931       1.5584
   2312.5569      10.2492       2.4505       0.0507      52.1952      17.7356    -999.2500    -999.2500    5477.1333     701.7676     378.4021       0.0227       3.4837       0.0003       2.7224    -999.2500       0.6926       1.6739
   2312.7095      10.2664       2.6590       0.0478      52.2945      18.5977    -999.2500    -999.2500    5735.7300     720.8618     422.3217       0.0214       3.4510       0.0002       2.7216    -999.2500       0.8053       1.7733
   2312.8618      10.2754       3.1334       0.0433      52.3747      19.5203    -999.2500    -999.2500    5907.2642     740.3428     511.0436       0.0199       3.3929       0.0002       2.7211    -999.2500       0.9237       1.8661
   2313.0142      10.2688       3.4026       0.0409      52.3363      19.6802    -999.2500    -999.2500    5334.7915     734.7000     497.4882       0.0181       3.3905       0.0002       2.7249    -999.2500       1.0084       1.8444
   2313.1665      10.2558       3.5880       0.0394      52.2134      19.5282    -999.2500    -999.2500    4458.1445     718.7859     442.1187       0.0161       3.4110       0.0002       2.7304    -999.2500       1.0793       1.7759
   2313.3191      10.2637       4.0477       0.0379      51.8636      20.0473    -999.2500    -999.2500    3796.7969     673.3765     485.8045       0.0133       3.4234       0.0002       2.7394    -999.2500       1.1818       1.7411
   2313.4714      10.2802       4.6200       0.0364      51.3553      20.8418    -999.2500    -999.2500    3223.8403     615.8579     570.1575       0.0101       3.4324       0.0002       2.7499    -999.2500       1.2971       1.7202
   2313.6238      10.3238       5.1637       0.0388      50.7157      21.6647    -999.2500    -999.2500    2824.8760     577.2061     539.3687       0.0088       3.4265       0.0005       2.7601    -999.2500       1.3073       1.7698
   2313.7761      10.3788       5.6955       0.0428      50.0540      22.4993    -999.2500    -999.2500    2498.2004     546.3929     460.7417       0.0084       3.4145       0.0010       2.7701    -999.2500       1.2739       1.8488
   2313.9285      10.3762       5.9634       0.0440      49.5294      22.8090    -999.2500    -999.2500    2288.3083     540.1127     402.6178       0.0078       3.4202       0.0011       2.7751    -999.2500       1.3153       1.8639
   2314.0811      10.3497       6.1214       0.0440      49.0992      22.8998    -999.2500    -999.2500    2127.1384     544.0677     353.0479       0.0069       3.4332       0.0011       2.7781    -999.2500       1.3880       1.8523
   2314.2334      10.3655       7.4430       0.0412      48.8729      23.4392    -999.2500    -999.2500    2100.9470     555.9951     399.8117       0.0057       3.4089       0.0020       2.7804    -999.2500       1.3024       1.7559
   2314.3857      10.3984       9.2372       0.0372      48.7255      24.1609    -999.2500    -999.2500    2129.5776     571.1605     485.7021       0.0044       3.3694       0.0034       2.7824    -999.2500       1.1524       1.6249
   2314.5381      10.4346       8.5740       0.0374      48.5135      24.6108    -999.2500    -999.2500    2291.2026     578.4517     449.4741       0.0032       3.3754       0.0035       2.7876    -999.2500       0.8713       1.7558
   2314.6907      10.4721       6.9086       0.0394      48.2663      24.9499    -999.2500    -999.2500    2507.0715     582.5311     363.4382       0.0025       3.3999       0.0032       2.7941    -999.2500       0.5368       1.9935
   2314.8430      10.4887       6.8037       0.0432      48.0011      25.4442    -999.2500    -999.2500    2757.0540     592.4139     437.7208       0.0061       3.4268       0.0032       2.7932    -999.2500       0.5179       2.0446
   2314.9954      10.4967       7.3430       0.0477      47.7257      26.0024    -999.2500    -999.2500    3021.1172     604.6920     578.1781       0.0122       3.4548       0.0033       2.7892    -999.2500       0.6293       2.0186
   2315.1477      10.4909       7.3272       0.0472      48.1124      26.1476    -999.2500    -999.2500    3145.9082     626.8571     535.1310       0.0155       3.4581       0.0032       2.7781    -999.2500       0.7097       2.0569
   2315.3003      10.4794       7.0813       0.0447      48.8006      26.1216    -999.2500    -999.2500    3212.9712     653.1203     416.0220       0.0178       3.4511       0.0029       2.7641    -999.2500       0.7772       2.1219
