#------------------------------------------------------------------------------
#
#   Created by  : [OpenWorks] Log Export Utility (LEXP)
#   Created on  : 2016-05-23 11:50:15
#   Project     : CANT971
#   User        : R5K
#   Interpreter : PEP
#
#------------------------------------------------------------------------------
~VERSION INFORMATION
VERS. 2.0 : CWLS Log ASCII Standard - version 2.0
WRAP.  NO : One line per depth step
~WELL INFORMATION
#MNEMONIC   .UNIT                                           VALUE :DESCRIPTION
#------------------------------------------------------------------------------
STRT        .M                                          2144.1199 :START DEPTH
STOP        .M                                          3100.2776 :STOP DEPTH
STEP        .M                                             0.1524 :STEP
NULL        .                                           -999.2500 :NULL VALUE
COMP        .                                   PEMEX EXPL & PROD :COMPANY
WELL        .                                               1004D :WELL
FLD         .                                           CANTARELL :FIELD
LOC         .                                             UNKNOWN :LOCATION
CNTY        .                                      CD. DEL CARMEN :COUNTY
STAT        .                                            CAMPECHE :STATE
CTRY        .                                              MEXICO :COUNTRY
SRVC        .                                             UNKNOWN :SERVICE COMPANY
DATE        .                                             UNKNOWN :LOG DATE
UWI         .                                               1004D :UNIQUE WELL ID
XCOORD      .                                       594534.600000 :SURFACE X
YCOORD      .                                      2142053.350000 :SURFACE Y
LAT         .                                           19.371510 :LATITUDE
LON         .                                          -92.099834 :LONGITUDE
ELEV        .M                                            30.0000 :SURFACE ELEV
ELEV_TYPE   .                                                  KB :ELEV TYPE
~CURVE INFORMATION
#MNEMONIC.UNIT        API CODE       : CURVE DESCRIPTION
#------------------------------------------------------------------------------
DEPTH    .M                          : Measured Depth
CALI     .in          UNKNOWN        : CALI:litodensidad:rC:NONE:v0 (auto-composite)
DRHO     .g/cm3       UNKNOWN        : DRHO:litodensidad:rC:NONE:v0 (auto-composite)
DT       .us/ft       UNKNOWN        : DT:DT-Load:rC:NONE:v0 (auto-composite)
GR       .API         UNKNOWN        : GR:TMDL:rC:NONE:v0 (auto-composite)
GR-LWD   .API         UNKNOWN        : GR-LWD:PETROWORKS:rC:NONE:v1 
ILD-LWD  .ohm.m       UNKNOWN        : ILD-LWD:resistivos-LWD:rC:NONE:v0 (auto-composite)
ILM-LWD  .ohm.m       UNKNOWN        : ILM-LWD:resistivos-LWD:rC:NONE:v0 (auto-composite)
LLD-LWD  .ohm.m       UNKNOWN        : LLD-LWD:resistivos-LWD:rC:NONE:v0 (auto-composite)
LLS      .ohm.m       UNKNOWN        : LLS:resistivos:rC:NONE:v0 (auto-composite)
LLS-LWD  .ohm.m       UNKNOWN        : LLS-LWD:resistivos-LWD:rC:NONE:v0 (auto-composite)
MSFL     .ohm.m       UNKNOWN        : MSFL:resistivos:rC:NONE:v0 (auto-composite)
MSFL-LWD .ohm.m       UNKNOWN        : MSFL-LWD:resistivos-LWD:rC:NONE:v0 (auto-composite)
NPHI     .v/v_decimal UNKNOWN        : NPHI:PETROWORKS:rC:NONE:v2 
PEF      .b/elec      UNKNOWN        : PEF:litodensidad:rC:NONE:v0 (auto-composite)
RHOB     .g/cm3       UNKNOWN        : RHOB:litodensidad:rC:NONE:v0 (auto-composite)
~A     DEPTH         CALI         DRHO           DT           GR       GR-LWD      ILD-LWD      ILM-LWD      LLD-LWD          LLS      LLS-LWD         MSFL     MSFL-LWD         NPHI          PEF         RHOB
# ...
   2453.1870       3.7883      -0.6495    -999.2500    -999.2500      34.4062    -999.2500    -999.2500       3.1440       0.1052       2.5866       0.0836       1.4870       0.0247      10.0000       1.1560
   2453.3394       3.7845      -0.6511    -999.2500    -999.2500      33.9569    -999.2500    -999.2500       3.3566       0.1057       3.0351       0.0840       1.4650       0.0255      10.0000       1.1601
   2453.4919       3.7845      -0.6585    -999.2500    -999.2500      34.5225    -999.2500    -999.2500       3.7209       0.1052       3.4932       0.0786       1.7068       0.0224      10.0000       1.1096
   2453.6443       3.7939      -0.6736    -999.2500    -999.2500      34.7973    -999.2500    -999.2500       3.0098       0.1045       2.7983       0.0749       1.3628       0.0206      10.0000       1.0396
   2453.7966       3.7864      -0.6686    -999.2500    -999.2500      37.6050    -999.2500    -999.2500       2.8637       0.1064       2.5477       0.0754       1.3259       0.0238      10.0000       1.0476
   2453.9490       3.7845      -0.6591    -999.2500    -999.2500      41.6010    -999.2500    -999.2500       3.5666       0.1032       3.2884       0.0798       2.4834       0.0254      10.0000       1.1126
   2454.1016       3.7845      -0.6438    -999.2500    -999.2500      44.8687    -999.2500    -999.2500       3.4850       0.1046       3.2701       0.0825       2.8957       0.0318      10.0000       1.1773
   2454.2539       3.7845      -0.6439    -999.2500    -999.2500      45.6858    -999.2500    -999.2500       2.0413       0.1076       2.1642       0.0844       1.7152       0.0432      10.0000       1.1720
   2454.4062       3.8032      -0.6382    -999.2500    -999.2500      43.7203    -999.2500    -999.2500       3.0626       0.1034       2.8440       0.0869       2.0185       0.0478      10.0000       1.2097
   2454.5586       3.7883      -0.6434    -999.2500    -999.2500      41.8177    -999.2500    -999.2500       2.6712       0.1037       2.5089       0.0833       1.9970       0.0405      10.0000       1.1989
   2454.7112       3.7939      -0.6650    -999.2500    -999.2500      41.1251    -999.2500    -999.2500       2.5502       0.1004       2.4521       0.0825       1.5315       0.0353      10.0000       1.1194
   2454.8635       3.7864      -0.6753    -999.2500    -999.2500      41.9894    -999.2500    -999.2500       2.6611       0.1062       2.5558       0.0841       2.0383       0.0473      10.0000       1.0707
   2455.0159       3.7845      -0.6643    -999.2500    -999.2500      44.0746    -999.2500    -999.2500       3.3491       0.1053       3.3490       0.0871       2.8625       0.0643      10.0000       1.1133
   2455.1682       3.7845      -0.6172    -999.2500    -999.2500      46.0886    -999.2500    -999.2500       3.1844       0.1033       3.4216       0.0888       3.4101       0.0670      10.0000       1.2805
   2455.3206       3.7845      -0.6041    -999.2500    -999.2500      48.1327    -999.2500    -999.2500       1.8401       0.1024       1.9036       0.0923       1.9187       0.0586      10.0000       1.3120
   2455.4731       3.7845      -0.6104    -999.2500    -999.2500      48.9112    -999.2500    -999.2500       3.0554       0.1050       3.2611       0.0956       2.6457       0.0471      10.0000       1.2614
   2455.6255       3.7845      -0.6333    -999.2500    -999.2500      48.1438    -999.2500    -999.2500       2.3491       0.1044       2.2518       0.0957       2.2001       0.0375      10.0000       1.1877
   2455.7778       3.8032      -0.6304    -999.2500    -999.2500      46.0148    -999.2500    -999.2500       4.0214       0.1036       3.5681       0.0947       3.3652       0.0318      10.0000       1.2193
   2455.9302       3.7977      -0.6219    -999.2500    -999.2500      43.6497    -999.2500    -999.2500       6.8915       0.1038       6.6833       0.0926       8.1888       0.0280      10.0000       1.2681
   2456.0828       3.7864      -0.6196    -999.2500    -999.2500      42.7807    -999.2500    -999.2500       4.8515       0.1060       5.1116       0.0893       5.7146       0.0283      10.0000       1.2824
   2456.2351       3.7939      -0.6250    -999.2500    -999.2500      42.4111    -999.2500    -999.2500       5.0199       0.1096       5.5070       0.0885       5.2095       0.0227      10.0000       1.2316
   2456.3875       3.7864      -0.6400    -999.2500    -999.2500      42.0494    -999.2500    -999.2500       4.7077       0.1065       5.0369       0.0885       4.8045       0.0204      10.0000       1.1307
   2456.5398       3.7939      -0.6556    -999.2500    -999.2500      40.6741    -999.2500    -999.2500       4.3185       0.1071       4.5379       0.0887       4.6057       0.0205      10.0000       1.0225
   2456.6924       3.7864      -0.6534    -999.2500    -999.2500      39.6036    -999.2500    -999.2500       5.2566       0.1027       5.6928       0.0871       6.8676       0.0280      10.0000       1.0498
   2456.8447       3.7939      -0.6324    -999.2500    -999.2500      39.7623    -999.2500    -999.2500       5.5572       0.1036       5.9921       0.0857       6.0436       0.0368      10.0000       1.1880
   2456.9971       3.7958      -0.6009    -999.2500    -999.2500      41.2947    -999.2500    -999.2500       3.9534       0.1023       4.1975       0.0825       4.4239       0.0346      10.0000       1.3538
   2457.1494       3.7864      -0.6077    -999.2500    -999.2500      42.6816    -999.2500    -999.2500       2.9740       0.1069       2.8492       0.0820       3.8263       0.0256      10.0000       1.3630
   2457.3018       3.7845      -0.5969    -999.2500    -999.2500      42.5640    -999.2500    -999.2500       4.0852       0.1087       4.2551       0.0838       3.7948       0.0168      10.0000       1.2610
   2457.4543       3.7845      -0.6064    -999.2500    -999.2500      41.3782    -999.2500    -999.2500       4.2902       0.1046       4.3375       0.0885       4.9319       0.0169      10.0000       1.0876
   2457.6067       3.7845      -0.5922    -999.2500    -999.2500      41.2905    -999.2500    -999.2500       4.2822       0.1043       4.7328       0.0921       5.0959       0.0232      10.0000       1.0396
   2457.7590       3.7845      -0.6303    -999.2500    -999.2500      43.3214    -999.2500    -999.2500       4.0183       0.1072       4.3009       0.0936       4.9863       0.0275      10.0000       1.0655
   2457.9114       3.7845      -0.6268    -999.2500    -999.2500      46.6215    -999.2500    -999.2500       2.5468       0.1071       2.6982       0.0942       2.7131       0.0257      10.0000       1.1279
   2458.0640       3.7845      -0.5400    -999.2500    -999.2500      49.1880    -999.2500    -999.2500       2.0531       0.1050       2.0489       0.0929       1.7865       0.0214      10.0000       1.1734
   2458.2163       3.7845      -0.5086    -999.2500    -999.2500      50.7412    -999.2500    -999.2500       3.0414       0.1034       2.7000       0.0917       2.1482       0.0193      10.0000       1.1055
   2458.3687       3.7845      -0.4454    -999.2500    -999.2500      50.1638    -999.2500    -999.2500       2.8923       0.1039       2.6185       0.0890       2.5787       0.0175      10.0000       1.1306
   2458.5210       3.7845      -0.4895    -999.2500    -999.2500      48.7907    -999.2500    -999.2500       3.2429       0.1038       3.1443       0.0930       3.0192       0.0146      10.0000       1.0645
   2458.6736       3.7939      -0.4756    -999.2500    -999.2500      46.7688    -999.2500    -999.2500       3.3849       0.1028       3.1559       0.0978       2.9428       0.0121      10.0000       1.0807
   2458.8259       3.7864      -0.4417    -999.2500    -999.2500      45.2764    -999.2500    -999.2500       2.2903       0.1040       2.2963       0.0989       2.3701       0.0141      10.0000       1.1367
   2458.9783       3.7845      -0.4452    -999.2500    -999.2500      44.7409    -999.2500    -999.2500       3.4325       0.1105       3.5984       0.0929       1.9319       0.0159      10.0000       1.1578
