#------------------------------------------------------------------------------
#
#   Created by  : [OpenWorks] Log Export Utility (LEXP)
#   Created on  : 2016-05-12 17:18:19
#   Project     : CANT971
#   User        : R5K
#   Interpreter : PEP
#
#------------------------------------------------------------------------------
~VERSION INFORMATION
VERS. 2.0 : CWLS Log ASCII Standard - version 2.0
WRAP.  NO : One line per depth step
~WELL INFORMATION
#MNEMONIC   .UNIT                                           VALUE :DESCRIPTION
#------------------------------------------------------------------------------
STRT        .M                                           134.7982 :START DEPTH
STOP        .M                                          2692.2227 :STOP DEPTH
STEP        .M                                             0.1524 :STEP
NULL        .                                           -999.2500 :NULL VALUE
COMP        .                                   PEMEX EXPL & PROD :COMPANY
WELL        .                                                 57A :WELL
FLD         .                                           CANTARELL :FIELD
LOC         .                                             UNKNOWN :LOCATION
CNTY        .                                      CD. DEL CARMEN :COUNTY
STAT        .                                            CAMPECHE :STATE
CTRY        .                                              MEXICO :COUNTRY
SRVC        .                                             UNKNOWN :SERVICE COMPANY
DATE        .                                             UNKNOWN :LOG DATE
UWI         .                                          3060000169 :UNIQUE WELL ID
XCOORD      .                                       602151.210000 :SURFACE X
YCOORD      .                                      2147168.830000 :SURFACE Y
LAT         .                                           19.417362 :LATITUDE
LON         .                                          -92.027041 :LONGITUDE
ELEV        .M                                            28.1700 :SURFACE ELEV
ELEV_TYPE   .                                                  KB :ELEV TYPE
~CURVE INFORMATION
#MNEMONIC.UNIT        API CODE       : CURVE DESCRIPTION
#------------------------------------------------------------------------------
DEPTH    .M                          : Measured Depth
CALI     .inches      UNKNOWN        : CALI:UNKNOWN:r1:MAIN:v1 
DRHO     .UNKNOWN     UNKNOWN        : DRHO:UNKNOWN:r1:MAIN:v1 
DT       .us/ft       UNKNOWN        : DT:UNKNOWN:r1:MAIN:v1 
GR       .API         UNKNOWN        : GR:GR:r1:MAIN:v1 
ILD      .UNKNOWN     UNKNOWN        : ILD:UNKNOWN:r1:MAIN:v1 
LLD      .UNKNOWN     UNKNOWN        : LLD:UNKNOWN:r1:MAIN:v1 
LLS      .UNKNOWN     UNKNOWN        : LLS:UNKNOWN:r1:MAIN:v1 
MSFL     .UNKNOWN     UNKNOWN        : MSFL:UNKNOWN:r1:MAIN:v1 
NORM     .UNKNOWN     UNKNOWN        : NORM:NORM-Load:r1:MAIN:v1 
NPHI     .v/v_decimal UNKNOWN        : NPHI:UNKNOWN:r1:MAIN:v1 
RHOB     .UNKNOWN     UNKNOWN        : RHOB:UNKNOWN:r1:MAIN:v1 
SP       .mV          UNKNOWN        : SP:PETROWORKS:rC:NONE:v1 
~A     DEPTH         CALI         DRHO           DT           GR          ILD          LLD          LLS         MSFL         NORM         NPHI         RHOB           SP
# ...
   2673.1726       9.4582       0.0859      61.0914      29.0932      55.7583      57.1423      55.1593      27.7746    -999.2500       0.0930       2.7377     169.1866
   2673.3250       9.5383       0.0719      60.3554      31.1797      54.4633      56.8858      55.5922      19.6491    -999.2500       0.0948       2.7337     169.1826
   2673.4775       9.6105       0.0597      59.8695      33.1739      53.1629      56.5500      55.7903      12.2627    -999.2500       0.0964       2.7289     169.1784
   2673.6299       9.5914       0.0682      62.2235      34.1423      51.8016      55.3146      53.3225      13.2730    -999.2500       0.0958       2.7154     169.1735
   2673.7822       9.5689       0.0793      64.3951      35.0273      50.4846      54.4390      51.1286      14.1330    -999.2500       0.0946       2.7039     169.1684
   2673.9346       9.5103       0.1174      64.6398      35.0308      49.6358      57.3656      51.8295      13.4040    -999.2500       0.0865       2.7139     169.1630
   2674.0869       9.4544       0.1510      64.6227      35.0855      48.7586      60.6578      52.9671      12.7809    -999.2500       0.0791       2.7247     169.1580
   2674.2395       9.4258       0.1405      62.0215      35.6450      47.6019      67.5579      58.4147      13.2036    -999.2500       0.0769       2.7427     169.1537
   2674.3918       9.4058       0.1316      59.6022      36.1756      46.3227      74.0871      63.7135      14.1149    -999.2500       0.0748       2.7586     169.1497
   2674.5442       9.4655       0.1382      58.8656      36.4384      43.9105      77.1842      67.6354      19.5474    -999.2500       0.0732       2.7546     169.1462
   2674.6965       9.5181       0.1453      58.0584      36.6054      41.2725      80.0743      70.3595      24.5604    -999.2500       0.0718       2.7516     169.3422
   2674.8491       9.5091       0.1584      56.6361      35.9395      36.6689      81.1634      62.6618      25.9220    -999.2500       0.0716       2.7576     169.8938
   2675.0015       9.5000       0.1711      55.2819      35.3262      32.3342      81.6828      54.8330      27.4785    -999.2500       0.0720       2.7624     170.5928
   2675.1538       9.4910       0.1817      54.4962      35.1438      30.2429      77.4486      45.9098      30.6604    -999.2500       0.0776       2.7569     171.5482
   2675.3062       9.4753       0.1904      53.9867      35.0327      28.3192      72.5686      37.5441      33.1043    -999.2500       0.0834       2.7518     172.4347
   2675.4585       9.4071       0.1854      55.6538      35.4829      27.7170      62.5980      33.5735      29.7315    -999.2500       0.0923       2.7498     173.2031
   2675.6111       9.3622       0.1773      57.2804      35.9109      27.3994      52.9308      29.9118      25.8721    -999.2500       0.1002       2.7463     173.9502
   2675.7634       9.4911       0.1462      58.6046      36.1726      29.2064      45.5293      28.5550      18.3804    -999.2500       0.1010       2.7323     174.6615
   2675.9158       9.5956       0.1212      59.7346      36.4897      31.3386      38.4107      27.1959      12.0613    -999.2500       0.1017       2.7200     175.1355
   2676.0681       9.5274       0.1393      59.4884      37.1986      35.7749      33.2976      25.8206      14.0533    -999.2500       0.1025       2.7200     175.2221
   2676.2207       9.4655       0.1540      59.1851      37.7589      40.1868      28.5752      24.7997      15.3405    -999.2500       0.1033       2.7240     175.1333
   2676.3730       9.4465       0.1459      58.4972      37.3172      44.4346      26.4869      26.1675      11.8769    -999.2500       0.1041       2.7551     174.7650
   2676.5254       9.4354       0.1371      57.7368      36.6703      48.2520      25.5605      28.6148       9.5715    -999.2500       0.1054       2.7827     174.3343
   2676.6777       9.4755       0.1231      56.5109      34.7059      49.3055      32.0948      37.9943      14.7031    -999.2500       0.1102       2.7877     173.8063
   2676.8303       9.5115       0.1093      55.5706      32.2933      50.2878      39.1180      46.3195      19.4671    -999.2500       0.1140       2.7912     173.2377
   2676.9827       9.5220       0.0967      56.4039      27.0964      50.8273      49.1769      48.0969      21.9479    -999.2500       0.1122       2.7857     172.6071
   2677.1350       9.5283       0.0851      57.2301      22.1622      51.6389      59.4331      51.0066      23.6029    -999.2500       0.1100       2.7831     172.0145
   2677.2874       9.5092       0.0791      58.0143      18.7868      54.0652      70.8603      60.6343      20.3574    -999.2500       0.1047       2.7976     171.4786
   2677.4397       9.4902       0.0787      58.4164      15.7450      56.1060      81.9264      72.2310      17.8458    -999.2500       0.1000       2.8105     170.9315
   2677.5923       9.4717       0.1097      56.6495      14.5968      55.9591      90.9429      95.0051      19.5004    -999.2500       0.0986       2.8140     170.3683
   2677.7446       9.4607       0.1379      54.9055      13.5698      55.3029     103.1877     114.2334      21.6361    -999.2500       0.0971       2.8175     169.7675
   2677.8970       9.4908       0.1499      53.2860      13.2018      51.8769     132.9888     114.1777      26.3883    -999.2500       0.0945       2.8205     169.1130
   2678.0493       9.5114       0.1591      52.0530      12.9653      48.6671     154.9814     112.3810      31.4910    -999.2500       0.0924       2.8222     168.7125
   2678.2019       9.4829       0.1536      52.8366      13.4147      46.5855     136.2415     101.5020      38.4227    -999.2500       0.0926       2.8172     168.6667
   2678.3542       9.4574       0.1451      54.0002      13.7477      44.2356     117.4243      90.4380      42.4445    -999.2500       0.0930       2.8104     168.6919
   2678.5066       9.4479       0.1216      57.0897      13.4910      40.5258      98.2156      78.4357      31.7198    -999.2500       0.0942       2.7943     168.8144
   2678.6589       9.4402       0.0992      59.4858      13.4559      36.6349      81.0686      67.5862      22.4630    -999.2500       0.0955       2.7813     168.8685
   2678.8115       9.4412       0.0826      58.5040      14.5003      31.8617      73.9629      62.3512      20.3557    -999.2500       0.0973       2.7828     168.8307
   2678.9639       9.4386       0.0701      57.8933      15.5838      27.5005      67.3033      57.8940      17.9495    -999.2500       0.0990       2.7843     168.7447
   2679.1162       9.4196       0.0767      59.0210      16.8503      25.0703      62.7341      57.0813      14.1435    -999.2500       0.1004       2.7858     168.5954
   2679.2686       9.4059       0.0837      59.7302      18.0561      23.2487      58.3903      56.1868      11.1492    -999.2500       0.1017       2.7854     168.5627
   2679.4209       9.4164       0.0933      58.5520      18.9882      24.1727      55.0631      54.9233      11.8170    -999.2500       0.1027       2.7763     168.6795
   2679.5735       9.4214       0.1012      57.7773      19.8646      25.6853      51.6262      52.9758      12.2861    -999.2500       0.1050       2.7680     169.1475
   2679.7258       9.4024       0.1022      58.7575      20.4988      29.7565      47.7123      48.0547      11.8910    -999.2500       0.1135       2.7625     170.0565
   2679.8782       9.3929       0.1072      59.9359      21.1970      34.6053      41.8300      42.3634      11.8699    -999.2500       0.1226       2.7602     171.0467
   2680.0305       9.4234       0.1293      61.9453      22.1662      42.7148      27.6916      33.4418      13.4175    -999.2500       0.1348       2.7717     172.1366
   2680.1831       9.4404       0.1496      63.6948      23.1867      51.3449      16.6997      25.2996      17.5683    -999.2500       0.1455       2.7787     172.5243
   2680.3354       9.4018       0.1626      64.3807      24.4171      62.1042      18.5764      20.3448      32.3663    -999.2500       0.1505       2.7672     172.0633
