#------------------------------------------------------------------------------
#
#   Created by  : [OpenWorks] Log Export Utility (LEXP)
#   Created on  : 2016-05-23 11:53:49
#   Project     : CANT971
#   User        : R5K
#   Interpreter : PEP
#
#------------------------------------------------------------------------------
~VERSION INFORMATION
VERS. 2.0 : CWLS Log ASCII Standard - version 2.0
WRAP.  NO : One line per depth step
~WELL INFORMATION
#MNEMONIC   .UNIT                                           VALUE :DESCRIPTION
#------------------------------------------------------------------------------
STRT        .M                                           293.9797 :START DEPTH
STOP        .M                                          2713.7869 :STOP DEPTH
STEP        .M                                             0.1524 :STEP
NULL        .                                           -999.2500 :NULL VALUE
COMP        .                                   PEMEX EXPL & PROD :COMPANY
WELL        .                                                  28 :WELL
FLD         .                                           CANTARELL :FIELD
LOC         .                                             UNKNOWN :LOCATION
CNTY        .                                      CD. DEL CARMEN :COUNTY
STAT        .                                            CAMPECHE :STATE
CTRY        .                                              MEXICO :COUNTRY
SRVC        .                                             UNKNOWN :SERVICE COMPANY
DATE        .                                             UNKNOWN :LOG DATE
UWI         .                                          3060000156 :UNIQUE WELL ID
XCOORD      .                                       598450.720000 :SURFACE X
YCOORD      .                                      2145024.710000 :SURFACE Y
LAT         .                                           19.398172 :LATITUDE
LON         .                                          -92.062394 :LONGITUDE
ELEV        .M                                            26.5400 :SURFACE ELEV
ELEV_TYPE   .                                                  KB :ELEV TYPE
~CURVE INFORMATION
#MNEMONIC.UNIT        API CODE       : CURVE DESCRIPTION
#------------------------------------------------------------------------------
DEPTH    .M                          : Measured Depth
CALI     .inches      UNKNOWN        : CALI:Import:rC:NONE:v0 (auto-composite)
DRHO     .g/cm3       UNKNOWN        : DRHO:Import:rC:NONE:v0 (auto-composite)
DT       .us/ft       UNKNOWN        : DT:Import:rC:NONE:v0 (auto-composite)
GR       .API         UNKNOWN        : GR:Import:rC:NONE:v0 (auto-composite)
ILD      .ohm.m       UNKNOWN        : ILD:Import:rC:NONE:v0 (auto-composite)
LLD      .ohm.m       UNKNOWN        : LLD:Import:rC:NONE:v0 (auto-composite)
LLS      .ohm.m       UNKNOWN        : LLS:Import:rC:NONE:v0 (auto-composite)
MSFL     .ohm.m       UNKNOWN        : MSFL:Import:rC:NONE:v0 (auto-composite)
NPHI     .v/v_decimal UNKNOWN        : NPHI:Import:rC:NONE:v0 (auto-composite)
PEF      .b/elec      UNKNOWN        : PEF:Import:rC:NONE:v0 (auto-composite)
RHOB     .g/cm3       UNKNOWN        : RHOB:Import:rC:NONE:v0 (auto-composite)
~A     DEPTH         CALI         DRHO           DT           GR          ILD          LLD          LLS         MSFL         NPHI          PEF         RHOB
# ...
   1530.2485       6.4785    -999.2500    -999.2500      38.8800    -999.2500       0.9413       1.0239       1.4082       0.3322    -999.2500    -999.2500
   1530.4009       6.4790    -999.2500    -999.2500      39.5728    -999.2500       1.0260       1.1400       1.6090       0.3284    -999.2500    -999.2500
   1530.5532       6.4795    -999.2500    -999.2500      40.2620    -999.2500       1.0215       1.1269       1.5428       0.3157    -999.2500    -999.2500
   1530.7057       6.4800    -999.2500    -999.2500      40.2129    -999.2500       1.0170       1.1140       1.4770       0.3033    -999.2500    -999.2500
   1530.8580       6.4805    -999.2500    -999.2500      40.1640    -999.2500       0.9688       1.0025       1.3078       0.3005    -999.2500    -999.2500
   1531.0105       6.4810    -999.2500    -999.2500      39.7692    -999.2500       0.9210       0.8920       1.1400       0.3022    -999.2500    -999.2500
   1531.1628       6.4815    -999.2500    -999.2500      39.3770    -999.2500       0.9335       0.9437       1.1345       0.3058    -999.2500    -999.2500
   1531.3153       6.4820    -999.2500    -999.2500      38.1441    -999.2500       0.9460       0.9950       1.1290       0.3119    -999.2500    -999.2500
   1531.4677       6.4825    -999.2500    -999.2500      36.9190    -999.2500       0.9189       0.9830       1.0934       0.3223    -999.2500    -999.2500
   1531.6201       6.4830    -999.2500    -999.2500      37.0665    -999.2500       0.8920       0.9710       1.0580       0.3316    -999.2500    -999.2500
   1531.7725       6.4740    -999.2500    -999.2500      37.2130    -999.2500       0.7931       0.8641       0.9441       0.3336    -999.2500    -999.2500
   1531.9249       6.4650    -999.2500    -999.2500      38.2522    -999.2500       0.6950       0.7580       0.8310       0.3323    -999.2500    -999.2500
   1532.0773       6.4655    -999.2500    -999.2500      39.2850    -999.2500       0.7111       0.7660       0.9570       0.3293    -999.2500    -999.2500
   1532.2297       6.4660    -999.2500    -999.2500      39.2730    -999.2500       0.7270       0.7740       1.0820       0.3245    -999.2500    -999.2500
   1532.3821       6.4635    -999.2500    -999.2500      39.2610    -999.2500       0.7887       0.8081       1.0534       0.3168    -999.2500    -999.2500
   1532.5344       6.4610    -999.2500    -999.2500      38.9290    -999.2500       0.8500       0.8420       1.0250       0.3101    -999.2500    -999.2500
   1532.6869       6.4355    -999.2500    -999.2500      38.5990    -999.2500       0.8811       0.8721       1.0416       0.3092    -999.2500    -999.2500
   1532.8392       6.4100    -999.2500    -999.2500      38.6115    -999.2500       0.9120       0.9020       1.0580       0.3126    -999.2500    -999.2500
   1532.9917       6.4100    -999.2500    -999.2500      38.6240    -999.2500       0.9130       0.9050       1.2146       0.3212    -999.2500    -999.2500
   1533.1440       6.4100    -999.2500    -999.2500      38.7609    -999.2500       0.9140       0.9080       1.3700       0.3283    -999.2500    -999.2500
   1533.2965       6.4100    -999.2500    -999.2500      38.8970    -999.2500       0.9346       0.9080       1.3565       0.3266    -999.2500    -999.2500
   1533.4489       6.4100    -999.2500    -999.2500      38.7010    -999.2500       0.9550       0.9080       1.3430       0.3228    -999.2500    -999.2500
   1533.6013       6.4105    -999.2500    -999.2500      38.5060    -999.2500       0.9475       0.9060       1.2873       0.3225    -999.2500    -999.2500
   1533.7537       6.4110    -999.2500    -999.2500      37.8763    -999.2500       0.9400       0.9040       1.2320       0.3233    -999.2500    -999.2500
   1533.9061       6.4115    -999.2500    -999.2500      37.2500    -999.2500       0.8958       0.8824       1.1261       0.3233    -999.2500    -999.2500
   1534.0585       6.4120    -999.2500    -999.2500      37.0044    -999.2500       0.8520       0.8610       1.0210       0.3211    -999.2500    -999.2500
   1534.2108       6.4125    -999.2500    -999.2500      36.7600    -999.2500       0.7597       0.6914       0.8404       0.3143    -999.2500    -999.2500
   1534.3633       6.4130    -999.2500    -999.2500      36.1324    -999.2500       0.6680       0.5230       0.6610       0.3076    -999.2500    -999.2500
   1534.5156       6.4140    -999.2500    -999.2500      35.5080    -999.2500       0.5781       0.5240       0.5767       0.3060    -999.2500    -999.2500
   1534.6681       6.4150    -999.2500    -999.2500      34.7187    -999.2500       0.4890       0.5250       0.4930       0.3071    -999.2500    -999.2500
   1534.8204       6.4145    -999.2500    -999.2500      33.9340    -999.2500       0.5101       0.5601       0.5266       0.3095    -999.2500    -999.2500
   1534.9729       6.4140    -999.2500    -999.2500      33.4655    -999.2500       0.5310       0.5950       0.5600       0.3137    -999.2500    -999.2500
   1535.1252       6.4100    -999.2500    -999.2500      33.0000    -999.2500       0.6274       0.7411       1.0680       0.3206    -999.2500    -999.2500
   1535.2777       6.4060    -999.2500    -999.2500      33.1485    -999.2500       0.7230       0.8860       1.5720       0.3255    -999.2500    -999.2500
   1535.4301       6.3925    -999.2500    -999.2500      33.2960    -999.2500       0.8801       0.9919       1.5544       0.3227    -999.2500    -999.2500
   1535.5825       6.3790    -999.2500    -999.2500      33.7409    -999.2500       1.0360       1.0970       1.5370       0.3183    -999.2500    -999.2500
   1535.7349       6.3790    -999.2500    -999.2500      34.1830    -999.2500       1.0300       1.0789       1.4798       0.3176    -999.2500    -999.2500
   1535.8873       6.3790    -999.2500    -999.2500      34.4297    -999.2500       1.0240       1.0610       1.4230       0.3191    -999.2500    -999.2500
   1536.0397       6.3795    -999.2500    -999.2500      34.6750    -999.2500       0.9813       0.9837       1.3708       0.3224    -999.2500    -999.2500
   1536.1920       6.3800    -999.2500    -999.2500      36.0100    -999.2500       0.9390       0.9070       1.3190       0.3251    -999.2500    -999.2500
   1536.3445       6.3805    -999.2500    -999.2500      37.3370    -999.2500       0.7754       0.7715       1.1885       0.3251    -999.2500    -999.2500
   1536.4968       6.3810    -999.2500    -999.2500      37.3129    -999.2500       0.6130       0.6370       1.0590       0.3220    -999.2500    -999.2500
   1536.6493       6.3815    -999.2500    -999.2500      37.2890    -999.2500       0.6230       0.6405       0.9541       0.3143    -999.2500    -999.2500
   1536.8016       6.3820    -999.2500    -999.2500      37.0182    -999.2500       0.6330       0.6440       0.8500       0.3071    -999.2500    -999.2500
   1536.9541       6.3820    -999.2500    -999.2500      36.7490    -999.2500       0.6927       0.8808       0.9092       0.3055    -999.2500    -999.2500
   1537.1064       6.3820    -999.2500    -999.2500      36.8974    -999.2500       0.7520       1.1160       0.9680       0.3081    -999.2500    -999.2500
   1537.2589       6.3825    -999.2500    -999.2500      37.0450    -999.2500       0.8514       1.1035       1.2013       0.3149    -999.2500    -999.2500
   1537.4113       6.3830    -999.2500    -999.2500      37.5388    -999.2500       0.9500       1.0910       1.4330       0.3212    -999.2500    -999.2500
   1537.5637       6.3835    -999.2500    -999.2500      38.0300    -999.2500       0.9861       1.1015       1.4541       0.3225    -999.2500    -999.2500
   1537.7161       6.3840    -999.2500    -999.2500      38.2782    -999.2500       1.0220       1.1120       1.4750       0.3221    -999.2500    -999.2500
   1537.8685       6.3845    -999.2500    -999.2500      38.5250    -999.2500       1.1675       1.2495       1.7560       0.3227    -999.2500    -999.2500
   1538.0209       6.3850    -999.2500    -999.2500      38.2297    -999.2500       1.3120       1.3860       2.0350       0.3248    -999.2500    -999.2500
