#------------------------------------------------------------------------------
#
#   Created by  : [OpenWorks] Log Export Utility (LEXP)
#   Created on  : 2016-05-23 11:55:56
#   Project     : CANT971
#   User        : R5K
#   Interpreter : PEP
#
#------------------------------------------------------------------------------
~VERSION INFORMATION
VERS. 2.0 : CWLS Log ASCII Standard - version 2.0
WRAP.  NO : One line per depth step
~WELL INFORMATION
#MNEMONIC   .UNIT                                           VALUE :DESCRIPTION
#------------------------------------------------------------------------------
STRT        .M                                          3767.4790 :START DEPTH
STOP        .M                                          5548.2729 :STOP DEPTH
STEP        .M                                             0.1524 :STEP
NULL        .                                           -999.2500 :NULL VALUE
COMP        .                                             UNKNOWN :COMPANY
WELL        .                                            418D-ST2 :WELL
FLD         .                                             UNKNOWN :FIELD
LOC         .                                             UNKNOWN :LOCATION
CNTY        .                                             UNKNOWN :COUNTY
STAT        .                                             UNKNOWN :STATE
CTRY        .                                             UNKNOWN :COUNTRY
SRVC        .                                             UNKNOWN :SERVICE COMPANY
DATE        .                                             UNKNOWN :LOG DATE
UWI         .                                            418D-ST2 :UNIQUE WELL ID
XCOORD      .                                       597130.010000 :SURFACE X
YCOORD      .                                      2144879.410000 :SURFACE Y
LAT         .                                           19.396924 :LATITUDE
LON         .                                          -92.074978 :LONGITUDE
ELEV        .M                                             0.0000 :SURFACE ELEV
ELEV_TYPE   .                                                  NA :ELEV TYPE
~CURVE INFORMATION
#MNEMONIC.UNIT        API CODE       : CURVE DESCRIPTION
#------------------------------------------------------------------------------
DEPTH    .M                          : Measured Depth
CALI     .inches      UNKNOWN        : CALI:PETROWORKS:rC:NONE:v1 
CGR      .API         UNKNOWN        : CGR:PETROWORKS:rC:NONE:v2 
DRHO     .g/cm3       UNKNOWN        : DRHO:PETROWORKS:rC:NONE:v1 
DT       .us/ft       UNKNOWN        : DT:PETROWORKS:rC:NONE:v2 
GR       .API         UNKNOWN        : GR:PETROWORKS:rC:NONE:v2 
ILD      .ohm.m       UNKNOWN        : ILD:PETROWORKS:rC:NONE:v2 
ILM      .ohm.m       UNKNOWN        : ILM:PETROWORKS:rC:NONE:v2 
NPHI     .v/v_decimal UNKNOWN        : NPHI:PETROWORKS:rC:NONE:v3 
PEF      .b/elec      UNKNOWN        : PEF:PETROWORKS:rC:NONE:v1 
POTA     .wtpercent   UNKNOWN        : POTA:PETROWORKS:rC:NONE:v2 
RHOB     .UNKNOWN     UNKNOWN        : RHOB:PETROWORKS:rC:NONE:v1 
THOR     .ppm         UNKNOWN        : THOR:PETROWORKS:rC:NONE:v2 
URAN     .ppm         UNKNOWN        : URAN:PETROWORKS:rC:NONE:v2 
~A     DEPTH         CALI          CGR         DRHO           DT           GR          ILD          ILM         NPHI          PEF         POTA         RHOB         THOR         URAN
# ...
   4880.6084       6.1930      47.8773       0.0563      63.2267      53.4672      11.4503       9.5964       0.0973       5.1176       0.0206       2.6903       4.2138       0.7616
   4880.7612       6.1645      45.1048       0.0356      63.8170      51.8607      11.2473       9.4952       0.0966       5.3826       0.0195       2.6962       3.7279       0.9204
   4880.9136       6.1725      40.0171       0.0342      62.5378      47.8608      12.0564       9.1576       0.1006       5.8281       0.0182       2.6708       3.0341       1.0686
   4881.0659       6.2598      37.2704       0.0357      60.9909      44.9671      12.7639       8.8601       0.1030       6.0779       0.0175       2.6485       2.7379       1.0486
   4881.2183       6.4312      37.0224       0.0346      58.9052      43.7656      12.5160       8.6951       0.0987       5.8033       0.0174       2.6532       2.7415       0.9187
   4881.3706       6.4019      36.8124       0.0338      57.6449      42.8912      11.7462       8.7031       0.0938       5.4621       0.0168       2.6725       2.7202       0.8282
   4881.5229       6.2681      35.1237       0.0414      57.3178      41.5128      10.7220       8.7328       0.0932       5.4682       0.0161       2.6960       2.6090       0.8704
   4881.6753       6.2358      34.0025       0.0521      57.3183      40.4184      10.3112       8.6298       0.0923       5.6639       0.0160       2.7075       2.5539       0.8741
   4881.8276       6.2598      33.9085       0.0593      56.4818      39.6139      10.8956       9.0015       0.0906       5.7194       0.0161       2.7100       2.5022       0.7773
   4881.9800       6.2503      33.4890       0.0587      55.1986      38.9038      11.9802      10.1735       0.0899       5.5463       0.0160       2.7142       2.3393       0.7377
   4882.1328       6.2320      32.3670       0.0491      53.8136      38.4023      13.8411      14.4304       0.0897       5.1500       0.0160       2.7244       1.9829       0.8222
   4882.2852       6.2800      31.2597       0.0429      53.6228      37.9940      14.3669      17.5398       0.0871       4.7527       0.0160       2.7390       1.6260       0.9228
   4882.4375       6.3183      30.4668       0.0431      55.1174      37.9521      13.9053      18.4136       0.0836       4.5615       0.0158       2.7473       1.4216       1.0163
   4882.5898       6.2483      29.7430       0.0461      56.3672      38.0354      13.8454      17.8070       0.0831       4.6209       0.0156       2.7356       1.3160       1.1211
   4882.7422       6.1950      29.2047       0.0547      57.0418      38.0869      14.9554      15.4735       0.0843       4.8890       0.0155       2.7141       1.2524       1.1961
   4882.8945       6.2446      29.1081       0.0827      57.0657      38.0081      16.0952      13.6298       0.0824       5.3723       0.0154       2.7029       1.2269       1.2279
   4883.0469       6.2893      29.0692       0.1074      56.7121      37.8246      16.5189      11.7615       0.0784       5.6237       0.0153       2.7161       1.2708       1.2088
   4883.1992       6.2558      27.7746       0.0950      56.7026      36.9662      16.0682      10.5420       0.0669       5.2650       0.0144       2.7571       1.3333       1.2040
   4883.3516       6.1921      26.5433       0.0663      57.1146      36.1881      14.5722       9.7014       0.0544       4.8270       0.0137       2.7845       1.3392       1.2612
   4883.5044       6.1775      25.8781       0.0425      57.2046      35.4814      13.6789       9.6128       0.0463       4.6436       0.0135       2.7841       1.2488       1.3124
   4883.6567       6.2293      25.4698       0.0352      56.8617      34.5035      14.1413      10.2790       0.0429       4.6996       0.0133       2.7776       1.2311       1.3070
   4883.8091       6.2728      26.1334       0.0434      55.3230      31.6870      17.0189      12.4664       0.0456       5.1188       0.0130       2.7587       1.5612       0.8647
   4883.9614       6.2574      26.8311       0.0520      53.5982      29.7591      20.0421      14.3815       0.0499       5.5316       0.0130       2.7397       1.8255       0.4652
   4884.1138       6.2697      28.0814       0.0614      51.4887      30.5578      25.5270      17.5126       0.0564       5.5959       0.0134       2.7450       1.9991       0.3461
   4884.2661       6.2998      30.6646       0.0655      50.5498      32.7283      29.6449      21.0624       0.0620       5.3919       0.0144       2.7659       2.3035       0.2955
   4884.4185       6.3197      33.0592       0.0521      51.2599      35.5078      29.4670      29.9549       0.0673       5.0223       0.0156       2.7763       2.4487       0.3143
   4884.5708       6.3191      34.3956       0.0410      52.2625      37.4389      26.2844      32.6965       0.0732       4.8757       0.0164       2.7650       2.4409       0.3596
   4884.7236       6.3207      35.5747       0.0571      54.1839      39.1939      20.9871      22.6805       0.0825       5.2145       0.0172       2.7321       2.4127       0.4098
   4884.8760       6.3562      36.3895       0.0853      55.8159      40.7476      17.3598      15.3428       0.0921       5.6290       0.0177       2.7152       2.3902       0.4893
   4885.0283       6.4552      37.7442       0.1094      57.8443      44.0278      13.5042      12.3113       0.1075       6.1523       0.0188       2.7161       2.2543       0.7652
   4885.1807       6.4527      40.6972       0.1233      59.4344      47.9346      10.9405      11.3086       0.1247       6.8304       0.0203       2.6946       2.4102       0.9945
   4885.3330       6.3940      43.1198       0.1674      61.4586      50.2700       9.2126      10.4379       0.1409       8.1510       0.0214       2.6130       2.6453       1.0014
   4885.4854       6.4263      44.1936       0.2730      62.7659      51.7241       8.3412       9.4707       0.1542       9.1302       0.0222       2.5833       2.5460       0.9990
   4885.6377       6.4568      44.6521       0.3403      63.4296      52.3098       7.7831       8.1431       0.1550       8.7204       0.0227       2.6380       2.4279       1.0360
   4885.7900       6.4432      45.2980       0.2856      63.7105      52.3739       7.6711       7.4928       0.1376       7.1274       0.0231       2.7159       2.4504       1.0187
   4885.9424       6.3703      45.8101       0.1911      63.9242      52.4075       9.0927       7.9648       0.1180       5.9895       0.0234       2.7438       2.4395       0.9443
   4886.0952       6.3413      46.1907       0.1027      63.9559      52.3178      10.9585       8.7325       0.1017       5.9816       0.0237       2.6976       2.4087       0.8800
   4886.2476       6.4367      46.8478       0.0601      62.8161      52.1959      14.2084       9.6393       0.0890       6.1279       0.0241       2.6720       2.4030       0.8197
   4886.3999       6.5370      47.5148       0.0728      58.8434      51.5825      15.5521      10.2273       0.0729       5.9592       0.0245       2.7188       2.4248       0.6461
   4886.5522       6.5641      47.3651       0.0923      55.0064      50.5461      15.5273      10.7334       0.0577       5.7397       0.0244       2.7769       2.4431       0.4885
   4886.7046       6.5148      42.4318       0.1146      51.1646      45.1838      15.1390      11.4255       0.0474       5.7667       0.0213       2.8231       2.4389       0.3884
   4886.8569       6.4223      38.3560       0.1328      49.3540      40.8878      14.5523      11.4931       0.0417       5.8808       0.0189       2.8502       2.4148       0.3392
   4887.0093       6.3931      34.1140       0.1377      48.9767      36.8173      14.6851      11.7082       0.0376       5.8221       0.0167       2.8580       2.2143       0.4334
   4887.1616       6.3943      30.8110       0.1316      49.0842      33.4797      16.0804      12.9709       0.0341       5.6633       0.0148       2.8584       2.1119       0.4383
