#------------------------------------------------------------------------------
#
#   Created by  : [OpenWorks] Log Export Utility (LEXP)
#   Created on  : 2016-05-23 11:56:20
#   Project     : CANT971
#   User        : R5K
#   Interpreter : PEP
#
#------------------------------------------------------------------------------
~VERSION INFORMATION
VERS. 2.0 : CWLS Log ASCII Standard - version 2.0
WRAP.  NO : One line per depth step
~WELL INFORMATION
#MNEMONIC   .UNIT                                           VALUE :DESCRIPTION
#------------------------------------------------------------------------------
STRT        .M                                          1446.1469 :START DEPTH
STOP        .M                                          3739.7668 :STOP DEPTH
STEP        .M                                             0.1524 :STEP
NULL        .                                           -999.2500 :NULL VALUE
COMP        .                                             UNKNOWN :COMPANY
WELL        .                                               468-V :WELL
FLD         .                                             UNKNOWN :FIELD
LOC         .                                             UNKNOWN :LOCATION
CNTY        .                                             UNKNOWN :COUNTY
STAT        .                                             UNKNOWN :STATE
CTRY        .                                             UNKNOWN :COUNTRY
SRVC        .                                             UNKNOWN :SERVICE COMPANY
DATE        .                                             UNKNOWN :LOG DATE
UWI         .                                               468-V :UNIQUE WELL ID
XCOORD      .                                       598699.140000 :SURFACE X
YCOORD      .                                      2143301.650000 :SURFACE Y
LAT         .                                           19.382589 :LATITUDE
LON         .                                          -92.060118 :LONGITUDE
ELEV        .M                                             0.0000 :SURFACE ELEV
ELEV_TYPE   .                                                  NA :ELEV TYPE
~CURVE INFORMATION
#MNEMONIC.UNIT        API CODE       : CURVE DESCRIPTION
#------------------------------------------------------------------------------
DEPTH    .M                          : Measured Depth
CALI     .inches      UNKNOWN        : CALI:PETROWORKS:rC:NONE:v1 
DRHO     .g/cm3       UNKNOWN        : DRHO:PETROWORKS:rC:NONE:v1 
DT       .us/ft       UNKNOWN        : DT:sonico:rC:NONE:v0 (auto-composite)
GR       .API         UNKNOWN        : GR:PETROWORKS:rC:NONE:v1 
GR-LWD   .API         UNKNOWN        : GR-LWD:PETROWORKS:rC:NONE:v3 
ILD-LWD  .ohm.m       UNKNOWN        : ILD-LWD:PETROWORKS:rC:NONE:v3 
ILM-LWD  .UNKNOWN     UNKNOWN        : ILM-LWD:PETROWORKS:rC:NONE:v3 
NPHI     .v/v_decimal UNKNOWN        : NPHI:PETROWORKS:rC:NONE:v1 
PEF      .b/elec      UNKNOWN        : PEF:PETROWORKS:rC:NONE:v1 
RHOB     .g/cm3       UNKNOWN        : RHOB:PETROWORKS:rC:NONE:v1 
~A     DEPTH         CALI         DRHO           DT           GR       GR-LWD      ILD-LWD      ILM-LWD         NPHI          PEF         RHOB
# ...
   3349.3181       6.5787       0.0718      54.3682      47.4272      34.0018     117.7151     119.3884       0.0998       2.7256       2.3823
   3349.4705       6.6427       0.0726      54.4091      52.6741      32.6072     115.7861     114.7634       0.0978       2.6186       2.3580
   3349.6228       6.6799       0.0718      54.2155      53.9827      31.5585     115.3755     109.6950       0.0986       2.5642       2.3394
   3349.7751       6.6730       0.0666      53.6916      49.2314      32.1189     115.1658     106.3647       0.1013       2.4723       2.2303
   3349.9277       6.7146       0.0607      53.3202      46.6879      34.1110     108.5319      98.3064       0.1048       2.3952       2.1559
   3350.0801       6.9115       0.0537      53.1259      47.9380      36.7026      90.2538      84.1043       0.1088       2.3854       2.0703
   3350.2324       7.2075       0.0508      52.8863      49.2031      39.6988      76.9120      70.6372       0.1101       2.3744       1.9536
   3350.3848       7.7687       0.0509      52.3579      47.7596      41.7766      78.5628      69.8035       0.1104       2.2552       1.8199
   3350.5374       8.0944       0.0527      52.4906      47.3995      41.9781      75.1143      68.9149       0.1149       2.1686       1.8225
   3350.6897       7.8171       0.0565      52.9936      48.9828      41.0307      63.0264      59.6527       0.1119       2.1744       1.9775
   3350.8420       7.5371       0.0628      54.8816      50.3173      40.1000      58.4419      55.4266       0.1032       2.2154       2.1455
   3350.9944       7.1679       0.0745      57.0548      50.2825      40.1399      67.2409      64.8402       0.0942       2.2440       2.3001
   3351.1470       6.8636       0.0867      57.8639      50.5218      39.6529      73.5480      73.2148       0.0843       2.2673       2.4268
   3351.2993       6.7177       0.0977      59.5875      52.5533      37.2515      67.3779      70.4284       0.0750       2.2875       2.5702
   3351.4517       6.5506       0.1018      60.9687      55.1110      32.1949      70.2659      74.0182       0.0681       2.2950       2.6429
   3351.6040       6.4475       0.1040      62.0749      58.5025      26.5366      77.5276      78.5308       0.0611       2.3255       2.6872
   3351.7563       6.4478       0.1051      62.4018      57.5736      23.0726      82.9397      81.8327       0.0581       2.4264       2.7016
   3351.9089       6.4590       0.1057      62.2291      52.4299      21.3993      79.9074      79.0340       0.0568       2.5650       2.7066
   3352.0613       6.5074       0.1061      60.1377      42.0056      20.3904      80.3864      79.9485       0.0575       2.6011       2.7071
   3352.2136       6.5236       0.1063      59.0228      34.6558      19.3662      83.0040      82.5678       0.0555       2.6016       2.7038
   3352.3660       6.5334       0.1053      57.2367      29.9674      20.6872      77.8839      78.4639       0.0548       2.6262       2.6900
   3352.5186       6.5347       0.1030      55.8682      32.6001      26.3998      69.9751      72.6369       0.0559       2.6714       2.6715
   3352.6709       6.5367       0.0993      55.5843      45.9360      34.1399      65.2911      67.0610       0.0560       2.7165       2.6465
   3352.8232       6.5865       0.0968      54.8745      52.7696      40.5291      62.0967      59.1128       0.0580       2.7387       2.5890
   3352.9756       6.8159       0.0934      53.7921      50.2494      43.6544      56.1480      51.0016       0.0642       2.7037       2.4236
   3353.1279       6.7432       0.0911      53.1313      48.2077      46.2626      49.0635      43.4447       0.0714       2.6117       2.3292
   3353.2805       6.5098       0.0901      52.3495      51.4012      49.7684      43.7697      36.4244       0.0803       2.5283       2.3205
   3353.4329       6.4452       0.0897      51.8556      54.9923      52.5889      37.9385      32.2669       0.0846       2.5616       2.3387
   3353.5852       6.4402       0.0900      51.4830      56.5994      51.1176      30.7216      29.2791       0.0942       2.6607       2.3672
   3353.7375       6.4175       0.0915      51.3565      51.0581      42.8765      36.1688      34.1910       0.1018       2.7292       2.4011
   3353.8901       6.4127       0.0940      51.2733      35.7239      30.8086      49.7862      46.2146       0.1041       2.8003       2.4499
   3354.0425       6.4380       0.0976      51.3550      25.0222      21.0407      50.3875      49.3319       0.0981       2.8834       2.5129
   3354.1948       6.4530       0.1029      51.4057      19.7861      17.2769      52.0720      51.6085       0.0806       2.9910       2.5894
   3354.3472       6.4560       0.1072      51.5011      16.4368      16.9090      56.1084      55.0338       0.0623       3.0419       2.6429
   3354.4998       6.4554       0.1104      51.6527      13.0567      16.1903      58.3222      58.2523       0.0496       3.0615       2.6811
   3354.6521       6.4489       0.1113      51.8769      13.6219      14.9602      57.9188      60.4366       0.0434       3.1561       2.6896
   3354.8044       6.4413       0.1120      52.8724      18.8831      14.2842      58.1561      62.4327       0.0385       3.3460       2.6912
   3354.9568       6.4358       0.1126      54.4204      22.8430      14.3519      58.7191      64.1293       0.0394       3.5216       2.6910
   3355.1091       6.4351       0.1134      55.5960      24.1572      14.9889      58.5581      64.2596       0.0406       3.6950       2.6944
   3355.2617       6.4400       0.1140      55.9868      22.2943      14.9918      59.1059      63.8908       0.0415       3.7494       2.7036
   3355.4141       6.4584       0.1146      56.0042      19.7400      15.3462      58.8034      62.7424       0.0435       3.7412       2.7123
   3355.5664       6.4758       0.1155      55.7121      20.1628      16.2409      57.1362      60.9152       0.0494       3.6861       2.7255
   3355.7188       6.4879       0.1141      55.8701      23.6884      17.7113      56.6827      60.1712       0.0544       3.6992       2.7390
   3355.8713       6.5369       0.1049      56.9166      26.5956      19.5822      55.9160      58.2991       0.0654       3.7934       2.7393
   3356.0237       6.5506       0.0955      63.9175      27.2690      24.7822      51.8254      53.3092       0.0787       3.8502       2.7193
   3356.1760       6.5509       0.0847      68.2058      33.9701      34.6734      46.0386      46.2815       0.1008       3.8649       2.6545
   3356.3284       6.5660       0.0786      78.3111      43.3045      40.1191      39.1557      38.6514       0.1210       3.8526       2.5806
   3356.4810       6.5957       0.0743      82.2110      55.4798      44.2885      29.9254      27.9468       0.1484       3.8194       2.5017
   3356.6333       6.6412       0.0732      81.5476      62.2581      47.5675      26.8001      24.4546       0.1629       3.7551       2.4501
   3356.7856       6.6317       0.0731      77.6689      62.3274      47.7204      30.1890      26.6435       0.1500       3.6164       2.3848
   3356.9380       6.7141       0.0740      72.2240      58.1846      41.2841      41.6885      35.9054       0.1272       3.5591       2.4077
   3357.0903       6.9018       0.0767      64.2489      50.5479      31.7611      52.1060      47.0135       0.1040       3.6469       2.5135
   3357.2429       6.8713       0.0803      59.1185      44.5530      23.6620      62.8484      66.3382       0.0905       3.7750       2.5690
   3357.3953       6.5887       0.0856      54.7366      38.8920      19.0615      68.3250      71.7482       0.0865       3.8562       2.5859
   3357.5476       6.4978       0.0907      52.9247      32.5160      18.6309      72.4596      66.7895       0.0862       3.8950       2.6291
   3357.7000       6.4792       0.0958      52.8005      24.6053      21.0607      73.1997      61.1320       0.0829       3.9452       2.6930
