#------------------------------------------------------------------------------
#
#   Created by  : [OpenWorks] Log Export Utility (LEXP)
#   Created on  : 2016-05-23 11:50:23
#   Project     : CANT971
#   User        : R5K
#   Interpreter : PEP
#
#------------------------------------------------------------------------------
~VERSION INFORMATION
VERS. 2.0 : CWLS Log ASCII Standard - version 2.0
WRAP.  NO : One line per depth step
~WELL INFORMATION
#MNEMONIC   .UNIT                                           VALUE :DESCRIPTION
#------------------------------------------------------------------------------
STRT        .M                                           790.6004 :START DEPTH
STOP        .M                                          2649.8804 :STOP DEPTH
STEP        .M                                             0.1524 :STEP
NULL        .                                           -999.2500 :NULL VALUE
COMP        .                                             UNKNOWN :COMPANY
WELL        .                                               1012D :WELL
FLD         .                                             UNKNOWN :FIELD
LOC         .                                             UNKNOWN :LOCATION
CNTY        .                                             UNKNOWN :COUNTY
STAT        .                                             UNKNOWN :STATE
CTRY        .                                             UNKNOWN :COUNTRY
SRVC        .                                             UNKNOWN :SERVICE COMPANY
DATE        .                                             UNKNOWN :LOG DATE
UWI         .                                               1012D :UNIQUE WELL ID
XCOORD      .                                       594334.990000 :SURFACE X
YCOORD      .                                      2152041.060000 :SURFACE Y
LAT         .                                           19.461774 :LATITUDE
LON         .                                          -92.101239 :LONGITUDE
ELEV        .M                                             0.0000 :SURFACE ELEV
ELEV_TYPE   .                                                  KB :ELEV TYPE
~CURVE INFORMATION
#MNEMONIC.UNIT        API CODE       : CURVE DESCRIPTION
#------------------------------------------------------------------------------
DEPTH    .M                          : Measured Depth
DT       .us/ft       UNKNOWN        : DT:UNKNOWN:rC:NONE:v0 (auto-composite)
GR       .API         UNKNOWN        : GR:PETROWORKS:rC:NONE:v1 
GR-LWD   .API         UNKNOWN        : GR-LWD:PETROWORKS:rC:NONE:v1 
ILD      .ohm.m       UNKNOWN        : ILD:resistivos:rC:NONE:v0 (auto-composite)
ILD-LWD  .ohm.m       UNKNOWN        : ILD-LWD:PETROWORKS:rC:NONE:v1 
ILM      .ohm.m       UNKNOWN        : ILM:resistivos:rC:NONE:v0 (auto-composite)
ILM-LWD  .ohm.m       UNKNOWN        : ILM-LWD:PETROWORKS:rC:NONE:v1 
~A     DEPTH           DT           GR       GR-LWD          ILD      ILD-LWD          ILM      ILM-LWD
# ...
   2280.9199      97.2124      29.3365      57.0916    -999.2500       1.6765    -999.2500       1.6748
   2281.0725      96.3023      28.9782      54.9732    -999.2500       1.6962    -999.2500       1.6941
   2281.2249      95.5302      29.8987      55.1298    -999.2500       1.7024    -999.2500       1.7006
   2281.3772      95.4450      30.4000      55.2974    -999.2500       1.6987    -999.2500       1.6991
   2281.5295      94.6368      29.7161      54.3728    -999.2500       1.6839    -999.2500       1.6891
   2281.6819      93.5588      29.1954      53.0607    -999.2500       1.6928    -999.2500       1.7021
   2281.8345      93.0156      28.3820      51.8585    -999.2500       1.7083    -999.2500       1.7147
   2281.9868      92.3011      27.8930      51.6002    -999.2500       1.7121    -999.2500       1.7197
   2282.1392      91.5856      27.8207      50.9759    -999.2500       1.7226    -999.2500       1.7296
   2282.2915      90.6171      26.7004      51.1038    -999.2500       1.7232    -999.2500       1.7260
   2282.4441      89.9047      25.0401      52.9698    -999.2500       1.7172    -999.2500       1.7247
   2282.5964      89.4572      23.6072      53.9687    -999.2500       1.6876    -999.2500       1.7013
   2282.7488      89.2334      23.6790      53.8289    -999.2500       1.6619    -999.2500       1.6758
   2282.9011      89.3356      24.1497      52.6289    -999.2500       1.6625    -999.2500       1.6634
   2283.0537      89.6991      23.7787      54.9218    -999.2500       1.6224    -999.2500       1.6182
   2283.2061      89.2476      23.6932      58.9377    -999.2500       1.5493    -999.2500       1.5524
   2283.3584      88.5251      22.4130      62.8041    -999.2500       1.5374    -999.2500       1.5450
   2283.5107      88.3740      22.4876      64.5144    -999.2500       1.6006    -999.2500       1.6083
   2283.6631      88.7040      24.7114      62.6795    -999.2500       1.6652    -999.2500       1.6726
   2283.8157      89.6169      25.9935      59.1872    -999.2500       1.6843    -999.2500       1.6879
   2283.9680      91.2929      25.2236      57.3948    -999.2500       1.6558    -999.2500       1.6629
   2284.1204      92.7010      24.3761      57.1937    -999.2500       1.5665    -999.2500       1.5798
   2284.2727      93.6624      26.7388      59.4124    -999.2500       1.4275    -999.2500       1.4491
   2284.4253      94.2302      31.7725      59.5714    -999.2500       1.4296    -999.2500       1.4418
   2284.5776      94.0765      35.0004      59.4639    -999.2500       1.4551    -999.2500       1.4618
   2284.7300      93.7829      34.3299      58.2299    -999.2500       1.4353    -999.2500       1.4416
   2284.8823      93.2709      29.0165      55.6948    -999.2500       1.3900    -999.2500       1.3967
   2285.0349      91.7815      25.1048      53.4957    -999.2500       1.3618    -999.2500       1.3707
   2285.1873      90.3030      26.0233      51.1650    -999.2500       1.3746    -999.2500       1.3852
   2285.3396      88.1304      28.7056      51.9894    -999.2500       1.4007    -999.2500       1.4083
   2285.4919      88.7806      30.8556      53.4833    -999.2500       1.4007    -999.2500       1.4094
   2285.6443      92.5072      29.4584      55.5012    -999.2500       1.4327    -999.2500       1.4363
   2285.7969      94.0437      26.2016      57.5640    -999.2500       1.4079    -999.2500       1.4151
   2285.9492      93.6592      23.0770      57.8389    -999.2500       1.3718    -999.2500       1.3819
   2286.1016      93.1017      22.2185      57.8895    -999.2500       1.3542    -999.2500       1.3631
   2286.2539      93.2097      24.8969      53.1179    -999.2500       1.4063    -999.2500       1.4150
   2286.4065      93.7258      25.0813      51.7333    -999.2500       1.5033    -999.2500       1.5007
   2286.5588      93.8084      23.6191      53.9495    -999.2500       1.4400    -999.2500       1.4340
   2286.7112      93.6705      22.0540      56.9118    -999.2500       1.4213    -999.2500       1.4172
   2286.8635      92.5976      21.4690      60.0654    -999.2500       1.4625    -999.2500       1.4616
   2287.0161      91.8204      22.2459      61.5084    -999.2500       1.5108    -999.2500       1.5170
   2287.1685      91.6976      23.9199      64.4876    -999.2500       1.5283    -999.2500       1.5359
   2287.3208      91.5695      24.2565      64.1527    -999.2500       1.5841    -999.2500       1.5815
   2287.4731      92.2329      24.9727      61.2761    -999.2500       1.6831    -999.2500       1.6746
   2287.6255      92.6732      26.0470      54.9844    -999.2500       1.6946    -999.2500       1.6912
   2287.7781      93.8250      28.0625      51.2438    -999.2500       1.6828    -999.2500       1.6870
   2287.9304      94.9238      29.4993      50.7256    -999.2500       1.7235    -999.2500       1.7338
   2288.0828      94.4784      28.6534      51.0940    -999.2500       1.7518    -999.2500       1.7614
   2288.2351      93.2900      27.3500      52.0255    -999.2500       1.7484    -999.2500       1.7579
   2288.3877      93.2631      26.3105      53.2740    -999.2500       1.6277    -999.2500       1.6397
   2288.5400      92.6614      26.6312      54.3418    -999.2500       1.6021    -999.2500       1.6139
   2288.6924      91.9716      27.3688      55.5583    -999.2500       1.6106    -999.2500       1.6235
   2288.8447      91.3423      26.8394      56.3925    -999.2500       1.5820    -999.2500       1.5925
   2288.9973      91.3682      25.4447      56.3290    -999.2500       1.5965    -999.2500       1.6030
   2289.1497      91.5765      24.9276      57.3536    -999.2500       1.6149    -999.2500       1.6176
   2289.3020      91.1437      25.8204      56.1225    -999.2500       1.6554    -999.2500       1.6640
   2289.4543      91.0895      27.1218      53.9175    -999.2500       1.6655    -999.2500       1.6832
   2289.6067      91.8611      28.2951      52.2651    -999.2500       1.6868    -999.2500       1.6951
   2289.7593      93.0324      27.3834      51.7221    -999.2500       1.6669    -999.2500       1.6672
   2289.9116      93.9294      27.4902      52.7734    -999.2500       1.7341    -999.2500       1.7361
   2290.0640      94.6366      27.5026      51.0258    -999.2500       1.7583    -999.2500       1.7626
   2290.2163      94.9849      27.0451      49.6400    -999.2500       1.7940    -999.2500       1.8060
   2290.3689      95.2342      27.0908      47.3241    -999.2500       1.8138    -999.2500       1.8284
   2290.5212      95.4011      27.2294      47.8796    -999.2500       1.7795    -999.2500       1.7885
   2290.6736      94.2239      27.3451      50.6711    -999.2500       1.7409    -999.2500       1.7542
   2290.8259      92.3503      25.8972      52.8202    -999.2500       1.6642    -999.2500       1.6724
   2290.9785      90.7059      25.5372      53.6504    -999.2500       1.5412    -999.2500       1.5503
   2291.1309      89.3274      26.0256      53.7007    -999.2500       1.3977    -999.2500       1.4071
   2291.2832      88.5114      27.2727      54.9523    -999.2500       1.3120    -999.2500       1.3149
   2291.4355      87.8731      27.0466      55.0432    -999.2500       1.2845    -999.2500       1.2872
   2291.5879      87.7498      24.4972      54.2590    -999.2500       1.2573    -999.2500       1.2604
   2291.7405      88.2957      22.5006      57.5891    -999.2500       1.2505    -999.2500       1.2550
   2291.8928      89.6726      22.7581      61.7523    -999.2500       1.2607    -999.2500       1.2573
   2292.0452      90.9863      24.5274      63.1162    -999.2500       1.2776    -999.2500       1.2715
   2292.1975      93.7427      26.3077      60.8899    -999.2500       1.2923    -999.2500       1.2824
   2292.3501      96.3114      25.5509      58.6629    -999.2500       1.2441    -999.2500       1.2392
   2292.5024      97.6165      25.3517      59.6570    -999.2500       1.2469    -999.2500       1.2400
