#------------------------------------------------------------------------------
#
#   Created by  : [OpenWorks] Log Export Utility (LEXP)
#   Created on  : 2016-05-23 11:55:58
#   Project     : CANT971
#   User        : R5K
#   Interpreter : PEP
#
#------------------------------------------------------------------------------
~VERSION INFORMATION
VERS. 2.0 : CWLS Log ASCII Standard - version 2.0
WRAP.  NO : One line per depth step
~WELL INFORMATION
#MNEMONIC   .UNIT                                           VALUE :DESCRIPTION
#------------------------------------------------------------------------------
STRT        .M                                           646.6334 :START DEPTH
STOP        .M                                          2755.8494 :STOP DEPTH
STEP        .M                                             0.1524 :STEP
NULL        .                                           -999.2500 :NULL VALUE
COMP        .                                   PEMEX EXPL & PROD :COMPANY
WELL        .                                                  42 :WELL
FLD         .                                           CANTARELL :FIELD
LOC         .                                             UNKNOWN :LOCATION
CNTY        .                                      CD. DEL CARMEN :COUNTY
STAT        .                                            CAMPECHE :STATE
CTRY        .                                              MEXICO :COUNTRY
SRVC        .                                             UNKNOWN :SERVICE COMPANY
DATE        .                                             UNKNOWN :LOG DATE
UWI         .                                          3060000464 :UNIQUE WELL ID
XCOORD      .                                       599690.710000 :SURFACE X
YCOORD      .                                      2143036.470000 :SURFACE Y
LAT         .                                           19.380144 :LATITUDE
LON         .                                          -92.050691 :LONGITUDE
ELEV        .M                                            26.7400 :SURFACE ELEV
ELEV_TYPE   .                                                  KB :ELEV TYPE
~CURVE INFORMATION
#MNEMONIC.UNIT        API CODE       : CURVE DESCRIPTION
#------------------------------------------------------------------------------
DEPTH    .M                          : Measured Depth
CALI     .inches      UNKNOWN        : CALI:Import:rC:NONE:v0 (auto-composite)
DRHO     .g/cm3       UNKNOWN        : DRHO:Import:rC:NONE:v0 (auto-composite)
DT       .us/ft       UNKNOWN        : DT:Import:rC:NONE:v0 (auto-composite)
GR       .API         UNKNOWN        : GR:Import:rC:NONE:v0 (auto-composite)
ILD      .ohm.m       UNKNOWN        : ILD:Import:rC:NONE:v0 (auto-composite)
ILM      .ohm.m       UNKNOWN        : ILM:Import:rC:NONE:v0 (auto-composite)
LLD      .ohm.m       UNKNOWN        : LLD:Import:rC:NONE:v0 (auto-composite)
LLS      .ohm.m       UNKNOWN        : LLS:Import:rC:NONE:v0 (auto-composite)
MSFL     .ohm.m       UNKNOWN        : MSFL:Import:rC:NONE:v0 (auto-composite)
NPHI     .v/v_decimal UNKNOWN        : NPHI:Import:rC:NONE:v0 (auto-composite)
PEF      .b/elec      UNKNOWN        : PEF:Import:rC:NONE:v0 (auto-composite)
RHOB     .g/cm3       UNKNOWN        : RHOB:Import:rC:NONE:v0 (auto-composite)
~A     DEPTH         CALI         DRHO           DT           GR          ILD          ILM          LLD          LLS         MSFL         NPHI          PEF         RHOB
# ...
   1875.5869    -999.2500    -999.2500    -999.2500      25.7810       2.2040       2.2139    -999.2500    -999.2500    -999.2500    -999.2500    -999.2500    -999.2500
   1875.7394    -999.2500    -999.2500    -999.2500      25.7810       2.1330       2.0050    -999.2500    -999.2500    -999.2500    -999.2500    -999.2500    -999.2500
   1875.8917    -999.2500    -999.2500    -999.2500      25.7810       2.0540       1.8610    -999.2500    -999.2500    -999.2500    -999.2500    -999.2500    -999.2500
   1876.0442    -999.2500    -999.2500    -999.2500      25.7810       1.9750       1.7170    -999.2500    -999.2500    -999.2500    -999.2500    -999.2500    -999.2500
   1876.1965    -999.2500    -999.2500    -999.2500      25.7810       1.8460       1.6500    -999.2500    -999.2500    -999.2500    -999.2500    -999.2500    -999.2500
   1876.3490    -999.2500    -999.2500    -999.2500      25.7810       1.7170       1.5830    -999.2500    -999.2500    -999.2500    -999.2500    -999.2500    -999.2500
   1876.5013    -999.2500    -999.2500    -999.2500      25.7810       1.6315       1.5055    -999.2500    -999.2500    -999.2500    -999.2500    -999.2500    -999.2500
   1876.6538    -999.2500    -999.2500    -999.2500      25.7810       1.5460       1.4280    -999.2500    -999.2500    -999.2500    -999.2500    -999.2500    -999.2500
   1876.8062    -999.2500    -999.2500    -999.2500      25.7810       1.5135       1.4290    -999.2500    -999.2500    -999.2500    -999.2500    -999.2500    -999.2500
   1876.9586    -999.2500    -999.2500    -999.2500      25.7810       1.4810       1.4300    -999.2500    -999.2500    -999.2500    -999.2500    -999.2500    -999.2500
   1877.1110    -999.2500    -999.2500    -999.2500      25.7810       1.4680       1.4220    -999.2500    -999.2500    -999.2500    -999.2500    -999.2500    -999.2500
   1877.2633    -999.2500    -999.2500    -999.2500      25.7810       1.4550       1.4140    -999.2500    -999.2500    -999.2500    -999.2500    -999.2500    -999.2500
   1877.4158    -999.2500    -999.2500    -999.2500      25.7810       1.4915       1.4630    -999.2500    -999.2500    -999.2500    -999.2500    -999.2500    -999.2500
   1877.5681    -999.2500    -999.2500    -999.2500      25.7810       1.5280       1.5120    -999.2500    -999.2500    -999.2500    -999.2500    -999.2500    -999.2500
   1877.7206    -999.2500    -999.2500    -999.2500      25.7810       1.5275       1.4915    -999.2500    -999.2500    -999.2500    -999.2500    -999.2500    -999.2500
   1877.8729    -999.2500    -999.2500    -999.2500      25.7810       1.5270       1.4710    -999.2500    -999.2500    -999.2500    -999.2500    -999.2500    -999.2500
   1878.0254    -999.2500    -999.2500    -999.2500      25.7810       1.5510       1.4815    -999.2500    -999.2500    -999.2500    -999.2500    -999.2500    -999.2500
   1878.1777    -999.2500    -999.2500    -999.2500      25.7810       1.5750       1.4920    -999.2500    -999.2500    -999.2500    -999.2500    -999.2500    -999.2500
   1878.3302    -999.2500    -999.2500    -999.2500      25.7810       1.6145       1.5350    -999.2500    -999.2500    -999.2500    -999.2500    -999.2500    -999.2500
   1878.4825    -999.2500    -999.2500    -999.2500      25.7810       1.6540       1.5780    -999.2500    -999.2500    -999.2500    -999.2500    -999.2500    -999.2500
   1878.6350    -999.2500    -999.2500    -999.2500      25.7810       1.6535       1.6320    -999.2500    -999.2500    -999.2500    -999.2500    -999.2500    -999.2500
   1878.7874     -82.5360       0.2500    -999.2500      25.7810       1.6530       1.6860    -999.2500    -999.2500    -999.2500    -999.2500     -82.5360     -81.6650
   1878.9398     -33.8984       0.1116    -999.2500      12.9061       1.6580       1.7425    -999.2500    -999.2500    -999.2500      -0.8201     -39.3526     -39.8389
   1879.0922      14.4680      -0.0260    -999.2500       0.0000       1.6630       1.7990    -999.2500    -999.2500    -999.2500       0.2634       3.5900       1.7540
   1879.2445      14.5512      -0.0290    -999.2500       0.0000       1.7045       1.8905    -999.2500    -999.2500    -999.2500       0.5441       3.2616       1.6372
   1879.3970      14.6340      -0.0320    -999.2500       0.0000       1.7460       1.9820    -999.2500    -999.2500    -999.2500       0.5266       2.9350       1.5210
   1879.5493      14.7147      -0.0310    -999.2500       4.2288       1.8915       2.0785    -999.2500    -999.2500    -999.2500       0.4966       2.7671       1.4363
   1879.7018      14.7950      -0.0300    -999.2500       8.4690       2.0370       2.1750       0.9200       0.5130       0.2790       0.4609       2.6000       1.3520
   1879.8541      15.1309      -0.0240    -999.2500      14.8825       2.0000       2.1750       3.4724       1.0428       0.9006       0.4227       2.2290       1.2693
   1880.0066      15.4650      -0.0180    -999.2500      21.3140       1.9630       2.1750       6.0320       1.5740       1.5240       0.3880       1.8600       1.1870
   1880.1589      15.4119      -0.0105    -999.2500      20.0114       1.9025       2.1595       5.9811       1.7657       1.5140       0.3655       1.9467       1.2091
   1880.3114      15.3590      -0.0030    -999.2500      18.7050       1.8420       2.1440       5.9300       1.9580       1.5040       0.3504       2.0330       1.2310
   1880.4637      15.2056       0.0015    -999.2500      19.2951       1.8420       2.0279       5.8686       1.9944       1.4636       0.3433       2.2751       1.3688
   1880.6162      15.0530       0.0060    -999.2500      19.8870       1.8420       1.9120       5.8070       2.0310       1.4230       0.3391       2.5160       1.5060
   1880.7686      15.0911       0.0291    -999.2500      21.2054       1.8420       1.8109       5.7596       2.0295       1.2787       0.3340       2.8068       1.9412
   1880.9210      15.1290       0.0520    -999.2500      22.5280       1.8420       1.7100       5.7120       2.0280       1.1340       0.3351       3.0960       2.3740
   1881.0734      15.2524       0.0746    -999.2500      25.1477       1.8410       1.6795       5.6386       2.0195       1.1615       0.3529       3.0619       2.3384
   1881.2257      15.3750       0.0970    1561.0220      27.7760       1.8400       1.6490       5.5650       2.0110       1.1890       0.3770       3.0280       2.3030
   1881.3782      15.4989       0.0960    2779.8994      32.0302       1.8360       1.6495       5.4412       1.9960       1.2773       0.4012       3.1042       2.1591
   1881.5305      15.6220       0.0950    4001.0000      36.2990       1.8320       1.6500       5.3170       1.9810       1.3660       0.4136       3.1800       2.0160
   1881.6830      15.8025       0.0890    3075.2915      35.8846       1.2081       1.2768       5.1318       1.9725       2.3931       0.3947       3.4975       2.0456
   1881.8353      15.9820       0.0830    2147.7781      35.4690       0.5850       0.9040       4.9460       1.9640       3.4230       0.3721       3.8130       2.0750
   1881.9878      16.2648       0.0705    2147.7781      34.3057    -999.2500    -999.2500       4.7567       1.9490       3.3161       0.3709       4.6565       2.1517
   1882.1401      16.5460       0.0580    -999.2500      33.1400    -999.2500    -999.2500       4.5670       1.9340       3.2090       0.3753       5.4950       2.2280
   1882.2926      17.0495       0.0314    -999.2500      32.4048    -999.2500    -999.2500       4.3268       1.9155       2.3739       0.3734       5.0046       2.2827
   1882.4449      17.5500       0.0050    -999.2500      31.6680    -999.2500    -999.2500       4.0860       1.8970       1.5370       0.3690       4.5170       2.3370
   1882.5974      18.4024       0.0135    -999.2500      32.1444    -999.2500    -999.2500       3.7814       1.8900       2.9633       0.3638       3.7599       2.3515
   1882.7498      19.2500       0.0220    -999.2500      32.6220    -999.2500    -999.2500       3.4760       1.8830       4.3930       0.3586       3.0070       2.3660
