#------------------------------------------------------------------------------
#
#   Created by  : [OpenWorks] Log Export Utility (LEXP)
#   Created on  : 2016-05-23 11:57:25
#   Project     : CANT971
#   User        : R5K
#   Interpreter : PEP
#
#------------------------------------------------------------------------------
~VERSION INFORMATION
VERS. 2.0 : CWLS Log ASCII Standard - version 2.0
WRAP.  NO : One line per depth step
~WELL INFORMATION
#MNEMONIC   .UNIT                                           VALUE :DESCRIPTION
#------------------------------------------------------------------------------
STRT        .M                                           497.5860 :START DEPTH
STOP        .M                                          2904.1343 :STOP DEPTH
STEP        .M                                             0.1524 :STEP
NULL        .                                           -999.2500 :NULL VALUE
COMP        .                                   PEMEX EXPL & PROD :COMPANY
WELL        .                                                 82A :WELL
FLD         .                                           CANTARELL :FIELD
LOC         .                                             UNKNOWN :LOCATION
CNTY        .                                      CD. DEL CARMEN :COUNTY
STAT        .                                            CAMPECHE :STATE
CTRY        .                                              MEXICO :COUNTRY
SRVC        .                                             UNKNOWN :SERVICE COMPANY
DATE        .                                             UNKNOWN :LOG DATE
UWI         .                                          3060000184 :UNIQUE WELL ID
XCOORD      .                                       601716.340000 :SURFACE X
YCOORD      .                                      2142348.150000 :SURFACE Y
LAT         .                                           19.373822 :LATITUDE
LON         .                                          -92.031440 :LONGITUDE
ELEV        .M                                            24.0000 :SURFACE ELEV
ELEV_TYPE   .                                                  KB :ELEV TYPE
~CURVE INFORMATION
#MNEMONIC.UNIT        API CODE       : CURVE DESCRIPTION
#------------------------------------------------------------------------------
DEPTH    .M                          : Measured Depth
CAL      .inches      UNKNOWN        : CAL:UNKNOWN:rC:NONE:v0 (auto-composite)
DRHO     .g/cm3       UNKNOWN        : DRHO:UNKNOWN:rC:NONE:v0 (auto-composite)
DT       .us/ft       UNKNOWN        : DT:DT:rC:NONE:v0 (auto-composite)
GR       .api         UNKNOWN        : GR:GR-Load:rC:NONE:v0 (auto-composite)
ILD      .ohm.m       UNKNOWN        : ILD:PETROWORKS:rC:NONE:v1 
LLD      .ohmm        UNKNOWN        : LLD:UNKNOWN:rC:NONE:v0 (auto-composite)
LLS      .ohmm        UNKNOWN        : LLS:UNKNOWN:rC:NONE:v0 (auto-composite)
MSFL     .ohmm        UNKNOWN        : MSFL:PETROWORKS:rC:NONE:v1 
NPHI     .v/v_decimal UNKNOWN        : NPHI:NPHI:rC:NONE:v0 (auto-composite)
PEF      .b/elec      UNKNOWN        : PEF:UNKNOWN:rC:NONE:v0 (auto-composite)
RG       .API         UNKNOWN        : RG:UNKNOWN:rC:NONE:v0 (auto-composite)
RHOB     .g/cm3       UNKNOWN        : RHOB:UNKNOWN:rC:NONE:v0 (auto-composite)
~A     DEPTH          CAL         DRHO           DT           GR          ILD          LLD          LLS         MSFL         NPHI          PEF           RG         RHOB
# ...
   2392.2229       8.3352       0.2011    -999.2500      19.4060    -999.2500      59.1719    2729.8555    1975.3070      17.9890       2.6507      28.7966       2.3949
   2392.3752       8.3142       0.1340    -999.2500      19.5565    -999.2500      61.9885    1903.0309    1985.3862      18.5363       2.5588      22.6569       2.3365
   2392.5276       8.3212       0.0760    -999.2500      19.7615    -999.2500      58.3685    2513.6301    1986.9956      18.6648       2.4964      22.1675       2.3230
   2392.6799       8.3319       0.0194    -999.2500      19.3578    -999.2500      54.9141    3099.7175    1988.1870      18.7003       2.4404      21.7009       2.3097
   2392.8325       8.4508       0.0009    -999.2500      18.9146    -999.2500      56.3965    2955.6123    1988.1870      18.6513       2.5758      21.9149       2.3012
   2392.9849       8.5647      -0.0166    -999.2500      19.4823    -999.2500      57.9442    2807.2090    1987.2506      18.6728       2.7132      22.0998       2.2923
   2393.1372       8.5222      -0.0026    -999.2500      20.1145    -999.2500      61.4932    2527.1484    1983.9081      18.7583       2.9101      21.3991       2.2713
   2393.2896       8.4771       0.0115    -999.2500      20.2742    -999.2500      64.9018    2253.5522    1977.9622      17.7844       3.0946      20.7509       2.2477
   2393.4419       8.3513       0.0270    -999.2500      20.4032    -999.2500      63.8865    2183.7095    1965.5828      15.8487       2.8864      21.7541       2.1414
   2393.5945       8.2334       0.0414    -999.2500      19.9959    -999.2500      62.8615    2116.8926    1962.4595      13.4131       2.6770      22.6737       2.0370
   2393.7468       8.3904       0.0199    -999.2500      19.5543    -999.2500      61.4985    2154.0293    1983.8759      10.5250       2.4306      20.7175       2.0015
   2393.8992       8.5690      -0.0010    -999.2500      20.4618    -999.2500      60.0935    2189.9958    1999.6870       8.7217       2.1883      18.7926       1.9703
   2394.0515       9.5161      -0.0015    -999.2500      21.4547    -999.2500      57.1943    2184.4492    1999.6870       7.8974       2.0904      17.9760       2.0913
   2394.2041      10.4483      -0.0021    -999.2500      24.0727    -999.2500      54.3116    2178.8511    1999.8268       7.3111       1.9954      17.2008       2.2106
   2394.3564      10.8372      -0.0061    -999.2500      26.7920    -999.2500      52.0381    2171.3613    2000.3219       6.9390       2.0114      17.9455       2.2690
   2394.5088      11.2035      -0.0095    -999.2500      25.8001    -999.2500      49.8022    2164.9392    2000.6870       6.2383       2.0294      18.7227       2.3279
   2394.6611      10.7161       0.0084    -999.2500      24.5732    -999.2500      48.9917    2199.0073    2000.6870       5.2430       2.1233      20.7337       2.4008
   2394.8135      10.2362       0.0263    -999.2500      24.3169    -999.2500      48.1746    2233.8813    1999.2141       4.4506       2.2185      22.7052       2.4732
   2394.9661      10.0723       0.0378    -999.2500      24.1214    -999.2500      47.0831    2302.6543    1994.0148       3.8399       2.3694      23.0156       2.5262
   2395.1184       9.9269       0.0491    -999.2500      23.9005    -999.2500      45.9869    2367.3101    1991.6626       4.0620       2.5197      23.2959       2.5781
   2395.2708      10.5911       0.0521    -999.2500      23.6781    -999.2500      44.6865    2252.0020    1996.8619       5.0269       2.6396      22.2634       2.5841
   2395.4231      11.2484       0.0554    -999.2500      22.6243    -999.2500      43.4337    2142.2739    1999.6311       5.8752       2.7528      21.2577       2.5857
   2395.5757      11.5902       0.0724    -999.2500      21.5184    -999.2500      44.3498    2286.4983    1995.9172       6.6200       2.5559      21.4771       2.3878
   2395.7280      11.9246       0.0892    -999.2500      20.5948    -999.2500      45.2560    2425.6912    1993.1870       7.1092       2.3625      21.6781       2.1893
   2395.8804      11.9067       0.0982    -999.2500      19.6825    -999.2500      45.6935    2326.1082    1993.1870       7.3718       2.3380      21.0034       1.9636
   2396.0327      11.8874       0.1069    -999.2500      19.9630    -999.2500      46.2062    2227.2356    1994.2468       7.8030       2.3130      20.3459       1.7405
   2396.1853      11.7984       0.0989    -999.2500      20.3164    -999.2500      50.7852    2166.7327    1997.9606       8.3832       2.2555      20.6153       1.6585
   2396.3376      11.6952       0.0905    -999.2500      20.6921    -999.2500      55.3533    2106.0027    2000.2623       7.9637       2.2002      20.8778       1.5774
   2396.4900      10.7846       0.0635    -999.2500      21.0693    -999.2500      59.2971    2032.3690    1998.7769       6.6633       2.2676      20.7488       1.5419
   2396.6423       9.8869       0.0372    -999.2500      21.8735    -999.2500      63.1991    1959.7661    1998.1124       5.3529       2.3345      20.6231       1.5085
   2396.7947       9.7570       0.0502    -999.2500      22.7038    -999.2500      64.6064    1948.8210    1999.5980       4.0339       2.3619      20.6875       1.5989
   2396.9473       9.6342       0.0632    -999.2500      23.9035    -999.2500      66.0002    1937.9944    2000.6870       2.9981       2.3868      20.7671       1.6893
   2397.0996      10.0065       0.0762    -999.2500      25.1254    -999.2500      66.4465    1935.5139    2000.6870       2.2103       2.2319      21.9201       1.7797
   2397.2520      10.3740       0.0890    -999.2500      26.4996    -999.2500      66.8870    1933.0660    2000.6870       1.8235       2.0790      23.0580       1.8690
   2397.4043      10.7087       0.0581    -999.2500      27.8831    -999.2500      64.6966    1941.9138    2000.6870       1.7870       2.0486      24.6094       1.9703
   2397.5569      11.0350       0.0280    -999.2500      26.7663    -999.2500      62.5610    1950.5400    2000.6870       1.7895       2.0190      26.1220       2.0690
   2397.7092      11.0239       0.0098    -999.2500      25.4983    -999.2500      57.7645    1933.1010    2000.6870       1.8260       2.2831      25.8473       2.2430
   2397.8616      11.0130      -0.0080    -999.2500      26.9184    -999.2500      53.0800    1916.0690    2000.6870       1.8462       2.5410      25.5790       2.4130
   2398.0139      10.3857      -0.0019    -999.2500      28.4987    -999.2500      59.6808    1909.0793    2000.6870       1.8522       2.5415      24.9062       2.4883
   2398.1665       9.7710       0.0040    -999.2500      29.3756    -999.2500      66.1490    1902.2300    2000.6870       1.8748       2.5420      24.2470       2.5620
   2398.3188       9.7619       0.0403    -999.2500      30.2100    -999.2500      67.7157    1927.7709    2000.6870       1.9119       2.3877      25.0674       2.5328
   2398.4712       9.7530       0.0760    -999.2500      29.8317    -999.2500      69.2560    1952.8820    2000.6870       2.0304       2.2360      25.8740       2.5040
   2398.6235       9.6457       0.0679    -999.2500      29.3811    -999.2500      65.8921    1960.6351    2000.6870       2.2193       2.3514      27.9562       2.4919
   2398.7759       9.5400       0.0600    -999.2500      33.3890    -999.2500      62.5790    1968.2710    2000.6870       3.1349       2.4650      30.0070       2.4800
   2398.9285       9.4288       0.0132    -999.2500      37.6596    -999.2500      59.4128    1906.9839    2000.6870       4.6800       2.5731      29.3295       2.3190
   2399.0808       9.3190      -0.0330    -999.2500      39.0152    -999.2500      56.2840    1846.4220    2000.6870       5.6547       2.6800      28.6600       2.1600
   2399.2332       9.1593      -0.0109    -999.2500      40.1961    -999.2500      57.8191    1888.5355    2000.6870       6.1369       2.6720      33.5223       2.0330
   2399.3855       9.0010       0.0110    -999.2500      35.8150    -999.2500      59.3410    1930.2889    2000.6870       5.7072       2.6640      38.3430       1.9070
