#------------------------------------------------------------------------------
#
#   Created by  : [OpenWorks] Log Export Utility (LEXP)
#   Created on  : 2016-05-23 11:57:01
#   Project     : CANT971
#   User        : R5K
#   Interpreter : PEP
#
#------------------------------------------------------------------------------
~VERSION INFORMATION
VERS. 2.0 : CWLS Log ASCII Standard - version 2.0
WRAP.  NO : One line per depth step
~WELL INFORMATION
#MNEMONIC   .UNIT                                           VALUE :DESCRIPTION
#------------------------------------------------------------------------------
STRT        .M                                           485.8514 :START DEPTH
STOP        .M                                          3526.5361 :STOP DEPTH
STEP        .M                                             0.1524 :STEP
NULL        .                                           -999.2500 :NULL VALUE
COMP        .                                   PEMEX EXPL & PROD :COMPANY
WELL        .                                                  62 :WELL
FLD         .                                           CANTARELL :FIELD
LOC         .                                             UNKNOWN :LOCATION
CNTY        .                                      CD. DEL CARMEN :COUNTY
STAT        .                                            CAMPECHE :STATE
CTRY        .                                              MEXICO :COUNTRY
SRVC        .                                             UNKNOWN :SERVICE COMPANY
DATE        .                                             UNKNOWN :LOG DATE
UWI         .                                          3060000468 :UNIQUE WELL ID
XCOORD      .                                       601711.280000 :SURFACE X
YCOORD      .                                      2142346.320000 :SURFACE Y
LAT         .                                           19.373806 :LATITUDE
LON         .                                          -92.031488 :LONGITUDE
ELEV        .M                                            24.0000 :SURFACE ELEV
ELEV_TYPE   .                                                  KB :ELEV TYPE
~CURVE INFORMATION
#MNEMONIC.UNIT        API CODE       : CURVE DESCRIPTION
#------------------------------------------------------------------------------
DEPTH    .M                          : Measured Depth
CALI     .inches      UNKNOWN        : CALI:editado:rC:NONE:v0 (auto-composite)
DRHO     .g/cm3       UNKNOWN        : DRHO:editado:rC:NONE:v0 (auto-composite)
DT       .us/ft       UNKNOWN        : DT:editado:rC:NONE:v0 (auto-composite)
GR       .API         UNKNOWN        : GR:editado:rC:NONE:v0 (auto-composite)
ILD      .ohm.m       UNKNOWN        : ILD:editado:rC:NONE:v0 (auto-composite)
ILM      .ohm.m       UNKNOWN        : ILM:editado:rC:NONE:v0 (auto-composite)
LLD      .ohm.m       UNKNOWN        : LLD:editado:rC:NONE:v0 (auto-composite)
LLS      .ohm.m       UNKNOWN        : LLS:editado:rC:NONE:v0 (auto-composite)
MSFL     .ohm.m       UNKNOWN        : MSFL:editado:rC:NONE:v0 (auto-composite)
NPHI     .v/v_decimal UNKNOWN        : NPHI:editado:rC:NONE:v0 (auto-composite)
PEF      .b/elec      UNKNOWN        : PEF:editado:rC:NONE:v0 (auto-composite)
RHOB     .g/cm3       UNKNOWN        : RHOB:editado:rC:NONE:v0 (auto-composite)
~A     DEPTH         CALI         DRHO           DT           GR          ILD          ILM          LLD          LLS         MSFL         NPHI          PEF         RHOB
# ...
   2395.1187       8.7030       0.0110      58.0390      66.1110    -999.2500    -999.2500     712.1680     293.6620     128.5000       0.0591       3.9300       2.7640
   2395.2710       8.7010       0.0100      58.6646      63.4338    -999.2500    -999.2500     686.9226     286.9178     215.9189       0.0640       4.0656       2.7510
   2395.4233       8.6990       0.0090      59.2880      60.7700    -999.2500    -999.2500     661.8430     280.2180     302.6250       0.0687       4.2000       2.7380
   2395.5759       8.6774       0.0045      62.3209      58.8804    -999.2500    -999.2500     574.2800     255.3579     208.9988       0.0689       4.3215       2.7390
   2395.7283       8.6560       0.0000      65.3440      57.0000    -999.2500    -999.2500     487.2810     230.6580     116.1250       0.0665       4.4420       2.7400
   2395.8806       8.6665      -0.0025      64.5913      57.0000    -999.2500    -999.2500     559.6627     251.2009     219.0945       0.0580       4.4576       2.7450
   2396.0330       8.6770      -0.0050      63.8410      57.0000    -999.2500    -999.2500     631.5870     271.6140     321.2500       0.0499       4.4730       2.7500
   2396.1853       8.7151      -0.0040      61.0203      57.7437    -999.2500    -999.2500     624.6937     269.3221     258.9760       0.0488       4.4223       2.7550
   2396.3379       8.7530      -0.0030      58.2080      58.4840    -999.2500    -999.2500     617.8540     267.0480     197.1870       0.0493       4.3720       2.7600
   2396.4902       8.8007      -0.0050      56.5000      58.3437    -999.2500    -999.2500     572.4331     251.0297     206.1342       0.0489       4.2104       2.7630
   2396.6426       8.8480      -0.0070      54.7970      58.2040    -999.2500    -999.2500     527.3600     235.1340     215.0130       0.0479       4.0500       2.7660
   2396.7949       8.7812      -0.0060      54.4806      57.5506    -999.2500    -999.2500     462.9683     208.6989     263.5645       0.0455       4.0947       2.7806
   2396.9475       8.7150      -0.0050      54.1650      56.9000    -999.2500    -999.2500     399.0620     182.4630     311.7500       0.0432       4.1390       2.7950
   2397.0999       8.7175      -0.0025      53.2533      54.9379    -999.2500    -999.2500     381.2119     174.4774     281.4290       0.0429       4.3192       2.7935
   2397.2522       8.7200       0.0000      52.3440      52.9840    -999.2500    -999.2500     363.4940     166.5510     251.3810       0.0433       4.4980       2.7920
   2397.4045       8.7310      -0.0020      52.3906      54.4104    -999.2500    -999.2500     385.2462     176.2960     187.9281       0.0447       4.7078       2.7840
   2397.5571       8.7420      -0.0040      52.4370      55.8310    -999.2500    -999.2500     406.8400     185.9700     125.0380       0.0471       4.9160       2.7760
   2397.7095       8.7164      -0.0030      52.8430      62.0844    -999.2500    -999.2500     406.0707     185.8380     114.3216       0.0522       4.4409       2.7384
   2397.8618       8.6910      -0.0020      53.2480      68.3130    -999.2500    -999.2500     405.3070     185.7070     103.6990       0.0583       3.9700       2.7010
   2398.0142       8.7206       0.0025      54.7977      67.1533    -999.2500    -999.2500     360.1471     183.3763      64.1008       0.0655       3.9886       2.7020
   2398.1665       8.7500       0.0070      56.3440      65.9980    -999.2500    -999.2500     315.3050     181.0620      24.8440       0.0712       4.0070       2.7030
   2398.3191       8.7149       0.0020      56.2819      62.0746    -999.2500    -999.2500     315.5504     172.1532     189.6538       0.0703       4.0919       2.7085
   2398.4714       8.6800      -0.0030      56.2200      58.1720    -999.2500    -999.2500     315.7940     163.3060     353.0620       0.0682       4.1760       2.7140
   2398.6238       8.6875       0.0010      55.4681      58.4237    -999.2500    -999.2500     319.0927     153.1947     350.2015       0.0681       4.3005       2.7235
   2398.7761       8.6950       0.0050      54.7190      58.6740    -999.2500    -999.2500     322.3690     143.1520     347.3650       0.0693       4.4240       2.7330
   2398.9287       8.7226       0.0050      55.0230      60.5056    -999.2500    -999.2500     314.3593     139.5400     318.3307       0.0732       4.5957       2.7260
   2399.0811       8.7500       0.0050      55.3260      62.3280    -999.2500    -999.2500     306.4030     135.9520     289.5360       0.0766       4.7660       2.7190
   2399.2334       8.7224      -0.0005      56.7905      61.3290    -999.2500    -999.2500     278.3543     126.9280     193.3147       0.0754       4.4753       2.7200
   2399.3857       8.6950      -0.0060      58.2500      60.3350    -999.2500    -999.2500     250.4890     117.9630      97.8750       0.0711       4.1870       2.7210
   2399.5383       8.7286      -0.0060      57.7237      53.2599    -999.2500    -999.2500     251.4977     121.0750     109.7626       0.0598       4.2452       2.7461
   2399.6907       8.7620      -0.0060      57.1990      46.2190    -999.2500    -999.2500     252.5000     124.1670     121.5550       0.0493       4.3030       2.7710
   2399.8430       8.7520      -0.0050      54.2514      46.5438    -999.2500    -999.2500     267.5598     153.9818     357.4563       0.0480       4.0565       2.7640
   2399.9954       8.7420      -0.0040      51.3130      46.8670    -999.2500    -999.2500     282.5250     183.6090     591.5000       0.0500       3.8120       2.7570
   2400.1477       8.6752       0.0025      51.7141      49.1262    -999.2500    -999.2500     340.5616     182.0951     532.2332       0.0541       3.8190       2.7149
   2400.3003       8.6090       0.0090      52.1140      51.3750    -999.2500    -999.2500     398.1480     180.5930     473.4260       0.0584       3.8260       2.6730
   2400.4526       8.6838       0.0085      54.5920      51.1901    -999.2500    -999.2500     391.4319     174.5429     310.0586       0.0615       3.8767       2.6956
   2400.6050       8.7580       0.0080      57.0630      51.0060    -999.2500    -999.2500     384.7670     168.5390     147.9370       0.0646       3.9270       2.7180
   2400.7573       8.7570       0.0060      56.9378      49.7819    -999.2500    -999.2500     349.2482     163.3054     171.4628       0.0693       4.0374       2.7115
   2400.9099       8.7560       0.0040      56.8130      48.5630    -999.2500    -999.2500     313.9960     158.1110     194.8120       0.0728       4.1470       2.7050
   2401.0623       8.7118       0.0010      56.3709      50.2616    -999.2500    -999.2500     332.7657     158.6911     154.4278       0.0706       4.2168       2.7080
   2401.2146       8.6680      -0.0020      55.9300      51.9530    -999.2500    -999.2500     351.3970     159.2670     114.4060       0.0683       4.2860       2.7110
   2401.3669       8.7032       0.0005      54.7916      51.4129    -999.2500    -999.2500     344.0318     156.7494     151.0841       0.0719       4.3021       2.7235
   2401.5195       8.7380       0.0030      53.6560      50.8750    -999.2500    -999.2500     336.7200     154.2500     187.4380       0.0761       4.3180       2.7360
   2401.6719       8.7280       0.0125      53.6795      53.8103    -999.2500    -999.2500     294.8638     139.8683     116.1737       0.0765       4.1307       2.7330
   2401.8242       8.7180       0.0220      53.7030      56.7340    -999.2500    -999.2500     253.3060     125.5890      45.5310       0.0742       3.9450       2.7300
   2401.9766       8.6397       0.0104      54.1175      56.6423    -999.2500    -999.2500     256.6367     127.2814      53.6393       0.0660       3.9616       2.7185
   2402.1289       8.5620      -0.0010      54.5310      56.5510    -999.2500    -999.2500     259.9440     128.9620      61.6780       0.0580       3.9780       2.7070
   2402.2815       8.5836       0.0020      53.2326      56.1494    -999.2500    -999.2500     298.8633     150.0882     114.7202       0.0561       4.3762       2.7236
