#------------------------------------------------------------------------------
#
#   Created by  : [OpenWorks] Log Export Utility (LEXP)
#   Created on  : 2016-05-23 11:51:58
#   Project     : CANT971
#   User        : R5K
#   Interpreter : PEP
#
#------------------------------------------------------------------------------
~VERSION INFORMATION
VERS. 2.0 : CWLS Log ASCII Standard - version 2.0
WRAP.  NO : One line per depth step
~WELL INFORMATION
#MNEMONIC   .UNIT                                           VALUE :DESCRIPTION
#------------------------------------------------------------------------------
STRT        .M                                           695.7060 :START DEPTH
STOP        .M                                          3054.7056 :STOP DEPTH
STEP        .M                                             0.1524 :STEP
NULL        .                                           -999.2500 :NULL VALUE
COMP        .                                   PEMEX EXPL & PROD :COMPANY
WELL        .                                                 17D :WELL
FLD         .                                           CANTARELL :FIELD
LOC         .                                             UNKNOWN :LOCATION
CNTY        .                                      CD. DEL CARMEN :COUNTY
STAT        .                                            CAMPECHE :STATE
CTRY        .                                              MEXICO :COUNTRY
SRVC        .                                             UNKNOWN :SERVICE COMPANY
DATE        .                                             UNKNOWN :LOG DATE
UWI         .                                          3060000460 :UNIQUE WELL ID
XCOORD      .                                       603362.626000 :SURFACE X
YCOORD      .                                      2145093.910000 :SURFACE Y
LAT         .                                           19.398550 :LATITUDE
LON         .                                          -92.015617 :LONGITUDE
ELEV        .M                                            27.1400 :SURFACE ELEV
ELEV_TYPE   .                                                  KB :ELEV TYPE
~CURVE INFORMATION
#MNEMONIC.UNIT        API CODE       : CURVE DESCRIPTION
#------------------------------------------------------------------------------
DEPTH    .M                          : Measured Depth
CALI     .in          UNKNOWN        : CALI:UNKNOWN:rC:NONE:v0 (auto-composite)
DT       .us/ft       UNKNOWN        : DT:DT:rC:NONE:v0 (auto-composite)
GR       .API         UNKNOWN        : GR:UNKNOWN:rC:NONE:v0 (auto-composite)
ILD      .ohmm        UNKNOWN        : ILD:UNKNOWN:rC:NONE:v0 (auto-composite)
LLD      .ohmm        UNKNOWN        : LLD:UNKNOWN:rC:NONE:v0 (auto-composite)
LLS      .ohmm        UNKNOWN        : LLS:UNKNOWN:rC:NONE:v0 (auto-composite)
MSFL     .ohmm        UNKNOWN        : MSFL:UNKNOWN:rC:NONE:v0 (auto-composite)
NPHI     .v/v_decimal UNKNOWN        : NPHI:UNKNOWN:rC:NONE:v0 (auto-composite)
PEF      .b/elec      UNKNOWN        : PEF:UNKNOWN:rC:NONE:v0 (auto-composite)
RHOB     .g/cm3       UNKNOWN        : RHOB:UNKNOWN:rC:NONE:v0 (auto-composite)
~A     DEPTH         CALI           DT           GR          ILD          LLD          LLS         MSFL         NPHI          PEF         RHOB
# ...
   2436.7236       6.3320      67.5420      32.4482    -999.2500      93.4592      89.8339      70.2198       0.0433       3.6045       2.8310
   2436.8760       6.3320      74.5120      35.0070    -999.2500      85.8790      82.8670      60.6460       0.0448       3.5710       2.8220
   2437.0283       6.3320      74.2131      39.3166    -999.2500      72.2808      70.8894      64.8588       0.0514       3.5255       2.8160
   2437.1809       6.3320      73.8321      43.6290    -999.2500      58.6740      58.8850      69.0810       0.0580       3.4800       2.8100
   2437.3333       6.3320      73.2099      42.7767    -999.2500      61.6990      62.2330      83.2707       0.0559       3.4190       2.8185
   2437.4856       6.3320      72.5855      41.9210    -999.2500      64.7360      65.5890      97.4940       0.0537       3.3580       2.8270
   2437.6379       6.3320      72.7905      40.5356    -999.2500      72.4029      74.1758     111.4401       0.0543       3.3875       2.8245
   2437.7903       6.3320      73.1185      39.1400    -999.2500      80.1260      82.7840     125.4210       0.0549       3.4170       2.8220
   2437.9429       6.3320      73.5892      38.7567    -999.2500      87.3468      90.6367     118.7952       0.0573       3.4795       2.8125
   2438.0952       6.3320      73.9540      38.3700    -999.2500      94.6330      98.5100     112.1520       0.0597       3.5420       2.8030
   2438.2476       6.3310      73.6076      36.4881    -999.2500     103.9511     107.6574     120.8041       0.0575       3.5780       2.8050
   2438.3999       6.3300      73.0404      34.5980    -999.2500     113.3100     116.8300     129.4800       0.0552       3.6140       2.8070
   2438.5525       6.3265      72.0832      30.5511    -999.2500     131.2376     134.0667     153.3737       0.0507       3.6785       2.8110
   2438.7048       6.3230      71.1500      26.4990    -999.2500     149.1880     151.3530     177.3360       0.0461       3.7430       2.8150
   2438.8572       6.3235      70.5242      23.9364    -999.2500     184.5361     185.0834     199.1308       0.0433       3.7140       2.8145
   2439.0095       6.3240      70.0057      21.3620    -999.2500     220.0470     218.9150     220.9910       0.0405       3.6850       2.8140
   2439.1621       6.3250      69.6890      20.5446    -999.2500     279.3943     274.6564     248.7247       0.0386       3.6230       2.8180
   2439.3145       6.3260      69.1865      19.7220    -999.2500     339.1180     330.5720     276.5450       0.0367       3.5610       2.8220
   2439.4668       6.3245      68.1037      19.2095    -999.2500     408.5103     394.8020     328.0777       0.0343       3.5240       2.8320
   2439.6191       6.3230      66.7764      18.6920    -999.2500     478.5750     459.2410     379.7780       0.0318       3.4870       2.8420
   2439.7715       6.3170      64.1857      18.8285    -999.2500     470.1000     451.4501     465.1968       0.0306       3.4610       2.8485
   2439.9241       6.3110      62.5670      18.9660    -999.2500     461.5690     443.6330     550.9040       0.0293       3.4350       2.8550
   2440.0764       6.3115      64.1340      19.4291    -999.2500     415.9188     402.4841     543.0028       0.0309       3.3616       2.8515
   2440.2288       6.3120      67.0514      19.8930    -999.2500     370.1820     361.1910     535.0740       0.0325       3.2880       2.8480
   2440.3811       6.3125      72.1626      21.1173    -999.2500     299.9579     296.8627     452.0326       0.0374       3.2885       2.8380
   2440.5337       6.3130      76.6343      22.3460    -999.2500     229.4790     232.3010     368.6900       0.0422       3.2890       2.8280
   2440.6860       6.3130      77.0216      25.0680    -999.2500     182.8669     188.1609     234.2091       0.0474       3.3180       2.8195
   2440.8384       6.3130      76.3842      27.8090    -999.2500     135.9300     143.8550      99.2230       0.0526       3.3470       2.8110
   2440.9907       6.3140      75.5814      31.2333    -999.2500     116.5745     126.9432     111.1529       0.0553       3.3875       2.8135
   2441.1433       6.3150      74.6312      34.6930    -999.2500      97.0190     109.9930     123.1100       0.0581       3.4280       2.8160
   2441.2957       6.3170      72.8628      36.5932    -999.2500     102.2238     116.4857     157.6461       0.0579       3.3945       2.8210
   2441.4480       6.3190      70.3738      38.5040    -999.2500     107.4580     122.9940     192.2650       0.0578       3.3610       2.8260
   2441.6003       6.3180      66.0427      37.4185    -999.2500     121.6485     139.5636     225.3397       0.0566       3.3175       2.8320
   2441.7527       6.3170      61.1284      36.3320    -999.2500     135.8520     156.1750     258.4980       0.0555       3.2740       2.8380
   2441.9053       6.3180      57.6643      33.8692    -999.2500     150.6775     171.0523     285.9142       0.0534       3.2980       2.8450
   2442.0576       6.3190      54.9834      31.3960    -999.2500     165.5660     185.9690     313.4030       0.0513       3.3220       2.8520
   2442.2100       6.3200      54.5124      29.1615    -999.2500     181.8625     200.3765     360.3817       0.0496       3.3650       2.8510
   2442.3623       6.3210      54.8672      26.9100    -999.2500     198.2830     214.8240     407.4910       0.0478       3.4080       2.8500
   2442.5149       6.3170      55.9298      25.0149    -999.2500     245.1614     260.1677     393.1448       0.0457       3.4445       2.8465
   2442.6672       6.3130      57.2015      23.1020    -999.2500     292.4780     305.6430     378.7570       0.0436       3.4810       2.8430
   2442.8196       6.3135      58.9851      21.3880    -999.2500     413.0276     427.2806     332.4806       0.0397       3.4725       2.8395
   2442.9719       6.3140      61.0142      19.6660    -999.2500     534.1380     549.2870     286.0640       0.0357       3.4640       2.8360
   2443.1245       6.3160      63.5253      18.8077    -999.2500     503.1490     517.7422     304.2977       0.0323       3.4110       2.8320
   2443.2769       6.3180      65.6184      17.9480    -999.2500     472.1120     486.0980     322.5890       0.0289       3.3580       2.8280
   2443.4292       6.3145      65.1434      17.5964    -999.2500     429.4503     437.7099     314.4503       0.0292       3.2911       2.8300
   2443.5815       6.3110      64.1069      17.2430    -999.2500     386.5800     389.1630     306.2850       0.0296       3.2240       2.8320
   2443.7339       6.3110      62.8554      16.5777    -999.2500     418.3592     420.1128     287.5624       0.0290       3.2665       2.8370
   2443.8865       6.3110      61.5246      15.9080    -999.2500     450.3490     451.1680     268.7760       0.0284       3.3090       2.8420
   2444.0388       6.3115      59.9989      15.4529    -999.2500     547.1601     547.4837     273.4737       0.0265       3.4554       2.8490
   2444.1912       6.3120      58.8889      14.9940    -999.2500     644.7810     644.1400     278.1880       0.0246       3.6020       2.8560
   2444.3435       6.3130      59.0439      15.8837    -999.2500     605.4927     605.8069     261.3408       0.0255       3.5950       2.8535
   2444.4961       6.3140      59.6752      16.7780    -999.2500     565.9970     567.3950     244.4590       0.0265       3.5880       2.8510
   2444.6484       6.3145      61.6298      19.1844    -999.2500     469.8068     473.6811     220.2858       0.0296       3.5795       2.8455
   2444.8008       6.3150      63.6542      21.5960    -999.2500     373.4070     379.7630     196.0600       0.0327       3.5710       2.8400
   2444.9531       6.3175      65.7833      24.0317    -999.2500     285.6247     293.0720     213.5983       0.0363       3.6150       2.8340
   2445.1057       6.3200      67.6874      26.4770    -999.2500     197.4990     206.1810     231.1770       0.0399       3.6590       2.8280
