#------------------------------------------------------------------------------
#
#   Created by  : [OpenWorks] Log Export Utility (LEXP)
#   Created on  : 2016-05-23 11:52:51
#   Project     : CANT971
#   User        : R5K
#   Interpreter : PEP
#
#------------------------------------------------------------------------------
~VERSION INFORMATION
VERS. 2.0 : CWLS Log ASCII Standard - version 2.0
WRAP.  NO : One line per depth step
~WELL INFORMATION
#MNEMONIC   .UNIT                                           VALUE :DESCRIPTION
#------------------------------------------------------------------------------
STRT        .M                                           691.4386 :START DEPTH
STOP        .M                                          2836.4685 :STOP DEPTH
STEP        .M                                             0.1524 :STEP
NULL        .                                           -999.2500 :NULL VALUE
COMP        .                                   PEMEX EXPL & PROD :COMPANY
WELL        .                                                2094 :WELL
FLD         .                                           CANTARELL :FIELD
LOC         .                                             UNKNOWN :LOCATION
CNTY        .                                      CD. DEL CARMEN :COUNTY
STAT        .                                            CAMPECHE :STATE
CTRY        .                                              MEXICO :COUNTRY
SRVC        .                                             UNKNOWN :SERVICE COMPANY
DATE        .                                             UNKNOWN :LOG DATE
UWI         .                                          3060000525 :UNIQUE WELL ID
XCOORD      .                                       601711.170000 :SURFACE X
YCOORD      .                                      2142342.970000 :SURFACE Y
LAT         .                                           19.373776 :LATITUDE
LON         .                                          -92.031490 :LONGITUDE
ELEV        .M                                            24.0000 :SURFACE ELEV
ELEV_TYPE   .                                                  KB :ELEV TYPE
~CURVE INFORMATION
#MNEMONIC.UNIT        API CODE       : CURVE DESCRIPTION
#------------------------------------------------------------------------------
DEPTH    .M                          : Measured Depth
CALI     .in          UNKNOWN        : CALI:registros:rC:NONE:v0 (auto-composite)
DRHO     .g/cm3       UNKNOWN        : DRHO:registros:rC:NONE:v0 (auto-composite)
DT       .us/ft       UNKNOWN        : DT:registros:rC:NONE:v0 (auto-composite)
GR       .API         UNKNOWN        : GR:registros:rC:NONE:v0 (auto-composite)
ILD      .ohm.m       UNKNOWN        : ILD:registros:rC:NONE:v0 (auto-composite)
ILM      .ohm.m       UNKNOWN        : ILM:registros:rC:NONE:v0 (auto-composite)
LLD      .ohm.m       UNKNOWN        : LLD:registros:rC:NONE:v0 (auto-composite)
LLS      .ohm.m       UNKNOWN        : LLS:registros:rC:NONE:v0 (auto-composite)
MSFL     .ohm.m       UNKNOWN        : MSFL:registros:rC:NONE:v0 (auto-composite)
NPHI     .v/v_decimal UNKNOWN        : NPHI:registros:rC:NONE:v0 (auto-composite)
PEF      .b/elec      UNKNOWN        : PEF:registros:rC:NONE:v0 (auto-composite)
RHOB     .g/cm3       UNKNOWN        : RHOB:registros:rC:NONE:v0 (auto-composite)
~A     DEPTH         CALI         DRHO           DT           GR          ILD          ILM          LLD          LLS         MSFL         NPHI          PEF         RHOB
# ...
   2242.2610       8.7110       0.0155      63.1556      47.6309    -999.2500    -999.2500       4.6841       4.1857       8.3706       0.1020       5.0195       2.6150
   2242.4133       8.7139       0.0208      64.8966      48.3500    -999.2500    -999.2500       4.8290       4.2260       7.6170       0.1055       4.9872       2.6253
   2242.5659       8.7580       0.0240      65.9042      50.4236    -999.2500    -999.2500       4.6287       4.0789       7.4259       0.1098       4.7195       2.6255
   2242.7183       8.8034       0.0267      66.8633      52.4810    -999.2500    -999.2500       4.4300       3.9330       7.2360       0.1141       4.4588       2.6256
   2242.8706       8.8285       0.0260      68.0024      54.9846    -999.2500    -999.2500       4.0957       3.6745       6.6261       0.1178       4.5322       2.6335
   2243.0229       8.8505       0.0247      69.0683      57.4690    -999.2500    -999.2500       3.7640       3.4180       6.0200       0.1201       4.6170       2.6411
   2243.1753       8.8520       0.0200      69.0523      55.3043    -999.2500    -999.2500       3.4102       3.0531       4.0426       0.1197       4.5148       2.6370
   2243.3279       8.8520       0.0155      68.9224      53.1560    -999.2500    -999.2500       3.0590       2.6910       2.0770       0.1170       4.4186       2.6327
   2243.4802       8.8525       0.0170      68.3621      53.2840    -999.2500    -999.2500       3.3983       2.7171       4.3928       0.1115       4.5911       2.6370
   2243.6326       8.8535       0.0188      67.2955      53.4110    -999.2500    -999.2500       3.7350       2.7430       6.6950       0.1040       4.7715       2.6417
   2243.7849       8.8605       0.0185      60.0898      54.9531    -999.2500    -999.2500       3.7335       2.9728       6.6739       0.0943       4.7825       2.6420
   2243.9375       8.8682       0.0178      52.9853      56.4840    -999.2500    -999.2500       3.7320       3.2010       6.6530       0.0860       4.7751       2.6417
   2244.0898       8.8785       0.0140      52.5477      56.4102    -999.2500    -999.2500       3.6798       3.2135       6.0894       0.0837       4.7062       2.6375
   2244.2422       8.8906       0.0101      52.8618      56.3370    -999.2500    -999.2500       3.6280       3.2260       5.5290       0.0838       4.6292       2.6330
   2244.3945       8.9230       0.0070      55.8562      53.9019    -999.2500    -999.2500       3.4844       3.2396       5.0361       0.0840       4.5172       2.6285
   2244.5471       8.9558       0.0042      59.1674      51.4840    -999.2500    -999.2500       3.3420       3.2530       4.5460       0.0848       4.4143       2.6235
   2244.6995       8.9755       0.0035      63.9677      50.5357    -999.2500    -999.2500       3.4203       3.2721       4.8531       0.0871       4.4589       2.6125
   2244.8518       9.0005       0.0039      68.6951      49.5940    -999.2500    -999.2500       3.4980       3.2910       5.1580       0.0915       4.4900       2.5962
   2245.0042       9.1042       0.0145      71.5641      51.9064    -999.2500    -999.2500       3.3664       3.1544       4.0216       0.0997       4.2098       2.5217
   2245.1565       9.1998       0.0261      74.3234      54.2030    -999.2500    -999.2500       3.2360       3.0190       2.8930       0.1138       3.9350       2.4482
   2245.3091       9.1177       0.0395      77.8197      54.1298    -999.2500    -999.2500       2.7450       2.6158       5.2208       0.1392       4.0452       2.4465
   2245.4614       9.0371       0.0547      81.2358      54.0570    -999.2500    -999.2500       2.2580       2.2160       7.5330       0.1651       4.1769       2.4534
   2245.6138       9.1517       0.0895      83.2854      53.6276    -999.2500    -999.2500       2.3353       2.2898       6.1545       0.1804       4.1725       2.4880
   2245.7661       9.2763       0.1233      85.0518      53.2010    -999.2500    -999.2500       2.4120       2.3630       4.7850       0.1966       4.1392       2.5210
   2245.9187       9.3159       0.1260      85.1709      52.3337    -999.2500    -999.2500       3.8257       3.5493       5.2144       0.2259       3.9142       2.5095
   2246.0710       9.3483       0.1255      85.1049      51.4720    -999.2500    -999.2500       5.2280       4.7260       5.6410       0.2526       3.6909       2.4955
   2246.2234       9.3839       0.1195      84.6271      49.8611    -999.2500    -999.2500       5.2084       4.7195       7.1668       0.2594       3.6860       2.4975
   2246.3757       9.4231       0.1124      84.0176      48.2630    -999.2500    -999.2500       5.1890       4.7130       8.6830       0.2565       3.7168       2.5045
   2246.5283       9.4968       0.0980      82.3530      47.8956    -999.2500    -999.2500       4.9114       4.6166       9.0888       0.2480       3.9215       2.5504
   2246.6807       9.5627       0.0816      80.7928      47.5310    -999.2500    -999.2500       4.6360       4.5210       9.4920       0.2382       4.1113       2.5944
   2246.8330       9.5087       0.0500      81.2767      47.6801    -999.2500    -999.2500       4.3113       4.2730       8.2743       0.2309       3.9629       2.5795
   2246.9854       9.4419       0.0189      81.8779      47.8280    -999.2500    -999.2500       3.9890       4.0270       7.0640       0.2266       3.7970       2.5576
   2247.1377       9.3623       0.0075      81.7241      47.1379    -999.2500    -999.2500       4.4136       4.1846       7.5901       0.2280       3.7870       2.5201
   2247.2903       9.2946      -0.0011      81.4830      46.4530    -999.2500    -999.2500       4.8350       4.3410       8.1130       0.2284       3.7980       2.4848
   2247.4426       9.3683      -0.0010      81.0737      47.6349    -999.2500    -999.2500       4.9675       4.4103       7.8778       0.2204       3.8713       2.4890
   2247.5950       9.4527       0.0004      80.7223      48.8080    -999.2500    -999.2500       5.0990       4.4790       7.6440       0.2088       3.9635       2.4978
   2247.7473       9.5048       0.0060      81.1100      49.7981    -999.2500    -999.2500       4.7743       4.2898       7.3732       0.1959       4.1869       2.5145
   2247.8999       9.5516       0.0124      81.5454      50.7810    -999.2500    -999.2500       4.4520       4.1020       7.1040       0.1879       4.3926       2.5313
   2248.0522       9.5745       0.0225      81.7595      49.6755    -999.2500    -999.2500       4.2402       3.9429       6.7181       0.1945       4.2838       2.5410
   2248.2046       9.5983       0.0326      81.8309      48.5780    -999.2500    -999.2500       4.0300       3.7850       6.3350       0.2024       4.1618       2.5511
   2248.3569       9.6549       0.0385      80.7225      49.3151    -999.2500    -999.2500       3.8899       3.6906       5.8583       0.1994       4.2248       2.5725
   2248.5093       9.7097       0.0432      79.6340      50.0470    -999.2500    -999.2500       3.7510       3.5970       5.3850       0.1939       4.2999       2.5930
   2248.6619       9.7130       0.0405      79.8509      49.9833    -999.2500    -999.2500       3.7656       3.6718       5.4487       0.1930       4.3055       2.5945
   2248.8142       9.7120       0.0370      80.1006      49.9200    -999.2500    -999.2500       3.7800       3.7460       5.5120       0.1952       4.3031       2.5936
   2248.9666       9.7205       0.0330      79.3979      49.2467    -999.2500    -999.2500       3.9427       3.8816       6.2821       0.2014       4.2915       2.5885
   2249.1189       9.7539       0.0293      78.6397      48.5780    -999.2500    -999.2500       4.1040       4.0160       7.0470       0.2038       4.3133       2.5834
   2249.2715      10.0157       0.0285      78.2495      49.9476    -999.2500    -999.2500       4.1226       3.9718       6.4485       0.1918       4.6619       2.5820
   2249.4238      10.2827       0.0280      78.0524      51.3080    -999.2500    -999.2500       4.1410       3.9280       5.8540       0.1773       5.0091       2.5812
