#------------------------------------------------------------------------------
#
#   Created by  : [OpenWorks] Log Export Utility (LEXP)
#   Created on  : 2016-05-12 17:01:19
#   Project     : CANT971
#   User        : R5K
#   Interpreter : PEP
#
#------------------------------------------------------------------------------
~VERSION INFORMATION
VERS. 2.0 : CWLS Log ASCII Standard - version 2.0
WRAP.  NO : One line per depth step
~WELL INFORMATION
#MNEMONIC   .UNIT                                           VALUE :DESCRIPTION
#------------------------------------------------------------------------------
STRT        .M                                           335.5854 :START DEPTH
STOP        .M                                          2510.4858 :STOP DEPTH
STEP        .M                                             0.1524 :STEP
NULL        .                                           -999.2500 :NULL VALUE
COMP        .                                   PEMEX EXPL & PROD :COMPANY
WELL        .                                                  35 :WELL
FLD         .                                           CANTARELL :FIELD
LOC         .                                             UNKNOWN :LOCATION
CNTY        .                                      CD. DEL CARMEN :COUNTY
STAT        .                                            CAMPECHE :STATE
CTRY        .                                              MEXICO :COUNTRY
SRVC        .                                             UNKNOWN :SERVICE COMPANY
DATE        .                                             UNKNOWN :LOG DATE
UWI         .                                          3060000159 :UNIQUE WELL ID
XCOORD      .                                       602147.900000 :SURFACE X
YCOORD      .                                      2147168.470000 :SURFACE Y
LAT         .                                           19.417359 :LATITUDE
LON         .                                          -92.027072 :LONGITUDE
ELEV        .M                                            28.1700 :SURFACE ELEV
ELEV_TYPE   .                                                  KB :ELEV TYPE
~CURVE INFORMATION
#MNEMONIC.UNIT        API CODE       : CURVE DESCRIPTION
#------------------------------------------------------------------------------
DEPTH    .M                          : Measured Depth
CALI     .inches      UNKNOWN        : CALI:Import:rC:NONE:v0 (auto-composite)
DRHO     .g/cm3       UNKNOWN        : DRHO:Import:rC:NONE:v0 (auto-composite)
DT       .us/ft       UNKNOWN        : DT:Import:rC:NONE:v0 (auto-composite)
GR       .API         UNKNOWN        : GR:Import:rC:NONE:v0 (auto-composite)
ILD      .ohm.m       UNKNOWN        : ILD:Import:rC:NONE:v0 (auto-composite)
LLD      .ohm.m       UNKNOWN        : LLD:Import:rC:NONE:v0 (auto-composite)
LLS      .ohm.m       UNKNOWN        : LLS:Import:rC:NONE:v0 (auto-composite)
MSFL     .ohm.m       UNKNOWN        : MSFL:Import:rC:NONE:v0 (auto-composite)
NPHI     .v/v_decimal UNKNOWN        : NPHI:Import:rC:NONE:v0 (auto-composite)
RHOB     .g/cm3       UNKNOWN        : RHOB:Import:rC:NONE:v0 (auto-composite)
SP       .mV          UNKNOWN        : SP:Import:rC:NONE:v0 (auto-composite)
~A     DEPTH         CALI         DRHO           DT           GR          ILD          LLD          LLS         MSFL         NPHI         RHOB           SP
# ...
   1595.6285      15.5860   -1998.5000      73.5500      43.6290       7.1550    -999.2500    -999.2500    -999.2500       0.1815       2.5460      84.7300
   1595.7810      15.5384   -1998.5000      70.2376      43.3274       8.3816    -999.2500    -999.2500    -999.2500       0.1631       2.5725      84.6649
   1595.9333      15.4910   -1998.5000      66.9600      43.0290       9.6050    -999.2500    -999.2500    -999.2500       0.1463       2.5990      84.6000
   1596.0858      15.4664   -1998.5000      66.1131      42.4565      10.9982    -999.2500    -999.2500    -999.2500       0.1347       2.6235      84.7917
   1596.2382      15.4420   -1998.5000      65.2750      41.8900      12.3880    -999.2500    -999.2500    -999.2500       0.1265       2.6480      84.9830
   1596.3906      15.3893   -1998.5000      65.1760      42.5720      13.8758    -999.2500    -999.2500    -999.2500       0.1204       2.6620      85.1387
   1596.5430      15.3370   -1998.5000      65.0780      43.2470      15.3590    -999.2500    -999.2500    -999.2500       0.1169       2.6760      85.2940
   1596.6954      15.2773   -1998.5000      64.6242      43.6179      16.7982    -999.2500    -999.2500    -999.2500       0.1165       2.6780      85.4177
   1596.8478      15.2180   -1998.5000      64.1750      43.9850      18.2320    -999.2500    -999.2500    -999.2500       0.1174       2.6800      85.5410
   1597.0002      15.1964   -1998.5000      63.3531      44.3897      19.1301    -999.2500    -999.2500    -999.2500       0.1176       2.6760      85.5706
   1597.1526      15.1750   -1998.5000      62.5400      44.7900      20.0250    -999.2500    -999.2500    -999.2500       0.1171       2.6720      85.6000
   1597.3049      15.1474   -1998.5000      61.6046      43.1808      17.1459    -999.2500    -999.2500    -999.2500       0.1155       2.6670      85.6000
   1597.4574      15.1200   -1998.5000      60.6800      41.5900      14.2770    -999.2500    -999.2500    -999.2500       0.1161       2.6620      85.6000
   1597.6097      15.1300   -1998.5000      63.3110      43.3585      11.3415    -999.2500    -999.2500    -999.2500       0.1225       2.6495      85.7472
   1597.7622      15.1400   -1998.5000      65.9120      45.1070       8.4160    -999.2500    -999.2500    -999.2500       0.1369       2.6370      85.8940
   1597.9146      15.1149   -1998.5000      70.9347      49.4459       6.7868    -999.2500    -999.2500    -999.2500       0.1620       2.5875      86.3728
   1598.0670      15.0900   -1998.5000      75.9010      53.7360       5.1630    -999.2500    -999.2500    -999.2500       0.1969       2.5380      86.8500
   1598.2194      15.1672   -1998.5000      82.1930      57.7890       4.5030    -999.2500    -999.2500    -999.2500       0.2411       2.4659      86.4173
   1598.3718      15.2440   -1998.5000      88.4150      61.7970       3.8450    -999.2500    -999.2500    -999.2500       0.2846       2.3940      85.9860
   1598.5242      15.4506   -1998.5000      93.8725      62.8241       3.4709    -999.2500    -999.2500    -999.2500       0.3170       2.3520      85.0911
   1598.6766      15.6560   -1998.5000      99.2700      63.8400       3.0980    -999.2500    -999.2500    -999.2500       0.3350       2.3100      84.1990
   1598.8290      15.7483   -1998.5000      97.2772      61.0247       3.1541    -999.2500    -999.2500    -999.2500       0.3337       2.3175      83.6702
   1598.9814      15.8400   -1998.5000      95.3060      58.2400       3.2100    -999.2500    -999.2500    -999.2500       0.3214       2.3250      83.1430
   1599.1338      15.8134   -1998.5000      92.9473      60.1251       3.4458    -999.2500    -999.2500    -999.2500       0.3051       2.3540      82.5347
   1599.2861      15.7870   -1998.5000      90.6140      61.9900       3.6810    -999.2500    -999.2500    -999.2500       0.2894       2.3830      81.9280
   1599.4386      15.7128   -1998.5000      88.4133      61.5376       3.9313    -999.2500    -999.2500    -999.2500       0.2788       2.4030      81.5735
   1599.5909      15.6390   -1998.5000      86.2360      61.0900       4.1810    -999.2500    -999.2500    -999.2500       0.2728       2.4230      81.2200
   1599.7434      15.6094   -1998.5000      83.4836      65.0106       4.3382    -999.2500    -999.2500    -999.2500       0.2710       2.4315      81.3452
   1599.8958      15.5800   -1998.5000      80.7600      68.8900       4.4950    -999.2500    -999.2500    -999.2500       0.2718       2.4400      81.4700
   1600.0482      15.6532   -1998.5000      81.1189      68.0356       4.4560    -999.2500    -999.2500    -999.2500       0.2740       2.4285      81.2197
   1600.2006      15.7260   -1998.5000      81.4740      67.1900       4.4170    -999.2500    -999.2500    -999.2500       0.2779       2.4170      80.9700
   1600.3530      15.7671   -1998.5000      84.6005      69.7783       4.2157    -999.2500    -999.2500    -999.2500       0.2839       2.4060      80.9700
   1600.5054      15.8080   -1998.5000      87.6950      72.3400       4.0150    -999.2500    -999.2500    -999.2500       0.2907       2.3950      80.9700
   1600.6578      15.8642   -1998.5000      90.3872      71.4853       3.7986    -999.2500    -999.2500    -999.2500       0.2973       2.3735      81.2580
   1600.8102      15.9200   -1998.5000      93.0500      70.6400       3.5830    -999.2500    -999.2500    -999.2500       0.3012       2.3520      81.5450
   1600.9626      15.8949   -1998.5000      93.7088      71.4396       3.4538    -999.2500    -999.2500    -999.2500       0.2998       2.3260      82.7246
   1601.1150      15.8700   -1998.5000      94.3600      72.2300       3.3250    -999.2500    -999.2500    -999.2500       0.2948       2.3000      83.9000
   1601.2673      15.9402   -1998.5000      94.0140      75.7944       3.1457    -999.2500    -999.2500    -999.2500       0.2873       2.3190      85.0665
   1601.4198      16.0100   -1998.5000      93.6720      79.3180       2.9670    -999.2500    -999.2500    -999.2500       0.2793       2.3380      86.2290
   1601.5721      15.9643   -1998.5000      92.5094      80.6958       2.8263    -999.2500    -999.2500    -999.2500       0.2728       2.3515      87.0474
   1601.7246      15.9190   -1998.5000      91.3600      82.0580       2.6860    -999.2500    -999.2500    -999.2500       0.2681       2.3650      87.8630
   1601.8770      15.8693   -1998.5000      91.4098      82.8655       2.5207    -999.2500    -999.2500    -999.2500       0.2656       2.3675      88.4785
   1602.0294      15.8200   -1998.5000      91.4590      83.6640       2.3560    -999.2500    -999.2500    -999.2500       0.2657       2.3700      89.0920
   1602.1818      15.8200   -1998.5000      93.4304      84.8083       2.2293    -999.2500    -999.2500    -999.2500       0.2687       2.3700      89.6619
   1602.3342      15.8200   -1998.5000      95.3800      85.9400       2.1030    -999.2500    -999.2500    -999.2500       0.2745       2.3700      90.2300
   1602.4866      15.8275   -1998.5000      97.2709      85.1547       2.0028    -999.2500    -999.2500    -999.2500       0.2829       2.3585      90.1844
   1602.6390      15.8350   -1998.5000      99.1410      84.3780       1.9030    -999.2500    -999.2500    -999.2500       0.2921       2.3470      90.1390
   1602.7914      15.8375   -1998.5000     100.8347      84.0739       1.8690    -999.2500    -999.2500    -999.2500       0.3006       2.3185      89.9763
   1602.9438      15.8400   -1998.5000     102.5100      83.7730       1.8350    -999.2500    -999.2500    -999.2500       0.3109       2.2900      89.8140
   1603.0962      15.8591   -1998.5000     103.7969      80.6664       1.9161    -999.2500    -999.2500    -999.2500       0.3258       2.3055      89.3874
   1603.2485      15.8780   -1998.5000     105.0700      77.5930       1.9970    -999.2500    -999.2500    -999.2500       0.3365       2.3210      88.9620
   1603.4010      15.8840   -1998.5000     100.8848      74.8269       2.0911    -999.2500    -999.2500    -999.2500       0.3341       2.3606      88.7022
