#------------------------------------------------------------------------------
#
#   Created by  : [OpenWorks] Log Export Utility (LEXP)
#   Created on  : 2016-05-23 11:51:57
#   Project     : CANT971
#   User        : R5K
#   Interpreter : PEP
#
#------------------------------------------------------------------------------
~VERSION INFORMATION
VERS. 2.0 : CWLS Log ASCII Standard - version 2.0
WRAP. YES : Mulitple lines per depth step
~WELL INFORMATION
#MNEMONIC   .UNIT                                           VALUE :DESCRIPTION
#------------------------------------------------------------------------------
STRT        .M                                           782.8787 :START DEPTH
STOP        .M                                          2966.0088 :STOP DEPTH
STEP        .M                                             0.1524 :STEP
NULL        .                                           -999.2500 :NULL VALUE
COMP        .                                   PEMEX EXPL & PROD :COMPANY
WELL        .                                                 178 :WELL
FLD         .                                           CANTARELL :FIELD
LOC         .                                             UNKNOWN :LOCATION
CNTY        .                                      CD. DEL CARMEN :COUNTY
STAT        .                                            CAMPECHE :STATE
CTRY        .                                              MEXICO :COUNTRY
SRVC        .                                             UNKNOWN :SERVICE COMPANY
DATE        .                                             UNKNOWN :LOG DATE
UWI         .                                          3060000702 :UNIQUE WELL ID
XCOORD      .                                       602144.590000 :SURFACE X
YCOORD      .                                      2147185.340000 :SURFACE Y
LAT         .                                           19.417512 :LATITUDE
LON         .                                          -92.027103 :LONGITUDE
ELEV        .M                                            28.1700 :SURFACE ELEV
ELEV_TYPE   .                                                  KB :ELEV TYPE
~CURVE INFORMATION
#MNEMONIC.UNIT        API CODE       : CURVE DESCRIPTION
#------------------------------------------------------------------------------
DEPTH    .M                          : Measured Depth
CALI     .inches      UNKNOWN        : CALI:registros:rC:NONE:v0 (auto-composite)
CGR      .API         UNKNOWN        : CGR:registros:rC:NONE:v0 (auto-composite)
DRHO     .g/cm3       UNKNOWN        : DRHO:registros:rC:NONE:v0 (auto-composite)
DT       .UNKNOWN     UNKNOWN        : DT:registros:rC:NONE:v0 (auto-composite)
GR       .API         UNKNOWN        : GR:registros:rC:NONE:v0 (auto-composite)
GR-LWD   .UNKNOWN     UNKNOWN        : GR-LWD:registros:rC:NONE:v0 (auto-composite)
ILD      .ohm.m       UNKNOWN        : ILD:registros:rC:NONE:v0 (auto-composite)
ILM      .ohm.m       UNKNOWN        : ILM:registros:rC:NONE:v0 (auto-composite)
LLD      .ohm.m       UNKNOWN        : LLD:registros:rC:NONE:v0 (auto-composite)
LLD-LWD  .UNKNOWN     UNKNOWN        : LLD-LWD:registros:rC:NONE:v0 (auto-composite)
LLS      .ohm.m       UNKNOWN        : LLS:registros:rC:NONE:v0 (auto-composite)
LLS-LWD  .UNKNOWN     UNKNOWN        : LLS-LWD:registros:rC:NONE:v0 (auto-composite)
MSFL     .ohm.m       UNKNOWN        : MSFL:registros:rC:NONE:v0 (auto-composite)
MSFL-LWD .UNKNOWN     UNKNOWN        : MSFL-LWD:registros:rC:NONE:v0 (auto-composite)
NPHI     .v/v_decimal UNKNOWN        : NPHI:registros:rC:NONE:v0 (auto-composite)
PEF      .b/elec      UNKNOWN        : PEF:registros:rC:NONE:v0 (auto-composite)
POTA     .wtpercent   UNKNOWN        : POTA:registros:rC:NONE:v0 (auto-composite)
RHOB     .g/cm3       UNKNOWN        : RHOB:registros:rC:NONE:v0 (auto-composite)
THOR     .ppm         UNKNOWN        : THOR:registros:rC:NONE:v0 (auto-composite)
URAN     .ppm         UNKNOWN        : URAN:registros:rC:NONE:v0 (auto-composite)
~A
# ...
   2320.8994
       8.6787      20.8112       0.0556      72.7263      34.8804    -999.2500
    -999.2500    -999.2500     168.9128    -999.2500      92.3085    -999.2500
      30.6338    -999.2500       0.0808       3.0908       0.0065       2.6956
       2.9723       1.7407
   2321.0520
       8.6760      18.6640       0.0617      71.6421      33.5362    -999.2500
    -999.2500    -999.2500     207.4012    -999.2500     111.5304    -999.2500
      33.0084    -999.2500       0.0729       2.9522       0.0060       2.7272
       2.6575       1.8777
   2321.2043
       8.6880      16.4851       0.0577      71.8680      31.2339    -999.2500
    -999.2500    -999.2500     190.9156    -999.2500     103.1042    -999.2500
      34.7936    -999.2500       0.0678       2.9302       0.0052       2.7547
       2.5392       1.9236
   2321.3567
       8.6994      14.5262       0.0533      72.1325      29.0612    -999.2500
    -999.2500    -999.2500     173.4837    -999.2500      94.0655    -999.2500
      35.8701    -999.2500       0.0660       2.9145       0.0047       2.7787
       2.4368       1.9550
   2321.5090
       8.7039      15.1966       0.0443      72.8421      28.4712    -999.2500
    -999.2500    -999.2500     145.6792    -999.2500      78.2324    -999.2500
      28.9381    -999.2500       0.0676       2.9709       0.0047       2.7633
       2.5227       1.8163
   2321.6616
       8.7074      15.8609       0.0362      73.5176      27.9766    -999.2500
    -999.2500    -999.2500     119.7937    -999.2500      63.4431    -999.2500
      22.8407    -999.2500       0.0704       3.0190       0.0049       2.7465
       2.5932       1.6836
   2321.8140
       8.6994      16.4214       0.0392      73.8112      28.6347    -999.2500
    -999.2500    -999.2500     117.4329    -999.2500      61.4865    -999.2500
      26.3407    -999.2500       0.0725       2.9696       0.0052       2.7150
       2.4829       1.6281
   2321.9663
       8.6915      16.8232       0.0419      74.1401      29.1333    -999.2500
    -999.2500    -999.2500     115.1590    -999.2500      59.6357    -999.2500
      29.6391    -999.2500       0.0754       2.9273       0.0054       2.6846
       2.3538       1.5808
   2322.1187
       8.6855      15.3916       0.0404      74.8826      27.7317    -999.2500
    -999.2500    -999.2500     113.9870    -999.2500      59.0898    -999.2500
      30.6909    -999.2500       0.0801       2.9683       0.0055       2.6671
       2.0180       1.6282
   2322.2712
       8.6859      14.0202       0.0387      75.5018      26.3203    -999.2500
    -999.2500    -999.2500     112.3713    -999.2500      58.3614    -999.2500
      31.5596    -999.2500       0.0843       3.0054       0.0054       2.6520
       1.7127       1.6646
   2322.4236
       8.7594      13.4484       0.0352      74.7257      24.7788    -999.2500
    -999.2500    -999.2500     105.7033    -999.2500      55.5560    -999.2500
      30.3177    -999.2500       0.0865       2.9979       0.0053       2.6650
       1.7835       1.5718
   2322.5759
       8.8329      12.9653       0.0316      73.8871      23.3324    -999.2500
    -999.2500    -999.2500      99.0493    -999.2500      52.7950    -999.2500
      28.8326    -999.2500       0.0869       2.9970       0.0051       2.6767
       1.8668       1.4794
   2322.7283
       8.9069      13.5269       0.0266      72.3051      23.0086    -999.2500
    -999.2500    -999.2500      92.8248    -999.2500      50.6531    -999.2500
      24.5718    -999.2500       0.0857       3.0713       0.0050       2.6732
       2.0876       1.3977
   2322.8806
       8.9796      14.1999       0.0226      70.9541      22.9284    -999.2500
    -999.2500    -999.2500      87.3734    -999.2500      49.0434    -999.2500
      20.5748    -999.2500       0.0833       3.1319       0.0050       2.6711
       2.3185       1.3243
   2323.0332
       9.0377      16.1135       0.0296      72.1680      25.7366    -999.2500
    -999.2500    -999.2500      91.1946    -999.2500      53.6904    -999.2500
      19.5092    -999.2500       0.0800       3.0304       0.0053       2.6851
       2.6498       1.3532
   2323.1855
       9.0930      17.9946       0.0362      73.4951      28.4878    -999.2500
    -999.2500    -999.2500      94.1149    -999.2500      57.7055    -999.2500
      18.7248    -999.2500       0.0781       2.9555       0.0055       2.6988
       2.9638       1.3822
   2323.3379
       9.1185      19.3917       0.0387      76.1604      30.4013    -999.2500
    -999.2500    -999.2500      86.5993    -999.2500      54.3139    -999.2500
      21.1394    -999.2500       0.0791       3.1855       0.0059       2.7088
       3.0604       1.4101
   2323.4902
       9.1545      20.7125       0.0394      78.7977      32.2197    -999.2500
    -999.2500    -999.2500      78.1238    -999.2500      50.2593    -999.2500
      22.9778    -999.2500       0.0827       3.3951       0.0062       2.7135
       3.1513       1.4374
   2323.6428
       9.3110      21.0453       0.0189      81.2608      32.6906    -999.2500
    -999.2500    -999.2500      59.0458    -999.2500      38.7699    -999.2500
      18.2273    -999.2500       0.0886       3.3592       0.0062       2.6570
       3.1678       1.4548
   2323.7952
       9.4697      21.2290       0.0018      83.6207      33.0065    -999.2500
    -999.2500    -999.2500      40.9714    -999.2500      27.8574    -999.2500
      13.6803    -999.2500       0.0977       3.3291       0.0062       2.6008
       3.1690       1.4739
   2323.9475
       9.6519      19.6896       0.0248      84.8954      31.4890    -999.2500
    -999.2500    -999.2500      35.2388    -999.2500      24.0614    -999.2500
      11.4375    -999.2500       0.1105       3.3670       0.0060       2.5488
       2.9953       1.5098
   2324.0999
       9.8154      18.2326       0.0476      85.9121      30.0468    -999.2500
    -999.2500    -999.2500      29.8675    -999.2500      20.5156    -999.2500
       9.5190    -999.2500       0.1238       3.3982       0.0058       2.5028
       2.8248       1.5411
   2324.2524
       9.7574      17.7759       0.0671      84.0193      29.5183    -999.2500
    -999.2500    -999.2500      29.0448    -999.2500      20.1093    -999.2500
      11.3007    -999.2500       0.1355       3.3508       0.0058       2.5248
       2.6970       1.5172
   2324.4048
       9.6779      17.4504       0.0856      81.9399      29.0622    -999.2500
    -999.2500    -999.2500      28.5612    -999.2500      19.9085    -999.2500
      13.3250    -999.2500       0.1392       3.2960       0.0060       2.5485
       2.5839       1.4871
   2324.5571
       9.3535      18.6493       0.0926      77.6626      29.4717    -999.2500
    -999.2500    -999.2500      31.9961    -999.2500      22.0792    -999.2500
      18.1240    -999.2500       0.1303       3.1597       0.0064       2.5920
       2.6448       1.3882
   2324.7095
       9.0338      19.8145       0.0969      73.4727      29.8751    -999.2500
    -999.2500    -999.2500      36.1961    -999.2500      24.7303    -999.2500
      22.9917    -999.2500       0.1160       3.0370       0.0068       2.6368
       2.7086       1.2935
   2324.8618
       8.7793      20.5497       0.0716      70.1301      30.1850    -999.2500
    -999.2500    -999.2500      49.1356    -999.2500      32.8695    -999.2500
      28.7174    -999.2500       0.1012       3.0744       0.0071       2.6963
       2.8040       1.2496
   2325.0144
       8.5433      21.2777       0.0478      66.9591      30.5937    -999.2500
    -999.2500    -999.2500      61.6129    -999.2500      40.6988    -999.2500
      34.0446    -999.2500       0.0869       3.0972       0.0075       2.7519
       2.8822       1.2149
   2325.1667
       8.5223      21.8846       0.0453      65.7030      32.1555    -999.2500
    -999.2500    -999.2500      68.1267    -999.2500      44.5575    -999.2500
      34.7988    -999.2500       0.0737       2.9497       0.0076       2.7634
       2.7604       1.2882
