#------------------------------------------------------------------------------
#
#   Created by  : [OpenWorks] Log Export Utility (LEXP)
#   Created on  : 2016-05-12 17:01:19
#   Project     : CANT971
#   User        : R5K
#   Interpreter : PEP
#
#------------------------------------------------------------------------------
~VERSION INFORMATION
VERS. 2.0 : CWLS Log ASCII Standard - version 2.0
WRAP.  NO : One line per depth step
~WELL INFORMATION
#MNEMONIC   .UNIT                                           VALUE :DESCRIPTION
#------------------------------------------------------------------------------
STRT        .M                                           335.5854 :START DEPTH
STOP        .M                                          2510.4858 :STOP DEPTH
STEP        .M                                             0.1524 :STEP
NULL        .                                           -999.2500 :NULL VALUE
COMP        .                                   PEMEX EXPL & PROD :COMPANY
WELL        .                                                  35 :WELL
FLD         .                                           CANTARELL :FIELD
LOC         .                                             UNKNOWN :LOCATION
CNTY        .                                      CD. DEL CARMEN :COUNTY
STAT        .                                            CAMPECHE :STATE
CTRY        .                                              MEXICO :COUNTRY
SRVC        .                                             UNKNOWN :SERVICE COMPANY
DATE        .                                             UNKNOWN :LOG DATE
UWI         .                                          3060000159 :UNIQUE WELL ID
XCOORD      .                                       602147.900000 :SURFACE X
YCOORD      .                                      2147168.470000 :SURFACE Y
LAT         .                                           19.417359 :LATITUDE
LON         .                                          -92.027072 :LONGITUDE
ELEV        .M                                            28.1700 :SURFACE ELEV
ELEV_TYPE   .                                                  KB :ELEV TYPE
~CURVE INFORMATION
#MNEMONIC.UNIT        API CODE       : CURVE DESCRIPTION
#------------------------------------------------------------------------------
DEPTH    .M                          : Measured Depth
CALI     .inches      UNKNOWN        : CALI:Import:rC:NONE:v0 (auto-composite)
DRHO     .g/cm3       UNKNOWN        : DRHO:Import:rC:NONE:v0 (auto-composite)
DT       .us/ft       UNKNOWN        : DT:Import:rC:NONE:v0 (auto-composite)
GR       .API         UNKNOWN        : GR:Import:rC:NONE:v0 (auto-composite)
ILD      .ohm.m       UNKNOWN        : ILD:Import:rC:NONE:v0 (auto-composite)
LLD      .ohm.m       UNKNOWN        : LLD:Import:rC:NONE:v0 (auto-composite)
LLS      .ohm.m       UNKNOWN        : LLS:Import:rC:NONE:v0 (auto-composite)
MSFL     .ohm.m       UNKNOWN        : MSFL:Import:rC:NONE:v0 (auto-composite)
NPHI     .v/v_decimal UNKNOWN        : NPHI:Import:rC:NONE:v0 (auto-composite)
RHOB     .g/cm3       UNKNOWN        : RHOB:Import:rC:NONE:v0 (auto-composite)
SP       .mV          UNKNOWN        : SP:Import:rC:NONE:v0 (auto-composite)
~A     DEPTH         CALI         DRHO           DT           GR          ILD          LLD          LLS         MSFL         NPHI         RHOB           SP
# ...
   1397.5085      16.4500   -1998.5000     117.4690      51.7900       1.1100    -999.2500    -999.2500    -999.2500       0.3554       2.3510      90.7300
   1397.6610      16.4891   -1998.5000     116.4592      52.3429       1.1330    -999.2500    -999.2500    -999.2500       0.3484       2.3635      90.4194
   1397.8134      16.5280   -1998.5000     115.4600      52.8900       1.1560    -999.2500    -999.2500    -999.2500       0.3419       2.3760      90.1100
   1397.9658      16.6312   -1998.5000     116.3431      52.7166       1.1680    -999.2500    -999.2500    -999.2500       0.3373       2.3820      90.1100
   1398.1182      16.7340   -1998.5000     117.2170      52.5450       1.1800    -999.2500    -999.2500    -999.2500       0.3351       2.3880      90.1100
   1398.2706      16.8357   -1998.5000     118.4046      52.0902       1.1975    -999.2500    -999.2500    -999.2500       0.3362       2.3890      90.2538
   1398.4230      16.9370   -1998.5000     119.5800      51.6400       1.2150    -999.2500    -999.2500    -999.2500       0.3356       2.3900      90.3970
   1398.5754      16.9585   -1998.5000     119.3222      52.6702       1.2225    -999.2500    -999.2500    -999.2500       0.3284       2.3860      90.4386
   1398.7278      16.9800   -1998.5000     119.0670      53.6900       1.2300    -999.2500    -999.2500    -999.2500       0.3185       2.3820      90.4800
   1398.8802      16.9950   -1998.5000     115.9630      53.2428       1.2235    -999.2500    -999.2500    -999.2500       0.3096       2.3760      90.5306
   1399.0326      17.0100   -1998.5000     112.8900      52.8000       1.2170    -999.2500    -999.2500    -999.2500       0.3047       2.3700      90.5810
   1399.1849      16.8496   -1998.5000     113.6507      51.0866       1.2085    -999.2500    -999.2500    -999.2500       0.3068       2.3800      90.8329
   1399.3374      16.6900   -1998.5000     114.4040      49.3900       1.2000    -999.2500    -999.2500    -999.2500       0.3123       2.3900      91.0840
   1399.4897      16.6900   -1998.5000     115.3667      50.0683       1.1920    -999.2500    -999.2500    -999.2500       0.3174       2.3860      91.3474
   1399.6422      16.6900   -1998.5000     116.3200      50.7400       1.1840    -999.2500    -999.2500    -999.2500       0.3237       2.3820      91.6100
   1399.7946      16.9306   -1998.5000     115.7774      50.4637       1.1514    -999.2500    -999.2500    -999.2500       0.3324       2.3695      91.4848
   1399.9470      17.1700   -1998.5000     115.2400      50.1900       1.1190    -999.2500    -999.2500    -999.2500       0.3413       2.3570      91.3600
   1400.0994      16.9304   -1998.5000     116.2397      51.6238       1.1025    -999.2500    -999.2500    -999.2500       0.3481       2.3495      91.4066
   1400.2518      16.6920   -1998.5000     117.2300      53.0440       1.0860    -999.2500    -999.2500    -999.2500       0.3512       2.3420      91.4530
   1400.4042      16.6018   -1998.5000     114.6660      53.8709       1.0860    -999.2500    -999.2500    -999.2500       0.3484       2.3160      91.5316
   1400.5566      16.5120   -1998.5000     112.1260      54.6900       1.0860    -999.2500    -999.2500    -999.2500       0.3409       2.2900      91.6100
   1400.7090      16.4484   -1998.5000     110.5049      53.3332       1.0880    -999.2500    -999.2500    -999.2500       0.3291       2.2900      91.3596
   1400.8613      16.3850   -1998.5000     108.9000      51.9900       1.0900    -999.2500    -999.2500    -999.2500       0.3205       2.2900      91.1100
   1401.0138      16.0067   -1998.5000     111.4034      52.3534       1.0955    -999.2500    -999.2500    -999.2500       0.3231       2.2975      91.2352
   1401.1661      15.6300   -1998.5000     113.8800      52.7130       1.1010    -999.2500    -999.2500    -999.2500       0.3308       2.3050      91.3600
   1401.3186      15.8956   -1998.5000     113.4326      52.9623       1.0985    -999.2500    -999.2500    -999.2500       0.3378       2.3150      91.3099
   1401.4709      16.1600   -1998.5000     112.9900      53.2090       1.0960    -999.2500    -999.2500    -999.2500       0.3426       2.3250      91.2600
   1401.6234      16.1450   -1998.5000     115.0608      53.7272       1.1316    -999.2500    -999.2500    -999.2500       0.3436       2.3425      91.1197
   1401.7758      16.1300   -1998.5000     117.1100      54.2400       1.1670    -999.2500    -999.2500    -999.2500       0.3410       2.3600      90.9800
   1401.9282      16.1951   -1998.5000     116.2079      54.0470       1.2206    -999.2500    -999.2500    -999.2500       0.3345       2.3450      91.0301
   1402.0806      16.2600   -1998.5000     115.3150      53.8560       1.2740    -999.2500    -999.2500    -999.2500       0.3236       2.3300      91.0800
   1402.2330      16.4093   -1998.5000     111.6197      51.9634       1.3051    -999.2500    -999.2500    -999.2500       0.3074       2.3415      91.0950
   1402.3854      16.5580   -1998.5000     107.9620      50.0900       1.3360    -999.2500    -999.2500    -999.2500       0.2934       2.3530      91.1100
   1402.5378      16.7845   -1998.5000     105.9760      50.5714       1.4212    -999.2500    -999.2500    -999.2500       0.2896       2.3665      91.2518
   1402.6902      17.0100   -1998.5000     104.0100      51.0480       1.5060    -999.2500    -999.2500    -999.2500       0.2918       2.3800      91.3930
   1402.8425      16.9950   -1998.5000     106.3416      51.5751       1.4985    -999.2500    -999.2500    -999.2500       0.2969       2.3650      91.5618
   1402.9950      16.9800   -1998.5000     108.6500      52.0970       1.4910    -999.2500    -999.2500    -999.2500       0.3006       2.3500      91.7300
   1403.1473      17.0527   -1998.5000     106.9165      53.3999       1.4134    -999.2500    -999.2500    -999.2500       0.2986       2.3540      91.5387
   1403.2998      17.1250   -1998.5000     105.2000      54.6900       1.3360    -999.2500    -999.2500    -999.2500       0.2970       2.3580      91.3480
   1403.4521      17.2979   -1998.5000     105.2191      54.1966       1.3405    -999.2500    -999.2500    -999.2500       0.3016       2.3690      90.8652
   1403.6046      17.4700   -1998.5000     105.2380      53.7080       1.3450    -999.2500    -999.2500    -999.2500       0.3089       2.3800      90.3840
   1403.7570      17.3477   -1998.5000     111.4035      53.1267       1.3625    -999.2500    -999.2500    -999.2500       0.3160       2.3760      90.1216
   1403.9094      17.2260   -1998.5000     117.5100      52.5510       1.3800    -999.2500    -999.2500    -999.2500       0.3194       2.3720      89.8600
   1404.0618      16.9073   -1998.5000     117.1729      52.2114       1.3279    -999.2500    -999.2500    -999.2500       0.3151       2.3635      89.9852
   1404.2142      16.5900   -1998.5000     116.8390      51.8750       1.2760    -999.2500    -999.2500    -999.2500       0.3096       2.3550      90.1100
   1404.3666      16.7153   -1998.5000     111.4472      50.2242       1.2830    -999.2500    -999.2500    -999.2500       0.3096       2.3450      89.8596
   1404.5190      16.8400   -1998.5000     106.1100      48.5900       1.2900    -999.2500    -999.2500    -999.2500       0.3121       2.3350      89.6100
   1404.6714      16.8149   -1998.5000     109.3595      50.5646       1.3010    -999.2500    -999.2500    -999.2500       0.3148       2.3275      89.7071
   1404.8237      16.7900   -1998.5000     112.5740      52.5180       1.3120    -999.2500    -999.2500    -999.2500       0.3198       2.3200      89.8040
   1404.9762      16.9103   -1998.5000     114.1856      53.6349       1.3030    -999.2500    -999.2500    -999.2500       0.3293       2.3240      89.8320
   1405.1285      17.0300   -1998.5000     115.7800      54.7400       1.2940    -999.2500    -999.2500    -999.2500       0.3375       2.3280      89.8600
   1405.2810      16.9092   -1998.5000     113.4688      52.9440       1.3080    -999.2500    -999.2500    -999.2500       0.3385       2.3445      89.8600
