#------------------------------------------------------------------------------
#
#   Created by  : [OpenWorks] Log Export Utility (LEXP)
#   Created on  : 2016-05-23 11:57:14
#   Project     : CANT971
#   User        : R5K
#   Interpreter : PEP
#
#------------------------------------------------------------------------------
~VERSION INFORMATION
VERS. 2.0 : CWLS Log ASCII Standard - version 2.0
WRAP.  NO : One line per depth step
~WELL INFORMATION
#MNEMONIC   .UNIT                                           VALUE :DESCRIPTION
#------------------------------------------------------------------------------
STRT        .M                                           551.2302 :START DEPTH
STOP        .M                                          2435.9609 :STOP DEPTH
STEP        .M                                             0.1524 :STEP
NULL        .                                           -999.2500 :NULL VALUE
COMP        .                                   PEMEX EXPL & PROD :COMPANY
WELL        .                                                  76 :WELL
FLD         .                                           CANTARELL :FIELD
LOC         .                                             UNKNOWN :LOCATION
CNTY        .                                      CD. DEL CARMEN :COUNTY
STAT        .                                            CAMPECHE :STATE
CTRY        .                                              MEXICO :COUNTRY
SRVC        .                                             UNKNOWN :SERVICE COMPANY
DATE        .                                             UNKNOWN :LOG DATE
UWI         .                                          3060000416 :UNIQUE WELL ID
XCOORD      .                                       599729.570000 :SURFACE X
YCOORD      .                                      2147218.620000 :SURFACE Y
LAT         .                                           19.417934 :LATITUDE
LON         .                                          -92.050101 :LONGITUDE
ELEV        .M                                            27.8000 :SURFACE ELEV
ELEV_TYPE   .                                                  KB :ELEV TYPE
~CURVE INFORMATION
#MNEMONIC.UNIT        API CODE       : CURVE DESCRIPTION
#------------------------------------------------------------------------------
DEPTH    .M                          : Measured Depth
CAL      .inches      UNKNOWN        : CAL:UNKNOWN:rC:NONE:v0 (auto-composite)
DRHO     .UNKNOWN     UNKNOWN        : DRHO:UNKNOWN:rC:NONE:v0 (auto-composite)
DT       .us/ft       UNKNOWN        : DT:DT:rC:NONE:v0 (auto-composite)
GR       .UNKNOWN     UNKNOWN        : GR:GR-Load:rC:NONE:v0 (auto-composite)
ILD      .UNKNOWN     UNKNOWN        : ILD:ILD-Load:rC:NONE:v0 (auto-composite)
LLD      .UNKNOWN     UNKNOWN        : LLD:UNKNOWN:rC:NONE:v0 (auto-composite)
LLS      .UNKNOWN     UNKNOWN        : LLS:UNKNOWN:rC:NONE:v0 (auto-composite)
NPHI     .v/v_decimal UNKNOWN        : NPHI:NPHI:rC:NONE:v0 (auto-composite)
RHOB     .UNKNOWN     UNKNOWN        : RHOB:UNKNOWN:rC:NONE:v0 (auto-composite)
~A     DEPTH          CAL         DRHO           DT           GR          ILD          LLD          LLS         NPHI         RHOB
# ...
   2346.5022       6.2226       0.0411      64.0966      21.2401       0.2000      24.6921      23.6853      15.2205       2.6668
   2346.6545       6.2220       0.0352      64.5050      21.3690       0.2000      24.5478      23.2724      15.1410       2.6657
   2346.8071       6.2220       0.0407      65.0991      21.9250       0.2000      24.5448      22.6081      15.1510       2.6527
   2346.9595       6.2220       0.0440      65.6930      22.4800       0.2000      24.7029      22.2714      15.1610       2.6475
   2347.1118       6.2220       0.0440      65.3200      22.8893       0.2000      25.0932      22.4067      15.2305       2.6535
   2347.2642       6.2220       0.0448      64.9470      23.2980       0.2000      26.0173      22.7791      15.3000       2.6526
   2347.4165       6.2220       0.0468      62.1873      25.3001       0.2000      27.6980      23.4876      15.2495       2.6421
   2347.5691       6.2220       0.0503      59.4320      27.2990       0.2000      28.9763      24.0316      15.1990       2.6444
   2347.7214       6.2220       0.0558      61.6486      27.0203       0.2000      29.6973      24.3480      14.9518       2.6645
   2347.8738       6.2446       0.0603      63.8620      26.7420       0.2000      29.8104      24.5328      14.7050       2.6830
   2348.0261       6.2977       0.0633      63.5368      24.1918       0.2000      29.1004      24.5393      14.3713       2.6996
   2348.1787       6.3248       0.0598      63.2120      21.6450       0.2000      29.0026      24.5430      14.0380       2.7043
   2348.3311       6.3172       0.0478      61.6471      23.2042       0.2000      29.7151      24.5430      13.5417       2.6932
   2348.4834       6.2933       0.0484      60.0840      24.7590       0.2000      30.1113      24.5430      13.0460       2.6905
   2348.6357       6.2483       0.0655      51.2727      24.0921       0.2000      30.0983      24.5430      13.1686       2.6985
   2348.7883       6.2378       0.0790      42.4710      23.4270       0.2000      29.6909      24.5430      13.2910       2.7098
   2348.9407       6.2714       0.0880      43.3074      23.6468       0.2000      28.7814      24.5430      13.9958       2.7254
   2349.0930       6.3003       0.0917      44.1430      23.8660       0.2000      27.5459      24.3186      14.7000       2.7253
   2349.2454       6.3233       0.0887      47.4359      26.3240       0.2000      25.9043      23.8147      14.5334       2.7057
   2349.3977       6.3604       0.0766      50.7260      28.7760       0.2000      24.8981      23.2491      14.3670       2.6884
   2349.5503       6.4146       0.0535      53.5915      28.6834       0.2000      24.6654      22.6083      13.7063       2.6739
   2349.7026       6.4367       0.0378      56.4550      28.5910       0.2000      24.3751      22.7814      13.0460       2.6635
   2349.8550       6.4206       0.0308      59.6749      29.2592       0.2000      24.0161      23.9235      12.5304       2.6580
   2350.0073       6.3944       0.0272      62.8930      29.9260       0.2000      23.1869      24.3967      12.0150       2.6545
   2350.1599       6.3563       0.0277      62.8330      29.4605       0.2000      21.8101      24.0908      12.3556       2.6535
   2350.3123       6.3526       0.0273      62.7730      28.9960       0.2000      20.8709      23.4094      12.6960       2.6528
   2350.4646       6.3882       0.0258      61.8784      26.5967       0.2000      20.4300      22.3002      12.6600       2.6523
   2350.6169       6.3902       0.0354      60.9840      24.2020       0.2000      21.1923      21.3386      12.6240       2.6560
   2350.7695       6.3546       0.0575      60.9880      24.5418       0.2000      23.3031      20.5424      12.1089       2.6645
   2350.9219       6.3087       0.0723      60.9920      24.8810       0.2000      25.5503      20.4831      11.5940       2.6673
   2351.0742       6.2516       0.0794      60.7790      24.2104       0.2000      27.9470      21.2317      11.6630       2.6638
   2351.2266       6.2220       0.0799      60.5660      23.5410       0.2000      29.6431      22.4548      11.7320       2.6557
   2351.3789       6.2220       0.0733      60.6200      23.6781       0.2000      30.5882      24.1866      12.0122       2.6427
   2351.5315       6.2220       0.0639      60.6740      23.8150       0.2000      30.8015      25.6447      12.2920       2.6345
   2351.6838       6.2220       0.0513      57.6919      24.7762       0.2000      30.2475      26.8160      12.6007       2.6315
   2351.8362       6.2262       0.0490      54.7140      25.7360       0.2000      29.3999      27.4115      12.9090       2.6260
   2351.9885       6.2347       0.0570      55.4515      27.9199       0.2000      28.2511      27.4165      12.8099       2.6180
   2352.1411       6.2872       0.0610      56.1880      30.1010       0.2000      27.2154      27.0021      12.7110       2.6142
   2352.2935       6.3839       0.0610      61.6617      32.6200       0.2000      26.2939      26.1642      12.7415       2.6148
   2352.4458       6.4153       0.0522      67.1290      35.1320       0.2000      25.9369      25.3600      12.7720       2.6112
   2352.5981       6.3823       0.0346      66.6763      34.7780       0.2000      26.1375      24.5888      12.9536       2.6037
   2352.7507       6.3844       0.0260      66.2240      34.4250       0.2000      26.4607      23.9940      13.1350       2.6059
   2352.9031       6.4205       0.0260      64.5662      31.8277       0.2000      26.9024      23.5693      13.5657       2.6174
   2353.0554       6.4197       0.0245      62.9100      29.2370       0.2000      26.8934      23.5659      13.9960       2.6367
   2353.2078       6.3841       0.0214      61.5835      29.2916       0.2000      26.4587      23.9605      13.9810       2.6632
   2353.3601       6.3581       0.0283      60.2580      29.3460       0.2000      26.1025      24.2524      13.9660       2.6789
   2353.5127       6.3411       0.0444      60.4291      28.7463       0.2000      25.8187      24.4495      13.8420       2.6844
   2353.6650       6.3385       0.0536      60.6000      28.1480       0.2000      25.3837      24.4856      13.7180       2.6838
   2353.8174       6.3490       0.0566      61.5958      26.3676       0.2000      24.8121      24.3764      13.8160       2.6778
   2353.9697       6.3543       0.0500      62.5910      24.5910       0.2000      24.5430      24.0578      13.9140       2.6718
   2354.1223       6.3548       0.0350      62.1814      24.2396       0.2000      24.5430      23.5529      13.8255       2.6658
   2354.2747       6.3217       0.0259      61.7720      23.8890       0.2000      24.5430      23.3180      13.7370       2.6609
   2354.4270       6.2596       0.0218      61.9100      23.2084       0.2000      24.5430      23.3180      13.7855       2.6568
   2354.5793       6.2554       0.0178      62.0480      22.5290       0.2000      24.5842      23.3486      13.8340       2.6485
   2354.7319       6.3005       0.0138      62.5385      21.4771       0.2000      24.6604      23.4053      14.1475       2.6365
   2354.8843       6.3536       0.0202      63.0290      20.4270       0.2000      24.9923      23.7220      14.4610       2.6357
   2355.0366       6.4132       0.0353      63.8040      19.6944       0.2000      25.5368      24.2549      14.4115       2.6442
   2355.1890       6.4218       0.0412      64.5790      18.9630       0.2000      25.8061      24.6089      14.3620       2.6469
   2355.3413       6.3887       0.0397      64.2252      19.0986       0.2000      25.8517      24.8173      14.0598       2.6449
   2355.4939       6.3339       0.0371      63.8720      19.2340       0.2000      26.0767      25.1882      13.7580       2.6454
   2355.6462       6.2617       0.0335      62.1638      19.7869       0.2000      26.4452      25.6891      13.3007       2.6479
   2355.7986       6.2488       0.0314      60.4580      20.3390       0.2000      27.0908      26.1782      12.8440       2.6591
