#------------------------------------------------------------------------------
#
#   Created by  : [OpenWorks] Log Export Utility (LEXP)
#   Created on  : 2016-05-23 11:52:02
#   Project     : CANT971
#   User        : R5K
#   Interpreter : PEP
#
#------------------------------------------------------------------------------
~VERSION INFORMATION
VERS. 2.0 : CWLS Log ASCII Standard - version 2.0
WRAP.  NO : One line per depth step
~WELL INFORMATION
#MNEMONIC   .UNIT                                           VALUE :DESCRIPTION
#------------------------------------------------------------------------------
STRT        .M                                           300.3808 :START DEPTH
STOP        .M                                          2575.7129 :STOP DEPTH
STEP        .M                                             0.1524 :STEP
NULL        .                                           -999.2500 :NULL VALUE
COMP        .                                   PEMEX EXPL & PROD :COMPANY
WELL        .                                                  19 :WELL
FLD         .                                           CANTARELL :FIELD
LOC         .                                             UNKNOWN :LOCATION
CNTY        .                                      CD. DEL CARMEN :COUNTY
STAT        .                                            CAMPECHE :STATE
CTRY        .                                              MEXICO :COUNTRY
SRVC        .                                             UNKNOWN :SERVICE COMPANY
DATE        .                                             UNKNOWN :LOG DATE
UWI         .                                          3060000151 :UNIQUE WELL ID
XCOORD      .                                       603362.598000 :SURFACE X
YCOORD      .                                      2145096.350000 :SURFACE Y
LAT         .                                           19.398572 :LATITUDE
LON         .                                          -92.015617 :LONGITUDE
ELEV        .M                                            27.1400 :SURFACE ELEV
ELEV_TYPE   .                                                  KB :ELEV TYPE
~CURVE INFORMATION
#MNEMONIC.UNIT        API CODE       : CURVE DESCRIPTION
#------------------------------------------------------------------------------
DEPTH    .M                          : Measured Depth
CALI     .inches      UNKNOWN        : CALI:Import:rC:NONE:v0 (auto-composite)
DRHO     .g/cm3       UNKNOWN        : DRHO:Import:rC:NONE:v0 (auto-composite)
DT       .us/ft       UNKNOWN        : DT:Import:rC:NONE:v0 (auto-composite)
GR       .API         UNKNOWN        : GR:Import:rC:NONE:v0 (auto-composite)
ILD      .ohm.m       UNKNOWN        : ILD:Import:rC:NONE:v0 (auto-composite)
LLD      .ohm.m       UNKNOWN        : LLD:Import:rC:NONE:v0 (auto-composite)
LLS      .ohm.m       UNKNOWN        : LLS:Import:rC:NONE:v0 (auto-composite)
NPHI     .v/v_decimal UNKNOWN        : NPHI:Import:rC:NONE:v0 (auto-composite)
RHOB     .g/cm3       UNKNOWN        : RHOB:RHOB-Load:rC:NONE:v0 (auto-composite)
~A     DEPTH         CALI         DRHO           DT           GR          ILD          LLD          LLS         NPHI         RHOB
# ...
   2265.7312       5.8890      -0.0055      47.9505      45.3982       0.0010    1066.3120     471.0682       0.0704       2.7400
   2265.8835       5.8890      -0.0040      48.5340      46.0550       0.0010     762.5270     409.4010       0.0712       2.7460
   2266.0359       5.8890       0.0010      48.8986      44.6652       0.0010     853.9461     386.4254       0.0741       2.7520
   2266.1885       5.8890       0.0060      49.2620      43.2800       0.0010     945.0570     363.5640       0.0773       2.7580
   2266.3408       5.8890       0.0055      48.9295      40.9242       0.0010    1103.4153     323.1577       0.0789       2.7540
   2266.4932       5.8890       0.0050      48.5980      38.5760       0.0010    1261.2590     282.9470       0.0787       2.7500
   2266.6455       5.8890      -0.0005      48.1944      36.3843       0.0010    1222.7153     251.2512       0.0762       2.7390
   2266.7981       5.8890      -0.0060      47.7920      34.2030       0.0010    1184.2920     219.7050       0.0733       2.7280
   2266.9504       5.8890      -0.0055      48.1951      31.9874       0.0010    1064.0557     211.9517       0.0720       2.7175
   2267.1028       5.8890      -0.0050      48.5970      29.7820       0.0010     944.1800     204.2340       0.0723       2.7070
   2267.2551       5.8890       0.0015      49.4562      28.0997       0.0010     864.7239     196.9442       0.0746       2.7015
   2267.4077       5.8890       0.0080      50.3130      26.4250       0.0010     785.4960     189.6870       0.0781       2.6960
   2267.5601       5.8890       0.0220      51.1386      25.2314       0.0010     727.8187     174.2460       0.0826       2.6945
   2267.7124       5.8890       0.0360      51.9620      24.0430       0.0010     670.3000     158.8720       0.0872       2.6930
   2267.8647       5.8890       0.0305      51.8539      24.1136       0.0010     615.1943     147.0165       0.0913       2.7050
   2268.0171       5.8890       0.0250      51.7460      24.1840       0.0010     560.2330     135.2110       0.0942       2.7170
   2268.1697       5.8890       0.0120      51.3155      25.7798       0.0010     529.1071     131.1973       0.0949       2.7425
   2268.3220       5.8890      -0.0010      50.8860      27.3690       0.0010     498.0590     127.2000       0.0935       2.7680
   2268.4744       5.8890      -0.0125      50.2618      30.3389       0.0010     480.3400     124.4726       0.0896       2.7650
   2268.6267       5.8890      -0.0240      49.6400      33.2970       0.0010     462.6630     121.7560       0.0845       2.7620
   2268.7793       5.8890      -0.0205      49.0834      35.5418       0.0010     421.5163     115.6684       0.0796       2.7435
   2268.9316       5.8890      -0.0170      48.5290      37.7780       0.0010     380.4620     109.6140       0.0759       2.7250
   2269.0840       5.8890      -0.0095      48.5811      37.5436       0.0010     320.8557      99.2390       0.0743       2.7250
   2269.2363       5.8890      -0.0020      48.6330      37.3100       0.0010     261.4710      88.9190       0.0749       2.7250
   2269.3889       5.8890       0.0045      49.3663      35.9871       0.0010     220.0992      78.6594       0.0777       2.7330
   2269.5413       5.8890       0.0110      50.0970      34.6690       0.0010     178.8760      68.4530       0.0816       2.7410
   2269.6936       5.8890       0.0050      49.9568      32.3119       0.0010     167.5964      62.9957       0.0856       2.7365
   2269.8459       5.8890      -0.0010      49.8170      29.9630       0.0010     156.3560      57.5660       0.0894       2.7320
   2269.9983       5.8890       0.0045      48.7287      27.7563       0.0010     185.9945      64.6615       0.0926       2.7240
   2270.1509       5.8890       0.0100      47.6440      25.5570       0.0010     215.5340      71.7220       0.0954       2.7160
   2270.3032       5.8890       0.0270      48.4788      26.1910       0.0010     333.0181      87.1596       0.0977       2.7100
   2270.4556       5.8890       0.0440      49.3110      26.8230       0.0010     450.1240     102.5230       0.0997       2.7040
   2270.6079       5.8890       0.0320      51.0081      28.1832       0.0010     736.7159     133.7648       0.1016       2.7140
   2270.7605       5.8890       0.0200      52.7000      29.5370       0.0010    1022.4220     164.8600       0.1029       2.7240
   2270.9128       5.8890       0.0245      53.5938      29.5360       0.0010    1415.6686     235.8409       0.1036       2.7365
   2271.0652       5.8890       0.0290      54.4850      29.5350       0.0010    1807.7480     306.4980       0.1040       2.7490
   2271.2175       5.8680       0.0220      53.7054      29.9700       0.0010    2190.7168     438.7671       0.1049       2.7560
   2271.3701       5.8470       0.0150      52.9280      30.4030       0.0010    2572.5979     570.4490       0.1052       2.7630
   2271.5225       5.8124       0.0085      51.7940      31.0880       0.0010    2950.7727     696.3674       0.1042       2.7680
   2271.6748       5.7780       0.0020      50.6630      31.7700       0.0010    3327.9199     821.7430       0.1018       2.7730
   2271.8271       5.7855       0.0030      49.9496      32.0731       0.0010    2979.4302     741.5851       0.0979       2.7770
   2271.9795       5.7930       0.0040      49.2380      32.3750       0.0010    2631.8430     661.7630       0.0932       2.7810
   2272.1321       5.8341       0.0050      48.7749      33.1821       0.0010    2203.3469     577.4819       0.0881       2.7840
   2272.2844       5.8750       0.0060      48.3130      33.9860       0.0010    1775.9080     493.5430       0.0829       2.7870
   2272.4368       5.9201       0.0110      47.8336      35.6934       0.0010    1555.3910     448.1691       0.0778       2.7780
   2272.5891       5.9650       0.0160      47.3560      37.3940       0.0010    1335.3900     402.9740       0.0730       2.7690
   2272.7417       5.9825       0.0110      46.8340      36.5023       0.0010    1192.0988     384.3181       0.0683       2.7470
   2272.8940       6.0000       0.0060      46.3140      35.6140       0.0010    1049.1250     365.7630       0.0645       2.7250
   2273.0464       5.9719       0.0010      46.7363      35.8504       0.0010     948.1167     343.0866       0.0620       2.7340
   2273.1987       5.9440      -0.0040      47.1570      36.0860       0.0010     847.4810     320.5300       0.0615       2.7430
   2273.3513       5.9104      -0.0070      47.9930      35.9728       0.0010     790.5171     290.2208       0.0634       2.7550
   2273.5037       5.8770      -0.0100      48.8260      35.8600       0.0010     733.7560     260.0680       0.0671       2.7670
   2273.6560       5.8444      -0.0080      48.6457      34.4561       0.0010     698.0687     261.5367       0.0722       2.7645
   2273.8083       5.8120      -0.0060      48.4660      33.0570       0.0010     662.5040     262.9980       0.0770       2.7620
   2273.9607       5.7950      -0.0020      48.6438      31.5064       0.0010     649.7389     282.9625       0.0803       2.7550
   2274.1133       5.7780       0.0020      48.8210      29.9610       0.0010     637.0160     302.8290       0.0826       2.7480
   2274.2656       5.8056       0.0040      49.0679      29.0586       0.0010     676.9321     343.0246       0.0845       2.7380
   2274.4180       5.8330       0.0060      49.3140      28.1590       0.0010     716.7210     383.0280       0.0862       2.7280
   2274.5703       5.8561       0.0025      49.4933      29.0746       0.0010     768.4462     457.1973       0.0879       2.7165
   2274.7229       5.8790      -0.0010      49.6720      29.9860       0.0010     820.0130     531.0210       0.0893       2.7050
   2274.8752       5.8840      -0.0065      49.1673      33.1732       0.0010     926.9285     655.8347       0.0897       2.7005
   2275.0276       5.8890      -0.0120      48.6640      36.3460       0.0010    1033.5300     780.0830       0.0886       2.6960
