#------------------------------------------------------------------------------
#
#   Created by  : [OpenWorks] Log Export Utility (LEXP)
#   Created on  : 2016-05-23 11:56:14
#   Project     : CANT971
#   User        : R5K
#   Interpreter : PEP
#
#------------------------------------------------------------------------------
~VERSION INFORMATION
VERS. 2.0 : CWLS Log ASCII Standard - version 2.0
WRAP.  NO : One line per depth step
~WELL INFORMATION
#MNEMONIC   .UNIT                                           VALUE :DESCRIPTION
#------------------------------------------------------------------------------
STRT        .M                                          2395.2905 :START DEPTH
STOP        .M                                          2859.1960 :STOP DEPTH
STEP        .M                                             0.1524 :STEP
NULL        .                                           -999.2500 :NULL VALUE
COMP        .                                             UNKNOWN :COMPANY
WELL        .                                               446-V :WELL
FLD         .                                             UNKNOWN :FIELD
LOC         .                                             UNKNOWN :LOCATION
CNTY        .                                             UNKNOWN :COUNTY
STAT        .                                             UNKNOWN :STATE
CTRY        .                                             UNKNOWN :COUNTRY
SRVC        .                                             UNKNOWN :SERVICE COMPANY
DATE        .                                             UNKNOWN :LOG DATE
UWI         .                                               446-V :UNIQUE WELL ID
XCOORD      .                                       596708.730000 :SURFACE X
YCOORD      .                                      2143311.960000 :SURFACE Y
LAT         .                                           19.382780 :LATITUDE
LON         .                                          -92.079070 :LONGITUDE
ELEV        .M                                             0.0000 :SURFACE ELEV
ELEV_TYPE   .                                                  NA :ELEV TYPE
~CURVE INFORMATION
#MNEMONIC.UNIT        API CODE       : CURVE DESCRIPTION
#------------------------------------------------------------------------------
DEPTH    .M                          : Measured Depth
CALI     .inches      UNKNOWN        : CALI:litodensidad:rC:NONE:v0 (auto-composite)
CGR      .API         UNKNOWN        : CGR:Espectrometria:rC:NONE:v0 (auto-composite)
DRHO     .g/cm3       UNKNOWN        : DRHO:litodensidad:rC:NONE:v0 (auto-composite)
DT       .us/ft       UNKNOWN        : DT:sonico:rC:NONE:v0 (auto-composite)
GR       .API         UNKNOWN        : GR:GR-Load:rC:NONE:v0 (auto-composite)
GR-LWD   .API         UNKNOWN        : GR-LWD:resistivos-LWD:rC:NONE:v0 (auto-composite)
ILD-LWD  .ohm.m       UNKNOWN        : ILD-LWD:resistivos-LWD:rC:NONE:v0 (auto-composite)
ILM-LWD  .UNKNOWN     UNKNOWN        : ILM-LWD:resistivos-LWD:rC:NONE:v0 (auto-composite)
LLD      .ohm.m       UNKNOWN        : LLD:resistivos:rC:NONE:v0 (auto-composite)
LLS      .ohm.m       UNKNOWN        : LLS:resistivos:rC:NONE:v0 (auto-composite)
MSFL     .ohm.m       UNKNOWN        : MSFL:resistivos:rC:NONE:v0 (auto-composite)
NPHI     .UNKNOWN     UNKNOWN        : NPHI:porosidad:rC:NONE:v0 (auto-composite)
PEF      .UNKNOWN     UNKNOWN        : PEF:litodensidad:rC:NONE:v0 (auto-composite)
POTA     .wtpercent   UNKNOWN        : POTA:Espectrometria:rC:NONE:v0 (auto-composite)
RHOB     .g/cm3       UNKNOWN        : RHOB:litodensidad:rC:NONE:v0 (auto-composite)
THOR     .ppm         UNKNOWN        : THOR:Espectrometria:rC:NONE:v0 (auto-composite)
URAN     .ppm         UNKNOWN        : URAN:Espectrometria:rC:NONE:v0 (auto-composite)
~A     DEPTH         CALI          CGR         DRHO           DT           GR       GR-LWD      ILD-LWD      ILM-LWD          LLD          LLS         MSFL         NPHI          PEF         POTA         RHOB         THOR         URAN
# ...
   2560.6445      11.0786      14.5236       0.0579      67.9048      26.9678    -999.2500    -999.2500    -999.2500      23.5393      19.9132       2.3976       0.1044       3.6516       0.0070       2.7254       1.3428       1.3855
   2560.7969      10.8698      16.5922       0.0383      67.0777      28.9323    -999.2500    -999.2500    -999.2500      34.8896      27.4931       5.3521       0.0819       3.3802       0.0083       2.7484       1.4303       1.3739
   2560.9492      10.9776      15.2298       0.0352      64.7072      29.7151    -999.2500    -999.2500    -999.2500      40.0078      30.1934      11.3591       0.0608       3.3094       0.0080       2.7647       1.1289       1.6127
   2561.1018      11.1747      10.9313       0.0357      60.5636      29.5060    -999.2500    -999.2500    -999.2500      47.3794      34.4732      11.7461       0.0521       3.3194       0.0074       2.7815       0.1453       2.0680
   2561.2542      11.1753      10.3522       0.0349      58.1032      29.6306    -999.2500    -999.2500    -999.2500      55.8980      39.8379       6.1072       0.0541       3.3631       0.0071       2.7814       0.1121       2.1463
   2561.4065      11.0567       9.2468       0.0319      55.1473      24.3366    -999.2500    -999.2500    -999.2500      70.4630      48.1609       1.9864       0.0516       3.4570       0.0064       2.7731       0.1000       1.6800
   2561.5588      10.9845       7.9162       0.0310      54.5207      21.8595    -999.2500    -999.2500    -999.2500      77.7606      51.9723       2.5944       0.0485       3.5016       0.0054       2.7706       0.1007       1.5524
   2561.7114      10.9955       6.6901       0.0352      54.3102      21.3978    -999.2500    -999.2500    -999.2500      84.0627      55.2557       7.6654       0.0475       3.5219       0.0046       2.7856       0.0704       1.6375
   2561.8638      10.9974       6.9337       0.0405      54.4249      23.0418    -999.2500    -999.2500    -999.2500      82.3377      54.6950      12.1115       0.0447       3.5074       0.0048       2.8029       0.0668       1.7934
   2562.0161      10.9619       7.8846       0.0497      54.7329      25.8184    -999.2500    -999.2500    -999.2500      66.4626      45.8430       5.4032       0.0433       3.4937       0.0054       2.8135       0.0793       1.9966
   2562.1685      10.9445       8.3415       0.0557      55.2853      25.0435    -999.2500    -999.2500    -999.2500      56.1637      39.2439       1.6883       0.0499       3.4994       0.0057       2.7968       0.1097       1.8595
   2562.3210      10.9639      10.3100       0.0600      55.6750      24.3025    -999.2500    -999.2500    -999.2500      47.6399      32.8210       0.5397       0.0657       3.4996       0.0058       2.7616       0.6050       1.5578
   2562.4734      10.9911      13.1157       0.0618      55.9073      25.4045    -999.2500    -999.2500    -999.2500      40.5175      26.8978       1.8279       0.0760       3.4541       0.0055       2.7261       1.5375       1.3682
   2562.6257      11.0204      12.0716       0.0591      55.9969      27.2823    -999.2500    -999.2500    -999.2500      40.1153      26.5179       6.8735       0.0775       3.3956       0.0049       2.7196       1.4692       1.6935
   2562.7781      11.0320       9.3841       0.0570      56.0201      29.6518    -999.2500    -999.2500    -999.2500      43.1567      29.0888      17.4827       0.0721       3.3474       0.0045       2.7272       0.8679       2.2565
   2562.9304      11.0264       8.2972       0.0565      56.1942      30.1502    -999.2500    -999.2500    -999.2500      46.0017      32.3055      10.6317       0.0650       3.3586       0.0052       2.7456       0.3021       2.4330
   2563.0830      11.0118       8.7884       0.0549      56.3888      29.1171    -999.2500    -999.2500    -999.2500      45.0645      32.3378       7.4235       0.0517       3.3919       0.0062       2.7786       0.0371       2.2632
   2563.2354      11.0258      10.1098       0.0499      56.5350      27.3765    -999.2500    -999.2500    -999.2500      41.9583      29.8941       5.2546       0.0496       3.3852       0.0071       2.8021       0.0389       1.9224
   2563.3877      11.0896       5.8829       0.0426      56.7959      25.0537    -999.2500    -999.2500    -999.2500      36.9995      24.8289       6.5769       0.0507       3.3388       0.0041       2.8125       0.0576       2.1344
   2563.5400      11.1252       3.1067       0.0424      56.9298      22.3279    -999.2500    -999.2500    -999.2500      35.5826      23.0906      11.5692       0.0512       3.3312       0.0021       2.8022       0.0616       2.1400
   2563.6926      11.0915       1.1901       0.0491      57.0151      20.2933    -999.2500    -999.2500    -999.2500      36.0958      23.6345      15.7957       0.0499       3.4037       0.0007       2.7834       0.0621       2.1268
   2563.8450      10.9840       1.7697       0.0538      56.7050      18.3617    -999.2500    -999.2500    -999.2500      38.6004      25.9600      15.6234       0.0582       3.5107       0.0007       2.7689       0.2263       1.8473
   2563.9973      10.9162       5.9186       0.0452      56.3155      19.5507    -999.2500    -999.2500    -999.2500      43.2407      29.7014      17.0183       0.0712       3.6283       0.0017       2.7399       1.0117       1.5177
   2564.1497      10.9269       6.7195       0.0365      55.8198      21.2428    -999.2500    -999.2500    -999.2500      47.1945      32.3022      15.6053       0.0721       3.6219       0.0026       2.7346       0.8561       1.6169
   2564.3022      10.8844       7.9587       0.0327      55.6200      24.5404    -999.2500    -999.2500    -999.2500      49.2421      33.2535      10.9551       0.0557       3.5073       0.0049       2.7542       0.3109       1.8461
   2564.4546      10.8546      12.8965       0.0373      55.6809      26.4161    -999.2500    -999.2500    -999.2500      51.3126      34.9410      12.0948       0.0521       3.4166       0.0080       2.7762       0.4640       1.5052
   2564.6069      10.8124      19.5372       0.0472      55.8686      27.9871    -999.2500    -999.2500    -999.2500      53.5990      37.4645      23.5121       0.0592       3.3402       0.0120       2.7808       0.7986       0.9408
   2564.7593      10.8584      19.7563       0.0642      55.9839      27.5193    -999.2500    -999.2500    -999.2500      53.4060      37.2871      54.5296       0.0750       3.3997       0.0116       2.7696       1.0010       0.8643
   2564.9116      10.9408      16.0968       0.1172      56.0759      23.5405    -999.2500    -999.2500    -999.2500      48.4714      33.9594   20000.0000       0.0785       3.6285       0.0082       2.7773       1.3073       0.8287
   2565.0642      10.9789      14.4987       0.1394      56.0121      21.2723    -999.2500    -999.2500    -999.2500      44.1493      29.8357   18045.0195       0.0778       3.7513       0.0059       2.7967       1.7852       0.7541
   2565.2166      10.8861      10.6833       0.1218      55.8865      19.6938    -999.2500    -999.2500    -999.2500      40.7966      26.8113      23.9662       0.0764       3.7953       0.0030       2.8093       1.8328       1.0032
   2565.3689      10.8204       7.2093       0.0916      54.8426      19.9428    -999.2500    -999.2500    -999.2500      41.8878      27.5326      17.1790       0.0722       3.7412       0.0023       2.8018       1.1418       1.4177
   2565.5212      10.7742       5.8343       0.0648      53.4605      20.5742    -999.2500    -999.2500    -999.2500      45.0697      29.8530      11.2374       0.0672       3.6558       0.0025       2.7849       0.6804       1.6410
   2565.6738      10.7750       5.4943       0.0483      50.7832      21.3850    -999.2500    -999.2500    -999.2500      50.8730      33.8046       4.1966       0.0631       3.5377       0.0030       2.7601       0.3723       1.7692
   2565.8262      10.7689       6.0169       0.0458      48.1913      22.2531    -999.2500    -999.2500    -999.2500      55.7755      37.6409       1.3598       0.0621       3.5197       0.0033       2.7427       0.3830       1.8077
