#------------------------------------------------------------------------------
#
#   Created by  : [OpenWorks] Log Export Utility (LEXP)
#   Created on  : 2016-05-23 11:57:10
#   Project     : CANT971
#   User        : R5K
#   Interpreter : PEP
#
#------------------------------------------------------------------------------
~VERSION INFORMATION
VERS. 2.0 : CWLS Log ASCII Standard - version 2.0
WRAP.  NO : One line per depth step
~WELL INFORMATION
#MNEMONIC   .UNIT                                           VALUE :DESCRIPTION
#------------------------------------------------------------------------------
STRT        .M                                           345.0980 :START DEPTH
STOP        .M                                          2040.8528 :STOP DEPTH
STEP        .M                                             0.1524 :STEP
NULL        .                                           -999.2500 :NULL VALUE
COMP        .                                   PEMEX EXPL & PROD :COMPANY
WELL        .                                                  71 :WELL
FLD         .                                           CANTARELL :FIELD
LOC         .                                             UNKNOWN :LOCATION
CNTY        .                                      CD. DEL CARMEN :COUNTY
STAT        .                                            CAMPECHE :STATE
CTRY        .                                              MEXICO :COUNTRY
SRVC        .                                             UNKNOWN :SERVICE COMPANY
DATE        .                                             UNKNOWN :LOG DATE
UWI         .                                          3060000175 :UNIQUE WELL ID
XCOORD      .                                       599724.470000 :SURFACE X
YCOORD      .                                      2147216.900000 :SURFACE Y
LAT         .                                           19.417919 :LATITUDE
LON         .                                          -92.050150 :LONGITUDE
ELEV        .M                                            27.8000 :SURFACE ELEV
ELEV_TYPE   .                                                  KB :ELEV TYPE
~CURVE INFORMATION
#MNEMONIC.UNIT        API CODE       : CURVE DESCRIPTION
#------------------------------------------------------------------------------
DEPTH    .M                          : Measured Depth
DT       .us/ft       UNKNOWN        : DT:DT:rC:NONE:v0 (auto-composite)
GR       .UNKNOWN     UNKNOWN        : GR:GR-Load:rC:NONE:v0 (auto-composite)
ILD      .UNKNOWN     UNKNOWN        : ILD:ILD-Load:rC:NONE:v0 (auto-composite)
NPHI     .v/v_decimal UNKNOWN        : NPHI:NPHI:rC:NONE:v0 (auto-composite)
RG       .UNKNOWN     UNKNOWN        : RG:RG-Loader:rC:NONE:v0 (auto-composite)
RHOB     .UNKNOWN     UNKNOWN        : RHOB:RHOB-Load:rC:NONE:v0 (auto-composite)
~A     DEPTH           DT           GR          ILD         NPHI           RG         RHOB
# ...
   1565.5172    -999.2500      23.8916      20.7973       9.5177    -999.2500    -999.2500
   1565.6697    -999.2500      20.6262      20.8003       9.2787    -999.2500    -999.2500
   1565.8220    -999.2500      20.0155      20.8033       9.0579    -999.2500    -999.2500
   1565.9744    -999.2500      23.0629      20.8063       8.8625    -999.2500    -999.2500
   1566.1268    -999.2500      25.6799      20.8093       8.6703    -999.2500    -999.2500
   1566.2792    -999.2500      27.7037      20.8123       8.4828    -999.2500    -999.2500
   1566.4316    -999.2500      28.4479      20.8153       8.3931    -999.2500    -999.2500
   1566.5840    -999.2500      27.4339      20.8183       8.4386    -999.2500    -999.2500
   1566.7365    -999.2500      25.1158      20.8213       8.4786    -999.2500    -999.2500
   1566.8888    -999.2500      21.0049      20.8243       8.5111    -999.2500    -999.2500
   1567.0413    -999.2500      18.7941      20.8273       8.4922    -999.2500    -999.2500
   1567.1936    -999.2500      19.1955      20.8303       8.4023    -999.2500    -999.2500
   1567.3461    -999.2500      19.5878      20.8333       8.2506    -999.2500    -999.2500
   1567.4984    -999.2500      19.9673      20.8363       8.0135    -999.2500    -999.2500
   1567.6509    -999.2500      20.0195      20.8393       7.9810    -999.2500    -999.2500
   1567.8032    -999.2500      19.6215      20.8423       8.2310    -999.2500    -999.2500
   1567.9556    -999.2500      19.9038      20.8453       8.4718    -999.2500    -999.2500
   1568.1080    -999.2500      21.1223      20.8483       8.6998    -999.2500    -999.2500
   1568.2604    -999.2500      21.0160      20.8513       9.0084    -999.2500    -999.2500
   1568.4128    -999.2500      19.0866      20.8543       9.4284    -999.2500    -999.2500
   1568.5652    -999.2500      18.1135      20.8573       9.9315    -999.2500    -999.2500
   1568.7177    -999.2500      18.4570      20.8603      10.5495    -999.2500    -999.2500
   1568.8700    -999.2500      19.3495      20.8637      10.8958    -999.2500    -999.2500
   1569.0225    -999.2500      20.9979      20.8677      10.8668    -999.2500    -999.2500
   1569.1748    -999.2500      21.7887      20.8715      10.9098    -999.2500    -999.2500
   1569.3273    -999.2500      21.3983      20.8750      11.0523    -999.2500    -999.2500
   1569.4796    -999.2500      21.5246      20.8783      11.0618    -999.2500    -999.2500
   1569.6321    -999.2500      22.3631      20.8813      10.8873    -999.2500    -999.2500
   1569.7844    -999.2500      23.5805      20.8843      10.7656    -999.2500    -999.2500
   1569.9368    -999.2500      25.3199      20.8873      10.7171    -999.2500    -999.2500
   1570.0892    -999.2500      25.0559      20.8903      10.9922    -999.2500    -999.2500
   1570.2416    -999.2500      22.0303      20.8933      11.7147    -999.2500    -999.2500
   1570.3940    -999.2500      19.8509      20.8963      12.4078    -999.2500    -999.2500
   1570.5464    -999.2500      18.8344      20.8993      13.0602    -999.2500    -999.2500
   1570.6989    -999.2500      17.9759      20.9023      13.2043    -999.2500    -999.2500
   1570.8512    -999.2500      17.3344      20.9053      12.6448    -999.2500    -999.2500
   1571.0037    -999.2500      16.9081      20.9083      12.7694    -999.2500    -999.2500
   1571.1560    -999.2500      16.7776      20.9113      13.8409    -999.2500    -999.2500
   1571.3085    -999.2500      16.0246      20.9143      14.5425    -999.2500    -999.2500
   1571.4608    -999.2500      14.4157      20.9173      14.7321    -999.2500    -999.2500
   1571.6133    -999.2500      13.7414      20.9251      14.3845    -999.2500    -999.2500
   1571.7656    -999.2500      14.3529      20.9396      13.2955    -999.2500    -999.2500
   1571.9180    -999.2500      15.1196      20.9655      13.0179    -999.2500    -999.2500
   1572.0704    -999.2500      16.1001      21.0070      13.8604    -999.2500    -999.2500
   1572.2228    -999.2500      16.8332      21.0112      14.4330    -999.2500    -999.2500
   1572.3752    -999.2500      17.2256      20.9642      14.6330    -999.2500    -999.2500
   1572.5276    -999.2500      17.1637      20.9383      14.8130    -999.2500    -999.2500
   1572.6801    -999.2500      16.4763      20.9413      14.9655    -999.2500    -999.2500
   1572.8324    -999.2500      16.0982      20.9443      14.8611    -999.2500    -999.2500
   1572.9849    -999.2500      16.1462      20.9473      14.4016    -999.2500    -999.2500
   1573.1372    -999.2500      16.3050      20.9503      13.6659    -999.2500    -999.2500
   1573.2897    -999.2500      16.6165      20.9533      12.5484    -999.2500    -999.2500
   1573.4420    -999.2500      16.4126      20.9563      12.0198    -999.2500    -999.2500
   1573.5945    -999.2500      15.4987      20.9593      12.3053    -999.2500    -999.2500
   1573.7468    -999.2500      15.1956      20.9623      12.5709    -999.2500    -999.2500
   1573.8992    -999.2500      15.7346      20.9653      12.8089    -999.2500    -999.2500
   1574.0516    -999.2500      15.6643      20.9683      12.8199    -999.2500    -999.2500
   1574.2040    -999.2500      14.7539      20.9713      12.5169    -999.2500    -999.2500
   1574.3564    -999.2500      14.6332      20.9743      12.1839    -999.2500    -999.2500
   1574.5088    -999.2500      15.5977      20.9773      11.8094    -999.2500    -999.2500
   1574.6613    -999.2500      16.1331      20.9803      11.3017    -999.2500    -999.2500
   1574.8136    -999.2500      16.0786      20.9833      10.6097    -999.2500    -999.2500
   1574.9661    -999.2500      17.0238      20.9863      10.2997    -999.2500    -999.2500
   1575.1184    -999.2500      19.3437      20.9893      10.5183    -999.2500    -999.2500
   1575.2709    -999.2500      20.1789      20.9923      11.1089    -999.2500    -999.2500
   1575.4232    -999.2500      18.9719      20.9953      12.2128    -999.2500    -999.2500
   1575.5756    -999.2500      17.5349      20.9983      12.6711    -999.2500    -999.2500
   1575.7280    -999.2500      15.7815      21.0013      12.2381    -999.2500    -999.2500
   1575.8804    -999.2500      14.7849      21.0043      11.4538    -999.2500    -999.2500
   1576.0328    -999.2500      14.8299      21.0073      10.1843    -999.2500    -999.2500
   1576.1852    -999.2500      14.9976      21.0103       9.2697    -999.2500    -999.2500
   1576.3376    -999.2500      15.3341      21.0133       8.8452    -999.2500    -999.2500
   1576.4900    -999.2500      15.6840      21.0163       8.6362    -999.2500    -999.2500
   1576.6425    -999.2500      16.0525      21.0193       8.7247    -999.2500    -999.2500
   1576.7948    -999.2500      16.1057      21.0223       8.8837    -999.2500    -999.2500
   1576.9473    -999.2500      15.7247      21.0253       9.1402    -999.2500    -999.2500
   1577.0996    -999.2500      15.3488      21.0283       9.4802    -999.2500    -999.2500
   1577.2521    -999.2500      14.9798      21.0313       9.9357    -999.2500    -999.2500
   1577.4044    -999.2500      15.2488      21.0343      10.3876    -999.2500    -999.2500
   1577.5568    -999.2500      16.3967      21.0373      10.8346    -999.2500    -999.2500
   1577.7092    -999.2500      17.3832      21.0403      11.3443    -999.2500    -999.2500
   1577.8616    -999.2500      18.1472      21.0433      11.9408    -999.2500    -999.2500
   1578.0140    -999.2500      18.7326      21.0463      12.2799    -999.2500    -999.2500
   1578.1664    -999.2500      19.0717      21.0493      12.2629    -999.2500    -999.2500
   1578.3188    -999.2500      19.3992      21.0523      12.1704    -999.2500    -999.2500
   1578.4712    -999.2500      19.7107      21.0553      11.9734    -999.2500    -999.2500
   1578.6237    -999.2500      19.6478      21.0583      11.4326    -999.2500    -999.2500
   1578.7760    -999.2500      19.0703      21.0613      10.4161    -999.2500    -999.2500
