#------------------------------------------------------------------------------
#
#   Created by  : [OpenWorks] Log Export Utility (LEXP)
#   Created on  : 2016-05-23 11:50:37
#   Project     : CANT971
#   User        : R5K
#   Interpreter : PEP
#
#------------------------------------------------------------------------------
~VERSION INFORMATION
VERS. 2.0 : CWLS Log ASCII Standard - version 2.0
WRAP.  NO : One line per depth step
~WELL INFORMATION
#MNEMONIC   .UNIT                                           VALUE :DESCRIPTION
#------------------------------------------------------------------------------
STRT        .M                                           690.6770 :START DEPTH
STOP        .M                                          3400.6538 :STOP DEPTH
STEP        .M                                             0.1524 :STEP
NULL        .                                           -999.2500 :NULL VALUE
COMP        .                                   PEMEX EXPL & PROD :COMPANY
WELL        .                                                1024 :WELL
FLD         .                                           CANTARELL :FIELD
LOC         .                                             UNKNOWN :LOCATION
CNTY        .                                      CD. DEL CARMEN :COUNTY
STAT        .                                            CAMPECHE :STATE
CTRY        .                                              MEXICO :COUNTRY
SRVC        .                                             UNKNOWN :SERVICE COMPANY
DATE        .                                             UNKNOWN :LOG DATE
UWI         .                                          3060000490 :UNIQUE WELL ID
XCOORD      .                                       596162.640000 :SURFACE X
YCOORD      .                                      2150611.280000 :SURFACE Y
LAT         .                                           19.448767 :LATITUDE
LON         .                                          -92.083900 :LONGITUDE
ELEV        .M                                            30.0000 :SURFACE ELEV
ELEV_TYPE   .                                                  KB :ELEV TYPE
~CURVE INFORMATION
#MNEMONIC.UNIT        API CODE       : CURVE DESCRIPTION
#------------------------------------------------------------------------------
DEPTH    .M                          : Measured Depth
CALI     .inches      UNKNOWN        : CALI:registros:rC:NONE:v0 (auto-composite)
DRHO     .g/cm3       UNKNOWN        : DRHO:registros:rC:NONE:v0 (auto-composite)
DT       .us/ft       UNKNOWN        : DT:registros:rC:NONE:v0 (auto-composite)
GR       .API         UNKNOWN        : GR:registros:rC:NONE:v0 (auto-composite)
ILD      .ohm.m       UNKNOWN        : ILD:registros:rC:NONE:v0 (auto-composite)
ILM      .ohm.m       UNKNOWN        : ILM:registros:rC:NONE:v0 (auto-composite)
LLD      .ohm.m       UNKNOWN        : LLD:registros:rC:NONE:v0 (auto-composite)
LLS      .ohm.m       UNKNOWN        : LLS:registros:rC:NONE:v0 (auto-composite)
MSFL     .ohm.m       UNKNOWN        : MSFL:registros:rC:NONE:v0 (auto-composite)
NPHI     .v/v_decimal UNKNOWN        : NPHI:registros:rC:NONE:v0 (auto-composite)
PEF      .b/elec      UNKNOWN        : PEF:registros:rC:NONE:v0 (auto-composite)
RHOB     .g/cm3       UNKNOWN        : RHOB:registros:rC:NONE:v0 (auto-composite)
~A     DEPTH         CALI         DRHO           DT           GR          ILD          ILM          LLD          LLS         MSFL         NPHI          PEF         RHOB
# ...
   3324.1489       8.4510       0.0540     100.1950      45.3050    -999.2500    -999.2500     883.7170     331.1900     118.3600       0.1014       3.3390       2.6160
   3324.3015       8.6157       0.0510      95.4398      38.5695    -999.2500    -999.2500     864.1106     309.0428     132.3043       0.1020       3.2646       2.6335
   3324.4539       8.7810       0.0480      90.6700      31.8780    -999.2500    -999.2500     844.4440     286.8630     146.2690       0.1032       3.1900       2.6510
   3324.6062       8.7585       0.0325      87.2390      29.0981    -999.2500    -999.2500     812.9025     267.0463     197.4682       0.1029       3.1096       2.6500
   3324.7585       8.7360       0.0170      83.7970      26.3360    -999.2500    -999.2500     781.2600     247.1980     248.7490       0.1025       3.0290       2.6490
   3324.9109       8.6691       0.0180      81.2487      26.9093    -999.2500    -999.2500     786.2222     249.9716     244.7374       0.1035       3.0629       2.6545
   3325.0635       8.6020       0.0190      78.6920      27.4790    -999.2500    -999.2500     791.2010     252.7500     240.7190       0.1059       3.0970       2.6600
   3325.2158       8.5775       0.0180      73.8563      30.9136    -999.2500    -999.2500     824.0553     266.8695     216.9579       0.1106       3.2692       2.6575
   3325.3682       8.5530       0.0170      69.0040      34.3270    -999.2500    -999.2500     857.0230     281.0150     193.1530       0.1149       3.4420       2.6550
   3325.5205       8.5285       0.0125      65.5941      34.2322    -999.2500    -999.2500     943.4125     309.7162     143.4035       0.1159       3.4205       2.6390
   3325.6731       8.5040       0.0080      62.1720      34.1380    -999.2500    -999.2500    1030.1110     338.4740      93.5560       0.1155       3.3990       2.6230
   3325.8254       8.4496       0.0040      63.3533      33.5824    -999.2500    -999.2500    1019.9338     336.6695     103.2878       0.1147       3.2886       2.6270
   3325.9778       8.3950       0.0000      64.5390      33.0300    -999.2500    -999.2500    1009.7190     334.8640     113.0400       0.1138       3.1780       2.6310
   3326.1301       8.4090      -0.0010      71.2575      31.7789    -999.2500    -999.2500     966.8401     323.3820     187.9492       0.1129       3.2015       2.6640
   3326.2827       8.4230      -0.0020      77.9910      30.5350    -999.2500    -999.2500     923.8660     311.8930     263.0250       0.1117       3.2250       2.6970
   3326.4351       8.4924      -0.0060      77.4132      29.1080    -999.2500    -999.2500     873.3438     314.1757     253.5756       0.1096       3.2200       2.6895
   3326.5874       8.5620      -0.0100      76.8340      27.6890    -999.2500    -999.2500     822.7030     316.4600     244.1040       0.1067       3.2150       2.6820
   3326.7397       8.4846      -0.0090      74.0699      28.1858    -999.2500    -999.2500     791.3887     327.0459     255.3361       0.1025       3.1900       2.6835
   3326.8921       8.4070      -0.0080      71.2990      28.6790    -999.2500    -999.2500     759.9970     337.6410     266.5960       0.0977       3.1650       2.6850
   3327.0447       8.4210      -0.0050      74.2282      30.2299    -999.2500    -999.2500     719.5840     334.3072     347.9353       0.0925       3.1146       2.7140
   3327.1970       8.4350      -0.0020      77.1650      31.7700    -999.2500    -999.2500     679.0660     330.9700     429.4860       0.0874       3.0640       2.7430
   3327.3494       8.5493       0.0020      77.0956      32.6967    -999.2500    -999.2500     598.4809     313.1075     422.4117       0.0830       3.0740       2.7425
   3327.5017       8.6640       0.0060      77.0260      33.6170    -999.2500    -999.2500     517.6760     295.2250     415.3180       0.0802       3.0840       2.7420
   3327.6543       8.6455       0.0075      76.0958      33.5864    -999.2500    -999.2500     529.0698     303.1366     376.9996       0.0807       3.1239       2.7330
   3327.8066       8.6270       0.0090      75.1630      33.5560    -999.2500    -999.2500     540.4960     311.0580     338.5720       0.0833       3.1640       2.7240
   3327.9590       8.5112       0.0100      72.8305      33.3965    -999.2500    -999.2500     600.1716     346.2628     288.1965       0.0880       3.2139       2.7065
   3328.1113       8.3950       0.0110      70.4910      33.2380    -999.2500    -999.2500     660.0250     381.5160     237.6710       0.0919       3.2640       2.6890
   3328.2639       8.4115       0.0120      68.3838      32.3095    -999.2500    -999.2500     755.9063     424.0182     215.6900       0.0921       3.3199       2.6875
   3328.4163       8.4280       0.0130      66.2700      31.3870    -999.2500    -999.2500     852.0850     466.5840     193.6760       0.0911       3.3760       2.6860
   3328.5686       8.5288       0.0205      62.9249      28.5545    -999.2500    -999.2500     882.7280     460.5494     171.7478       0.0909       3.4314       2.6780
   3328.7209       8.6300       0.0280      59.5690      25.7400    -999.2500    -999.2500     913.4700     454.5050     149.7840       0.0923       3.4870       2.6700
   3328.8733       8.6095       0.0530      56.8176      21.6086    -999.2500    -999.2500     936.6780     462.0124     113.8150       0.0965       3.4805       2.6440
   3329.0259       8.5890       0.0780      54.0570      17.5030    -999.2500    -999.2500     959.9640     469.5330      77.7830       0.1006       3.4740       2.6180
   3329.1782       8.5206       0.0755      54.2681      17.8024    -999.2500    -999.2500    1033.5548     499.6778      88.5744       0.1012       3.4485       2.6310
   3329.3306       8.4520       0.0730      54.4800      18.1000    -999.2500    -999.2500    1107.4020     529.8790      99.3860       0.0996       3.4230       2.6440
   3329.4829       8.4530       0.0610      55.0729      19.9992    -999.2500    -999.2500    1195.4109     560.5488     193.7485       0.0958       3.3571       2.6890
   3329.6355       8.4540       0.0490      55.6680      21.8870    -999.2500    -999.2500    1283.7371     591.2800     288.3000       0.0922       3.2910       2.7340
   3329.7878       8.4430       0.0310      55.9520      25.4204    -999.2500    -999.2500    1271.3442     602.9090     286.9984       0.0913       3.2910       2.7320
   3329.9402       8.4320       0.0130      56.2370      28.9330    -999.2500    -999.2500    1258.9050     614.5440     285.6940       0.0921       3.2910       2.7300
   3330.0925       8.3871       0.0040      57.1345      30.7211    -999.2500    -999.2500    1197.4403     603.1522     234.6106       0.0940       3.2920       2.7185
   3330.2451       8.3420      -0.0050      58.0340      32.4990    -999.2500    -999.2500    1135.8370     591.7530     183.4120       0.0972       3.2930       2.7070
   3330.3975       8.3655      -0.0040      60.3013      33.7570    -999.2500    -999.2500    1002.8841     536.9348     186.0599       0.1023       3.2810       2.6885
   3330.5498       8.3890      -0.0030      62.5740      35.0080    -999.2500    -999.2500     869.6150     482.0740     188.7140       0.1081       3.2690       2.6700
   3330.7021       8.3880      -0.0005      67.4219      43.5212    -999.2500    -999.2500     664.4890     384.8707     175.6638       0.1134       3.2305       2.6640
   3330.8545       8.3870       0.0020      72.2820      51.9740    -999.2500    -999.2500     458.8490     287.5800     162.5810       0.1194       3.1920       2.6580
   3331.0071       8.3745       0.0015      72.0808      51.6323    -999.2500    -999.2500     464.0157     293.0802     127.5461       0.1269       3.1406       2.6550
   3331.1594       8.3620       0.0010      71.8790      51.2930    -999.2500    -999.2500     469.1960     298.5860      92.4190       0.1330       3.0890       2.6520
   3331.3118       8.3750       0.0015      70.5234      48.7729    -999.2500    -999.2500     509.0076     338.2776      96.5927       0.1339       3.0965       2.6625
