#------------------------------------------------------------------------------
#
#   Created by  : [OpenWorks] Log Export Utility (LEXP)
#   Created on  : 2016-05-23 11:56:01
#   Project     : CANT971
#   User        : R5K
#   Interpreter : PEP
#
#------------------------------------------------------------------------------
~VERSION INFORMATION
VERS. 2.0 : CWLS Log ASCII Standard - version 2.0
WRAP.  NO : One line per depth step
~WELL INFORMATION
#MNEMONIC   .UNIT                                           VALUE :DESCRIPTION
#------------------------------------------------------------------------------
STRT        .M                                          1572.0055 :START DEPTH
STOP        .M                                          3732.1230 :STOP DEPTH
STEP        .M                                             0.1524 :STEP
NULL        .                                           -999.2500 :NULL VALUE
COMP        .                                             UNKNOWN :COMPANY
WELL        .                                               428-V :WELL
FLD         .                                             UNKNOWN :FIELD
LOC         .                                             UNKNOWN :LOCATION
CNTY        .                                             UNKNOWN :COUNTY
STAT        .                                             UNKNOWN :STATE
CTRY        .                                             UNKNOWN :COUNTRY
SRVC        .                                             UNKNOWN :SERVICE COMPANY
DATE        .                                             UNKNOWN :LOG DATE
UWI         .                                               428-V :UNIQUE WELL ID
XCOORD      .                                            0.000000 :SURFACE X
YCOORD      .                                            0.000000 :SURFACE Y
LAT         .                                            0.000000 :LATITUDE
LON         .                                            0.000000 :LONGITUDE
ELEV        .M                                             0.0000 :SURFACE ELEV
ELEV_TYPE   .                                                  KB :ELEV TYPE
~CURVE INFORMATION
#MNEMONIC .UNIT        API CODE       : CURVE DESCRIPTION
#------------------------------------------------------------------------------
DEPTH     .M                          : Measured Depth
CALIH-LWD .inches      UNKNOWN        : CALIH-LWD:PETROWORKS:rC:NONE:v5 
CALIV-LWD .inches      UNKNOWN        : CALIV-LWD:PETROWORKS:rC:NONE:v5 
CGR       .API         UNKNOWN        : CGR:Espectrometria:rC:NONE:v0 (auto-composite)
DRHO-LWD  .g/cm3       UNKNOWN        : DRHO-LWD:PETROWORKS:rC:NONE:v5 
DT        .us/ft       UNKNOWN        : DT:sonico:rC:NONE:v0 (auto-composite)
GR        .API         UNKNOWN        : GR:Espectrometria:rC:NONE:v0 (auto-composite)
GR-LWD    .API         UNKNOWN        : GR-LWD:PETROWORKS:rC:NONE:v3 
ILD-LWD   .ohm.m       UNKNOWN        : ILD-LWD:PETROWORKS:rC:NONE:v2 
ILM-LWD   .ohm.m       UNKNOWN        : ILM-LWD:PETROWORKS:rC:NONE:v2 
LLD-LWD   .ohm.m       UNKNOWN        : LLD-LWD:registros-LWD:rC:NONE:v0 (auto-composite)
LLS-LWD   .ohm.m       UNKNOWN        : LLS-LWD:registros-LWD:rC:NONE:v0 (auto-composite)
MSFL-LWD  .ohm.m       UNKNOWN        : MSFL-LWD:registros-LWD:rC:NONE:v0 (auto-composite)
NPHI-LWD  .v/v_decimal UNKNOWN        : NPHI-LWD:PETROWORKS:rC:NONE:v5 
PEF-LWD   .b/elec      UNKNOWN        : PEF-LWD:PETROWORKS:rC:NONE:v5 
POTA      .wtpercent   UNKNOWN        : POTA:Espectrometria:rC:NONE:v0 (auto-composite)
RHOB-LWD  .g/cm3       UNKNOWN        : RHOB-LWD:PETROWORKS:rC:NONE:v5 
THOR      .UNKNOWN     UNKNOWN        : THOR:Espectrometria:rC:NONE:v0 (auto-composite)
URAN      .UNKNOWN     UNKNOWN        : URAN:Espectrometria:rC:NONE:v0 (auto-composite)
~A     DEPTH    CALIH-LWD    CALIV-LWD          CGR     DRHO-LWD           DT           GR       GR-LWD      ILD-LWD      ILM-LWD      LLD-LWD      LLS-LWD     MSFL-LWD     NPHI-LWD      PEF-LWD         POTA     RHOB-LWD         THOR         URAN
# ...
   3508.2476       6.3553       6.8281       5.1856       0.1585      50.6896      15.0819      14.8323     223.5903     231.8557    -999.2500    -999.2500    -999.2500       0.0630       2.7425       0.0023       2.6880       0.5612       1.1018
   3508.3999       6.3489       6.8176       4.2890       0.1573      50.5432      14.5457      14.9846     233.1565     234.8662    -999.2500    -999.2500    -999.2500       0.0625       2.6795       0.0019       2.7047       0.4475       1.1419
   3508.5522       6.2767       6.7049       3.0737       0.1697      49.8802      14.7482      15.7426     212.3320     225.8024    -999.2500    -999.2500    -999.2500       0.0625       2.7094       0.0019       2.7428       0.1282       1.2998
   3508.7046       6.2891       6.7181       3.3924       0.1871      49.2880      14.9557      16.6273     210.3661     220.3374    -999.2500    -999.2500    -999.2500       0.0610       2.8090       0.0019       2.7781       0.2055       1.2874
   3508.8572       6.3448       6.8119       4.4647       0.1972      48.9551      14.9906      16.4590     206.1663     215.2952    -999.2500    -999.2500    -999.2500       0.0580       2.8527       0.0019       2.7912       0.5150       1.1719
   3509.0095       6.3529       6.8583       5.1377       0.1883      48.7922      14.9076      16.0014     212.8165     215.9939    -999.2500    -999.2500    -999.2500       0.0552       2.8052       0.0017       2.7754       0.7702       1.0877
   3509.1619       6.3498       6.8284       4.5728       0.1743      48.7114      14.7663      15.5475     214.0302     215.8262    -999.2500    -999.2500    -999.2500       0.0540       2.7451       0.0012       2.7567       0.8128       1.1349
   3509.3142       6.3204       6.7209       3.4791       0.1645      48.6103      14.7034      15.2831     217.2566     213.4691    -999.2500    -999.2500    -999.2500       0.0539       2.7222       0.0008       2.7467       0.6583       1.2497
   3509.4668       6.2554       6.5952       2.4531       0.1597      48.4514      15.0270      15.4830     222.7526     218.3168    -999.2500    -999.2500    -999.2500       0.0541       2.7350       0.0007       2.7415       0.4166       1.3999
   3509.6191       6.1777       6.5566       2.7757       0.1527      48.2840      15.6774      16.1442     216.2647     225.5118    -999.2500    -999.2500    -999.2500       0.0536       2.7416       0.0011       2.7287       0.3576       1.4364
   3509.7715       6.1056       6.6137       4.5117       0.1528      48.1901      16.8860      17.0556     209.3741     229.8665    -999.2500    -999.2500    -999.2500       0.0524       2.7285       0.0022       2.7243       0.4223       1.3777
   3509.9238       6.1217       6.7271       5.0445       0.1631      48.2002      17.9678      17.7553     218.4014     236.9227    -999.2500    -999.2500    -999.2500       0.0518       2.7168       0.0026       2.7390       0.3846       1.4388
   3510.0762       6.2171       6.8193       4.8758       0.1725      48.2623      19.8748      18.4336     234.3022     247.2148    -999.2500    -999.2500    -999.2500       0.0523       2.7142       0.0028       2.7556       0.2689       1.6699
   3510.2288       6.3432       6.8859       4.8319       0.1769      48.3028      21.3242      19.1196     242.4707     250.8020    -999.2500    -999.2500    -999.2500       0.0533       2.7564       0.0031       2.7573       0.1570       1.8362
   3510.3811       6.5084       6.9795       5.5671       0.1767      48.3254      22.1696      19.8037     251.1178     248.8171    -999.2500    -999.2500    -999.2500       0.0537       2.8323       0.0035       2.7448       0.1810       1.8484
   3510.5334       6.6264       7.0750       6.2566       0.1837      48.4295      22.0358      19.9836     254.7732     246.3532    -999.2500    -999.2500    -999.2500       0.0538       2.8578       0.0037       2.7363       0.2973       1.7567
   3510.6858       6.6600       7.2058       7.3524       0.2012      48.7227      21.0408      19.7712     236.5884     246.3247    -999.2500    -999.2500    -999.2500       0.0547       2.7859       0.0038       2.7434       0.5633       1.5240
   3510.8384       6.5653       7.1082       7.6894       0.2251      49.2591      20.4881      19.2593     240.2788     254.0127    -999.2500    -999.2500    -999.2500       0.0559       2.6574       0.0041       2.7617       0.5725       1.4249
   3510.9907       6.3681       6.8466       7.7859       0.2073      49.8741      19.9397      18.8754     250.8181     259.1465    -999.2500    -999.2500    -999.2500       0.0579       2.6744       0.0041       2.7309       0.5698       1.3531
   3511.1431       6.3035       6.7666       7.0503       0.1754      50.2544      19.5039      18.6008     251.1619     258.0498    -999.2500    -999.2500    -999.2500       0.0603       2.7530       0.0037       2.6909       0.5381       1.3865
   3511.2954       6.3629       6.8419       5.2766       0.1813      50.2551      18.5341      18.1341     233.8830     240.9515    -999.2500    -999.2500    -999.2500       0.0624       2.7103       0.0022       2.7029       0.6300       1.4760
   3511.4480       6.3936       6.8687       3.9998       0.2069      49.9405      17.7147      17.1043     229.9969     234.4273    -999.2500    -999.2500    -999.2500       0.0632       2.6308       0.0015       2.7333       0.5545       1.5269
   3511.6003       6.3590       6.8182       3.1670       0.2197      49.7128      16.8300      16.0239     234.7074     227.6571    -999.2500    -999.2500    -999.2500       0.0627       2.6424       0.0011       2.7421       0.4468       1.5211
   3511.7527       6.2465       6.6822       2.6970       0.2066      50.0192      14.8919      14.8174     237.3465     221.0609    -999.2500    -999.2500    -999.2500       0.0616       2.7507       0.0016       2.7221       0.1239       1.3577
   3511.9050       6.2035       6.5879       2.7729       0.1973      50.7546      13.6761      14.0717     255.2325     226.5128    -999.2500    -999.2500    -999.2500       0.0611       2.8433       0.0019       2.7171       0.0461       1.2139
   3512.0574       6.2328       6.5764       2.0902       0.1927      51.4157      11.9774      13.6175     198.5676     190.7770    -999.2500    -999.2500    -999.2500       0.0607       2.8510       0.0013       2.7253       0.0801       1.1008
   3512.2100       6.3123       6.6727       1.4384       0.2043      51.3967      11.2039      13.1661     178.3134     187.7503    -999.2500    -999.2500    -999.2500       0.0593       2.8571       0.0008       2.7552       0.0998       1.0872
   3512.3623       6.3136       6.7553       1.0603       0.2019      50.4843      10.7747      13.0455     178.8378     186.9250    -999.2500    -999.2500    -999.2500       0.0573       2.7811       0.0003       2.7614       0.1891       1.0815
   3512.5146       6.2331       6.6626       1.4492       0.1833      49.2714      10.9886      13.3893     178.0690     184.6301    -999.2500    -999.2500    -999.2500       0.0563       2.7529       0.0003       2.7485       0.2801       1.0620
   3512.6670       6.1925       6.5572       2.1289       0.1684      48.3392      11.6168      14.1726     185.9347     184.5159    -999.2500    -999.2500    -999.2500       0.0563       2.7451       0.0006       2.7364       0.3526       1.0563
   3512.8196       6.2213       6.5505       2.4313       0.1727      47.8996      11.9711      14.3742     181.0846     177.6866    -999.2500    -999.2500    -999.2500       0.0570       2.8036       0.0007       2.7411       0.3933       1.0621
   3512.9719       6.2565       6.5921       2.6135       0.1949      47.9287      12.1594      14.0162     190.0981     178.6715    -999.2500    -999.2500    -999.2500       0.0577       2.7975       0.0009       2.7564       0.3677       1.0628
   3513.1243       6.3166       6.6578       2.7125       0.2032      48.4746      12.2228      13.2069     176.7674     172.6425    -999.2500    -999.2500    -999.2500       0.0597       2.7353       0.0009       2.7380       0.4251       1.0588
