#------------------------------------------------------------------------------
#
#   Created by  : [OpenWorks] Log Export Utility (LEXP)
#   Created on  : 2016-05-23 11:53:41
#   Project     : CANT971
#   User        : R5K
#   Interpreter : PEP
#
#------------------------------------------------------------------------------
~VERSION INFORMATION
VERS. 2.0 : CWLS Log ASCII Standard - version 2.0
WRAP.  NO : One line per depth step
~WELL INFORMATION
#MNEMONIC   .UNIT                                           VALUE :DESCRIPTION
#------------------------------------------------------------------------------
STRT        .M                                           901.1412 :START DEPTH
STOP        .M                                          2449.6777 :STOP DEPTH
STEP        .M                                             0.1524 :STEP
NULL        .                                           -999.2500 :NULL VALUE
COMP        .                                   PEMEX EXPL & PROD :COMPANY
WELL        .                                                  25 :WELL
FLD         .                                           CANTARELL :FIELD
LOC         .                                             UNKNOWN :LOCATION
CNTY        .                                      CD. DEL CARMEN :COUNTY
STAT        .                                            CAMPECHE :STATE
CTRY        .                                              MEXICO :COUNTRY
SRVC        .                                             UNKNOWN :SERVICE COMPANY
DATE        .                                             UNKNOWN :LOG DATE
UWI         .                                          3060000154 :UNIQUE WELL ID
XCOORD      .                                       603358.080000 :SURFACE X
YCOORD      .                                      2145091.420000 :SURFACE Y
LAT         .                                           19.398528 :LATITUDE
LON         .                                          -92.015660 :LONGITUDE
ELEV        .M                                            27.1400 :SURFACE ELEV
ELEV_TYPE   .                                                  KB :ELEV TYPE
~CURVE INFORMATION
#MNEMONIC.UNIT        API CODE       : CURVE DESCRIPTION
#------------------------------------------------------------------------------
DEPTH    .M                          : Measured Depth
CALI     .in          UNKNOWN        : CALI:registros:rC:NONE:v0 (auto-composite)
DRHO     .g/cm3       UNKNOWN        : DRHO:registros:rC:NONE:v0 (auto-composite)
DT       .us/ft       UNKNOWN        : DT:registros:rC:NONE:v0 (auto-composite)
GR       .api         UNKNOWN        : GR:registros:rC:NONE:v0 (auto-composite)
ILD      .ohmm        UNKNOWN        : ILD:registros:rC:NONE:v0 (auto-composite)
LLD      .ohmm        UNKNOWN        : LLD:registros:rC:NONE:v0 (auto-composite)
LLS      .ohmm        UNKNOWN        : LLS:registros:rC:NONE:v0 (auto-composite)
MSFL     .ohmm        UNKNOWN        : MSFL:registros:rC:NONE:v0 (auto-composite)
NPHI     .v/v_decimal UNKNOWN        : NPHI:registros:rC:NONE:v0 (auto-composite)
PEF      .b/elec      UNKNOWN        : PEF:registros:rC:NONE:v0 (auto-composite)
RHOB     .g/cm3       UNKNOWN        : RHOB:registros:rC:NONE:v0 (auto-composite)
~A     DEPTH         CALI         DRHO           DT           GR          ILD          LLD          LLS         MSFL         NPHI          PEF         RHOB
# ...
   2018.5381       6.7320       0.0960      67.3182      32.5024    -999.2500      87.2667      27.6498      28.6434       0.1158       2.6684       2.6945
   2018.6904       6.8220       0.0940      62.2700      32.5620    -999.2500      58.8360      25.3850      34.4620       0.1167       2.4750       2.6900
   2018.8429       7.4015       0.0586      71.9146      33.4631    -999.2500      44.3324      20.2773      30.8098       0.1192       2.3544       2.6342
   2018.9952       7.9810       0.0230      81.5900      34.3670    -999.2500      29.7590      15.1450      27.1400       0.1217       2.2340       2.5780
   2019.1476       7.9330       0.0330      80.8687      34.2018    -999.2500      31.5037      15.8882      27.4467       0.1462       2.2635       2.5795
   2019.3000       7.8850       0.0430      80.1450      34.0360    -999.2500      33.2570      16.6350      27.7550       0.1707       2.2930       2.5810
   2019.4524       7.5390       0.0410      82.4845      32.5760    -999.2500      52.2639      27.7379      37.8230       0.1676       2.5106       2.6263
   2019.6049       7.1930       0.0390      84.8320      31.1110    -999.2500      71.3670      38.8970      47.9420       0.1645       2.7280       2.6720
   2019.7572       6.9200       0.0196      84.7187      31.2168    -999.2500      90.8764      38.8032      47.4662       0.1443       3.0132       2.6710
   2019.9097       6.6470       0.0000      84.6050      31.3230    -999.2500     110.4870      38.7090      46.9880       0.1240       3.2980       2.6700
   2020.0620       6.5455       0.0000      83.2271      32.0282    -999.2500     139.1773      37.8353      47.3590       0.1189       3.2865       2.6730
   2020.2145       6.4440       0.0000      81.8440      32.7360    -999.2500     168.0200      36.9570      47.7320       0.1138       3.2750       2.6760
   2020.3668       6.4440       0.0000      77.0063      33.0629    -999.2500     185.5374      37.2791      41.1614       0.1112       3.1444       2.7099
   2020.5193       6.4440       0.0000      72.1500      33.3910    -999.2500     203.1500      37.6030      34.5550       0.1086       3.0140       2.7440
   2020.6716       6.4440      -0.0045      66.7357      34.6485    -999.2500     226.3913      42.6535      35.3503       0.0960       3.0435       2.7430
   2020.8240       6.4440      -0.0090      61.3000      35.9110    -999.2500     249.7620      47.7320      36.1500       0.0833       3.0730       2.7420
   2020.9764       6.4440      -0.0080      61.6169      35.7159    -999.2500     246.6090      45.8429      43.0085       0.0836       3.0055       2.7310
   2021.1288       6.4440      -0.0070      61.9350      35.5200    -999.2500     243.4380      43.9430      49.9060       0.0839       2.9380       2.7200
   2021.2812       6.4440       0.0020      64.9751      34.2307    -999.2500     224.7164      44.1036      48.6292       0.0864       2.9405       2.6951
   2021.4336       6.4440       0.0110      68.0280      32.9360    -999.2500     205.9010      44.2650      47.3460       0.0890       2.9430       2.6700
   2021.5861       6.4440       0.0414      67.2798      31.4752    -999.2500     219.4332      45.9948      40.3631       0.1028       2.9610       2.6750
   2021.7384       6.4440       0.0720      66.5290      30.0080    -999.2500     233.0240      47.7320      33.3500       0.1166       2.9790       2.6800
   2021.8909       6.4440       0.0670      61.7803      30.2764    -999.2500     230.5345      47.3354      34.1971       0.1149       2.9895       2.7144
   2022.0432       6.4440       0.0620      57.0180      30.5460    -999.2500     228.0340      46.9370      35.0480       0.1133       3.0000       2.7490
   2022.1957       6.4440       0.0256      63.8543      32.5828    -999.2500     205.5874      44.6622      66.3388       0.1034       3.0000       2.7380
   2022.3480       6.4440      -0.0110      70.7110      34.6290    -999.2500     183.0380      42.3770      97.7730       0.0934       3.0000       2.7270
   2022.5005       6.4440      -0.0110      70.3071      37.6107    -999.2500     141.2863      41.4607      84.7103       0.0891       3.0055       2.7295
   2022.6528       6.4440      -0.0110      69.9020      40.6040    -999.2500      99.3380      40.5400      71.5860       0.0847       3.0110       2.7320
   2022.8052       6.4440      -0.0085      62.0477      41.5575    -999.2500      82.5491      39.0950      80.2785       0.0728       3.0445       2.7594
   2022.9576       6.4440      -0.0060      54.1680      42.5140    -999.2500      65.6790      37.6430      89.0130       0.0609       3.0780       2.7870
   2023.1100       6.4440      -0.0005      54.7261      43.8303    -999.2500      53.4264      35.3023      85.7301       0.0611       3.1035       2.7870
   2023.2625       6.4440       0.0050      55.2860      45.1510    -999.2500      41.1130      32.9500      82.4310       0.0614       3.1290       2.7870
   2023.4148       6.4440       0.0055      53.4257      48.6913    -999.2500      41.7185      29.0255      59.3956       0.0632       3.2146       2.7835
   2023.5673       6.4440       0.0060      51.5590      52.2440    -999.2500      42.3270      25.0810      36.2430       0.0650       3.3000       2.7800
   2023.7196       6.4440       0.0060      51.6833      57.4746    -999.2500      56.3474      25.1553      37.2135       0.0683       3.2325       2.7581
   2023.8721       6.4440       0.0060      51.8080      62.7240    -999.2500      70.4410      25.2300      38.1890       0.0716       3.1650       2.7360
   2024.0244       6.4440       0.0055      55.3793      61.5068    -999.2500      69.4676      28.0460      64.9565       0.0737       3.1735       2.7445
   2024.1769       6.4440       0.0050      58.9640      60.2850    -999.2500      68.4890      30.8770      91.8670       0.0757       3.1820       2.7530
   2024.3292       6.4440       0.0030      58.4260      52.9616    -999.2500      61.9220      30.8222      91.2811       0.0777       3.3106       2.7515
   2024.4817       6.4440       0.0010      57.8860      45.6100    -999.2500      55.3190      30.7670      90.6920       0.0798       3.4390       2.7500
   2024.6340       6.4440      -0.0025      58.2882      40.9677    -999.2500      43.4083      29.6965      84.3153       0.0832       3.2844       2.7400
   2024.7864       6.4440      -0.0060      58.6920      36.3070    -999.2500      31.4310      28.6200      77.9030       0.0866       3.1300       2.7300
   2024.9388       6.4440      -0.0060      62.1928      37.1243    -999.2500      31.4804      24.4325      61.6535       0.0989       3.1760       2.7111
   2025.0912       6.4440      -0.0060      65.7080      37.9450    -999.2500      31.5300      20.2210      45.3110       0.1113       3.2220       2.6920
   2025.2437       6.4440      -0.0035      73.4920      43.3994    -999.2500      32.1963      20.5332      46.6127       0.1110       3.2110       2.6950
   2025.3960       6.4440      -0.0010      81.3090      48.8770    -999.2500      32.8660      20.8470      47.9210       0.1106       3.2000       2.6980
   2025.5485       6.4440       0.0080      80.7730      58.4656    -999.2500      36.8004      22.8965      42.8052       0.0988       3.1000       2.7164
   2025.7008       6.4440       0.0170      80.2350      68.0960    -999.2500      40.7520      24.9550      37.6670       0.0869       3.0000       2.7350
   2025.8533       6.4440       0.0115      76.9462      67.3981    -999.2500      54.3066      26.9630      38.9691       0.0932       3.0005       2.7490
   2026.0056       6.4440       0.0060      73.6480      66.6970    -999.2500      67.9220      28.9800      40.2770       0.0996       3.0010       2.7630
   2026.1581       6.4440       0.0080      65.8597      62.4224    -999.2500      86.4532      32.1816      50.1911       0.0984       3.0115       2.7705
   2026.3104       6.4440       0.0100      58.0480      58.1280    -999.2500     105.0700      35.3980      60.1510       0.0971       3.0220       2.7780
