#------------------------------------------------------------------------------
#
#   Created by  : [OpenWorks] Log Export Utility (LEXP)
#   Created on  : 2016-05-23 11:55:55
#   Project     : CANT971
#   User        : R5K
#   Interpreter : PEP
#
#------------------------------------------------------------------------------
~VERSION INFORMATION
VERS. 2.0 : CWLS Log ASCII Standard - version 2.0
WRAP.  NO : One line per depth step
~WELL INFORMATION
#MNEMONIC   .UNIT                                           VALUE :DESCRIPTION
#------------------------------------------------------------------------------
STRT        .M                                          1803.5016 :START DEPTH
STOP        .M                                          3154.9849 :STOP DEPTH
STEP        .M                                             0.1524 :STEP
NULL        .                                           -999.2500 :NULL VALUE
COMP        .                                             UNKNOWN :COMPANY
WELL        .                                             418D-ST :WELL
FLD         .                                             UNKNOWN :FIELD
LOC         .                                             UNKNOWN :LOCATION
CNTY        .                                             UNKNOWN :COUNTY
STAT        .                                             UNKNOWN :STATE
CTRY        .                                             UNKNOWN :COUNTRY
SRVC        .                                             UNKNOWN :SERVICE COMPANY
DATE        .                                             UNKNOWN :LOG DATE
UWI         .                                             418D-ST :UNIQUE WELL ID
XCOORD      .                                       597130.010000 :SURFACE X
YCOORD      .                                      2144879.410000 :SURFACE Y
LAT         .                                           19.396924 :LATITUDE
LON         .                                          -92.074978 :LONGITUDE
ELEV        .M                                             0.0000 :SURFACE ELEV
ELEV_TYPE   .                                                  NA :ELEV TYPE
~CURVE INFORMATION
#MNEMONIC.UNIT        API CODE       : CURVE DESCRIPTION
#------------------------------------------------------------------------------
DEPTH    .M                          : Measured Depth
CALI     .inches      UNKNOWN        : CALI:PETROWORKS:rC:NONE:v1 
CGR      .API         UNKNOWN        : CGR:PETROWORKS:rC:NONE:v1 
DRHO     .g/cm3       UNKNOWN        : DRHO:PETROWORKS:rC:NONE:v1 
DT       .us/ft       UNKNOWN        : DT:PETROWORKS:rC:NONE:v1 
GR       .API         UNKNOWN        : GR:PETROWORKS:rC:NONE:v3 
ILD      .ohm.m       UNKNOWN        : ILD:registros:rC:NONE:v0 (auto-composite)
ILM      .ohm.m       UNKNOWN        : ILM:registros:rC:NONE:v0 (auto-composite)
LLD      .ohm.m       UNKNOWN        : LLD:PETROWORKS:rC:NONE:v2 
LLS      .ohm.m       UNKNOWN        : LLS:PETROWORKS:rC:NONE:v2 
MSFL     .ohm.m       UNKNOWN        : MSFL:PETROWORKS:rC:NONE:v1 
NPHI     .v/v_decimal UNKNOWN        : NPHI:PETROWORKS:rC:NONE:v1 
PEF      .b/elec      UNKNOWN        : PEF:PETROWORKS:rC:NONE:v1 
POTA     .wtpercent   UNKNOWN        : POTA:PETROWORKS:rC:NONE:v1 
RHOB     .g/cm3       UNKNOWN        : RHOB:PETROWORKS:rC:NONE:v1 
THOR     .ppm         UNKNOWN        : THOR:PETROWORKS:rC:NONE:v1 
URAN     .ppm         UNKNOWN        : URAN:PETROWORKS:rC:NONE:v1 
~A     DEPTH         CALI          CGR         DRHO           DT           GR          ILD          ILM          LLD          LLS         MSFL         NPHI          PEF         POTA         RHOB         THOR         URAN
# ...
   2017.7760      17.7031       8.3847       0.0352    -999.2500      19.5850    -999.2500    -999.2500    6306.2041      16.6406      81.2500       0.0000       3.8750       0.0027       2.8290       1.2450       1.5268
   2017.9283      20.8438       5.2313       0.0233    -999.2500      15.8742    -999.2500    -999.2500     504.6658      11.7764      56.8750      -0.0039       3.7285       0.0014       2.8173       0.9217       1.4508
   2018.0808      25.2031       6.2191       0.0251    -999.2500      17.3895    -999.2500    -999.2500     338.5313      10.2566      62.0625      -0.0095       3.6973       0.0016       2.8292       1.0890       1.5227
   2018.2332      25.2031       6.3183       0.0346    -999.2500      16.9147    -999.2500    -999.2500     343.9691      10.2860      68.0000      -0.0094       3.6699       0.0017       2.8505       1.0937       1.4445
   2018.3856      24.1875       6.3257       0.0442    -999.2500      16.2663    -999.2500    -999.2500     336.2325      10.3183     151.3750      -0.0083       3.7500       0.0016       2.8553       1.1194       1.3551
   2018.5380      19.4375       6.0869       0.0517    -999.2500      15.5980    -999.2500    -999.2500     352.8215      10.0865     105.1875      -0.0029       3.5859       0.0013       2.8278       1.1999       1.2965
   2018.6904      19.5156       5.3136       0.0622    -999.2500      11.9701    -999.2500    -999.2500     526.7745      10.2413     122.9375      -0.0007       3.5273       0.0026       2.7968       0.4161       0.9074
   2018.8428      18.8594       6.6866       0.0456    -999.2500      13.8502    -999.2500    -999.2500     507.4744      10.5265     183.6250       0.0721       3.5859       0.0035       2.5181       0.4124       0.9765
   2018.9952      18.4375       8.7379       0.0228    -999.2500      16.8198    -999.2500    -999.2500     529.9821      10.6055     180.8750       0.1790       3.7617       0.0045       2.2638       0.5700       1.1017
   2019.1476      18.7656       7.2711       0.0089    -999.2500      14.5586    -999.2500    -999.2500     546.3826      10.5995      15.9609       0.1927       4.3789       0.0041       2.2087       0.3256       0.9934
   2019.2999      18.8281       6.8762       0.0088    -999.2500      14.1005    -999.2500    -999.2500     603.5958      10.7939       2.3848       0.1009       3.2852       0.0037       2.3132       0.3670       0.9848
   2019.4524      19.1563       5.9696       0.0299    -999.2500      12.7939    -999.2500    -999.2500     468.2630      10.3441       1.3379       0.0149       2.9219       0.0033       2.4601       0.2947       0.9303
   2019.6047      20.3281       7.2384      -0.0029    -999.2500      15.3076    -999.2500    -999.2500     443.3090      10.0953       0.7432       0.0712       2.8086       0.0031       2.0184       0.7444       1.1000
   2019.7572      20.3906       7.1180       0.0006    -999.2500      15.9846    -999.2500    -999.2500     446.9782      10.1022       0.7383       0.1642       2.9531       0.0031       1.7931       0.7149       1.2087
   2019.9095      20.5625       6.1867       0.0486    -999.2500      14.7443    -999.2500    -999.2500     424.5944      11.0175       0.7280       0.2453       3.4590       0.0031       1.7850       0.4586       1.1665
   2020.0620      20.5625       4.6655       0.1323    -999.2500      12.7146    -999.2500    -999.2500     378.3126       9.3267       0.7910       0.2533       4.0234       0.0024       1.9864       0.2954       1.0972
   2020.2144      20.0000       5.9951       0.2036    -999.2500      17.6957    -999.2500    -999.2500     331.7516       8.4472       1.6689       0.2721       4.7227       0.0021       2.2235       0.8388       1.5950
   2020.3668      19.6875       7.3842       0.2205    -999.2500      19.9428    -999.2500    -999.2500     331.7187       8.3897       2.8770       0.3126       4.9922       0.0025       2.2939       1.0499       1.7119
   2020.5192      19.5156       7.4252       0.2158    -999.2500      20.1121    -999.2500    -999.2500     333.3716       8.3511       2.8398       0.3440       4.9258       0.0026       2.3168       1.0405       1.7294
   2020.6716      19.1563       6.8267       0.1587    -999.2500      19.3608    -999.2500    -999.2500     161.0741       8.2903       2.8496       0.3242       5.0469       0.0022       2.2536       1.0230       1.7086
   2020.8240      19.1094       6.5510       0.1238    -999.2500      19.0201    -999.2500    -999.2500     362.7052       8.4555       1.1387       0.2352       5.1328       0.0023       2.2229       0.8984       1.6997
   2020.9764      18.6250       6.6279       0.0962    -999.2500      19.2108    -999.2500    -999.2500     237.5180       7.6217       3.3574       0.1519       4.8398       0.0023       2.3200       0.9424       1.7152
   2021.1288      18.6094       7.5168       0.0420    -999.2500      20.6462    -999.2500    -999.2500     319.6182       7.5592     115.6250       0.0921       4.3711       0.0025       2.4081       1.1024       1.7898
   2021.2811      19.0000       8.9153       0.0187    -999.2500      22.9223    -999.2500    -999.2500     160.2005       7.6568     118.5000       0.0655       3.9180       0.0029       2.6067       1.3236       1.9094
   2021.4336      19.4688      11.0558       0.0103    -999.2500      26.2314    -999.2500    -999.2500     201.3330      11.3198     118.8750       0.0411       3.7695       0.0035       2.6887       1.6883       2.0687
   2021.5859      19.4844      12.5644      -0.0020    -999.2500      28.6998    -999.2500    -999.2500     422.6398      16.6098      75.1875       0.0226       3.7324       0.0037       2.7634       2.0261       2.1995
   2021.7384      19.2656      11.2869      -0.0010    -999.2500      38.6350    -999.2500    -999.2500     885.9984      18.8488     103.2500       0.0274       3.7129       0.0025       2.7782       2.1991       3.7280
   2021.8907      18.6563      12.8025      -0.0065    -999.2500      41.1469    -999.2500    -999.2500     765.5376      18.8697     112.8750       0.0240       3.7422       0.0031       2.7606       2.3744       3.8638
   2022.0432      18.6719      13.7557      -0.0114    -999.2500      42.8335    -999.2500    -999.2500     344.7170      17.5005      22.2188       0.0207       3.6855       0.0035       2.7452       2.4619       3.9638
   2022.1956      18.7813      19.9509      -0.0127    -999.2500      67.2300    -999.2500    -999.2500     315.7202      16.5645     136.8750       0.0158       3.5703       0.0068       2.7554       2.8213       6.4449
   2022.3480      18.6094      19.0937      -0.0065    -999.2500      65.8659    -999.2500    -999.2500    2262.3677      22.3632     552.0000       0.0235       3.5977       0.0065       2.7811       2.6998       6.3758
   2022.5004      19.0000      18.5947      -0.0059    -999.2500      65.3066    -999.2500    -999.2500    2070.7681      21.9977     590.5000       0.0309       3.6094       0.0063       2.7976       2.6588       6.3676
   2022.6528      19.0000      18.9202       0.0002    -999.2500      66.2477    -999.2500    -999.2500     614.3389      19.2895     101.5625       0.0577       3.6973       0.0063       2.7903       2.7664       6.4515
   2022.8052      18.9063      22.8716       0.0064    -999.2500      84.5731    -999.2500    -999.2500     533.2472      14.9637      36.2188       0.1335       3.6719       0.0088       2.7844       2.8334       8.4109
   2022.9576      18.7656      23.5145       0.0066    -999.2500      85.6693    -999.2500    -999.2500     365.4667      13.0554      69.2500       0.2120       3.7383       0.0091       2.7198       2.8863       8.4727
   2023.1100      18.7969      23.4675       0.0028    -999.2500      85.5353    -999.2500    -999.2500     350.7080      12.9650      56.7500       0.2688       3.8125       0.0091       2.6545       2.8544       8.4608
   2023.2623      18.7344      25.2989       0.0008    -999.2500      88.2141    -999.2500    -999.2500     377.5126      12.8863      11.3359       0.2688       3.8828       0.0099       2.6243       3.0533       8.5763
