#------------------------------------------------------------------------------
#
#   Created by  : [OpenWorks] Log Export Utility (LEXP)
#   Created on  : 2016-05-23 11:55:51
#   Project     : CANT971
#   User        : R5K
#   Interpreter : PEP
#
#------------------------------------------------------------------------------
~VERSION INFORMATION
VERS. 2.0 : CWLS Log ASCII Standard - version 2.0
WRAP.  NO : One line per depth step
~WELL INFORMATION
#MNEMONIC   .UNIT                                           VALUE :DESCRIPTION
#------------------------------------------------------------------------------
STRT        .M                                           490.1183 :START DEPTH
STOP        .M                                          2794.5586 :STOP DEPTH
STEP        .M                                             0.1524 :STEP
NULL        .                                           -999.2500 :NULL VALUE
COMP        .                                   PEMEX EXPL & PROD :COMPANY
WELL        .                                                  41 :WELL
FLD         .                                           CANTARELL :FIELD
LOC         .                                             UNKNOWN :LOCATION
CNTY        .                                      CD. DEL CARMEN :COUNTY
STAT        .                                            CAMPECHE :STATE
CTRY        .                                              MEXICO :COUNTRY
SRVC        .                                             UNKNOWN :SERVICE COMPANY
DATE        .                                             UNKNOWN :LOG DATE
UWI         .                                          3060000463 :UNIQUE WELL ID
XCOORD      .                                       601713.000000 :SURFACE X
YCOORD      .                                      2142348.040000 :SURFACE Y
LAT         .                                           19.373822 :LATITUDE
LON         .                                          -92.031472 :LONGITUDE
ELEV        .M                                            24.0000 :SURFACE ELEV
ELEV_TYPE   .                                                  KB :ELEV TYPE
~CURVE INFORMATION
#MNEMONIC.UNIT        API CODE       : CURVE DESCRIPTION
#------------------------------------------------------------------------------
DEPTH    .M                          : Measured Depth
CALI     .inches      UNKNOWN        : CALI:Import:rC:NONE:v0 (auto-composite)
DRHO     .g/cm3       UNKNOWN        : DRHO:Import:rC:NONE:v0 (auto-composite)
DT       .us/ft       UNKNOWN        : DT:Import:rC:NONE:v0 (auto-composite)
GR       .API         UNKNOWN        : GR:Import:rC:NONE:v0 (auto-composite)
ILD      .ohm.m       UNKNOWN        : ILD:Import:rC:NONE:v0 (auto-composite)
LLD      .ohm.m       UNKNOWN        : LLD:Import:rC:NONE:v0 (auto-composite)
LLS      .ohm.m       UNKNOWN        : LLS:Import:rC:NONE:v0 (auto-composite)
NPHI     .v/v_decimal UNKNOWN        : NPHI:Import:rC:NONE:v0 (auto-composite)
PEF      .b/elec      UNKNOWN        : PEF:Import:rC:NONE:v0 (auto-composite)
RHOB     .g/cm3       UNKNOWN        : RHOB:Import:rC:NONE:v0 (auto-composite)
~A     DEPTH         CALI         DRHO           DT           GR          ILD          LLD          LLS         NPHI          PEF         RHOB
# ...
   2717.5967       9.0000       0.0520     112.9280      29.2620    -999.2500      72.5850      67.6980       0.1129       3.7910       2.6730
   2717.7490       9.0000       0.0575     111.8263      29.6357    -999.2500      63.6457      64.4617       0.1221       3.7325       2.6640
   2717.9014       9.0000       0.0630     110.7260      30.0090    -999.2500      54.7170      61.2240       0.1309       3.6740       2.6550
   2718.0540       9.0000       0.0595     109.8866      33.0541    -999.2500      42.2279      51.2497       0.1363       3.6320       2.6660
   2718.2063       9.0000       0.0560     109.0480      36.0960    -999.2500      29.7520      41.2700       0.1376       3.5900       2.6770
   2718.3586       9.0000       0.0520     105.1157      39.2410    -999.2500      22.8623      30.4711       0.1312       3.4714       2.6950
   2718.5110       9.0000       0.0480     101.1870      42.3830    -999.2500      15.9790      19.6650       0.1224       3.3530       2.7130
   2718.6636       9.0000       0.0540     122.7587      41.7998    -999.2500      15.9920      15.7655       0.1147       3.3195       2.6910
   2718.8159       9.0000       0.0600     144.3130      41.2170    -999.2500      16.0050      11.8630       0.1115       3.2860       2.6690
   2718.9683       9.0000       0.0560     122.7882      40.0497    -999.2500      22.1481      13.2459       0.1192       3.4611       2.6485
   2719.1206       9.0000       0.0520     101.2780      38.8850    -999.2500      28.2870      14.6300       0.1337       3.6360       2.6280
   2719.2732       9.0000       0.0400      88.3644      35.5079    -999.2500      35.9256      23.4705       0.1549       3.8506       2.6205
   2719.4255       9.0000       0.0280      75.4580      32.1380    -999.2500      43.5600      32.3060       0.1752       4.0650       2.6130
   2719.5779       9.0000       0.0170      73.2440      31.3097    -999.2500      52.4824      44.5621       0.1863       4.1190       2.6025
   2719.7302       9.0000       0.0060      71.0310      30.4830    -999.2500      61.4010      56.8130       0.1912       4.1730       2.5920
   2719.8826       9.0000       0.0110      73.8909      30.6922    -999.2500      62.4022      53.1869       0.1891       4.0215       2.5790
   2720.0352       9.0000       0.0160      76.7500      30.9010    -999.2500      63.4030      49.5620       0.1828       3.8700       2.5660
   2720.1875       9.0000       0.0275      75.9394      30.1809    -999.2500      56.9644      43.5680       0.1730       3.7275       2.5685
   2720.3398       9.0000       0.0390      75.1290      29.4620    -999.2500      50.5270      37.5750       0.1618       3.5850       2.5710
   2720.4922       8.9690       0.0525      70.6409      28.8915    -999.2500      47.3949      34.8664       0.1504       3.5440       2.5980
   2720.6448       8.9380       0.0660      66.1530      28.3220    -999.2500      44.2630      32.1580       0.1420       3.5030       2.6250
   2720.7971       8.8700       0.0740      61.3207      28.7864    -999.2500      46.1354      31.8440       0.1418       3.4820       2.6355
   2720.9495       8.8020       0.0820      56.4880      29.2500    -999.2500      48.0080      31.5300       0.1393       3.4610       2.6460
   2721.1018       8.7885       0.0820      54.4317      28.0126    -999.2500      49.8078      34.3397       0.1229       3.4480       2.6935
   2721.2544       8.7750       0.0820      52.3750      26.7770    -999.2500      51.6080      37.1500       0.0996       3.4350       2.7410
   2721.4067       8.7430       0.0695      53.0870      25.7213    -999.2500      54.8090      41.3118       0.0724       3.3925       2.7950
   2721.5591       8.7110       0.0570      53.7980      24.6670    -999.2500      58.0060      45.4750       0.0494       3.3500       2.8490
   2721.7114       8.6890       0.0585      68.4154      26.5331    -999.2500      63.2625      48.5243       0.0411       3.3275       2.8350
   2721.8638       8.6670       0.0600      83.0160      28.3970    -999.2500      68.5130      51.5750       0.0399       3.3050       2.8210
   2722.0164       8.6670       0.0685      76.2880      29.8818    -999.2500      64.1553      50.5278       0.0424       3.4216       2.8050
   2722.1687       8.6670       0.0770      69.5670      31.3650    -999.2500      59.8020      49.4800       0.0479       3.5380       2.7890
   2722.3210       8.6670       0.0790      66.8213      30.5124    -999.2500      45.8257      42.3575       0.0571       3.6230       2.7795
   2722.4734       8.6670       0.0810      64.0780      29.6620    -999.2500      31.8620      35.2300       0.0673       3.7080       2.7700
   2722.6260       8.6715       0.0735     109.7752      27.9229    -999.2500      26.1423      28.6807       0.0764       3.7905       2.7725
   2722.7783       8.6760       0.0660     155.4370      26.1880    -999.2500      20.4270      22.1260       0.0828       3.8730       2.7750
   2722.9307       8.7085       0.0605     148.8689      25.7765    -999.2500      22.4156      20.4573       0.0840       4.0245       2.7855
   2723.0830       8.7410       0.0550     142.3050      25.3660    -999.2500      24.4030      18.7870       0.0836       4.1760       2.7960
   2723.2356       8.7590       0.0530     130.8060      23.9855    -999.2500      27.7369      20.6205       0.0846       4.1590       2.7995
   2723.3879       8.7770       0.0510     119.3130      22.6080    -999.2500      31.0690      22.4530       0.0879       4.1420       2.8030
   2723.5403       8.8000       0.0515     124.4230      24.8613    -999.2500      30.8405      24.0788       0.0958       4.0120       2.7870
   2723.6926       8.8230       0.0520     129.5310      27.1100    -999.2500      30.6120      25.7040       0.1031       3.8820       2.7710
   2723.8450       8.8545       0.0570     106.8804      35.0544    -999.2500      27.3476      23.1717       0.1047       3.8310       2.7595
   2723.9976       8.8860       0.0620      84.2360      42.9840    -999.2500      24.0840      20.6400       0.1022       3.7800       2.7480
   2724.1499       8.8875       0.0675      79.8362      41.8045    -999.2500      22.1609      18.8994       0.0958       3.8000       2.7465
   2724.3022       8.8890       0.0730      75.4370      40.6270    -999.2500      20.2380      17.1590       0.0909       3.8200       2.7450
   2724.4546       8.8890       0.0685      90.3437      36.1444    -999.2500      19.3030      15.7540       0.0941       3.7850       2.7435
   2724.6072       8.8890       0.0640     105.2500      31.6690    -999.2500      18.3680      14.3490       0.1009       3.7500       2.7420
   2724.7595       8.9090       0.0510      85.3915      30.2184    -999.2500      17.8250      13.3116       0.1088       3.7770       2.7390
   2724.9119       8.9290       0.0380      65.5310      28.7700    -999.2500      17.2820      12.2740       0.1149       3.8040       2.7360
   2725.0642       8.9610       0.0345      81.7486      39.8316    -999.2500      19.9587      14.3018       0.1150       3.7615       2.7085
   2725.2168       8.9930       0.0310      97.9700      50.8780    -999.2500      22.6360      16.3300       0.1147       3.7190       2.6810
   2725.3691       8.9965       0.0310     112.5096      62.3206    -999.2500      24.6092      20.1458       0.1188       3.8151       2.6405
   2725.5215       9.0000       0.0310     127.0310      73.7490    -999.2500      26.5800      23.9630       0.1298       3.9110       2.6000
   2725.6738       9.0000       0.0330     119.9490      73.0091    -999.2500      24.5699      21.4961       0.1528       4.1536       2.5710
   2725.8262       9.0000       0.0350     112.8750      72.2700    -999.2500      22.5620      19.0280       0.1805       4.3960       2.5420
   2725.9788       9.0000       0.0330     117.0176      70.4366    -999.2500      22.1673      17.2570       0.2077       4.4485       2.5350
