#------------------------------------------------------------------------------
#
#   Created by  : [OpenWorks] Log Export Utility (LEXP)
#   Created on  : 2016-05-23 11:52:02
#   Project     : CANT971
#   User        : R5K
#   Interpreter : PEP
#
#------------------------------------------------------------------------------
~VERSION INFORMATION
VERS. 2.0 : CWLS Log ASCII Standard - version 2.0
WRAP.  NO : One line per depth step
~WELL INFORMATION
#MNEMONIC   .UNIT                                           VALUE :DESCRIPTION
#------------------------------------------------------------------------------
STRT        .M                                           300.3808 :START DEPTH
STOP        .M                                          2575.7129 :STOP DEPTH
STEP        .M                                             0.1524 :STEP
NULL        .                                           -999.2500 :NULL VALUE
COMP        .                                   PEMEX EXPL & PROD :COMPANY
WELL        .                                                  19 :WELL
FLD         .                                           CANTARELL :FIELD
LOC         .                                             UNKNOWN :LOCATION
CNTY        .                                      CD. DEL CARMEN :COUNTY
STAT        .                                            CAMPECHE :STATE
CTRY        .                                              MEXICO :COUNTRY
SRVC        .                                             UNKNOWN :SERVICE COMPANY
DATE        .                                             UNKNOWN :LOG DATE
UWI         .                                          3060000151 :UNIQUE WELL ID
XCOORD      .                                       603362.598000 :SURFACE X
YCOORD      .                                      2145096.350000 :SURFACE Y
LAT         .                                           19.398572 :LATITUDE
LON         .                                          -92.015617 :LONGITUDE
ELEV        .M                                            27.1400 :SURFACE ELEV
ELEV_TYPE   .                                                  KB :ELEV TYPE
~CURVE INFORMATION
#MNEMONIC.UNIT        API CODE       : CURVE DESCRIPTION
#------------------------------------------------------------------------------
DEPTH    .M                          : Measured Depth
CALI     .inches      UNKNOWN        : CALI:Import:rC:NONE:v0 (auto-composite)
DRHO     .g/cm3       UNKNOWN        : DRHO:Import:rC:NONE:v0 (auto-composite)
DT       .us/ft       UNKNOWN        : DT:Import:rC:NONE:v0 (auto-composite)
GR       .API         UNKNOWN        : GR:Import:rC:NONE:v0 (auto-composite)
ILD      .ohm.m       UNKNOWN        : ILD:Import:rC:NONE:v0 (auto-composite)
LLD      .ohm.m       UNKNOWN        : LLD:Import:rC:NONE:v0 (auto-composite)
LLS      .ohm.m       UNKNOWN        : LLS:Import:rC:NONE:v0 (auto-composite)
NPHI     .v/v_decimal UNKNOWN        : NPHI:Import:rC:NONE:v0 (auto-composite)
RHOB     .g/cm3       UNKNOWN        : RHOB:RHOB-Load:rC:NONE:v0 (auto-composite)
~A     DEPTH         CALI         DRHO           DT           GR          ILD          LLD          LLS         NPHI         RHOB
# ...
   2038.9600       6.0306      -0.0025      55.2715      23.4794       0.0010     106.0334      87.1709       0.0407       2.6935
   2039.1124       6.0540       0.0050      54.8550      24.0540       0.0010      98.5320      88.6360       0.0435       2.7010
   2039.2648       6.1066       0.0150      54.3328      25.7765       0.0010     103.4161      93.7406       0.0462       2.7005
   2039.4172       6.1590       0.0250      53.8130      27.4910       0.0010     108.2850      98.8050       0.0489       2.7000
   2039.5696       6.1871       0.0210      53.4442      28.5695       0.0010     118.3625     105.2605       0.0517       2.6870
   2039.7220       6.2150       0.0170      53.0770      29.6430       0.0010     128.4100     111.6660       0.0557       2.6740
   2039.8744       6.2185       0.0110      55.1556      29.8911       0.0010     102.0965      89.6791       0.0626       2.6260
   2040.0269       6.2220       0.0050      57.2250      30.1380       0.0010      75.8580      67.8600       0.0700       2.5780
   2040.1792       6.2220      -0.0005      59.4278      30.1370       0.0010      46.3793      46.7528       0.0758       2.5790
   2040.3315       6.2220      -0.0060      61.6210      30.1360       0.0010      16.9810      25.8040       0.0777       2.5800
   2040.4840       6.2220      -0.0060      58.3131      30.2798       0.0010      17.0065      17.6660       0.0734       2.6060
   2040.6364       6.2220      -0.0060      55.0190      30.4230       0.0010      17.0320       9.5880       0.0709       2.6320
   2040.7888       6.2220       0.0015      55.7350      31.3784       0.0010      30.7099      16.8845       0.0780       2.6170
   2040.9412       6.2220       0.0090      56.4480      32.3300       0.0010      44.3430      24.1280       0.0907       2.6020
   2041.0936       6.2220       0.0070      62.8081      32.2914       0.0010      33.4595      35.3892       0.1045       2.6045
   2041.2460       6.2220       0.0050      69.1380      32.2530       0.0010      22.6190      46.5700       0.1145       2.6070
   2041.3984       6.2220       0.0080      68.3724      32.0750       0.0010      17.2472      33.7084       0.1156       2.6330
   2041.5508       6.2220       0.0110      67.6110      31.8980       0.0010      11.8960      20.9370       0.1077       2.6590
   2041.7032       6.2220       0.0190      64.0446      31.9366       0.0010      21.3910      15.5143       0.0907       2.6550
   2041.8556       6.2220       0.0270      60.4970      31.9750       0.0010      30.8510      10.1290       0.0717       2.6510
   2042.0081       6.2220       0.0210      56.5573      33.1365       0.0010      57.7475      20.3265       0.0578       2.6355
   2042.1604       6.2220       0.0150      52.6380      34.2920       0.0010      84.5480      30.4550       0.0489       2.6200
   2042.3127       6.2220       0.0075      53.1383      35.0579       0.0010     107.1049      78.6027       0.0450       2.6220
   2042.4652       6.2220       0.0000      53.6360      35.8200       0.0010     129.5840     126.4310       0.0448       2.6240
   2042.6176       6.2220       0.0000      54.5718      35.9634       0.0010     116.2754     120.5259       0.0471       2.6195
   2042.7700       6.2220       0.0000      55.5030      36.1060       0.0010     103.0110     114.6640       0.0516       2.6150
   2042.9224       6.2220       0.0035      55.9370      36.3882       0.0010     105.0022     105.3002       0.0580       2.6150
   2043.0748       6.2220       0.0070      56.3690      36.6690       0.0010     106.9870      96.0110       0.0647       2.6150
   2043.2272       6.2220       0.0015      56.9188      36.8810       0.0010      98.1870      87.8710       0.0698       2.6090
   2043.3796       6.2220      -0.0040      57.4660      37.0920       0.0010      89.4140      79.7950       0.0748       2.6030
   2043.5320       6.2220       0.0015      58.4547      37.2298       0.0010      72.6433      65.2092       0.0811       2.6155
   2043.6844       6.2220       0.0070      59.4390      37.3670       0.0010      55.9220      50.7360       0.0875       2.6280
   2043.8368       6.2220       0.0195      60.7594      37.1826       0.0010      45.6781      40.5011       0.0930       2.6210
   2043.9893       6.2220       0.0320      62.0740      36.9990       0.0010      35.4630      30.3440       0.0985       2.6140
   2044.1416       6.2220       0.0295      63.9535      36.8116       0.0010      30.8768      26.1142       0.1049       2.6020
   2044.2939       6.2220       0.0270      65.8250      36.6250       0.0010      26.3030      21.9160       0.1110       2.5900
   2044.4464       6.2220       0.0175      65.6050      36.8234       0.0010      24.3795      20.1786       0.1159       2.5800
   2044.5988       6.2220       0.0080      65.3860      37.0210       0.0010      22.4610      18.4540       0.1201       2.5700
   2044.7512       6.2220      -0.0010      66.6992      37.5866       0.0010      20.8058      17.8016       0.1242       2.5575
   2044.9036       6.2220      -0.0100      68.0070      38.1500       0.0010      19.1560      17.1540       0.1259       2.5450
   2045.0560       6.2220       0.0000      66.5796      38.6813       0.0010      19.7612      17.5354       0.1226       2.5485
   2045.2084       6.2220       0.0100      65.1590      39.2100       0.0010      20.3640      17.9140       0.1161       2.5520
   2045.3608       6.2220       0.0240      62.8513      39.2095       0.0010      22.5486      19.9852       0.1077       2.5725
   2045.5132       6.2220       0.0380      60.5560      39.2090       0.0010      24.7250      22.0420       0.0999       2.5930
   2045.6656       6.2220       0.0485      61.5215      39.1950       0.0010      29.6145      26.0583       0.0951       2.6135
   2045.8180       6.2220       0.0590      62.4820      39.1810       0.0010      34.4860      30.0470       0.0990       2.6340
   2045.9705       6.2220       0.0545      66.6908      38.9579       0.0010      28.3086      29.2824       0.1175       2.6465
   2046.1228       6.2220       0.0500      70.8780      38.7360       0.0010      22.1530      28.5230       0.1496       2.6590
   2046.2751       6.3303       0.0375      69.2489      38.1195       0.0010      17.2642      22.6230       0.1941       2.6305
   2046.4276       6.4380       0.0250      67.6280      37.5060       0.0010      12.3920      16.7620       0.2361       2.6020
   2046.5800       6.4971       0.0095      70.7712      37.1722       0.0010      10.8570      12.4619       0.2612       2.5260
   2046.7324       6.5560      -0.0060      73.8990      36.8400       0.0010       9.3270       8.1930       0.2811       2.4500
   2046.8848       6.5154      -0.0060      86.3968      36.8901       0.0010       9.3761       6.4129       0.3078       2.3640
   2047.0372       6.4750      -0.0060      98.8350      36.9400       0.0010       9.4250       4.6470       0.3388       2.2780
   2047.1896       6.4209      -0.0145      93.3678      36.9656       0.0010       7.9042       3.9724       0.3720       2.1840
   2047.3420       6.3670      -0.0230      87.9260      36.9910       0.0010       6.3880       3.3030       0.4024       2.0900
   2047.4944       6.3500      -0.0100      88.9248      36.9900       0.0010       5.2704       4.1493       0.4252       1.9575
   2047.6469       6.3330       0.0030      89.9190      36.9890       0.0010       4.1560       4.9890       0.4402       1.8250
   2047.7992       6.2879       0.0180     100.1665      37.9155       0.0010       3.4075       4.6010       0.4471       1.9095
   2047.9515       6.2430       0.0330     110.3690      38.8380       0.0010       2.6610       4.2160       0.4460       1.9940
   2048.1040       6.1538       0.0445      99.7794      38.3770       0.0010       2.3099       3.3177       0.4371       2.1541
   2048.2563       6.0650       0.0560      89.2350      37.9180       0.0010       1.9600       2.4260       0.4112       2.3140
