#------------------------------------------------------------------------------
#
#   Created by  : [OpenWorks] Log Export Utility (LEXP)
#   Created on  : 2016-05-23 11:57:25
#   Project     : CANT971
#   User        : R5K
#   Interpreter : PEP
#
#------------------------------------------------------------------------------
~VERSION INFORMATION
VERS. 2.0 : CWLS Log ASCII Standard - version 2.0
WRAP.  NO : One line per depth step
~WELL INFORMATION
#MNEMONIC   .UNIT                                           VALUE :DESCRIPTION
#------------------------------------------------------------------------------
STRT        .M                                           497.5860 :START DEPTH
STOP        .M                                          2904.1343 :STOP DEPTH
STEP        .M                                             0.1524 :STEP
NULL        .                                           -999.2500 :NULL VALUE
COMP        .                                   PEMEX EXPL & PROD :COMPANY
WELL        .                                                 82A :WELL
FLD         .                                           CANTARELL :FIELD
LOC         .                                             UNKNOWN :LOCATION
CNTY        .                                      CD. DEL CARMEN :COUNTY
STAT        .                                            CAMPECHE :STATE
CTRY        .                                              MEXICO :COUNTRY
SRVC        .                                             UNKNOWN :SERVICE COMPANY
DATE        .                                             UNKNOWN :LOG DATE
UWI         .                                          3060000184 :UNIQUE WELL ID
XCOORD      .                                       601716.340000 :SURFACE X
YCOORD      .                                      2142348.150000 :SURFACE Y
LAT         .                                           19.373822 :LATITUDE
LON         .                                          -92.031440 :LONGITUDE
ELEV        .M                                            24.0000 :SURFACE ELEV
ELEV_TYPE   .                                                  KB :ELEV TYPE
~CURVE INFORMATION
#MNEMONIC.UNIT        API CODE       : CURVE DESCRIPTION
#------------------------------------------------------------------------------
DEPTH    .M                          : Measured Depth
CAL      .inches      UNKNOWN        : CAL:UNKNOWN:rC:NONE:v0 (auto-composite)
DRHO     .g/cm3       UNKNOWN        : DRHO:UNKNOWN:rC:NONE:v0 (auto-composite)
DT       .us/ft       UNKNOWN        : DT:DT:rC:NONE:v0 (auto-composite)
GR       .api         UNKNOWN        : GR:GR-Load:rC:NONE:v0 (auto-composite)
ILD      .ohm.m       UNKNOWN        : ILD:PETROWORKS:rC:NONE:v1 
LLD      .ohmm        UNKNOWN        : LLD:UNKNOWN:rC:NONE:v0 (auto-composite)
LLS      .ohmm        UNKNOWN        : LLS:UNKNOWN:rC:NONE:v0 (auto-composite)
MSFL     .ohmm        UNKNOWN        : MSFL:PETROWORKS:rC:NONE:v1 
NPHI     .v/v_decimal UNKNOWN        : NPHI:NPHI:rC:NONE:v0 (auto-composite)
PEF      .b/elec      UNKNOWN        : PEF:UNKNOWN:rC:NONE:v0 (auto-composite)
RG       .API         UNKNOWN        : RG:UNKNOWN:rC:NONE:v0 (auto-composite)
RHOB     .g/cm3       UNKNOWN        : RHOB:UNKNOWN:rC:NONE:v0 (auto-composite)
~A     DEPTH          CAL         DRHO           DT           GR          ILD          LLD          LLS         MSFL         NPHI          PEF           RG         RHOB
# ...
   2538.5269       8.2325       0.0852    -999.2500      28.9367    -999.2500      35.1156    2928.3730    2000.6870       7.8608       3.0002      29.1469       2.6862
   2538.6792       8.2880       0.0907    -999.2500      26.9550    -999.2500      31.5624    2971.9500    2000.6870       7.6426       2.9293      29.2597       2.6867
   2538.8315       8.2954       0.1003    -999.2500      25.0694    -999.2500      31.8707    3105.0342    2000.6870       7.4105       2.8892      29.4457       2.7015
   2538.9839       8.2319       0.1158    -999.2500      25.2104    -999.2500      37.8742    3370.1301    2000.6870       6.8252       2.8947      29.7396       2.7375
   2539.1365       8.1843       0.1159    -999.2500      25.3903    -999.2500      43.4496    3593.2405    2000.6870       6.1720       2.9306      29.8787       2.7594
   2539.2888       8.1603       0.0934    -999.2500      26.3767    -999.2500      48.3914    3754.2043    2000.6870       5.6056       3.0116      29.7888       2.7604
   2539.4412       8.1452       0.0734    -999.2500      27.3730    -999.2500      50.4157    3809.4968    2000.6870       5.0559       3.0849      29.8182       2.7560
   2539.5935       8.1432       0.0569    -999.2500      28.5720    -999.2500      48.1061    3707.8147    2000.6870       4.5012       3.1468      30.0249       2.7435
   2539.7461       8.1454       0.0436    -999.2500      29.7856    -999.2500      46.6515    3682.3464    2000.6870       3.9455       3.1734      29.9344       2.7378
   2539.8984       8.1539       0.0351    -999.2500      31.3042    -999.2500      46.4800    3771.2615    2000.6870       3.4722       3.1469      29.3976       2.7423
   2540.0508       8.1642       0.0420    -999.2500      32.8483    -999.2500      46.4907    3853.2944    2000.6870       3.0145       3.1101      29.5684       2.7566
   2540.2031       8.1772       0.0720    -999.2500      34.9166    -999.2500      46.7755    3924.9614    2000.6870       2.8650       3.0576      30.8048       2.7856
   2540.3557       8.1944       0.1043    -999.2500      37.0093    -999.2500      45.9194    4053.4241    2000.6870       2.7734       3.0063      32.0266       2.8149
   2540.5081       8.2178       0.1403    -999.2500      39.5942    -999.2500      43.3386    4267.7432    2000.6870       3.1087       2.9568      33.2260       2.8449
   2540.6604       8.2114       0.1475    -999.2500      42.0236    -999.2500      42.1205    4567.6538    2000.6870       3.5238       2.9264      34.4063       2.8563
   2540.8127       8.1594       0.1111    -999.2500      41.2613    -999.2500      42.9699    4997.4180    2000.6870       3.6662       2.9249      35.5574       2.8393
   2540.9651       8.1225       0.0754    -999.2500      40.3638    -999.2500      44.8449    5436.9863    2000.6870       3.7577       2.9116      37.1520       2.8187
   2541.1177       8.1085       0.0409    -999.2500      36.7365    -999.2500      48.2919    5891.5825    2000.6870       3.8750       2.8801      39.4265       2.7928
   2541.2700       8.1006       0.0214    -999.2500      33.1586    -999.2500      50.4454    6112.5254    2000.6870       3.9970       2.8771      40.8188       2.7756
   2541.4224       8.1021       0.0249    -999.2500      30.5617    -999.2500      50.6088    5974.0132    1997.9172       4.2893       2.9181      40.8538       2.7721
   2541.5747       8.1124       0.0276    -999.2500      27.9773    -999.2500      48.7597    5612.0869    1992.7179       4.6129       2.9664      40.0922       2.7694
   2541.7273       8.1364       0.0291    -999.2500      25.6465    -999.2500      43.8033    4905.2109    1992.2994       4.9929       3.0258      38.1006       2.7679
   2541.8796       8.1604       0.0273    -999.2500      23.4771    -999.2500      39.8701    4198.0293    1996.2609       5.3832       3.0561      35.7008       2.7619
   2542.0320       8.1844       0.0203    -999.2500      24.5244    -999.2500      37.5331    3490.3721    1996.8655       5.6142       3.0411      32.6641       2.7489
   2542.1843       8.1887       0.0185    -999.2500      25.5170    -999.2500      36.4177    2770.3459    1994.3896       5.8158       3.0338      29.5435       2.7383
   2542.3369       8.1622       0.0250    -999.2500      25.4345    -999.2500      37.2149    2030.9537    1995.1713       5.3880       3.0383      26.2914       2.7313
   2542.4893       8.1670       0.0245    -999.2500      25.4431    -999.2500      37.0744    1548.8438    1998.8850       4.8447       3.0317      24.5044       2.7113
   2542.6416       8.2210       0.0130    -999.2500      27.2703    -999.2500      35.4606    1471.0317    2000.5546       4.4564       3.0077      25.0197       2.6708
   2542.7939       8.2536       0.0083    -999.2500      29.0579    -999.2500      33.2832    1418.5013    2000.3070       4.0963       2.9841      26.0101       2.6474
   2542.9463       8.2526       0.0143    -999.2500      30.0688    -999.2500      30.2170    1405.8435    2000.3196       4.2942       2.9611      27.7500       2.6509
   2543.0989       8.2260       0.0325    -999.2500      31.0149    -999.2500      30.2191    1380.8009    2000.5671       4.5933       2.9882      29.2599       2.6748
   2543.2512       8.1585       0.0699    -999.2500      30.7086    -999.2500      35.1110    1336.0217    2000.6870       4.5975       3.0952      30.4034       2.7313
   2543.4036       8.1080       0.0934    -999.2500      30.3815    -999.2500      37.9218    1297.9442    2000.6870       4.5484       3.1791      31.3842       2.7748
   2543.5559       8.0845       0.0944    -999.2500      29.6457    -999.2500      37.4040    1270.5856    2000.6870       4.6445       3.2261      32.1049       2.7978
   2543.7085       8.0767       0.0798    -999.2500      28.9048    -999.2500      35.6564    1256.6567    2000.6870       4.7665       3.2176      32.2148       2.8072
   2543.8608       8.0942       0.0404    -999.2500      28.0650    -999.2500      31.9345    1264.2870    2000.6870       5.0495       3.1201      31.3442       2.7947
   2544.0132       8.1008       0.0162    -999.2500      27.2246    -999.2500      28.1778    1282.4584    2000.6870       5.3611       3.0602      30.5412       2.7849
   2544.1655       8.0898       0.0167    -999.2500      26.3730    -999.2500      24.3650    1317.6135    2000.6870       5.8593       3.0607      29.8470       2.7794
   2544.3181       8.0853       0.0199    -999.2500      25.5468    -999.2500      22.5233    1349.8527    2000.6870       6.3905       3.0462      29.1941       2.7671
   2544.4705       8.0913       0.0273    -999.2500      25.2146    -999.2500      23.8907    1377.3444    2000.2208       7.3941       3.0072      28.6084       2.7436
   2544.6228       8.1157       0.0295    -999.2500      24.8170    -999.2500      26.2226    1381.9817    1999.3544       8.4810       2.9779      27.6621       2.7180
   2544.7751       8.1702       0.0230    -999.2500      23.1644    -999.2500      30.1304    1349.2732    1997.3373       8.7988       2.9644      26.1268       2.6890
   2544.9275       8.2099       0.0216    -999.2500      21.5809    -999.2500      34.0098    1397.2919    1994.3662       8.9819       2.9594      24.5611       2.6695
   2545.0801       8.2253       0.0286    -999.2500      21.3015    -999.2500      37.8425    1577.7095    1995.0052       8.2860       2.9684      22.9456       2.6655
   2545.2324       8.2367       0.0354    -999.2500      21.0923    -999.2500      40.7596    1664.5315    1998.8429       7.4372       2.9721      21.5351       2.6632
   2545.3848       8.2412       0.0419    -999.2500      22.2297    -999.2500      42.1590    1596.2300    2000.6870       6.7705       2.9671      20.4646       2.6637
   2545.5371       8.2496       0.0458    -999.2500      23.3655    -999.2500      41.7859    1557.4003    2000.6870       6.1353       2.9642      20.2306       2.6634
   2545.6897       8.2646       0.0453    -999.2500      24.4694    -999.2500      38.4644    1567.5969    2000.6870       6.1205       2.9647      21.3881       2.6619
