#------------------------------------------------------------------------------
#
#   Created by  : [OpenWorks] Log Export Utility (LEXP)
#   Created on  : 2016-05-23 11:57:25
#   Project     : CANT971
#   User        : R5K
#   Interpreter : PEP
#
#------------------------------------------------------------------------------
~VERSION INFORMATION
VERS. 2.0 : CWLS Log ASCII Standard - version 2.0
WRAP.  NO : One line per depth step
~WELL INFORMATION
#MNEMONIC   .UNIT                                           VALUE :DESCRIPTION
#------------------------------------------------------------------------------
STRT        .M                                           497.5860 :START DEPTH
STOP        .M                                          2904.1343 :STOP DEPTH
STEP        .M                                             0.1524 :STEP
NULL        .                                           -999.2500 :NULL VALUE
COMP        .                                   PEMEX EXPL & PROD :COMPANY
WELL        .                                                 82A :WELL
FLD         .                                           CANTARELL :FIELD
LOC         .                                             UNKNOWN :LOCATION
CNTY        .                                      CD. DEL CARMEN :COUNTY
STAT        .                                            CAMPECHE :STATE
CTRY        .                                              MEXICO :COUNTRY
SRVC        .                                             UNKNOWN :SERVICE COMPANY
DATE        .                                             UNKNOWN :LOG DATE
UWI         .                                          3060000184 :UNIQUE WELL ID
XCOORD      .                                       601716.340000 :SURFACE X
YCOORD      .                                      2142348.150000 :SURFACE Y
LAT         .                                           19.373822 :LATITUDE
LON         .                                          -92.031440 :LONGITUDE
ELEV        .M                                            24.0000 :SURFACE ELEV
ELEV_TYPE   .                                                  KB :ELEV TYPE
~CURVE INFORMATION
#MNEMONIC.UNIT        API CODE       : CURVE DESCRIPTION
#------------------------------------------------------------------------------
DEPTH    .M                          : Measured Depth
CAL      .inches      UNKNOWN        : CAL:UNKNOWN:rC:NONE:v0 (auto-composite)
DRHO     .g/cm3       UNKNOWN        : DRHO:UNKNOWN:rC:NONE:v0 (auto-composite)
DT       .us/ft       UNKNOWN        : DT:DT:rC:NONE:v0 (auto-composite)
GR       .api         UNKNOWN        : GR:GR-Load:rC:NONE:v0 (auto-composite)
ILD      .ohm.m       UNKNOWN        : ILD:PETROWORKS:rC:NONE:v1 
LLD      .ohmm        UNKNOWN        : LLD:UNKNOWN:rC:NONE:v0 (auto-composite)
LLS      .ohmm        UNKNOWN        : LLS:UNKNOWN:rC:NONE:v0 (auto-composite)
MSFL     .ohmm        UNKNOWN        : MSFL:PETROWORKS:rC:NONE:v1 
NPHI     .v/v_decimal UNKNOWN        : NPHI:NPHI:rC:NONE:v0 (auto-composite)
PEF      .b/elec      UNKNOWN        : PEF:UNKNOWN:rC:NONE:v0 (auto-composite)
RG       .API         UNKNOWN        : RG:UNKNOWN:rC:NONE:v0 (auto-composite)
RHOB     .g/cm3       UNKNOWN        : RHOB:UNKNOWN:rC:NONE:v0 (auto-composite)
~A     DEPTH          CAL         DRHO           DT           GR          ILD          LLD          LLS         MSFL         NPHI          PEF           RG         RHOB
# ...
   2823.8196       5.8318       0.0493      53.3425      26.5748    -999.2500     118.1370      89.2486    -999.2500      11.9313       3.9214      22.6988       2.7907
   2823.9719       5.7934       0.0467      54.1673      27.1981    -999.2500      95.6812      71.6734    -999.2500      12.4565       3.8433      23.0116       2.7678
   2824.1245       5.8294       0.0507      55.1837      27.3321    -999.2500      82.3571      61.4575    -999.2500      12.7578       3.8338      25.5330       2.7498
   2824.2769       5.8573       0.0527      57.5711      26.0172    -999.2500      69.7111      51.7508    -999.2500      12.7883       3.8189      27.5422       2.7327
   2824.4292       5.8478       0.0452      59.7142      24.4831    -999.2500      60.2432      44.4304    -999.2500      13.1787       3.7784      27.1509       2.7197
   2824.5815       5.8328       0.0384      60.1208      22.3025    -999.2500      51.4807      37.7100    -999.2500      14.0030       3.7383      26.8702       2.7018
   2824.7339       5.7918       0.0349      60.6428      20.9081    -999.2500      46.0440      33.8182    -999.2500      14.5584       3.6998      27.1116       2.6608
   2824.8865       5.7737       0.0388      61.9788      21.8439    -999.2500      41.2633      30.3910    -999.2500      14.7905       3.6761      27.2011       2.6286
   2825.0388       5.8635       0.0777      63.2275      23.5944    -999.2500      39.5939      29.1675    -999.2500      14.8310       3.7225      26.5699       2.6376
   2825.1912       5.9333       0.1082      63.8648      27.7504    -999.2500      37.6633      27.8265    -999.2500      14.6419       3.7359      25.6661       2.6501
   2825.3435       5.9058       0.0977      64.5986      31.1888    -999.2500      34.4727      25.9183    -999.2500      15.3400       3.5894      23.4471       2.6795
   2825.4961       5.8793       0.0835      66.0051      32.5162    -999.2500      30.7000      23.5823    -999.2500      17.0981       3.4320      21.5940       2.6988
   2825.6484       5.8578       0.0516      67.2094      32.9982    -999.2500      24.1008      19.1692    -999.2500      17.8201       3.2211      21.5181       2.6683
   2825.8008       5.8428       0.0253      67.0143      30.9819    -999.2500      18.3910      15.3807    -999.2500      17.3074       3.0423      22.0744       2.6434
   2825.9531       5.8593       0.0268      66.0745      29.1667    -999.2500      17.0256      14.6436    -999.2500      15.8263       3.0203      25.7193       2.6459
   2826.1057       5.8623       0.0286      60.0173      27.9433    -999.2500      15.8443      14.0261    -999.2500      13.1948       3.0077      29.1300       2.6485
   2826.2581       5.7989       0.0321      54.3226      27.5061    -999.2500      15.5682      13.9971    -999.2500      11.2592       3.0411      31.3897       2.6515
   2826.4104       5.7496       0.0328      51.1029      29.3743    -999.2500      15.1502      13.7884    -999.2500      10.1478       3.0695      33.0855       2.6497
   2826.5627       5.7711       0.0193      48.2643      30.6435    -999.2500      14.0232      12.6804    -999.2500       8.8320       3.0725      31.9600       2.6237
   2826.7151       5.7851       0.0091      48.0103      30.1632    -999.2500      13.3453      11.9090    -999.2500       7.2750       3.0832      30.6831       2.6033
   2826.8677       5.7616       0.0156      47.7774      29.4419    -999.2500      14.9281      12.8321    -999.2500       6.3742       3.1327      28.6439       2.6113
   2827.0200       5.7399       0.0228      47.6873      28.0133    -999.2500      17.2425      14.3383    -999.2500       6.2461       3.2198      27.1853       2.6201
   2827.1724       5.7269       0.0338      47.6090      26.3981    -999.2500      23.2626      18.7983    -999.2500       6.0422       3.4974      28.6670       2.6331
   2827.3247       5.7219       0.0465      47.6090      24.2373    -999.2500      31.1388      24.6686    -999.2500       5.7491       3.7749      29.9384       2.6541
   2827.4773       5.7584       0.0680      47.7572      22.3619    -999.2500      48.5883      37.8130    -999.2500       5.5177       4.0513      30.1259       2.7166
   2827.6296       5.7849       0.0873      48.8906      21.3174    -999.2500      67.9004      52.4491    -999.2500       5.3587       4.2582      30.0840       2.7751
   2827.7820       5.7594       0.0953      50.0235      21.2500    -999.2500      96.8809      74.8290    -999.2500       5.4789       4.1048      28.8520       2.8125
   2827.9343       5.7365       0.0990      51.1529      24.0400    -999.2500     139.4216     107.3884    -999.2500       5.9251       3.9575      27.4835       2.8411
   2828.0869       5.7270       0.0805      52.0627      26.1120    -999.2500     252.7991     193.1243    -999.2500       6.3962       3.8420      25.4014       2.8231
   2828.2393       5.7235       0.0628      51.5310      26.0925    -999.2500     357.8570     274.6571    -999.2500       6.8965       3.7586      23.4279       2.8065
   2828.3916       5.7514       0.0494      51.0201      24.6312    -999.2500     419.1739     334.0913    -999.2500       7.0954       3.8440      22.0256       2.7970
   2828.5439       5.7737       0.0385      50.6450      18.9861    -999.2500     453.8262     371.5685    -999.2500       6.9423       3.9401      21.1134       2.7896
   2828.6963       5.7652       0.0415      50.2929      14.6368    -999.2500     345.6749     291.4536    -999.2500       6.8431       4.0930      22.8257       2.7930
   2828.8489       5.7547       0.0447      50.0898      14.0646    -999.2500     247.7812     218.3663    -999.2500       6.8066       4.2029      24.4917       2.7957
   2829.0012       5.7337       0.0492      49.8731      13.9823    -999.2500     205.1826     183.1626    -999.2500       6.5722       4.0810      25.9086       2.7937
   2829.1536       5.7271       0.0511      49.5684      15.3223    -999.2500     169.0750     153.4986    -999.2500       6.1080       3.9530      26.3659       2.7912
   2829.3059       5.7986       0.0386      49.4439      16.8286    -999.2500     168.1884     153.8944    -999.2500       5.8224       3.7920      21.6165       2.7862
   2829.4585       5.8545       0.0298      50.4712      18.8163    -999.2500     171.0602     157.5718    -999.2500       5.7433       3.6361      17.2516       2.7821
   2829.6108       5.8256       0.0413      51.3133      21.3398    -999.2500     194.4603     179.1732    -999.2500       5.7435       3.5072      14.9874       2.7826
   2829.7632       5.7946       0.0534      50.9772      25.4203    -999.2500     226.6943     207.9167    -999.2500       5.8350       3.3948      13.2899       2.7848
   2829.9155       5.7526       0.0689      50.7025      27.9534    -999.2500     308.1026     276.4176    -999.2500       5.7561       3.3738      14.7467       2.7968
   2830.0681       5.7208       0.0795      50.8161      26.0077    -999.2500     383.2617     340.4723    -999.2500       5.4810       3.3650      16.1870       2.8069
   2830.2205       5.7458       0.0630      50.9558      24.4589    -999.2500     423.3994     379.6099    -999.2500       5.2716       3.4245      17.5344       2.8064
   2830.3728       5.7634       0.0508      51.2605      24.0546    -999.2500     447.5362     404.5899    -999.2500       5.1375       3.4768      19.2927       2.8078
   2830.5251       5.7394       0.0628      51.5139      24.6124    -999.2500     381.3967     349.6930    -999.2500       5.0459       3.4888      23.3692       2.8198
   2830.6775       5.7203       0.0730      51.4479      27.9572    -999.2500     318.5276     297.3441    -999.2500       5.0029       3.5462      26.7855       2.8313
   2830.8301       5.7293       0.0730      51.3351      30.6845    -999.2500     274.4711     259.6524    -999.2500       5.0915       3.8651      26.4036       2.8403
   2830.9824       5.7449       0.0696      50.9324      31.6303    -999.2500     239.8672     230.8807    -999.2500       5.3301       4.1361      25.8698       2.8444
