#------------------------------------------------------------------------------
#
#   Created by  : [OpenWorks] Log Export Utility (LEXP)
#   Created on  : 2016-05-23 11:55:55
#   Project     : CANT971
#   User        : R5K
#   Interpreter : PEP
#
#------------------------------------------------------------------------------
~VERSION INFORMATION
VERS. 2.0 : CWLS Log ASCII Standard - version 2.0
WRAP.  NO : One line per depth step
~WELL INFORMATION
#MNEMONIC   .UNIT                                           VALUE :DESCRIPTION
#------------------------------------------------------------------------------
STRT        .M                                          1803.5016 :START DEPTH
STOP        .M                                          3154.9849 :STOP DEPTH
STEP        .M                                             0.1524 :STEP
NULL        .                                           -999.2500 :NULL VALUE
COMP        .                                             UNKNOWN :COMPANY
WELL        .                                             418D-ST :WELL
FLD         .                                             UNKNOWN :FIELD
LOC         .                                             UNKNOWN :LOCATION
CNTY        .                                             UNKNOWN :COUNTY
STAT        .                                             UNKNOWN :STATE
CTRY        .                                             UNKNOWN :COUNTRY
SRVC        .                                             UNKNOWN :SERVICE COMPANY
DATE        .                                             UNKNOWN :LOG DATE
UWI         .                                             418D-ST :UNIQUE WELL ID
XCOORD      .                                       597130.010000 :SURFACE X
YCOORD      .                                      2144879.410000 :SURFACE Y
LAT         .                                           19.396924 :LATITUDE
LON         .                                          -92.074978 :LONGITUDE
ELEV        .M                                             0.0000 :SURFACE ELEV
ELEV_TYPE   .                                                  NA :ELEV TYPE
~CURVE INFORMATION
#MNEMONIC.UNIT        API CODE       : CURVE DESCRIPTION
#------------------------------------------------------------------------------
DEPTH    .M                          : Measured Depth
CALI     .inches      UNKNOWN        : CALI:PETROWORKS:rC:NONE:v1 
CGR      .API         UNKNOWN        : CGR:PETROWORKS:rC:NONE:v1 
DRHO     .g/cm3       UNKNOWN        : DRHO:PETROWORKS:rC:NONE:v1 
DT       .us/ft       UNKNOWN        : DT:PETROWORKS:rC:NONE:v1 
GR       .API         UNKNOWN        : GR:PETROWORKS:rC:NONE:v3 
ILD      .ohm.m       UNKNOWN        : ILD:registros:rC:NONE:v0 (auto-composite)
ILM      .ohm.m       UNKNOWN        : ILM:registros:rC:NONE:v0 (auto-composite)
LLD      .ohm.m       UNKNOWN        : LLD:PETROWORKS:rC:NONE:v2 
LLS      .ohm.m       UNKNOWN        : LLS:PETROWORKS:rC:NONE:v2 
MSFL     .ohm.m       UNKNOWN        : MSFL:PETROWORKS:rC:NONE:v1 
NPHI     .v/v_decimal UNKNOWN        : NPHI:PETROWORKS:rC:NONE:v1 
PEF      .b/elec      UNKNOWN        : PEF:PETROWORKS:rC:NONE:v1 
POTA     .wtpercent   UNKNOWN        : POTA:PETROWORKS:rC:NONE:v1 
RHOB     .g/cm3       UNKNOWN        : RHOB:PETROWORKS:rC:NONE:v1 
THOR     .ppm         UNKNOWN        : THOR:PETROWORKS:rC:NONE:v1 
URAN     .ppm         UNKNOWN        : URAN:PETROWORKS:rC:NONE:v1 
~A     DEPTH         CALI          CGR         DRHO           DT           GR          ILD          ILM          LLD          LLS         MSFL         NPHI          PEF         POTA         RHOB         THOR         URAN
# ...
   2474.5188      14.5391      10.9568      -0.0031      62.6000      31.6466    -999.2500    -999.2500     991.7845     127.5489      34.2813       0.0741       4.0000       0.0058       2.6837       0.7233       2.8812
   2474.6711      14.5469       8.9324      -0.0026      65.1000      28.5585    -999.2500    -999.2500     966.2339     123.5075      32.2500       0.0693       4.0156       0.0050       2.6827       0.4741       2.7331
   2474.8235      14.5391       4.8902      -0.0016      64.9000      22.8983    -999.2500    -999.2500     804.6857     116.3080      33.1875       0.0641       4.0078       0.0012       2.6840       0.9136       2.5078
   2474.9761      14.5156       4.3622      -0.0026      66.2000      21.7851    -999.2500    -999.2500     940.8093     111.7650      36.9063       0.0537       4.0000       0.0009       2.6843       0.8882       2.4263
   2475.1284      14.5156       5.2194      -0.0041      64.7000      22.8096    -999.2500    -999.2500     865.2323     106.0526      73.4375       0.0444       3.8906       0.0015       2.6861       0.8910       2.4496
   2475.2808      14.5469       4.6747      -0.0031      34.4000      21.9237    -999.2500    -999.2500    1002.4816     107.8607      73.8125       0.0330       3.7637       0.0014       2.6877       0.7569       2.4021
   2475.4331      14.3203       5.2706      -0.0006       5.6000      22.2808    -999.2500    -999.2500     930.5205     108.2942      53.7813       0.0332       3.5332       0.0018       2.7005       0.7620       2.3688
   2475.5857      14.2344       8.1057       0.0011      33.6000      25.8557    -999.2500    -999.2500     936.8795     106.1265      35.5625       0.0302       3.5742       0.0029       2.7244       1.1445       2.4719
   2475.7380      14.0547      11.6781       0.0019      34.7000      29.4252    -999.2500    -999.2500     934.0625     107.8847      23.1250       0.0445       3.4961       0.0038       2.7491       1.7863       2.4715
   2475.8904      14.0469      10.5545       0.0018      36.5000      27.1085    -999.2500    -999.2500     887.5516     104.5513      24.0469       0.0585       3.6563       0.0032       2.7659       1.7349       2.3053
   2476.0427      14.0703       9.6274      -0.0004      38.2000      25.7854    -999.2500    -999.2500     775.1595      96.1626       9.1016       0.0707       3.4531       0.0029       2.7717       1.5612       2.2502
   2476.1951      14.0859       8.3504      -0.0045      36.6000      24.2756    -999.2500    -999.2500     785.8412      95.3618      21.2188       0.0658       3.5078       0.0026       2.7633       1.3131       2.2177
   2476.3477      14.0703       6.1263      -0.0065      62.9000      21.5564    -999.2500    -999.2500     778.4208      93.5353      21.2188       0.0550       3.5332       0.0020       2.7612       0.9469       2.1488
   2476.5000      14.0859       6.2890      -0.0098      58.8000      22.3648    -999.2500    -999.2500     741.3304      91.3672      36.9063       0.0463       3.6172       0.0021       2.7543       0.9385       2.2387
   2476.6523      14.0625       6.7637      -0.0099      55.8000      23.3687    -999.2500    -999.2500     918.4135     106.1393      43.6250       0.0383       3.7617       0.0023       2.7541       0.9706       2.3124
   2476.8047      14.5156       8.4227      -0.0131      29.5000      26.5260    -999.2500    -999.2500    1020.1973     119.9915      37.7813       0.0305       3.6875       0.0024       2.7246       1.4126       2.5210
   2476.9573      14.6953       5.6091      -0.0117      28.5000      22.5034    -999.2500    -999.2500    1055.2686     126.2395      37.3438       0.0255       3.8281       0.0015       2.6985       0.9811       2.3527
   2477.1096      14.6953       5.4946      -0.0113      30.3000      22.4193    -999.2500    -999.2500    1021.9805     129.4695      37.1875       0.0238       3.9043       0.0015       2.6825       0.9730       2.3569
   2477.2620      14.6953       5.3525      -0.0079      26.0000      21.9972    -999.2500    -999.2500     684.4924      99.3273      37.0625       0.0478       4.1445       0.0015       2.6830       0.9144       2.3179
   2477.4143      14.6953       4.7831      -0.0077      33.4000      21.0354    -999.2500    -999.2500     497.8558      79.4652      48.3438       0.0690       4.2500       0.0011       2.6724       0.9456       2.2633
   2477.5669      14.4453       3.9493      -0.0048      35.2000      19.9910    -999.2500    -999.2500     462.1408      77.9651       5.2891       0.0785       4.3711       0.0007       2.5693       0.8663       2.2340
   2477.7192      15.1172       5.5734      -0.0046      25.6000      22.3262    -999.2500    -999.2500     463.9139      78.5538       3.1992       0.0768       4.5742       0.0011       2.4936       1.1447       2.3330
   2477.8716      14.9141      10.7039      -0.0010      32.5000      29.4357    -999.2500    -999.2500     406.6180      72.6875       3.2012       0.0874       4.5391       0.0034       2.4346       1.6816       2.6086
   2478.0239      14.9219      11.0203       0.0101      50.8000      29.4580    -999.2500    -999.2500     366.3542      77.7212       3.1973       0.1180       4.6055       0.0037       2.4462       1.6557       2.5676
   2478.1763      14.9141      11.9281       0.0268      76.6000      30.6766    -999.2500    -999.2500     354.1159      77.5840       3.1973       0.1079       4.3008       0.0040       2.5099       1.7583       2.6109
   2478.3289      14.8672      12.3695       0.0283      65.4000      30.7300    -999.2500    -999.2500     333.8383      76.8950       3.1914       0.0897       4.1797       0.0044       2.5758       1.7212       2.5569
   2478.4812      13.7813      12.5019       0.0411      69.9000      30.5706    -999.2500    -999.2500     312.3896      78.0624       3.1836       0.0673       3.9355       0.0045       2.6771       1.7382       2.5162
   2478.6335      13.7656      11.2946       0.0421      72.2000      28.8473    -999.2500    -999.2500     289.8807      78.7897       3.1582       0.0767       3.9746       0.0040       2.7041       1.5749       2.4444
   2478.7859      13.7578      10.4075       0.0357      49.1000      27.4325    -999.2500    -999.2500     225.8869      67.3292       3.1504       0.0982       4.1289       0.0040       2.6993       1.3297       2.3709
   2478.9385      13.7500      12.4037       0.0343      49.4000      29.9828    -999.2500    -999.2500     208.9245      63.4108      10.5313       0.1009       3.9805       0.0051       2.7055       1.4430       2.4481
   2479.0908      13.8984      12.6574       0.0236      50.4000      30.3578    -999.2500    -999.2500     212.4215      63.9321     495.0000       0.0847       3.7852       0.0053       2.7208       1.4462       2.4649
   2479.2432      14.2500      13.5282       0.0284      57.9000      32.3482    -999.2500    -999.2500     231.2532      69.4140     727.0000       0.0587       3.4902       0.0055       2.7716       1.6159       2.6209
   2479.3955      14.2422       9.8957       0.0238      27.8000      28.1818    -999.2500    -999.2500     249.7024      73.2067     722.0000       0.0491       3.5234       0.0037       2.7927       1.3072       2.5465
   2479.5481      14.2422       7.8925       0.0126      28.6000      25.4879    -999.2500    -999.2500     308.0195      84.6092     722.0000       0.0461       3.4648       0.0030       2.7835       1.0218       2.4503
   2479.7004      14.2422       7.0613       0.0141       8.7000      32.3087    -999.2500    -999.2500     311.0051      85.1482     726.0000       0.0452       3.5391       0.0037       2.7825       0.4707       3.5160
   2479.8528      14.2422       5.4468       0.0123      29.3000      29.9175    -999.2500    -999.2500     296.1545      80.9906     715.0000       0.0624       3.6348       0.0033       2.7835       0.1862       3.4078
   2480.0051      13.8516       8.2051       0.0088      33.2000      37.3920    -999.2500    -999.2500     204.7018      66.7753     725.0000       0.0844       3.7910       0.0039       2.7811       0.7099       4.0646
