#------------------------------------------------------------------------------
#
#   Created by  : [OpenWorks] Log Export Utility (LEXP)
#   Created on  : 2016-05-12 17:01:19
#   Project     : CANT971
#   User        : R5K
#   Interpreter : PEP
#
#------------------------------------------------------------------------------
~VERSION INFORMATION
VERS. 2.0 : CWLS Log ASCII Standard - version 2.0
WRAP.  NO : One line per depth step
~WELL INFORMATION
#MNEMONIC   .UNIT                                           VALUE :DESCRIPTION
#------------------------------------------------------------------------------
STRT        .M                                           300.0760 :START DEPTH
STOP        .M                                          2081.9368 :STOP DEPTH
STEP        .M                                             0.1524 :STEP
NULL        .                                           -999.2500 :NULL VALUE
COMP        .                                   PEMEX EXPL & PROD :COMPANY
WELL        .                                                  37 :WELL
FLD         .                                           CANTARELL :FIELD
LOC         .                                             UNKNOWN :LOCATION
CNTY        .                                      CD. DEL CARMEN :COUNTY
STAT        .                                            CAMPECHE :STATE
CTRY        .                                              MEXICO :COUNTRY
SRVC        .                                             UNKNOWN :SERVICE COMPANY
DATE        .                                             UNKNOWN :LOG DATE
UWI         .                                          3060000160 :UNIQUE WELL ID
XCOORD      .                                       602154.560000 :SURFACE X
YCOORD      .                                      2147169.070000 :SURFACE Y
LAT         .                                           19.417364 :LATITUDE
LON         .                                          -92.027009 :LONGITUDE
ELEV        .M                                            28.1700 :SURFACE ELEV
ELEV_TYPE   .                                                  KB :ELEV TYPE
~CURVE INFORMATION
#MNEMONIC.UNIT        API CODE       : CURVE DESCRIPTION
#------------------------------------------------------------------------------
DEPTH    .M                          : Measured Depth
CALI     .inches      UNKNOWN        : CALI:Import:rC:NONE:v0 (auto-composite)
DRHO     .g/cm3       UNKNOWN        : DRHO:Import:rC:NONE:v0 (auto-composite)
DT       .us/ft       UNKNOWN        : DT:Import:rC:NONE:v0 (auto-composite)
GR       .API         UNKNOWN        : GR:Import:rC:NONE:v0 (auto-composite)
ILD      .ohm.m       UNKNOWN        : ILD:Import:rC:NONE:v0 (auto-composite)
NPHI     .v/v_decimal UNKNOWN        : NPHI:Import:rC:NONE:v0 (auto-composite)
RHOB     .g/cm3       UNKNOWN        : RHOB:Import:rC:NONE:v0 (auto-composite)
~A     DEPTH         CALI         DRHO           DT           GR          ILD         NPHI         RHOB
# ...
   2001.6219       6.2430       0.0015      55.2001      42.6883    1525.0084      10.8923       2.6695
   2001.7744       6.2430       0.0050      56.0420      48.3760    1473.9091      12.8010       2.6820
   2001.9268       6.2430      -0.0045      58.7256      45.2706     977.4260      11.8404       2.6530
   2002.0792       6.2430      -0.0140      61.4060      42.1690     481.5420      10.8810       2.6240
   2002.2316       6.2430      -0.0140      61.1609      39.3740     667.3934      11.8025       2.6240
   2002.3840       6.2430      -0.0140      60.9160      36.5820     853.0440      12.7230       2.6240
   2002.5364       6.2430      -0.0150      61.3387      38.2850    1214.7828      13.0022       2.6240
   2002.6888       6.2430      -0.0160      61.7610      39.9850    1576.1760      13.2810       2.6240
   2002.8412       6.2430      -0.0135      64.2235      42.1842    1141.6787      13.8026       2.6145
   2002.9935       6.2430      -0.0110      66.6840      44.3780     707.5420      14.3230       2.6050
   2003.1460       6.2430      -0.0035      67.3495      42.1675     504.2444      15.2035       2.6070
   2003.2983       6.2430       0.0040      68.0140      39.9620     301.0900      16.0820       2.6090
   2003.4508       6.2430      -0.0065      67.6461      35.8685     237.2495      16.3418       2.5765
   2003.6031       6.2430      -0.0170      67.2790      31.7840     173.4970      16.6010       2.5440
   2003.7556       6.2430      -0.0110      66.7379      32.9847     151.9999      16.3202       2.5490
   2003.9080       6.2430      -0.0050      66.1980      34.1830     130.5470      16.0400       2.5540
   2004.0604       6.2430      -0.0070      65.1160      30.3278     137.5247      15.8703       2.5600
   2004.2128       6.2430      -0.0090      64.0360      26.4800     144.4890      15.7010       2.5660
   2004.3652       6.2430       0.0045      63.3013      24.3801     163.2074      15.5303       2.5710
   2004.5176       6.2430       0.0180      62.5680      22.2840     181.8920      15.3600       2.5760
   2004.6700       6.4237       0.0075      64.1473      20.8858     295.4578      14.9101       2.5640
   2004.8224       6.6040      -0.0030      65.7240      19.4900     408.8330      14.4610       2.5520
   2004.9747       6.4234      -0.0090      66.2179      18.7900     978.6367      14.1107       2.5620
   2005.1272       6.2430      -0.0150      66.7110      18.0910    1547.5560      13.7610       2.5720
   2005.2795       6.2430      -0.0125      66.4168      19.2929    1576.5621      13.4898       2.5855
   2005.4320       6.2430      -0.0100      66.1230      20.4930    1605.5270      13.2190       2.5990
   2005.5844       6.1909      -0.0110      65.1143      22.1916    1651.0426      12.4890       2.6055
   2005.7368       6.1390      -0.0120      64.1070      23.8880    1696.4990      11.7600       2.6120
   2005.8892       6.1911      -0.0095      62.6356      23.4873    1704.3116      11.1101       2.6280
   2006.0416       6.2430      -0.0070      61.1660      23.0870    1712.1150      10.4610       2.6440
   2006.1940       6.1909       0.0000      61.3646      22.1875    1681.1467      10.5911       2.6505
   2006.3464       6.1390       0.0070      61.5630      21.2890    1650.2111      10.7210       2.6570
   2006.4988       6.1911       0.0020      61.8611      23.9978    1613.1764      10.4808       2.6495
   2006.6512       6.2430      -0.0030      62.1590      26.7020    1576.1760      10.2410       2.6420
   2006.8036       6.2430       0.0000      62.9733      38.3024    1575.9839      10.1409       2.6420
   2006.9559       6.2430       0.0030      63.7870      49.8750    1575.7920      10.0410       2.6420
   2007.1084       6.2430       0.0130      64.4040      47.9163    1343.4727      10.5926       2.6450
   2007.2607       6.2430       0.0230      65.0200      45.9620    1111.4960      11.1430       2.6480
   2007.4132       6.2430       0.0150      64.4564      43.6065    1329.7489      11.6826       2.6595
   2007.5656       6.2430       0.0070      63.8940      41.2560    1547.5330      12.2210       2.6710
   2007.7180       6.2430       0.0080      63.9946      29.7619    1576.5298      11.1689       2.6755
   2007.8704       6.2430       0.0090      64.0950      18.2910    1605.4680      10.1190       2.6800
   2008.0228       6.2430       0.0080      64.5644      18.2940    1612.8640       9.6791       2.6770
   2008.1752       6.2430       0.0070      65.0330      18.2970    1620.2460       9.2400       2.6740
   2008.3276       6.2430       0.0040      61.8091      20.1947    1658.3812       9.0103       2.6685
   2008.4800       6.2430       0.0010      58.5910      22.0890    1696.4490       8.7810       2.6630
   2008.6324       6.2430       0.0055      58.7932      21.8873    1673.3049       9.0222       2.6735
   2008.7848       6.2430       0.0100      58.9950      21.6860    1650.1990       9.2630       2.6840
   2008.9371       6.1910       0.0035      62.9155      20.0873    1567.8113      10.2442       2.6630
   2009.0896       6.1390      -0.0030      66.8300      18.4910    1485.5490      11.2240       2.6420
   2009.2419       6.1390       0.0015      70.7422      19.1940     903.0459      11.9235       2.6175
   2009.3944       6.1390       0.0060      74.6490      19.8960     321.3560      12.6220       2.5930
   2009.5468       6.1395       0.0045      74.0046      24.4094     428.0473      12.7821       2.6040
   2009.6992       6.1400       0.0030      73.3610      28.9170     534.6030      12.9420       2.6150
   2009.8516       6.1916       0.0015      70.4884      38.9622    1070.3187      13.0516       2.6275
   2010.0040       6.2430       0.0000      67.6190      48.9960    1605.4210      13.1610       2.6400
   2010.1564       6.2685       0.0010      68.8556      56.6859     962.6918      13.4111       2.6445
   2010.3088       6.2940       0.0020      70.0910      64.3680     320.6180      13.6610       2.6490
   2010.4612       6.2164      -0.0010      71.4196      62.0595     225.5245      13.8712       2.6390
   2010.6136       6.1390      -0.0040      72.7470      59.7550     130.5160      14.0810       2.6290
   2010.7660       6.2166      -0.0035      72.2323      50.7563     118.0767      13.5699       2.6360
   2010.9183       6.2940      -0.0030      71.7180      41.7790     105.6470      13.0600       2.6430
   2011.0708       6.2164      -0.0060      71.2251      42.0793      98.8486      12.6300       2.6480
   2011.2231       6.1390      -0.0090      70.7330      42.3790      92.0600      12.2010       2.6530
   2011.3756       6.1390      -0.0090      68.8400      38.0689     137.0787      12.2711       2.6590
   2011.5280       6.1390      -0.0090      66.9510      33.7680     182.0020      12.3410       2.6650
   2011.6804       6.1911      -0.0145      65.7943      30.5738     804.1927      11.8675       2.6695
   2011.8328       6.2430      -0.0200      64.6400      27.3860    1425.1440      11.3950       2.6740
   2011.9852       6.1910      -0.0155      62.2773      28.8869    1522.8221       9.5763       2.6980
   2012.1376       6.1390      -0.0110      59.9190      30.3850    1620.3180       7.7610       2.7220
   2012.2900       6.1395      -0.0155      58.3742      28.3808    1666.2565       7.8621       2.7020
   2012.4424       6.1400      -0.0200      56.8320      26.3800    1712.1150       7.9630       2.6820
   2012.5948       6.1915      -0.0200      58.9532      23.2325    1657.6605       8.3128       2.6660
   2012.7472       6.2430      -0.0200      61.0710      20.0900    1603.2939       8.6620       2.6500
   2012.8995       6.1910      -0.0115      60.8243      20.4903    1041.9996       9.0418       2.6515
   2013.0520       6.1390      -0.0030      60.5780      20.8900     481.5420       9.4210       2.6530
   2013.2043       6.1910      -0.0075      59.7449      20.7399     576.0460       9.5211       2.6635
