#------------------------------------------------------------------------------
#
#   Created by  : [OpenWorks] Log Export Utility (LEXP)
#   Created on  : 2016-05-23 11:56:46
#   Project     : CANT971
#   User        : R5K
#   Interpreter : PEP
#
#------------------------------------------------------------------------------
~VERSION INFORMATION
VERS. 2.0 : CWLS Log ASCII Standard - version 2.0
WRAP.  NO : One line per depth step
~WELL INFORMATION
#MNEMONIC   .UNIT                                           VALUE :DESCRIPTION
#------------------------------------------------------------------------------
STRT        .M                                           170.6880 :START DEPTH
STOP        .M                                          2221.8396 :STOP DEPTH
STEP        .M                                             0.1524 :STEP
NULL        .                                           -999.2500 :NULL VALUE
COMP        .                                   PEMEX EXPL & PROD :COMPANY
WELL        .                                                  51 :WELL
FLD         .                                           CANTARELL :FIELD
LOC         .                                             UNKNOWN :LOCATION
CNTY        .                                      CD. DEL CARMEN :COUNTY
STAT        .                                            CAMPECHE :STATE
CTRY        .                                              MEXICO :COUNTRY
SRVC        .                                             UNKNOWN :SERVICE COMPANY
DATE        .                                             UNKNOWN :LOG DATE
UWI         .                                          3060000165 :UNIQUE WELL ID
XCOORD      .                                       599727.990000 :SURFACE X
YCOORD      .                                      2147220.270000 :SURFACE Y
LAT         .                                           19.417949 :LATITUDE
LON         .                                          -92.050116 :LONGITUDE
ELEV        .M                                            27.8000 :SURFACE ELEV
ELEV_TYPE   .                                                  KB :ELEV TYPE
~CURVE INFORMATION
#MNEMONIC.UNIT        API CODE       : CURVE DESCRIPTION
#------------------------------------------------------------------------------
DEPTH    .M                          : Measured Depth
CAL      .inches      UNKNOWN        : CAL:CAL-Load:rC:NONE:v0 (auto-composite)
DRHO     .UNKNOWN     UNKNOWN        : DRHO:DRHO-Load:rC:NONE:v0 (auto-composite)
DT       .us/ft       UNKNOWN        : DT:DT:rC:NONE:v0 (auto-composite)
GR       .UNKNOWN     UNKNOWN        : GR:GR-Load:rC:NONE:v0 (auto-composite)
ILD      .UNKNOWN     UNKNOWN        : ILD:ILD-Load:rC:NONE:v0 (auto-composite)
NPHI     .v/v_decimal UNKNOWN        : NPHI:NPHI:rC:NONE:v0 (auto-composite)
RHOB     .UNKNOWN     UNKNOWN        : RHOB:RHOB-Load:rC:NONE:v0 (auto-composite)
SN       .UNKNOWN     UNKNOWN        : SN:SN-Load:rC:NONE:v0 (auto-composite)
~A     DEPTH          CAL         DRHO           DT           GR          ILD         NPHI         RHOB           SN
# ...
    696.4680      12.4720      -0.0110     143.4770      33.2260       0.9360      48.1180       2.2820       0.8890
    696.6204      12.4550      -0.0050     144.1529      33.8294       0.9330      48.0725       2.2840       0.8895
    696.7728      12.4380       0.0010     144.8290      34.4320       0.9300      48.0270       2.2860       0.8900
    696.9252      12.4971       0.0030     146.6117      34.7697       0.9260      47.7455       2.2850       0.8900
    697.0776      12.5560       0.0050     148.3950      35.1070       0.9220      47.4640       2.2840       0.8900
    697.2300      12.4743      -0.0045     148.3575      35.4957       0.9185      47.5220       2.2860       0.8905
    697.3824      12.3930      -0.0140     148.3200      35.8840       0.9150      47.5800       2.2880       0.8910
    697.5348      12.2757      -0.0140     147.5679      35.7384       0.9180      47.2465       2.2815       0.8960
    697.6872      12.1590      -0.0140     146.8160      35.5930       0.9210      46.9130       2.2750       0.9010
    697.8396      12.1811      -0.0145     146.5330      34.9362       0.9255      46.2460       2.2815       0.9035
    697.9920      12.2030      -0.0150     146.2500      34.2800       0.9300      45.5790       2.2880       0.9060
    698.1444      12.2692      -0.0200     146.0335      33.6862       0.9435      45.3935       2.2910       0.9130
    698.2968      12.3350      -0.0250     145.8170      33.0930       0.9570      45.2080       2.2940       0.9200
    698.4492      12.3841      -0.0215     145.1401      33.5788       0.9805      46.0499       2.2960       0.9425
    698.6016      12.4330      -0.0180     144.4630      34.0640       1.0040      46.8920       2.2980       0.9650
    698.7540      12.7693      -0.0150     144.0741      34.8970       1.0485      47.2900       2.2970       1.0116
    698.9064      13.1040      -0.0120     143.6850      35.7290       1.0930      47.6880       2.2960       1.0580
    699.0588      12.9923      -0.0060     143.3271      35.3243       1.1430      47.5690       2.2865       1.1001
    699.2112      12.8810       0.0000     142.9690      34.9200       1.1930      47.4500       2.2770       1.1420
    699.3636      12.5562       0.0105     145.5923      33.5293       1.1890      47.6935       2.3039       1.1770
    699.5160      12.2330       0.0210     148.2160      32.1400       1.1850      47.9370       2.3310       1.2120
    699.6684      12.2475       0.0185     152.9747      32.1805       1.1655      48.4750       2.3250       1.1434
    699.8208      12.2620       0.0160     157.7330      32.2210       1.1460      49.0130       2.3190       1.0750
    699.9732      12.3061       0.0115     155.6650      32.3306       1.1055      48.8495       2.3165       1.0239
    700.1256      12.3500       0.0070     153.5970      32.4400       1.0650      48.6860       2.3140       0.9730
    700.2780      12.3495       0.0020     159.2071      32.6041       1.0169      48.9510       2.3090       0.9510
    700.4304      12.3490      -0.0030     164.8180      32.7680       0.9690      49.2160       2.3040       0.9290
    700.5828      12.3340      -0.0055     162.3788      32.8721       0.9455      49.1710       2.2985       0.9210
    700.7352      12.3190      -0.0080     159.9390      32.9760       0.9220      49.1260       2.2930       0.9130
    700.8876      12.2764      -0.0060     154.5841      33.2582       0.9230      49.0880       2.2970       0.9140
    701.0400      12.2340      -0.0040     149.2270      33.5400       0.9240      49.0500       2.3010       0.9150
    701.1924      12.1719       0.0035     146.2892      33.7556       0.9185      48.5979       2.3055       0.9180
    701.3448      12.1100       0.0110     143.3510      33.9710       0.9130      48.1460       2.3100       0.9210
    701.4972      12.1170       0.0095     143.6825      33.6033       0.9145      48.7880       2.3115       0.9185
    701.6496      12.1240       0.0080     144.0140      33.2360       0.9160      49.4300       2.3130       0.9160
    701.8020      12.1952       0.0040     144.7640      32.8943       0.9215      50.3965       2.3120       0.9165
    701.9544      12.2660       0.0000     145.5140      32.5530       0.9270      51.3630       2.3110       0.9170
    702.1068      12.2560      -0.0130     145.1070      32.3343       0.9350      52.4719       2.3040       0.9230
    702.2592      12.2460      -0.0260     144.7000      32.1160       0.9430      53.5810       2.2970       0.9290
    702.4116      12.2555      -0.0250     144.1945      31.5536       0.9515      52.8256       2.2885       0.9305
    702.5640      12.2650      -0.0240     143.6890      30.9920       0.9600      52.0700       2.2800       0.9320
    702.7164      12.2645      -0.0130     142.1873      31.3672       0.9700      50.6050       2.2820       0.9320
    702.8688      12.2640      -0.0020     140.6850      31.7420       0.9800      49.1400       2.2840       0.9320
    703.0212      12.3427      -0.0055     141.4220      32.7225       0.9925      49.5831       2.2890       0.9380
    703.1736      12.4210      -0.0090     142.1590      33.7020       1.0050      50.0260       2.2940       0.9440
    703.3260      12.3117      -0.0060     143.2906      34.5109       1.0135      50.4835       2.3085       0.9505
    703.4784      12.2030      -0.0030     144.4220      35.3190       1.0220      50.9410       2.3230       0.9570
    703.6308      12.2326      -0.0020     143.0170      34.8588       1.0320      51.1545       2.3285       0.9670
    703.7832      12.2620      -0.0010     141.6120      34.3990       1.0420      51.3680       2.3340       0.9770
    703.9356      12.3006       0.0005     140.5905      33.8057       1.0560      51.9065       2.3370       0.9845
    704.0880      12.3390       0.0020     139.5690      33.2130       1.0700      52.4450       2.3400       0.9920
    704.2404      12.3315       0.0055     139.3100      33.5868       1.0835      51.7791       2.3515       1.0005
    704.3928      12.3240       0.0090     139.0510      33.9600       1.0970      51.1130       2.3630       1.0090
    704.5452      12.3110       0.0070     137.6467      34.5329       1.1070      50.7570       2.3690       1.0185
    704.6976      12.2980       0.0050     136.2420      35.1050       1.1170      50.4010       2.3750       1.0280
    704.8500      12.3346       0.0065     136.5854      35.4452       1.1230      49.9789       2.3780       1.0340
    705.0024      12.3710       0.0080     136.9290      35.7850       1.1290      49.5570       2.3810       1.0400
    705.1548      12.4206       0.0120     136.5220      35.7330       1.1410      48.4969       2.3865       1.0495
    705.3072      12.4700       0.0160     136.1150      35.6810       1.1530      47.4370       2.3920       1.0590
    705.4596      12.5412       0.0150     134.7964      35.3238       1.1645      46.6605       2.3990       1.0725
    705.6120      12.6120       0.0140     133.4780      34.9670       1.1760      45.8840       2.4060       1.0860
    705.7644      12.6115       0.0170     132.3955      34.7469       1.1905      45.6685       2.4090       1.1050
    705.9168      12.6110       0.0200     131.3130      34.5270       1.2050      45.4530       2.4120       1.1240
    706.0692      12.6105       0.0150     131.7920      34.3274       1.2215      45.9625       2.4120       1.1335
    706.2216      12.6100       0.0100     132.2710      34.1280       1.2380      46.4720       2.4120       1.1430
    706.3740      12.6195      -0.0000     132.4670      33.7562       1.2495      47.7056       2.4070       1.1445
    706.5264      12.6290      -0.0100     132.6630      33.3850       1.2610      48.9390       2.4020       1.1460
    706.6788      12.6215      -0.0085     133.0684      33.4385       1.2670      48.6274       2.4095       1.1500
    706.8312      12.6140      -0.0070     133.4740      33.4920       1.2730      48.3160       2.4170       1.1540
