#------------------------------------------------------------------------------
#
#   Created by  : [OpenWorks] Log Export Utility (LEXP)
#   Created on  : 2016-05-12 17:01:19
#   Project     : CANT971
#   User        : R5K
#   Interpreter : PEP
#
#------------------------------------------------------------------------------
~VERSION INFORMATION
VERS. 2.0 : CWLS Log ASCII Standard - version 2.0
WRAP.  NO : One line per depth step
~WELL INFORMATION
#MNEMONIC   .UNIT                                           VALUE :DESCRIPTION
#------------------------------------------------------------------------------
STRT        .M                                           335.5854 :START DEPTH
STOP        .M                                          2510.4858 :STOP DEPTH
STEP        .M                                             0.1524 :STEP
NULL        .                                           -999.2500 :NULL VALUE
COMP        .                                   PEMEX EXPL & PROD :COMPANY
WELL        .                                                  35 :WELL
FLD         .                                           CANTARELL :FIELD
LOC         .                                             UNKNOWN :LOCATION
CNTY        .                                      CD. DEL CARMEN :COUNTY
STAT        .                                            CAMPECHE :STATE
CTRY        .                                              MEXICO :COUNTRY
SRVC        .                                             UNKNOWN :SERVICE COMPANY
DATE        .                                             UNKNOWN :LOG DATE
UWI         .                                          3060000159 :UNIQUE WELL ID
XCOORD      .                                       602147.900000 :SURFACE X
YCOORD      .                                      2147168.470000 :SURFACE Y
LAT         .                                           19.417359 :LATITUDE
LON         .                                          -92.027072 :LONGITUDE
ELEV        .M                                            28.1700 :SURFACE ELEV
ELEV_TYPE   .                                                  KB :ELEV TYPE
~CURVE INFORMATION
#MNEMONIC.UNIT        API CODE       : CURVE DESCRIPTION
#------------------------------------------------------------------------------
DEPTH    .M                          : Measured Depth
CALI     .inches      UNKNOWN        : CALI:Import:rC:NONE:v0 (auto-composite)
DRHO     .g/cm3       UNKNOWN        : DRHO:Import:rC:NONE:v0 (auto-composite)
DT       .us/ft       UNKNOWN        : DT:Import:rC:NONE:v0 (auto-composite)
GR       .API         UNKNOWN        : GR:Import:rC:NONE:v0 (auto-composite)
ILD      .ohm.m       UNKNOWN        : ILD:Import:rC:NONE:v0 (auto-composite)
LLD      .ohm.m       UNKNOWN        : LLD:Import:rC:NONE:v0 (auto-composite)
LLS      .ohm.m       UNKNOWN        : LLS:Import:rC:NONE:v0 (auto-composite)
MSFL     .ohm.m       UNKNOWN        : MSFL:Import:rC:NONE:v0 (auto-composite)
NPHI     .v/v_decimal UNKNOWN        : NPHI:Import:rC:NONE:v0 (auto-composite)
RHOB     .g/cm3       UNKNOWN        : RHOB:Import:rC:NONE:v0 (auto-composite)
SP       .mV          UNKNOWN        : SP:Import:rC:NONE:v0 (auto-composite)
~A     DEPTH         CALI         DRHO           DT           GR          ILD          LLD          LLS         MSFL         NPHI         RHOB           SP
# ...
   1999.7933       6.0400   -1998.5000      84.0600      32.9800    -999.2500      84.6800      42.6230      77.9800    -999.2500    -999.2500    -999.2500
   1999.9458       6.0400   -1998.5000      83.8995      33.5283    -999.2500      95.2301      48.5804      56.8195    -999.2500    -999.2500    -999.2500
   2000.0981       6.0400   -1998.5000      83.7410      34.0700    -999.2500     105.6600      54.4700      35.9000    -999.2500    -999.2500    -999.2500
   2000.2506       6.0149   -1998.5000      82.5347      33.7481    -999.2500      98.8238      53.3633      36.0670    -999.2500    -999.2500    -999.2500
   2000.4030       5.9900   -1998.5000      81.3430      33.4300    -999.2500      92.0700      52.2700      36.2320    -999.2500    -999.2500    -999.2500
   2000.5554       5.9900   -1998.5000      76.3618      34.6211    -999.2500      96.7182      54.9842     104.1460    -999.2500    -999.2500    -999.2500
   2000.7078       5.9900   -1998.5000      71.4400      35.7980    -999.2500     101.3110      57.6660     171.2500    -999.2500    -999.2500    -999.2500
   2000.8602       5.9900   -1998.5000      73.2960      40.9625    -999.2500     137.8310      76.2577     162.6045    -999.2500    -999.2500    -999.2500
   2001.0126       5.9900   -1998.5000      75.1300      46.0660    -999.2500     173.9200      94.6300     154.0610    -999.2500    -999.2500    -999.2500
   2001.1650       5.9965   -1998.5000      69.4747      53.0747    -999.2500     170.8898      92.9175     132.3945    -999.2500    -999.2500    -999.2500
   2001.3174       6.0030   -1998.5000      63.8900      59.9960    -999.2500     167.8950      91.2250     110.9810    -999.2500    -999.2500    -999.2500
   2001.4698       6.0256   -1998.5000      64.4331      70.2252    -999.2500     157.4919      85.2218     100.1585    -999.2500    -999.2500    -999.2500
   2001.6222       6.0480   -1998.5000      64.9690      80.3200    -999.2500     147.2090      79.2880      89.4610    -999.2500    -999.2500    -999.2500
   2001.7745       6.0616   -1998.5000      68.1557      79.7865    -999.2500     135.8290      68.9047      71.9454    -999.2500    -999.2500    -999.2500
   2001.9270       6.0750   -1998.5000      71.3010      79.2600    -999.2500     124.5790      58.6400      54.6300    -999.2500    -999.2500    -999.2500
   2002.0793       6.0825   -1998.5000      76.5287      77.6325    -999.2500     110.7916      60.8877      56.4654    -999.2500    -999.2500    -999.2500
   2002.2318       6.0900   -1998.5000      81.6890      76.0260    -999.2500      97.1600      63.1100      58.2800    -999.2500    -999.2500    -999.2500
   2002.3842       6.0875   -1998.5000      82.7211      72.6313    -999.2500      96.3827      62.8908      34.9948    -999.2500    -999.2500    -999.2500
   2002.5366       6.0850   -1998.5000      83.7400      69.2800    -999.2500      95.6140      62.6740      11.9700    -999.2500    -999.2500    -999.2500
   2002.6890       6.0694   -1998.5000      83.5991      71.1926    -999.2500      91.7552      60.5000      12.1193    -999.2500    -999.2500    -999.2500
   2002.8414       6.0540   -1998.5000      83.4600      73.0810    -999.2500      87.9390      58.3500      12.2670    -999.2500    -999.2500    -999.2500
   2002.9938       6.0218   -1998.5000      85.0001      83.0026    -999.2500      79.4365      52.5981      24.8372    -999.2500    -999.2500    -999.2500
   2003.1462       5.9900   -1998.5000      86.5210      92.8000    -999.2500      71.0270      46.9090      37.2700    -999.2500    -999.2500    -999.2500
   2003.2986       6.0001   -1998.5000      91.1597      90.0480    -999.2500      60.3860      41.0076      35.8398    -999.2500    -999.2500    -999.2500
   2003.4509       6.0100   -1998.5000      95.7410      87.3300    -999.2500      49.8600      35.1700      34.4250    -999.2500    -999.2500    -999.2500
   2003.6034       6.0070   -1998.5000     104.4187      79.4049    -999.2500      50.4484      35.3510      31.0129    -999.2500    -999.2500    -999.2500
   2003.7557       6.0040   -1998.5000     112.9900      71.5770    -999.2500      51.0300      35.5300      27.6400    -999.2500    -999.2500    -999.2500
   2003.9082       5.9819   -1998.5000     112.5478      68.7282    -999.2500      49.6516      34.5541      28.1722    -999.2500    -999.2500    -999.2500
   2004.0605       5.9600   -1998.5000     112.1110      65.9140    -999.2500      48.2900      33.5900      28.6980    -999.2500    -999.2500    -999.2500
   2004.2130       5.9640   -1998.5000     106.5491      59.2072    -999.2500      49.5979      34.8425      32.5325    -999.2500    -999.2500    -999.2500
   2004.3654       5.9680   -1998.5000     101.0540      52.5810    -999.2500      50.8900      36.0800      36.3210    -999.2500    -999.2500    -999.2500
   2004.5178       5.9856   -1998.5000      86.7368      44.8797    -999.2500      56.3761      41.1250      45.9749    -999.2500    -999.2500    -999.2500
   2004.6702       6.0030   -1998.5000      72.5900      37.2700    -999.2500      61.7970      46.1100      55.5140    -999.2500    -999.2500    -999.2500
   2004.8226       6.0216   -1998.5000      72.7233      38.1475    -999.2500      73.0045      53.1162      63.0312    -999.2500    -999.2500    -999.2500
   2004.9750       6.0400   -1998.5000      72.8550      39.0140    -999.2500      84.0800      60.0400      70.4600    -999.2500    -999.2500    -999.2500
   2005.1274       6.0400   -1998.5000      74.1410      45.5251    -999.2500      83.9140      59.0895      67.1995    -999.2500    -999.2500    -999.2500
   2005.2798       6.0400   -1998.5000      75.4100      51.9500    -999.2500      83.7500      58.1500      63.9770    -999.2500    -999.2500    -999.2500
   2005.4321       6.0149   -1998.5000      71.6655      51.9022    -999.2500      86.8991      59.7221      49.1430    -999.2500    -999.2500    -999.2500
   2005.5846       5.9900   -1998.5000      67.9700      51.8550    -999.2500      90.0120      61.2760      34.4800    -999.2500    -999.2500    -999.2500
   2005.7369       5.9965   -1998.5000      69.2010      51.4499    -999.2500     101.8082      67.0082      39.4081    -999.2500    -999.2500    -999.2500
   2005.8894       6.0030   -1998.5000      70.4160      51.0500    -999.2500     113.4700      72.6750      44.2800    -999.2500    -999.2500    -999.2500
   2006.0417       6.0216   -1998.5000      82.5510      49.0169    -999.2500     120.7013      76.7133      41.9368    -999.2500    -999.2500    -999.2500
   2006.1942       6.0400   -1998.5000      94.5300      47.0100    -999.2500     127.8510      80.7060      39.6200    -999.2500    -999.2500    -999.2500
   2006.3466       6.0360   -1998.5000      93.5895      47.4896    -999.2500     136.3881      89.2657      41.0354    -999.2500    -999.2500    -999.2500
   2006.4990       6.0320   -1998.5000      92.6610      47.9630    -999.2500     144.8300      97.7300      42.4350    -999.2500    -999.2500    -999.2500
   2006.6514       6.0109   -1998.5000      83.1908      51.1878    -999.2500     143.0623      96.5279      55.4141    -999.2500    -999.2500    -999.2500
   2006.8038       5.9900   -1998.5000      73.8400      54.3720    -999.2500     141.3140      95.3390      68.2500    -999.2500    -999.2500    -999.2500
   2006.9562       5.9900   -1998.5000      74.0639      64.7407    -999.2500     136.2444      91.5252      67.0801    -999.2500    -999.2500    -999.2500
   2007.1086       5.9900   -1998.5000      74.2850      74.9800    -999.2500     131.2300      87.7530      65.9230    -999.2500    -999.2500    -999.2500
   2007.2610       5.9900   -1998.5000      78.4080      74.7511    -999.2500     126.7413      83.7665      60.6259    -999.2500    -999.2500    -999.2500
   2007.4133       5.9900   -1998.5000      82.4800      74.5250    -999.2500     122.3010      79.8230      55.3860    -999.2500    -999.2500    -999.2500
   2007.5658       5.9900   -1998.5000      82.0222      72.7391    -999.2500     109.0748      74.0183      49.1377    -999.2500    -999.2500    -999.2500
