#------------------------------------------------------------------------------
#
#   Created by  : [OpenWorks] Log Export Utility (LEXP)
#   Created on  : 2016-05-23 11:55:46
#   Project     : CANT971
#   User        : R5K
#   Interpreter : PEP
#
#------------------------------------------------------------------------------
~VERSION INFORMATION
VERS. 2.0 : CWLS Log ASCII Standard - version 2.0
WRAP.  NO : One line per depth step
~WELL INFORMATION
#MNEMONIC   .UNIT                                           VALUE :DESCRIPTION
#------------------------------------------------------------------------------
STRT        .M                                           292.5192 :START DEPTH
STOP        .M                                          2727.7188 :STOP DEPTH
STEP        .M                                             0.1524 :STEP
NULL        .                                           -999.2500 :NULL VALUE
COMP        .                                   PEMEX EXPL & PROD :COMPANY
WELL        .                                                  39 :WELL
FLD         .                                           CANTARELL :FIELD
LOC         .                                             UNKNOWN :LOCATION
CNTY        .                                      CD. DEL CARMEN :COUNTY
STAT        .                                            CAMPECHE :STATE
CTRY        .                                              MEXICO :COUNTRY
SRVC        .                                             UNKNOWN :SERVICE COMPANY
DATE        .                                             UNKNOWN :LOG DATE
UWI         .                                          3060000161 :UNIQUE WELL ID
XCOORD      .                                       603360.280000 :SURFACE X
YCOORD      .                                      2145098.760000 :SURFACE Y
LAT         .                                           19.398594 :LATITUDE
LON         .                                          -92.015639 :LONGITUDE
ELEV        .M                                            27.1400 :SURFACE ELEV
ELEV_TYPE   .                                                  KB :ELEV TYPE
~CURVE INFORMATION
#MNEMONIC.UNIT        API CODE       : CURVE DESCRIPTION
#------------------------------------------------------------------------------
DEPTH    .M                          : Measured Depth
CALI     .inches      UNKNOWN        : CALI:Import:rC:NONE:v0 (auto-composite)
DRHO     .g/cm3       UNKNOWN        : DRHO:Import:rC:NONE:v0 (auto-composite)
DT       .us/ft       UNKNOWN        : DT:Import:rC:NONE:v0 (auto-composite)
GR       .API         UNKNOWN        : GR:Import:rC:NONE:v0 (auto-composite)
ILD      .ohm.m       UNKNOWN        : ILD:Import:rC:NONE:v0 (auto-composite)
LLD      .ohm.m       UNKNOWN        : LLD:Import:rC:NONE:v0 (auto-composite)
LLS      .ohm.m       UNKNOWN        : LLS:Import:rC:NONE:v0 (auto-composite)
MSFL     .ohm.m       UNKNOWN        : MSFL:Import:rC:NONE:v0 (auto-composite)
NPHI     .v/v_decimal UNKNOWN        : NPHI:Import:rC:NONE:v0 (auto-composite)
RHOB     .g/cm3       UNKNOWN        : RHOB:Import:rC:NONE:v0 (auto-composite)
~A     DEPTH         CALI         DRHO           DT           GR          ILD          LLD          LLS         MSFL         NPHI         RHOB
# ...
   2067.6743       0.0000       0.0000      40.0000      53.7831       0.2000       0.2000       0.2000       0.2000      -0.1500       2.0000
   2067.8269       0.0000       0.0000      40.0000      59.7381       0.2000       0.2000       0.2000       0.2000      -0.1500       2.0000
   2067.9792       0.0000       0.0000      40.0000      64.0082       0.2000       0.2000       0.2000       0.2000      -0.1500       2.0000
   2068.1316       0.0000       0.0000      40.0000      64.8520       0.2000       0.2000       0.2000       0.2000      -0.1500       2.0000
   2068.2839       0.0000       0.0000      40.0000      65.0482       0.2000       0.2000       0.2000       0.2000      -0.1500       2.0000
   2068.4363       0.0000       0.0000      40.0000      63.9601       0.2000       0.2000       0.2000       0.2000      -0.1500       2.0000
   2068.5889       0.0000       0.0000      40.0000      62.8536       0.2000       0.2000       0.2000       0.2000      -0.1500       2.0000
   2068.7412       0.0000       0.0000      40.0000      61.7105       0.2000       0.2000       0.2000       0.2000      -0.1500       2.0000
   2068.8936       0.0000       0.0000      40.0000      61.3789       0.2000       0.2000       0.2000       0.2000      -0.1500       2.0000
   2069.0459       0.0000       0.0000      40.0000      62.6349       0.2000       0.2000       0.2000       0.2000      -0.1500       2.0000
   2069.1985       0.0000       0.0000      40.0000      64.7530       0.2000       0.2000       0.2000       0.2000      -0.1500       2.0000
   2069.3508       0.0000       0.0000      40.0000      68.5163       0.2000       0.2000       0.2000       0.2000      -0.1500       2.0000
   2069.5032       0.0000       0.0000      40.0000      70.7820       0.2000       0.2000       0.2000       0.2000      -0.1500       2.0000
   2069.6555       0.0000       0.0000      40.0000      70.1783       0.2000       0.2000       0.2000       0.2000      -0.1500       2.0000
   2069.8081       0.0000       0.0000      40.0000      69.4364       0.2000       0.2000       0.2000       0.2000      -0.1500       2.0000
   2069.9604       0.0000       0.0000      40.0000      68.4361       0.2000       0.2000       0.2000       0.2000      -0.1500       2.0000
   2070.1128       0.0000       0.0000      40.0000      66.4859       0.2000       0.2000       0.2000       0.2000      -0.1500       2.0000
   2070.2651       0.0000       0.0000      40.0000      62.7406       0.2000       0.2000       0.2000       0.2000      -0.1500       2.0000
   2070.4175       0.0000       0.0000      40.0000      60.9323       0.2000       0.2000       0.2000       0.2000      -0.1500       2.0000
   2070.5701       0.0000       0.0000      40.0000      62.6967       0.2000       0.2000       0.2000       0.2000      -0.1500       2.0000
   2070.7224       0.0000       0.0000      40.0000      65.1345       0.2000       0.2000       0.2000       0.2000      -0.1500       2.0000
   2070.8748       0.0000       0.0000      40.0000      68.7844       0.2000       0.2000       0.2000       0.2000      -0.1500       2.0000
   2071.0271       0.0000       0.0000      40.0000      71.3578       0.2000       0.2000       0.2000       0.2000      -0.1500       2.0000
   2071.1797       0.0000       0.0000      40.0000      71.9861       0.2000       0.2000       0.2000       0.2000      -0.1500       2.0000
   2071.3320       0.0000       0.0000      40.0000      71.0848       0.2000       0.2000       0.2000       0.2000      -0.1500       2.0000
   2071.4844       0.0000       0.0000      40.0000      67.4669       0.2000       0.2000       0.2000       0.2000      -0.1500       2.0000
   2071.6367       0.0000       0.0000      40.0000      64.2851       0.2000       0.2000       0.2000       0.2000      -0.1500       2.0000
   2071.7893       0.0000       0.0000      40.0000      61.8809       0.2000       0.2000       0.2000       0.2000      -0.1500       2.0000
   2071.9417       0.0000       0.0000      40.0000      61.2003       0.2000       0.2000       0.2000       0.2000      -0.1500       2.0000
   2072.0940       0.0000       0.0000      40.0000      63.5198       0.2000       0.2000       0.2000       0.2000      -0.1500       2.0000
   2072.2463       0.0000       0.0000      40.0000      66.7703       0.2000       0.2000       0.2000       0.2000      -0.1500       2.0000
   2072.3987       0.0000       0.0000      40.0000      71.6034       0.2000       0.2000       0.2000       0.2000      -0.1500       2.0000
   2072.5513       0.0000       0.0000      40.0000      74.9298       0.2000       0.2000       0.2000       0.2000      -0.1500       2.0000
   2072.7036       0.0000       0.0000      40.0000      75.6683       0.2000       0.2000       0.2000       0.2000      -0.1500       2.0000
   2072.8560       0.0000       0.0000      40.0000      77.0190       0.2000       0.2000       0.2000       0.2000      -0.1500       2.0000
   2073.0083       0.0000       0.0000      40.0000      79.3965       0.2000       0.2000       0.2000       0.2000      -0.1500       2.0000
   2073.1609       0.0000       0.0000      40.0000      80.4474       0.2000       0.2000       0.2000       0.2000      -0.1500       2.0000
   2073.3132       0.0000       0.0000      40.0000      79.2651       0.2000       0.2000       0.2000       0.2000      -0.1500       2.0000
   2073.4656       0.0000       0.0000      40.0000      77.8739       0.2000       0.2000       0.2000       0.2000      -0.1500       2.0000
   2073.6179       0.0000       0.0000      40.0000      76.1391       0.2000       0.2000       0.2000       0.2000      -0.1500       2.0000
   2073.7705       0.0000       0.0000      40.0000      76.3871       0.2000       0.2000       0.2000       0.2000      -0.1500       2.0000
   2073.9229       0.0000       0.0000      40.0000      79.8194       0.2000       0.2000       0.2000       0.2000      -0.1500       2.0000
   2074.0752       0.0000       0.0000      40.0000      79.2793       0.2000       0.2000       0.2000       0.2000      -0.1500       2.0000
   2074.2275       0.0000       0.0000      40.0000      72.2929       0.2000       0.2000       0.2000       0.2000      -0.1500       2.0000
   2074.3799       0.0000       0.0000      40.0000      65.3201       0.2000       0.2000       0.2000       0.2000      -0.1500       2.0000
   2074.5325       0.0000       0.0000      40.0000      58.3689       0.2000       0.2000       0.2000       0.2000      -0.1500       2.0000
   2074.6848       0.0000       0.0000      40.0000      54.5064       0.2000       0.2000       0.2000       0.2000      -0.1500       2.0000
   2074.8372       0.0000       0.0000      40.0000      55.4275       0.2000       0.2000       0.2000       0.2000      -0.1500       2.0000
   2074.9895       0.0000       0.0000      40.0000      57.2535       0.2000       0.2000       0.2000       0.2000      -0.1500       2.0000
   2075.1421       0.0000       0.0000      40.0000      60.4860       0.2000       0.2000       0.2000       0.2000      -0.1500       2.0000
   2075.2944       0.0000       0.0000      40.0000      62.7394       0.2000       0.2000       0.2000       0.2000      -0.1500       2.0000
   2075.4468       0.0000       0.0000      40.0000      63.5059       0.2000       0.2000       0.2000       0.2000      -0.1500       2.0000
   2075.5991       0.0000       0.0000      40.0000      65.0057       0.2000       0.2000       0.2000       0.2000      -0.1500       2.0000
   2075.7517       0.0000       0.0000      40.0000      67.6304       0.2000       0.2000       0.2000       0.2000      -0.1500       2.0000
   2075.9041       0.0000       0.0000      40.0000      68.3054       0.2000       0.2000       0.2000       0.2000      -0.1500       2.0000
   2076.0564       0.0000       0.0000      40.0000      66.0572       0.2000       0.2000       0.2000       0.2000      -0.1500       2.0000
