#------------------------------------------------------------------------------
#
#   Created by  : [OpenWorks] Log Export Utility (LEXP)
#   Created on  : 2016-05-23 11:55:49
#   Project     : CANT971
#   User        : R5K
#   Interpreter : PEP
#
#------------------------------------------------------------------------------
~VERSION INFORMATION
VERS. 2.0 : CWLS Log ASCII Standard - version 2.0
WRAP.  NO : One line per depth step
~WELL INFORMATION
#MNEMONIC   .UNIT                                           VALUE :DESCRIPTION
#------------------------------------------------------------------------------
STRT        .M                                           773.4315 :START DEPTH
STOP        .M                                          2865.1216 :STOP DEPTH
STEP        .M                                             0.1524 :STEP
NULL        .                                           -999.2500 :NULL VALUE
COMP        .                                             UNKNOWN :COMPANY
WELL        .                                                408D :WELL
FLD         .                                             UNKNOWN :FIELD
LOC         .                                             UNKNOWN :LOCATION
CNTY        .                                             UNKNOWN :COUNTY
STAT        .                                             UNKNOWN :STATE
CTRY        .                                             UNKNOWN :COUNTRY
SRVC        .                                             UNKNOWN :SERVICE COMPANY
DATE        .                                             UNKNOWN :LOG DATE
UWI         .                                                408D :UNIQUE WELL ID
XCOORD      .                                       597130.770000 :SURFACE X
YCOORD      .                                      2144867.260000 :SURFACE Y
LAT         .                                           19.396814 :LATITUDE
LON         .                                          -92.074972 :LONGITUDE
ELEV        .M                                             0.0000 :SURFACE ELEV
ELEV_TYPE   .                                                  KB :ELEV TYPE
~CURVE INFORMATION
#MNEMONIC.UNIT        API CODE       : CURVE DESCRIPTION
#------------------------------------------------------------------------------
DEPTH    .M                          : Measured Depth
CALI     .inches      UNKNOWN        : CALI:litodensidad:rC:NONE:v0 (auto-composite)
CGR      .API         UNKNOWN        : CGR:PETROWORKS:rC:NONE:v1 
DRHO     .g/cm3       UNKNOWN        : DRHO:litodensidad:rC:NONE:v0 (auto-composite)
DT       .us/ft       UNKNOWN        : DT:PETROWORKS:rC:NONE:v1 
GR       .API         UNKNOWN        : GR:PETROWORKS:rC:NONE:v3 
GR-LWD   .UNKNOWN     UNKNOWN        : GR-LWD:resistivos-LWD:rC:NONE:v0 (auto-composite)
LLD      .ohm.m       UNKNOWN        : LLD:PETROWORKS:rC:NONE:v1 
LLD-LWD  .UNKNOWN     UNKNOWN        : LLD-LWD:resistivos-LWD:rC:NONE:v0 (auto-composite)
LLS      .UNKNOWN     UNKNOWN        : LLS:PETROWORKS:rC:NONE:v1 
LLS-LWD  .UNKNOWN     UNKNOWN        : LLS-LWD:resistivos-LWD:rC:NONE:v0 (auto-composite)
MSFL     .UNKNOWN     UNKNOWN        : MSFL:PETROWORKS:rC:NONE:v1 
MSFL-LWD .UNKNOWN     UNKNOWN        : MSFL-LWD:resistivos-LWD:rC:NONE:v0 (auto-composite)
NPHI     .v/v_decimal UNKNOWN        : NPHI:PETROWORKS:rC:NONE:v3 
PEF      .UNKNOWN     UNKNOWN        : PEF:litodensidad:rC:NONE:v0 (auto-composite)
POTA     .wtpercent   UNKNOWN        : POTA:PETROWORKS:rC:NONE:v1 
RHOB     .g/cm3       UNKNOWN        : RHOB:litodensidad:rC:NONE:v0 (auto-composite)
THOR     .ppm         UNKNOWN        : THOR:PETROWORKS:rC:NONE:v1 
URAN     .ppm         UNKNOWN        : URAN:PETROWORKS:rC:NONE:v1 
~A     DEPTH         CALI          CGR         DRHO           DT           GR       GR-LWD          LLD      LLD-LWD          LLS      LLS-LWD         MSFL     MSFL-LWD         NPHI          PEF         POTA         RHOB         THOR         URAN
# ...
   2518.5640       8.5338       9.7164      -0.9025      55.9977      19.4316    -999.2500      87.2789    -999.2500       0.5031    -999.2500       1.3088    -999.2500       0.1762      29.7263       0.0040       2.3137       0.7667       1.2796
   2518.7163       8.5134       9.5972      -0.8835      55.8045      19.1356    -999.2500       0.9365    -999.2500       0.4211    -999.2500       0.8269    -999.2500       0.1617      18.2654       0.0040       2.3775       0.7607       1.2268
   2518.8687       8.5202       9.3570      -0.8660      56.2882      19.2965    -999.2500       0.4562    -999.2500       0.4097    -999.2500       0.7634    -999.2500       0.1477      14.6275       0.0037       2.4398       0.8146       1.2847
   2519.0212       8.5338       9.5943      -0.8514      56.0070      18.8306    -999.2500       0.6096    -999.2500       0.2195    -999.2500       1.1550    -999.2500       0.1350      17.2984       0.0037       2.4838       0.9110       1.2136
   2519.1736       8.5134       8.8688      -0.8509      56.0977      17.8793    -999.2500       0.8055    -999.2500       0.7411    -999.2500       0.7443    -999.2500       0.1266      37.8843       0.0034       2.4824       0.8374       1.2175
   2519.3259       8.5202       7.9881      -0.8576      56.5887      15.9476    -999.2500       0.8555    -999.2500       1.4495    -999.2500       0.6706    -999.2500       0.1240      39.0442       0.0029       2.4351       0.8488       1.0332
   2519.4783       8.5746       7.4388      -0.8551      56.2089      14.9499    -999.2500       1.0275    -999.2500       0.2936    -999.2500       0.6040    -999.2500       0.1275      40.3203       0.0030       2.3755       0.6214       0.9568
   2519.6306       8.5243       7.1355      -0.8661      56.5907      13.9849    -999.2500       1.3026    -999.2500       0.1520    -999.2500       0.7372    -999.2500       0.1363      78.8181       0.0029       2.3122       0.5857       0.8918
   2519.7832       8.5406       6.6261      -0.8868      56.4046      14.0261    -999.2500       0.5758    -999.2500       0.3852    -999.2500       0.8670    -999.2500       0.1484     145.5959       0.0025       2.2394       0.6652       0.9543
   2519.9355       8.5406       6.9310      -0.8848      55.9113      14.6292    -999.2500       0.7691    -999.2500       0.2153    -999.2500       0.8576    -999.2500       0.1604     -83.3733       0.0026       2.2519       0.6738       1.0173
   2520.0879       8.5542       7.7497      -0.8837      55.8022      15.1775    -999.2500       0.7301    -999.2500       0.1468    -999.2500       0.7821    -999.2500       0.1667    -999.2500       0.0029       2.2856       0.7558       1.0026
   2520.2402       8.5352       7.8070      -0.8820      55.9953      15.4957    -999.2500       0.6551    -999.2500       0.1487    -999.2500       0.7636    -999.2500       0.1647    -999.2500       0.0030       2.3285       0.7195       1.0380
   2520.3928       8.5406       7.9223      -0.8764      56.2931      15.9407    -999.2500       0.6094    -999.2500       0.1522    -999.2500       0.4848    -999.2500       0.1600    -999.2500       0.0029       2.3261       0.8048       1.0749
   2520.5452       8.5542       8.2252      -0.8978      56.0068      16.3432    -999.2500       0.6872    -999.2500       0.1533    -999.2500       0.6978    -999.2500       0.1652      63.7156       0.0031       2.2609       0.7978       1.1354
   2520.6975       8.5352       8.5078      -0.8877      56.0000      17.2095    -999.2500       0.7883    -999.2500       0.1583    -999.2500       0.9096    -999.2500       0.1823    -467.7672       0.0032       2.2902       0.8232       1.1967
   2520.8499       8.5338       9.8760      -0.8760      56.3906      18.7954    -999.2500       0.7442    -999.2500       0.1570    -999.2500       0.7984    -999.2500       0.1961     132.2281       0.0037       2.3339       0.9980       1.2469
   2521.0022       8.5746      11.1794      -0.8364      56.7907      20.4247    -999.2500       0.6355    -999.2500       0.1479    -999.2500       0.3673    -999.2500       0.1927    -433.5109       0.0041       2.4508       1.1931       1.2895
   2521.1548       8.5406      12.1573      -0.8415      56.5069      22.6454    -999.2500       0.5696    -999.2500       0.1472    -999.2500       0.7168    -999.2500       0.1776     484.8920       0.0044       2.4321       1.3265       1.5403
   2521.3071       8.5406      10.8099      -0.8463      54.9360      21.9039    -999.2500       0.6699    -999.2500       0.1489    -999.2500       0.8086    -999.2500       0.1669     113.8565       0.0038       2.3825       1.2466       1.5205
   2521.4595       8.5406       9.7541      -0.8549      46.6991      20.5723    -999.2500       0.6630    -999.2500       0.1484    -999.2500       0.7467    -999.2500       0.1653    -999.2500       0.0036       2.3508       1.0215       1.4923
   2521.6118       8.5610       8.4515      -0.8490      46.9883      18.4704    -999.2500       0.5685    -999.2500       0.1460    -999.2500       0.6096    -999.2500       0.1673    -999.2500       0.0031       2.3504       0.8683       1.2869
   2521.7644       8.5406       7.4616      -0.8531      46.4138      16.8781    -999.2500       0.5589    -999.2500       0.1427    -999.2500       0.7110    -999.2500       0.1708     237.4209       0.0027       2.3672       0.8129       1.2047
   2521.9167       8.5515       6.5473      -0.8533      46.9864      15.2533    -999.2500       0.6074    -999.2500       0.1359    -999.2500       0.6220    -999.2500       0.1766    -380.9146       0.0023       2.3760       0.7391       1.0871
   2522.0691       8.5610       5.6151      -0.8467      46.4134      13.9535    -999.2500       0.2029    -999.2500       0.1450    -999.2500       0.5449    -999.2500       0.1851      66.3305       0.0020       2.3814       0.6459       1.0442
   2522.2214       8.5474       5.7652      -0.8407      50.5991      13.7229    -999.2500       0.1068    -999.2500       0.1478    -999.2500       0.8400    -999.2500       0.1917      57.8100       0.0019       2.3844       0.7073       1.0140
   2522.3740       8.5461       6.3029      -0.8386      50.5046      15.2288    -999.2500       0.1050    -999.2500       0.1481    -999.2500       0.6738    -999.2500       0.1907      33.3521       0.0023       2.3680       0.6615       1.1731
   2522.5264       8.5610       7.3769      -0.8186      51.5750      16.4556    -999.2500       0.0964    -999.2500       0.1460    -999.2500       0.5860    -999.2500       0.1836      71.7181       0.0028       2.3900       0.7033       1.1730
   2522.6787       8.5406       8.3857      -0.8101      51.6000      17.7498    -999.2500       0.0837    -999.2500       0.1516    -999.2500       0.7121    -999.2500       0.1795    -142.4755       0.0035       2.3915       0.6181       1.2097
   2522.8311       8.5474       9.1661      -0.8149      32.5598      18.5598    -999.2500       0.1137    -999.2500       0.2239    -999.2500       0.6240    -999.2500       0.1822    -999.2500       0.0039       2.3533       0.6362       1.2195
   2522.9834       8.5732      10.7153      -0.8032      52.5141      20.9608    -999.2500       0.0985    -999.2500       0.2050    -999.2500       0.7398    -999.2500       0.1831    -999.2500       0.0046       2.3613       0.6981       1.2529
   2523.1360       8.5950      14.5805      -0.7741      32.8713      25.4704    -999.2500       0.1076    -999.2500       0.2141    -999.2500       0.6613    -999.2500       0.1769    -999.2500       0.0061       2.4170       1.1019       1.4028
   2523.2883       8.5882      19.0786      -0.7428      45.9871      32.4098    -999.2500       0.1398    -999.2500       0.2978    -999.2500       0.5845    -999.2500       0.1779     148.9689       0.0077       2.4507       1.6109       1.7236
   2523.4407       8.5882      23.8775      -0.7444      67.0951      40.5736    -999.2500       0.3566    -999.2500       0.3919    -999.2500       0.7088    -999.2500       0.2062     213.4082       0.0097       2.3430       1.9552       2.1551
