#------------------------------------------------------------------------------
#
#   Created by  : [OpenWorks] Log Export Utility (LEXP)
#   Created on  : 2016-05-23 11:55:46
#   Project     : CANT971
#   User        : R5K
#   Interpreter : PEP
#
#------------------------------------------------------------------------------
~VERSION INFORMATION
VERS. 2.0 : CWLS Log ASCII Standard - version 2.0
WRAP.  NO : One line per depth step
~WELL INFORMATION
#MNEMONIC   .UNIT                                           VALUE :DESCRIPTION
#------------------------------------------------------------------------------
STRT        .M                                           325.5260 :START DEPTH
STOP        .M                                          2414.9299 :STOP DEPTH
STEP        .M                                             0.1524 :STEP
NULL        .                                           -999.2500 :NULL VALUE
COMP        .                                   PEMEX EXPL & PROD :COMPANY
WELL        .                                                   4 :WELL
FLD         .                                           CANTARELL :FIELD
LOC         .                                             UNKNOWN :LOCATION
CNTY        .                                      CD. DEL CARMEN :COUNTY
STAT        .                                            CAMPECHE :STATE
CTRY        .                                              MEXICO :COUNTRY
SRVC        .                                             UNKNOWN :SERVICE COMPANY
DATE        .                                             UNKNOWN :LOG DATE
UWI         .                                          3060000140 :UNIQUE WELL ID
XCOORD      .                                       598455.270000 :SURFACE X
YCOORD      .                                      2145027.190000 :SURFACE Y
LAT         .                                           19.398194 :LATITUDE
LON         .                                          -92.062351 :LONGITUDE
ELEV        .M                                            26.5400 :SURFACE ELEV
ELEV_TYPE   .                                                  KB :ELEV TYPE
~CURVE INFORMATION
#MNEMONIC.UNIT        API CODE       : CURVE DESCRIPTION
#------------------------------------------------------------------------------
DEPTH    .M                          : Measured Depth
CALI     .inches      UNKNOWN        : CALI:Import:rC:NONE:v0 (auto-composite)
CGR      .API         UNKNOWN        : CGR:Import:rC:NONE:v0 (auto-composite)
DRHO     .g/cm3       UNKNOWN        : DRHO:Import:rC:NONE:v0 (auto-composite)
DT       .us/ft       UNKNOWN        : DT:Import:rC:NONE:v0 (auto-composite)
GR       .API         UNKNOWN        : GR:Import:rC:NONE:v0 (auto-composite)
ILD      .ohm.m       UNKNOWN        : ILD:Import:rC:NONE:v0 (auto-composite)
LLD      .ohm.m       UNKNOWN        : LLD:Import:rC:NONE:v0 (auto-composite)
LLS      .ohm.m       UNKNOWN        : LLS:Import:rC:NONE:v0 (auto-composite)
MSFL     .ohm.m       UNKNOWN        : MSFL:Import:rC:NONE:v0 (auto-composite)
NPHI     .v/v_decimal UNKNOWN        : NPHI:Import:rC:NONE:v0 (auto-composite)
POTA     .wtpercent   UNKNOWN        : POTA:Import:rC:NONE:v0 (auto-composite)
RHOB     .g/cm3       UNKNOWN        : RHOB:Import:rC:NONE:v0 (auto-composite)
THOR     .ppm         UNKNOWN        : THOR:Import:rC:NONE:v0 (auto-composite)
URAN     .ppm         UNKNOWN        : URAN:Import:rC:NONE:v0 (auto-composite)
~A     DEPTH         CALI          CGR         DRHO           DT           GR          ILD          LLD          LLS         MSFL         NPHI         POTA         RHOB         THOR         URAN
# ...
   2405.7859       5.7210      15.6698       0.0380    -999.2500      26.1482    -999.2500       0.2000       0.2000       0.2000      -0.1119       0.0060       2.8000       1.8220       1.3420
   2405.9385       5.6494      15.7815      -0.1017    -999.2500      26.0832    -999.2500    -999.2500    -999.2500    -999.2500    -999.2500       0.0060       3.0408       1.8837       1.3528
   2406.0908       5.5780      15.8352      -0.2410    -999.2500      26.0911    -999.2500    -999.2500    -999.2500    -999.2500    -999.2500       0.0060       3.2810       1.9020       1.3550
   2406.2432       5.2797      15.9220      -0.2410    -999.2500      26.1340    -999.2500    -999.2500    -999.2500    -999.2500    -999.2500       0.0060       3.3596       1.8936       1.3550
   2406.3955       4.9820      16.0130      -0.2410    -999.2500      26.2779    -999.2500    -999.2500    -999.2500    -999.2500    -999.2500       0.0060       3.4380       1.8798       1.3458
   2406.5481       4.8529      16.0130      -0.2410    -999.2500      26.4484    -999.2500    -999.2500    -999.2500    -999.2500    -999.2500       0.0060       3.4380       1.8699       1.3354
   2406.7004       4.7240      16.0826      -0.2410    -999.2500      26.4417    -999.2500    -999.2500    -999.2500    -999.2500    -999.2500       0.0060       3.4380       1.8693       1.3210
   2406.8528       4.7000      16.0140      -0.2410    -999.2500      26.4349    -999.2500    -999.2500    -999.2500    -999.2500    -999.2500       0.0060       3.4380       1.8622       1.3035
   2407.0051       4.6760      16.0140      -0.2410    -999.2500      26.4282    -999.2500    -999.2500    -999.2500    -999.2500    -999.2500       0.0060       3.4380       1.8407       1.2860
   2407.1577       4.9758      16.0140      -0.2410    -999.2500      26.4214    -999.2500    -999.2500    -999.2500    -999.2500    -999.2500       0.0060       3.4380       1.8370       1.2685
   2407.3101       5.2750      16.0140      -0.2410    -999.2500      26.4147    -999.2500    -999.2500    -999.2500    -999.2500    -999.2500       0.0060       3.4380       1.8329       1.2511
   2407.4624       2.6354      16.0551      -0.0569    -999.2500      26.4079    -999.2500    -999.2500    -999.2500    -999.2500    -999.2500       0.0060       2.6934       1.8248       1.2337
   2407.6147       0.0000      16.1351       0.1270    -999.2500      26.4012    -999.2500    -999.2500    -999.2500    -999.2500    -999.2500       0.0060       1.9500       1.8208       1.2164
   2407.7671       0.0000      16.1730       0.1885    -999.2500      26.3944    -999.2500    -999.2500    -999.2500    -999.2500    -999.2500       0.0057       1.9500       1.8203       1.2100
   2407.9197       0.0000      16.1730       0.2500    -999.2500      26.3877    -999.2500    -999.2500    -999.2500    -999.2500    -999.2500       0.0051       1.9500       1.8200       1.2100
   2408.0720       0.0000      16.1898       0.2500    -999.2500      26.3809    -999.2500    -999.2500    -999.2500    -999.2500    -999.2500       0.0050       1.9500       1.8200       1.2100
   2408.2244       0.0000      16.2698       0.2500    -999.2500      26.3742    -999.2500    -999.2500    -999.2500    -999.2500    -999.2500       0.0050       1.9500       1.8125       1.2100
   2408.3767       0.0000      16.3320       0.2500    -999.2500      26.3674    -999.2500    -999.2500    -999.2500    -999.2500    -999.2500       0.0050       1.9500       1.7971       1.2100
   2408.5293       0.0000      16.2846       0.2500    -999.2500      26.3607    -999.2500    -999.2500    -999.2500    -999.2500    -999.2500       0.0054       1.9500       1.7877       1.2100
   2408.6816       0.0000      16.1731       0.2500    -999.2500      26.3539    -999.2500    -999.2500    -999.2500    -999.2500    -999.2500       0.0060       1.9500       1.7871       1.2048
   2408.8340       0.0000      16.0565       0.2500    -999.2500      26.3472    -999.2500    -999.2500    -999.2500    -999.2500    -999.2500       0.0060       1.9500       1.7870       1.1961
   2408.9863       0.0000      15.8757       0.2500    -999.2500      26.3404    -999.2500    -999.2500    -999.2500    -999.2500    -999.2500       0.0060       1.9500       1.7870       1.1874
   2409.1389       0.0000      15.9339       0.2500    -999.2500      26.3337    -999.2500    -999.2500    -999.2500    -999.2500    -999.2500       0.0060       1.9500       1.8061       1.1788
   2409.2913       0.0000      15.9312       0.2500    -999.2500      26.3269    -999.2500    -999.2500    -999.2500    -999.2500    -999.2500       0.0060       1.9500       1.8372       1.1770
   2409.4436       0.0000      15.9285       0.2500    -999.2500      26.3202    -999.2500    -999.2500    -999.2500    -999.2500    -999.2500       0.0060       1.9500       1.8510       1.1770
   2409.5959       0.0000      15.9257       0.2500    -999.2500      26.3134    -999.2500    -999.2500    -999.2500    -999.2500    -999.2500       0.0060       1.9500       1.8510       1.1770
   2409.7483       0.0000      15.9230       0.2500    -999.2500      26.3067    -999.2500    -999.2500    -999.2500    -999.2500    -999.2500       0.0060       1.9500       1.8503       1.1847
   2409.9009       0.0000      15.9203       0.2500    -999.2500      26.2999    -999.2500    -999.2500    -999.2500    -999.2500    -999.2500       0.0060       1.9500       1.8500       1.2004
   2410.0532       0.0000      15.9175       0.2500    -999.2500      26.2932    -999.2500    -999.2500    -999.2500    -999.2500    -999.2500       0.0060       1.9500       1.8500       1.2161
   2410.2056       0.0000      15.9148       0.2500    -999.2500      26.2917    -999.2500    -999.2500    -999.2500    -999.2500    -999.2500    -999.2500       1.9500    -999.2500    -999.2500
   2410.3579       0.0000      15.9121       0.2500    -999.2500      26.2949    -999.2500    -999.2500    -999.2500    -999.2500    -999.2500    -999.2500       1.9500    -999.2500    -999.2500
   2410.5105       0.0000      15.9093       0.2500    -999.2500      26.2981    -999.2500    -999.2500    -999.2500    -999.2500    -999.2500    -999.2500       1.9500    -999.2500    -999.2500
   2410.6628       0.0000      15.9066       0.2500    -999.2500      26.3013    -999.2500    -999.2500    -999.2500    -999.2500    -999.2500    -999.2500       1.9500    -999.2500    -999.2500
   2410.8152       0.0000      15.9039       0.2500    -999.2500      26.3044    -999.2500    -999.2500    -999.2500    -999.2500    -999.2500    -999.2500       1.9500    -999.2500    -999.2500
   2410.9675       0.0000      15.9011       0.2500    -999.2500      26.3076    -999.2500    -999.2500    -999.2500    -999.2500    -999.2500    -999.2500       1.9500    -999.2500    -999.2500
   2411.1201       0.0000      15.8984       0.2500    -999.2500      26.3108    -999.2500    -999.2500    -999.2500    -999.2500    -999.2500    -999.2500       1.9500    -999.2500    -999.2500
   2411.2725       0.0000      15.8957       0.2500    -999.2500      26.3140    -999.2500    -999.2500    -999.2500    -999.2500    -999.2500    -999.2500       1.9500    -999.2500    -999.2500
   2411.4248       0.0000      15.8929       0.2500    -999.2500      26.3172    -999.2500    -999.2500    -999.2500    -999.2500    -999.2500    -999.2500       1.9500    -999.2500    -999.2500
   2411.5771       0.0000      15.8902       0.2500    -999.2500      26.3204    -999.2500    -999.2500    -999.2500    -999.2500    -999.2500    -999.2500       1.9500    -999.2500    -999.2500
   2411.7295       0.0000      15.8874       0.2500    -999.2500      26.3235    -999.2500    -999.2500    -999.2500    -999.2500    -999.2500    -999.2500       1.9500    -999.2500    -999.2500
   2411.8821       0.0000      15.8847       0.2500    -999.2500      26.3267    -999.2500    -999.2500    -999.2500    -999.2500    -999.2500    -999.2500       1.9500    -999.2500    -999.2500
   2412.0344       0.0000      15.8820       0.2500    -999.2500      26.3299    -999.2500    -999.2500    -999.2500    -999.2500    -999.2500    -999.2500       1.9500    -999.2500    -999.2500
