#------------------------------------------------------------------------------
#
#   Created by  : [OpenWorks] Log Export Utility (LEXP)
#   Created on  : 2016-05-23 11:56:31
#   Project     : CANT971
#   User        : R5K
#   Interpreter : PEP
#
#------------------------------------------------------------------------------
~VERSION INFORMATION
VERS. 2.0 : CWLS Log ASCII Standard - version 2.0
WRAP.  NO : One line per depth step
~WELL INFORMATION
#MNEMONIC   .UNIT                                           VALUE :DESCRIPTION
#------------------------------------------------------------------------------
STRT        .M                                          1639.8856 :START DEPTH
STOP        .M                                          2789.8960 :STOP DEPTH
STEP        .M                                             0.1524 :STEP
NULL        .                                           -999.2500 :NULL VALUE
COMP        .                                             UNKNOWN :COMPANY
WELL        .                                                 477 :WELL
FLD         .                                             UNKNOWN :FIELD
LOC         .                                             UNKNOWN :LOCATION
CNTY        .                                             UNKNOWN :COUNTY
STAT        .                                             UNKNOWN :STATE
CTRY        .                                             UNKNOWN :COUNTRY
SRVC        .                                             UNKNOWN :SERVICE COMPANY
DATE        .                                             UNKNOWN :LOG DATE
UWI         .                                                 477 :UNIQUE WELL ID
XCOORD      .                                       598704.070000 :SURFACE X
YCOORD      .                                      2143268.860000 :SURFACE Y
LAT         .                                           19.382293 :LATITUDE
LON         .                                          -92.060073 :LONGITUDE
ELEV        .M                                             0.0000 :SURFACE ELEV
ELEV_TYPE   .                                                  KB :ELEV TYPE
~CURVE INFORMATION
#MNEMONIC.UNIT        API CODE       : CURVE DESCRIPTION
#------------------------------------------------------------------------------
DEPTH    .M                          : Measured Depth
CALI     .inches      UNKNOWN        : CALI:litodensidad:rC:NONE:v0 (auto-composite)
CGR      .API         UNKNOWN        : CGR:Espectrometria:rC:NONE:v0 (auto-composite)
DRHO     .g/cm3       UNKNOWN        : DRHO:litodensidad:rC:NONE:v0 (auto-composite)
DT       .us/ft       UNKNOWN        : DT:Sonico:rC:NONE:v0 (auto-composite)
GR       .API         UNKNOWN        : GR:Espectrometria:rC:NONE:v0 (auto-composite)
GR-LWD   .API         UNKNOWN        : GR-LWD:resistivos-LWD:rC:NONE:v0 (auto-composite)
LLD      .ohm.m       UNKNOWN        : LLD:resistivos:rC:NONE:v0 (auto-composite)
LLD-LWD  .ohm.m       UNKNOWN        : LLD-LWD:resistivos-LWD:rC:NONE:v0 (auto-composite)
LLS      .ohm.m       UNKNOWN        : LLS:resistivos:rC:NONE:v0 (auto-composite)
LLS-LWD  .ohm.m       UNKNOWN        : LLS-LWD:resistivos-LWD:rC:NONE:v0 (auto-composite)
MSFL     .ohm.m       UNKNOWN        : MSFL:resistivos:rC:NONE:v0 (auto-composite)
MSFL-LWD .ohm.m       UNKNOWN        : MSFL-LWD:resistivos-LWD:rC:NONE:v0 (auto-composite)
NPHI     .UNKNOWN     UNKNOWN        : NPHI:porosidad:rC:NONE:v0 (auto-composite)
PEF      .UNKNOWN     UNKNOWN        : PEF:litodensidad:rC:NONE:v0 (auto-composite)
POTA     .wtpercent   UNKNOWN        : POTA:PETROWORKS:rC:NONE:v1 
RHOB     .g/cm3       UNKNOWN        : RHOB:litodensidad:rC:NONE:v0 (auto-composite)
THOR     .ppm         UNKNOWN        : THOR:Espectrometria:rC:NONE:v0 (auto-composite)
URAN     .ppm         UNKNOWN        : URAN:Espectrometria:rC:NONE:v0 (auto-composite)
~A     DEPTH         CALI          CGR         DRHO           DT           GR       GR-LWD          LLD      LLD-LWD          LLS      LLS-LWD         MSFL     MSFL-LWD         NPHI          PEF         POTA         RHOB         THOR         URAN
# ...
   2253.4480       8.5480      14.3866       0.0024    -999.2500      46.6178    -999.2500      86.5347    -999.2500      95.5126    -999.2500      44.5159    -999.2500       0.0085       4.7904       0.0084       2.6572       0.7622       3.5884
   2253.6003       8.5960      13.2581      -0.0026    -999.2500      45.1841    -999.2500     256.6601    -999.2500     198.0567    -999.2500     299.1489    -999.2500       0.0079       4.7251       0.0071       2.6536       0.9547       3.5545
   2253.7529       8.6228      12.6869      -0.0047    -999.2500      45.3558    -999.2500     364.6200    -999.2500     376.6264    -999.2500     274.6668    -999.2500       0.0076       4.6633       0.0067       2.6523       0.9442       3.6371
   2253.9053       8.7000      11.9043      -0.0064    -999.2500      45.6755    -999.2500     309.4728    -999.2500     374.2848    -999.2500     253.0893    -999.2500       0.0080       4.7100       0.0069       2.6527       0.6493       3.7599
   2254.0576       8.6767      10.8422      -0.0065    -999.2500      45.2228    -999.2500     273.7103    -999.2500     299.6307    -999.2500     323.0559    -999.2500       0.0091       4.8176       0.0070       2.6542       0.3044       3.8277
   2254.2100       8.6424      10.4790      -0.0076    -999.2500      44.3827    -999.2500     246.4463    -999.2500     277.0617    -999.2500     434.2798    -999.2500       0.0098       4.8917       0.0073       2.6495       0.0556       3.7746
   2254.3623       8.6026      11.3157      -0.0057    -999.2500      44.9132    -999.2500     221.0250    -999.2500     230.3735    -999.2500     330.6449    -999.2500       0.0100       4.9016       0.0080       2.6466       0.0302       3.7406
   2254.5149       8.5811      12.8516      -0.0027    -999.2500      45.4149    -999.2500     216.9717    -999.2500     203.2705    -999.2500     236.5105    -999.2500       0.0103       4.8751       0.0091       2.6451       0.0359       3.6254
   2254.6672       8.5743      13.6429       0.0010    -999.2500      43.9388    -999.2500     224.8071    -999.2500     203.3619    -999.2500     193.5715    -999.2500       0.0107       4.8124       0.0096       2.6481       0.0481       3.3729
   2254.8196       8.5743      13.4863       0.0039    -999.2500      40.4992    -999.2500     239.5228    -999.2500     212.8419    -999.2500     195.8013    -999.2500       0.0107       4.7317       0.0087       2.6531       0.3554       3.0074
   2254.9719       8.5709      13.6747       0.0006    -999.2500      36.7303    -999.2500     258.7137    -999.2500     225.9120    -999.2500     192.2236    -999.2500       0.0104       4.6726       0.0077       2.6533       0.8159       2.5669
   2255.1245       8.5761      13.4388      -0.0095    -999.2500      33.9209    -999.2500     278.1443    -999.2500     242.8278    -999.2500     188.2106    -999.2500       0.0099       4.6272       0.0064       2.6434       1.2822       2.2804
   2255.2769       8.5954      13.0950      -0.0174    -999.2500      33.2526    -999.2500     286.3918    -999.2500     255.2396    -999.2500     168.6626    -999.2500       0.0100       4.5508       0.0055       2.6340       1.5191       2.2442
   2255.4292       8.5882      14.1148      -0.0134    -999.2500      35.4480    -999.2500     287.5935    -999.2500     255.2883    -999.2500     161.8732    -999.2500       0.0116       4.4723       0.0058       2.6341       1.6942       2.3751
   2255.5815       8.5763      16.5075      -0.0015    -999.2500      40.8935    -999.2500     283.6099    -999.2500     250.6132    -999.2500     173.8081    -999.2500       0.0149       4.4757       0.0073       2.6457       1.7924       2.7150
   2255.7341       8.5870      21.1682       0.0090    -999.2500      48.7576    -999.2500     251.1920    -999.2500     242.6635    -999.2500     207.6675    -999.2500       0.0201       4.5588       0.0097       2.6561       2.1452       3.0717
   2255.8865       8.5972      26.2168       0.0102    -999.2500      57.0379    -999.2500     177.7791    -999.2500     209.1452    -999.2500     218.7742    -999.2500       0.0263       4.6382       0.0127       2.6561       2.3873       3.4314
   2256.0388       8.6152      31.6939       0.0066    -999.2500      63.8678    -999.2500     117.5634    -999.2500     153.2303    -999.2500     203.8313    -999.2500       0.0323       4.6404       0.0158       2.6551       2.7096       3.5821
   2256.1912       8.6334      35.5601       0.0047    -999.2500      68.2512    -999.2500      69.3526    -999.2500     101.9290    -999.2500     121.7952    -999.2500       0.0367       4.5813       0.0182       2.6594       2.8615       3.6396
   2256.3435       8.6465      37.1508       0.0034    -999.2500      69.9056    -999.2500      49.5214    -999.2500      62.5389    -999.2500      69.1559    -999.2500       0.0387       4.4812       0.0185       2.6633       3.2059       3.6467
   2256.4961       8.6816      36.2185      -0.0004    -999.2500      69.1751    -999.2500      38.3278    -999.2500      36.7666    -999.2500      57.7189    -999.2500       0.0390       4.4002       0.0173       2.6588       3.4128       3.6692
   2256.6484       8.6737      32.5197      -0.0081    -999.2500      66.6447    -999.2500      34.5481    -999.2500      30.8472    -999.2500      50.3399    -999.2500       0.0361       4.3791       0.0148       2.6456       3.3366       3.7993
   2256.8008       8.6706      27.0469      -0.0114    -999.2500      62.9203    -999.2500      35.4966    -999.2500      33.3750    -999.2500      48.3415    -999.2500       0.0320       4.3976       0.0125       2.6362       2.7284       3.9939
   2256.9531       8.6714      20.0530      -0.0111    -999.2500      58.3216    -999.2500      41.7934    -999.2500      43.0241    -999.2500      48.2933    -999.2500       0.0297       4.4256       0.0102       2.6327       1.6610       4.2606
   2257.1057       8.6702      14.0977      -0.0111    -999.2500      53.5011    -999.2500      52.4430    -999.2500      57.6095    -999.2500      54.7136    -999.2500       0.0288       4.4458       0.0089       2.6342       0.4690       4.3869
   2257.2581       8.6514      15.1343      -0.0128    -999.2500      50.8497    -999.2500      72.8052    -999.2500      75.0847    -999.2500      53.1565    -999.2500       0.0296       4.4452       0.0106       2.6406       0.1018       3.9763
   2257.4104       8.6441      20.5310      -0.0133    -999.2500      51.9341    -999.2500      85.2494    -999.2500      83.5892    -999.2500      63.2555    -999.2500       0.0337       4.3973       0.0134       2.6450       0.5214       3.4962
   2257.5627       8.6432      32.4427      -0.0099    -999.2500      57.0383    -999.2500      89.6085    -999.2500      87.1992    -999.2500      67.4234    -999.2500       0.0493       4.2841       0.0179       2.6167       2.0845       2.7384
   2257.7153       8.6367      42.7200      -0.0024    -999.2500      62.0015    -999.2500      87.9781    -999.2500      87.9735    -999.2500      81.7856    -999.2500       0.0735       4.0612       0.0209       2.5279       3.8298       2.1467
   2257.8677       8.6530      45.4876       0.0080    -999.2500      62.7642    -999.2500      49.7795    -999.2500      66.0455    -999.2500     101.7629    -999.2500       0.0876       3.7362       0.0207       2.4199       4.7028       1.9235
   2258.0200       8.8197      40.3045       0.0130    -999.2500      58.6720    -999.2500      23.5840    -999.2500      39.2902    -999.2500      73.6994    -999.2500       0.0788       3.5108       0.0173       2.3887       4.5620       2.0449
   2258.1724       8.6971      31.4917       0.0122    -999.2500      52.2916    -999.2500      13.1175    -999.2500      19.1267    -999.2500      34.7072    -999.2500       0.0529       3.5737       0.0138       2.4780       3.4749       2.3157
   2258.3247       8.6571      24.5760       0.0097    -999.2500      47.8814    -999.2500       9.1081    -999.2500       8.0856    -999.2500      11.0651    -999.2500       0.0333       3.8404       0.0115       2.5892       2.3972       2.5947
