#------------------------------------------------------------------------------
#
#   Created by  : [OpenWorks] Log Export Utility (LEXP)
#   Created on  : 2016-05-11 12:45:43
#   Project     : CANT971
#   User        : R5K
#   Interpreter : PEP
#
#------------------------------------------------------------------------------
~VERSION INFORMATION
VERS. 2.0 : CWLS Log ASCII Standard - version 2.0
WRAP.  NO : One line per depth step
~WELL INFORMATION
#MNEMONIC   .UNIT                                           VALUE :DESCRIPTION
#------------------------------------------------------------------------------
STRT        .M                                            80.3144 :START DEPTH
STOP        .M                                          1350.4160 :STOP DEPTH
STEP        .M                                             0.1524 :STEP
NULL        .                                           -999.2500 :NULL VALUE
COMP        .                                   PEMEX EXPL & PROD :COMPANY
WELL        .                                         CANTARELL-3 :WELL
FLD         .                                           CANTARELL :FIELD
LOC         .                                             UNKNOWN :LOCATION
CNTY        .                                      CD. DEL CARMEN :COUNTY
STAT        .                                            CAMPECHE :STATE
CTRY        .                                              MEXICO :COUNTRY
SRVC        .                                             UNKNOWN :SERVICE COMPANY
DATE        .                                             UNKNOWN :LOG DATE
UWI         .                                          3060000139 :UNIQUE WELL ID
XCOORD      .                                       600825.370000 :SURFACE X
YCOORD      .                                      2145118.460000 :SURFACE Y
LAT         .                                           19.398901 :LATITUDE
LON         .                                          -92.039777 :LONGITUDE
ELEV        .M                                            27.7000 :SURFACE ELEV
ELEV_TYPE   .                                                  KB :ELEV TYPE
~CURVE INFORMATION
#MNEMONIC.UNIT        API CODE       : CURVE DESCRIPTION
#------------------------------------------------------------------------------
DEPTH    .M                          : Measured Depth
CALI     .inches      UNKNOWN        : CALI:Import:rC:NONE:v0 (auto-composite)
DRHO     .g/cm3       UNKNOWN        : DRHO:Import:rC:NONE:v0 (auto-composite)
DT       .us/ft       UNKNOWN        : DT:Import:rC:NONE:v0 (auto-composite)
GR       .API         UNKNOWN        : GR:Import:rC:NONE:v0 (auto-composite)
ILD      .ohm.m       UNKNOWN        : ILD:Import:rC:NONE:v0 (auto-composite)
NPHI     .v/v_decimal UNKNOWN        : NPHI:Import:rC:NONE:v0 (auto-composite)
RHOB     .g/cm3       UNKNOWN        : RHOB:Import:rC:NONE:v0 (auto-composite)
SP       .mV          UNKNOWN        : SP:Import:rC:NONE:v0 (auto-composite)
~A     DEPTH         CALI         DRHO           DT           GR          ILD         NPHI         RHOB           SP
# ...
    427.3292      15.3680       0.0300     110.0704    -999.2500       1.3170    -999.2500       1.9370      70.6130
    427.4816      15.3650       0.0440     107.0130    -999.2500       1.2050    -999.2500       1.9475      70.7615
    427.6340      15.3620       0.0580     110.7522    -999.2500       1.0930    -999.2500       1.9580      70.9100
    427.7864      15.3175       0.0565     114.4860    -999.2500       1.0010    -999.2500       1.9715      71.8550
    427.9388      15.2730       0.0550     110.8932    -999.2500       0.9090    -999.2500       1.9850      72.8000
    428.0912      15.1090       0.0410     107.3060    -999.2500       0.9140    -999.2500       1.9845      72.7030
    428.2436      14.9450       0.0270     108.8481    -999.2500       0.9190    -999.2500       1.9840      72.6060
    428.3960      15.0590       0.0270     110.3880    -999.2500       0.9450    -999.2500       1.9820      72.2265
    428.5484      15.1730       0.0270     104.0173    -999.2500       0.9710    -999.2500       1.9800      71.8470
    428.7008      14.9641       0.0290      97.6560    -999.2500       1.0120    -999.2500       1.9820      71.4545
    428.8532      14.7550       0.0310      98.1124    -999.2500       1.0530    -999.2500       1.9840      71.0620
    429.0056      14.7770       0.0190      98.5680    -999.2500       1.0925    -999.2500       1.9835      70.3646
    429.1580      14.7990       0.0070     101.8634    -999.2500       1.1320    -999.2500       1.9830      69.6670
    429.3104      14.9335       0.0135     105.1540    -999.2500       1.1615    -999.2500       1.9795      69.7910
    429.4628      15.0680       0.0200     105.1035    -999.2500       1.1910    -999.2500       1.9760      69.9150
    429.6152      15.3204       0.0596     105.0530    -999.2500       1.1855    -999.2500       1.9640      70.7865
    429.7676      15.5730       0.0990     108.8695    -999.2500       1.1800    -999.2500       1.9520      71.6580
    429.9200      15.7230       0.0975     112.6800    -999.2500       1.1540    -999.2500       1.9360      71.5975
    430.0724      15.8730       0.0960     126.8984    -999.2500       1.1280    -999.2500       1.9200      71.5370
    430.2248      15.9290       0.0915     141.0960    -999.2500       1.0845    -999.2500       1.8980      71.3430
    430.3772      15.9850       0.0870     150.4522    -999.2500       1.0410    -999.2500       1.8760      71.1490
    430.5296      16.0355       0.0835     159.7940    -999.2500       1.0015    -999.2500       1.8775      71.0965
    430.6820      16.0860       0.0800     157.6588    -999.2500       0.9620    -999.2500       1.8790      71.0440
    430.8344      16.0830       0.0695     155.5270    -999.2500       0.9645    -999.2500       1.8865      70.8570
    430.9868      16.0800       0.0590     148.2811    -999.2500       0.9670    -999.2500       1.8940      70.6700
    431.1392      16.0340       0.0495     141.0460    -999.2500       0.9795    -999.2500       1.9025      70.0460
    431.2916      15.9880       0.0400     138.2661    -999.2500       0.9920    -999.2500       1.9110      69.4220
    431.4440      15.4997       0.0300     135.4900    -999.2500       1.0180    -999.2500       1.9200      69.5945
    431.5964      15.0110       0.0200     131.8564    -999.2500       1.0440    -999.2500       1.9290      69.7670
    431.7488      15.0445       0.0420     128.2280    -999.2500       1.0810    -999.2500       1.9420      70.3765
    431.9012      15.0780       0.0640     112.4291    -999.2500       1.1180    -999.2500       1.9550      70.9860
    432.0536      15.2215       0.0635      96.6540    -999.2500       1.1595    -999.2500       1.9515      71.2985
    432.2060      15.3650       0.0630      97.9949    -999.2500       1.2010    -999.2500       1.9480      71.6110
    432.3584      15.6714       0.0605      99.3340    -999.2500       1.2005    -999.2500       1.9340      71.7630
    432.5108      15.9780       0.0580     107.3228    -999.2500       1.2000    -999.2500       1.9200      71.9150
    432.6632      15.9610       0.0540     115.3000    -999.2500       1.2005    -999.2500       1.9110      71.9215
    432.8156      15.9440       0.0500     129.0750    -999.2500       1.2010    -999.2500       1.9020      71.9280
    432.9680      15.8370       0.0435     142.8290    -999.2500       1.2075    -999.2500       1.8965      71.8800
    433.1204      15.7300       0.0370     150.9657    -999.2500       1.2140    -999.2500       1.8910      71.8320
    433.2728      15.7320       0.0385     159.0910    -999.2500       1.2370    -999.2500       1.8830      71.4920
    433.4252      15.7340       0.0400     158.9519    -999.2500       1.2600    -999.2500       1.8750      71.1520
    433.5776      15.7165       0.0445     158.8130    -999.2500       1.3025    -999.2500       1.8760      71.2020
    433.7300      15.6990       0.0490     157.0326    -999.2500       1.3450    -999.2500       1.8770      71.2520
    433.8824      15.6380       0.0520     155.2550    -999.2500       1.4060    -999.2500       1.8800      71.5080
    434.0348      15.5770       0.0550     150.1609    -999.2500       1.4670    -999.2500       1.8830      71.7640
    434.1872      15.2176       0.0530     145.0740    -999.2500       1.4625    -999.2500       1.8860      72.1935
    434.3396      14.8580       0.0510     141.4248    -999.2500       1.4580    -999.2500       1.8890      72.6230
    434.4920      14.8585       0.0375     137.7810    -999.2500       1.4750    -999.2500       1.8975      73.0875
    434.6444      14.8590       0.0240     133.6257    -999.2500       1.4920    -999.2500       1.9060      73.5520
    434.7968      15.2234       0.0551     129.4770    -999.2500       1.5930    -999.2500       1.9205      73.5405
    434.9492      15.5880       0.0860     133.1307    -999.2500       1.6940    -999.2500       1.9350      73.5290
    435.1016      15.5790       0.0855     136.7790    -999.2500       1.9510    -999.2500       1.9330      73.0535
    435.2540      15.5700       0.0850     136.6159    -999.2500       2.2080    -999.2500       1.9310      72.5780
    435.4064      15.3501       0.0780     136.4530    -999.2500       2.6385    -999.2500       1.9320      72.6650
    435.5588      15.1300       0.0710     133.9350    -999.2500       3.0690    -999.2500       1.9330      72.7520
    435.7112      15.1340       0.0414     131.4210    -999.2500       3.3280    -999.2500       1.9450      73.3100
    435.8636      15.1380       0.0120     124.8081    -999.2500       3.5870    -999.2500       1.9570      73.8680
    436.0160      15.1705       0.0155     118.2050    -999.2500       3.4120    -999.2500       1.9560      75.7045
    436.1684      15.2030       0.0190     111.5583    -999.2500       3.2370    -999.2500       1.9550      77.5410
    436.3208      15.1105       0.0305     104.9220    -999.2500       2.7070    -999.2500       1.9465      77.4430
    436.4732      15.0180       0.0420     105.7176    -999.2500       2.1770    -999.2500       1.9380      77.3450
    436.6256      15.0955       0.0455     106.5120    -999.2500       1.8855    -999.2500       1.9220      76.9660
    436.7780      15.1730       0.0490     111.7389    -999.2500       1.5940    -999.2500       1.9060      76.5870
    436.9304      15.1025       0.0540     116.9580    -999.2500       1.4480    -999.2500       1.9005      76.3190
    437.0828      15.0320       0.0590     116.3996    -999.2500       1.3020    -999.2500       1.8950      76.0510
    437.2352      14.5166       0.0685     115.8420    -999.2500       1.2205    -999.2500       1.8885      75.9870
    437.3876      14.0010       0.0780     113.0610    -999.2500       1.1390    -999.2500       1.8820      75.9230
    437.5400      14.0080       0.0780     110.2840    -999.2500       1.1405    -999.2500       1.8830      75.7865
    437.6924      14.0150       0.0780     106.2209    -999.2500       1.1420    -999.2500       1.8840      75.6500
