#------------------------------------------------------------------------------
#
#   Created by  : [OpenWorks] Log Export Utility (LEXP)
#   Created on  : 2016-05-23 11:56:20
#   Project     : CANT971
#   User        : R5K
#   Interpreter : PEP
#
#------------------------------------------------------------------------------
~VERSION INFORMATION
VERS. 2.0 : CWLS Log ASCII Standard - version 2.0
WRAP.  NO : One line per depth step
~WELL INFORMATION
#MNEMONIC   .UNIT                                           VALUE :DESCRIPTION
#------------------------------------------------------------------------------
STRT        .M                                          1446.1469 :START DEPTH
STOP        .M                                          3739.7668 :STOP DEPTH
STEP        .M                                             0.1524 :STEP
NULL        .                                           -999.2500 :NULL VALUE
COMP        .                                             UNKNOWN :COMPANY
WELL        .                                               468-V :WELL
FLD         .                                             UNKNOWN :FIELD
LOC         .                                             UNKNOWN :LOCATION
CNTY        .                                             UNKNOWN :COUNTY
STAT        .                                             UNKNOWN :STATE
CTRY        .                                             UNKNOWN :COUNTRY
SRVC        .                                             UNKNOWN :SERVICE COMPANY
DATE        .                                             UNKNOWN :LOG DATE
UWI         .                                               468-V :UNIQUE WELL ID
XCOORD      .                                       598699.140000 :SURFACE X
YCOORD      .                                      2143301.650000 :SURFACE Y
LAT         .                                           19.382589 :LATITUDE
LON         .                                          -92.060118 :LONGITUDE
ELEV        .M                                             0.0000 :SURFACE ELEV
ELEV_TYPE   .                                                  NA :ELEV TYPE
~CURVE INFORMATION
#MNEMONIC.UNIT        API CODE       : CURVE DESCRIPTION
#------------------------------------------------------------------------------
DEPTH    .M                          : Measured Depth
CALI     .inches      UNKNOWN        : CALI:PETROWORKS:rC:NONE:v1 
DRHO     .g/cm3       UNKNOWN        : DRHO:PETROWORKS:rC:NONE:v1 
DT       .us/ft       UNKNOWN        : DT:sonico:rC:NONE:v0 (auto-composite)
GR       .API         UNKNOWN        : GR:PETROWORKS:rC:NONE:v1 
GR-LWD   .API         UNKNOWN        : GR-LWD:PETROWORKS:rC:NONE:v3 
ILD-LWD  .ohm.m       UNKNOWN        : ILD-LWD:PETROWORKS:rC:NONE:v3 
ILM-LWD  .UNKNOWN     UNKNOWN        : ILM-LWD:PETROWORKS:rC:NONE:v3 
NPHI     .v/v_decimal UNKNOWN        : NPHI:PETROWORKS:rC:NONE:v1 
PEF      .b/elec      UNKNOWN        : PEF:PETROWORKS:rC:NONE:v1 
RHOB     .g/cm3       UNKNOWN        : RHOB:PETROWORKS:rC:NONE:v1 
~A     DEPTH         CALI         DRHO           DT           GR       GR-LWD      ILD-LWD      ILM-LWD         NPHI          PEF         RHOB
# ...
   3605.3501       6.2830      -0.0001      57.8793      57.9640      37.6632      76.7004      77.2898       0.0667       3.3851       2.7779
   3605.5024       6.2827       0.0051      55.8450      58.7852      40.9391      71.3333      70.8143       0.0701       3.4199       2.7573
   3605.6548       6.2827       0.0061      55.2984      61.6068      42.9797      69.1866      67.7827       0.0701       3.4103       2.7359
   3605.8071       6.2871       0.0020      54.9365      66.1805      43.6678      67.6484      65.6819       0.0676       3.3754       2.7208
   3605.9597       6.3089      -0.0003      54.3997      67.9480      41.6542      63.6341      61.3413       0.0612       3.3584       2.7400
   3606.1121       6.3147       0.0002      53.7552      65.1814      39.2033      58.9217      56.3829       0.0559       3.3634       2.7727
   3606.2644       6.3411       0.0022      53.0320      57.3002      37.0488      52.8694      50.0681       0.0522       3.3958       2.7854
   3606.4167       6.3810       0.0018      52.3808      53.5282      36.4009      54.0413      50.6678       0.0528       3.4318       2.7878
   3606.5693       6.3895       0.0007      52.0038      53.7169      35.1883      61.2851      57.0783       0.0519       3.4288       2.7871
   3606.7217       6.3770       0.0009      51.7813      53.4654      32.4568      68.2037      63.6383       0.0515       3.3765       2.7876
   3606.8740       6.3508       0.0001      51.7003      50.4718      31.9668      70.7554      65.7211       0.0544       3.2897       2.7767
   3607.0264       6.3452      -0.0021      51.6891      49.8772      31.4761      77.8738      69.0775       0.0546       3.2646       2.7567
   3607.1790       6.3358      -0.0025      51.7339      50.6474      31.5306      78.7958      70.1013       0.0538       3.2840       2.7391
   3607.3313       6.3344      -0.0007      51.7535      48.3243      31.7399      78.0292      69.2582       0.0532       3.2956       2.7451
   3607.4836       6.3196      -0.0015      51.7897      46.1031      32.4712      76.6255      66.8645       0.0535       3.2976       2.7659
   3607.6360       6.3122      -0.0041      52.0356      46.1530      33.6696      74.6396      64.2216       0.0546       3.3069       2.7763
   3607.7883       6.3147      -0.0066      52.5662      45.3022      35.1910      70.7681      60.4621       0.0561       3.2881       2.7778
   3607.9409       6.3268      -0.0098      53.1842      46.9764      34.7645      66.4050      57.3303       0.0577       3.2300       2.7673
   3608.0933       6.3322      -0.0133      53.7304      52.8683      33.1736      62.0458      54.3461       0.0594       3.2023       2.7474
   3608.2456       6.3330      -0.0107      54.4114      53.3530      30.3299      61.1687      54.0075       0.0590       3.2515       2.7407
   3608.3979       6.3306      -0.0042      55.3895      47.6294      29.9544      60.4591      53.5961       0.0566       3.3316       2.7469
   3608.5505       6.3217      -0.0015      56.3643      45.1043      30.2234      58.8877      52.7991       0.0537       3.4097       2.7607
   3608.7029       6.3112       0.0003      56.8902      46.5820      33.8476      55.1000      50.9874       0.0528       3.4787       2.7814
   3608.8552       6.3230       0.0021      56.4638      50.1504      35.5638      55.1000      50.5926       0.0517       3.4736       2.7857
   3609.0076       6.3350       0.0023      55.6616      55.5288      37.9658      54.1894      50.3478       0.0513       3.4546       2.7765
   3609.1602       6.3316       0.0005      54.6683      60.8407      36.4084      54.7220      50.7429       0.0516       3.4241       2.7720
   3609.3125       6.3281      -0.0017      53.7410      57.2417      34.4055      55.1881      50.7921       0.0517       3.3612       2.7734
   3609.4648       6.3264      -0.0045      53.0598      49.1976      33.3417      54.2079      50.7614       0.0539       3.3308       2.7734
   3609.6172       6.3194      -0.0067      52.5718      49.1311      33.0912      53.2727      50.7028       0.0557       3.3455       2.7724
   3609.7695       6.2858      -0.0035      52.3685      50.4009      33.7849      52.8796      50.1831       0.0571       3.4395       2.7663
   3609.9221       6.2811      -0.0001      52.2154      51.3426      34.0506      53.2323      50.1685       0.0579       3.4795       2.7673
   3610.0745       6.2700       0.0017      51.9332      54.3329      34.0840      54.9550      51.4310       0.0575       3.4078       2.7832
   3610.2268       6.2614       0.0015      51.5005      52.2950      32.8790      54.5672      52.7723       0.0565       3.3532       2.7891
   3610.3792       6.2617      -0.0029      50.9577      45.4093      32.4619      56.1150      54.0389       0.0535       3.3484       2.7863
   3610.5317       6.2613      -0.0068      50.4681      44.2569      32.0074      58.4829      56.2977       0.0523       3.3529       2.7955
   3610.6841       6.2616      -0.0080      50.2239      47.4090      31.9093      59.6592      58.2937       0.0498       3.3821       2.8186
   3610.8364       6.2600      -0.0082      50.3346      47.9833      31.3035      60.0106      58.6733       0.0486       3.4220       2.8208
   3610.9888       6.2559      -0.0094      50.6465      42.7593      29.6398      60.9747      59.2067       0.0490       3.4448       2.7987
   3611.1414       6.2546      -0.0085      50.7911      38.4456      28.1179      61.2737      59.2605       0.0490       3.4921       2.7806
   3611.2937       6.2555      -0.0020      50.6725      39.2534      26.8806      60.9144      59.0699       0.0490       3.6105       2.7754
   3611.4460       6.2538       0.0032      50.4764      38.9065      26.6305      61.0236      58.7513       0.0492       3.6926       2.7760
   3611.5984       6.2537       0.0022      50.5035      36.4801      26.2866      61.6490      58.3629       0.0488       3.7025       2.7648
   3611.7507       6.2598      -0.0010      51.0982      36.9591      26.6100      61.1123      59.0973       0.0490       3.6200       2.7522
   3611.9033       6.2782      -0.0025      51.9776      37.1106      27.0804      60.2816      59.0190       0.0501       3.4822       2.7494
   3612.0557       6.2822      -0.0018      52.7864      37.9428      28.4808      58.5201      58.5698       0.0529       3.4431       2.7501
   3612.2080       6.2827      -0.0005      53.3133      40.9141      27.5667      58.3939      58.0838       0.0555       3.4989       2.7484
   3612.3604       6.2827      -0.0010      53.5871      43.2085      26.9021      56.7499      56.0401       0.0583       3.5652       2.7399
   3612.5129       6.2827      -0.0023      54.1376      40.3853      25.4958      54.4288      53.9276       0.0581       3.5996       2.7294
   3612.6653       6.2827      -0.0015      57.0880      37.1939      26.7720      52.6778      52.3385       0.0565       3.5826       2.7450
   3612.8176       6.2825       0.0002      60.8963      40.1408      28.3304      51.2275      50.9420       0.0579       3.5537       2.7669
   3612.9700       6.2818       0.0003      64.1899      47.5941      30.5836      49.5284      49.5064       0.0619       3.5126       2.7662
   3613.1226       6.2827       0.0008      66.4863      52.3745      33.3578      48.6446      48.8266       0.0639       3.4719       2.7521
   3613.2749       6.2821       0.0050      67.6362      55.6902      39.0001      47.8902      48.1662       0.0674       3.3817       2.7473
   3613.4272       6.2805       0.0056      66.7604      62.4249      44.5680      46.7238      46.7639       0.0708       3.3165       2.7448
   3613.5796       6.2880       0.0019      64.5485      77.9454      53.9901      45.4089      44.9490       0.0746       3.2569       2.7282
   3613.7319       6.3087       0.0013      61.7554      84.0430      68.0711      38.7578      38.3346       0.0765       3.2080       2.7101
