#------------------------------------------------------------------------------
#
#   Created by  : [OpenWorks] Log Export Utility (LEXP)
#   Created on  : 2016-05-23 11:56:01
#   Project     : CANT971
#   User        : R5K
#   Interpreter : PEP
#
#------------------------------------------------------------------------------
~VERSION INFORMATION
VERS. 2.0 : CWLS Log ASCII Standard - version 2.0
WRAP.  NO : One line per depth step
~WELL INFORMATION
#MNEMONIC   .UNIT                                           VALUE :DESCRIPTION
#------------------------------------------------------------------------------
STRT        .M                                          1572.0055 :START DEPTH
STOP        .M                                          3732.1230 :STOP DEPTH
STEP        .M                                             0.1524 :STEP
NULL        .                                           -999.2500 :NULL VALUE
COMP        .                                             UNKNOWN :COMPANY
WELL        .                                               428-V :WELL
FLD         .                                             UNKNOWN :FIELD
LOC         .                                             UNKNOWN :LOCATION
CNTY        .                                             UNKNOWN :COUNTY
STAT        .                                             UNKNOWN :STATE
CTRY        .                                             UNKNOWN :COUNTRY
SRVC        .                                             UNKNOWN :SERVICE COMPANY
DATE        .                                             UNKNOWN :LOG DATE
UWI         .                                               428-V :UNIQUE WELL ID
XCOORD      .                                            0.000000 :SURFACE X
YCOORD      .                                            0.000000 :SURFACE Y
LAT         .                                            0.000000 :LATITUDE
LON         .                                            0.000000 :LONGITUDE
ELEV        .M                                             0.0000 :SURFACE ELEV
ELEV_TYPE   .                                                  KB :ELEV TYPE
~CURVE INFORMATION
#MNEMONIC .UNIT        API CODE       : CURVE DESCRIPTION
#------------------------------------------------------------------------------
DEPTH     .M                          : Measured Depth
CALIH-LWD .inches      UNKNOWN        : CALIH-LWD:PETROWORKS:rC:NONE:v5 
CALIV-LWD .inches      UNKNOWN        : CALIV-LWD:PETROWORKS:rC:NONE:v5 
CGR       .API         UNKNOWN        : CGR:Espectrometria:rC:NONE:v0 (auto-composite)
DRHO-LWD  .g/cm3       UNKNOWN        : DRHO-LWD:PETROWORKS:rC:NONE:v5 
DT        .us/ft       UNKNOWN        : DT:sonico:rC:NONE:v0 (auto-composite)
GR        .API         UNKNOWN        : GR:Espectrometria:rC:NONE:v0 (auto-composite)
GR-LWD    .API         UNKNOWN        : GR-LWD:PETROWORKS:rC:NONE:v3 
ILD-LWD   .ohm.m       UNKNOWN        : ILD-LWD:PETROWORKS:rC:NONE:v2 
ILM-LWD   .ohm.m       UNKNOWN        : ILM-LWD:PETROWORKS:rC:NONE:v2 
LLD-LWD   .ohm.m       UNKNOWN        : LLD-LWD:registros-LWD:rC:NONE:v0 (auto-composite)
LLS-LWD   .ohm.m       UNKNOWN        : LLS-LWD:registros-LWD:rC:NONE:v0 (auto-composite)
MSFL-LWD  .ohm.m       UNKNOWN        : MSFL-LWD:registros-LWD:rC:NONE:v0 (auto-composite)
NPHI-LWD  .v/v_decimal UNKNOWN        : NPHI-LWD:PETROWORKS:rC:NONE:v5 
PEF-LWD   .b/elec      UNKNOWN        : PEF-LWD:PETROWORKS:rC:NONE:v5 
POTA      .wtpercent   UNKNOWN        : POTA:Espectrometria:rC:NONE:v0 (auto-composite)
RHOB-LWD  .g/cm3       UNKNOWN        : RHOB-LWD:PETROWORKS:rC:NONE:v5 
THOR      .UNKNOWN     UNKNOWN        : THOR:Espectrometria:rC:NONE:v0 (auto-composite)
URAN      .UNKNOWN     UNKNOWN        : URAN:Espectrometria:rC:NONE:v0 (auto-composite)
~A     DEPTH    CALIH-LWD    CALIV-LWD          CGR     DRHO-LWD           DT           GR       GR-LWD      ILD-LWD      ILM-LWD      LLD-LWD      LLS-LWD     MSFL-LWD     NPHI-LWD      PEF-LWD         POTA     RHOB-LWD         THOR         URAN
# ...
   3226.6123       6.7257       7.1757       7.4784       0.2409      52.4427      23.4331      23.8200     127.4945     130.3956    -999.2500    -999.2500    -999.2500       0.0642       2.6548       0.0028       2.7043       1.0260       1.7763
   3226.7646       6.6653       7.1020       7.6005       0.2368      53.0620      23.7862      23.8261     135.0941     137.5283    -999.2500    -999.2500    -999.2500       0.0602       2.7172       0.0029       2.7089       1.0085       1.8020
   3226.9170       6.6408       7.0888       7.4402       0.2266      52.4091      23.7021      24.1712     143.4797     143.0246    -999.2500    -999.2500    -999.2500       0.0589       2.8063       0.0031       2.7027       0.8971       1.8105
   3227.0696       6.7067       7.1321       7.5779       0.2257      51.1522      23.2539      24.6282     140.4200     139.7693    -999.2500    -999.2500    -999.2500       0.0575       2.8764       0.0035       2.7028       0.7633       1.7453
   3227.2219       6.7932       7.1088       7.6866       0.2310      50.3874      23.5278      25.0858     137.9202     144.0717    -999.2500    -999.2500    -999.2500       0.0572       2.8709       0.0037       2.7110       0.6925       1.7637
   3227.3743       6.7797       7.0733       7.7821       0.2360      50.2563      24.3256      25.5361     142.8591     145.5210    -999.2500    -999.2500    -999.2500       0.0577       2.8723       0.0038       2.7071       0.7085       1.8419
   3227.5266       6.7114       7.0038       7.8387       0.2423      50.3985      24.7871      25.6200     143.1475     146.4747    -999.2500    -999.2500    -999.2500       0.0592       2.8627       0.0036       2.6946       0.7803       1.8869
   3227.6792       6.7033       7.0132       7.2375       0.2463      50.7047      25.1934      25.6271     142.2680     138.6541    -999.2500    -999.2500    -999.2500       0.0609       2.8602       0.0031       2.6779       0.8035       1.9991
   3227.8315       6.6774       6.9692       6.4024       0.2388      51.1532      25.4243      26.0073     130.7267     134.7262    -999.2500    -999.2500    -999.2500       0.0622       2.7956       0.0029       2.6481       0.6601       2.1178
   3227.9839       6.7048       7.0036       5.8959       0.2235      51.5755      25.6283      26.0773     141.0676     138.3251    -999.2500    -999.2500    -999.2500       0.0636       2.8228       0.0036       2.6189       0.2422       2.1969
   3228.1362       6.7448       7.0160       6.0479       0.2360      51.6716      26.0287      26.4560     135.8528     132.3044    -999.2500    -999.2500    -999.2500       0.0646       2.9044       0.0041       2.6383       0.0989       2.2245
   3228.2886       6.6919       6.9378       6.7766       0.2511      51.3607      26.9454      25.7027     138.7061     135.6276    -999.2500    -999.2500    -999.2500       0.0640       2.9300       0.0043       2.6792       0.2173       2.2455
   3228.4412       6.7003       6.9585       6.4255       0.2529      50.8219      27.3307      25.6122     138.5296     138.7224    -999.2500    -999.2500    -999.2500       0.0646       2.8806       0.0040       2.6982       0.2349       2.3274
   3228.5935       6.7097       6.9480       5.6217       0.2581      50.3597      27.2098      25.1974     134.7776     134.6020    -999.2500    -999.2500    -999.2500       0.0649       2.7713       0.0038       2.7001       0.0730       2.4034
   3228.7458       6.6001       6.8397       5.2050       0.2553      50.1162      26.9039      25.1700     140.9743     138.2340    -999.2500    -999.2500    -999.2500       0.0658       2.7206       0.0036       2.6770       0.0407       2.4158
   3228.8982       6.5815       6.7762       5.9315       0.2488      50.0036      26.0227      25.1784     141.0881     138.3316    -999.2500    -999.2500    -999.2500       0.0660       2.6261       0.0041       2.6601       0.0476       2.2368
   3229.0508       6.4608       6.7283       5.9300       0.2024      49.9911      26.0161      25.6282     130.9240     133.5691    -999.2500    -999.2500    -999.2500       0.0667       2.6064       0.0037       2.6028       0.2041       2.2363
   3229.2031       6.5029       6.8700       7.0878       0.2039      50.2018      25.9251      26.0869     129.6703     128.8886    -999.2500    -999.2500    -999.2500       0.0675       2.6397       0.0036       2.6227       0.5634       2.0972
   3229.3555       6.5049       6.8590       9.5552       0.2147      51.1174      25.6299      26.9540     137.9472     140.4174    -999.2500    -999.2500    -999.2500       0.0683       2.6916       0.0034       2.6431       1.3618       1.7897
   3229.5078       6.5382       6.8242       9.8837       0.2310      52.7857      25.1780      26.5200     149.9454     144.0259    -999.2500    -999.2500    -999.2500       0.0682       2.6605       0.0032       2.6653       1.5501       1.7028
   3229.6604       6.5911       6.8192       8.7729       0.2226      54.6758      24.5803      26.5204     148.0010     141.8678    -999.2500    -999.2500    -999.2500       0.0682       2.6796       0.0031       2.6356       1.2545       1.7599
   3229.8127       6.6910       6.8950       8.5666       0.2267      55.8398      24.0630      26.5569     152.6622     146.5264    -999.2500    -999.2500    -999.2500       0.0667       2.6441       0.0036       2.6172       0.9980       1.7253
   3229.9651       6.7631       6.9615       9.5906       0.2386      55.8830      24.1082      26.9249     147.2825     150.9367    -999.2500    -999.2500    -999.2500       0.0656       2.6868       0.0047       2.6242       0.8624       1.6163
   3230.1174       6.7581       6.9867      10.9307       0.2426      55.2945      24.4294      26.4678     149.8019     156.1203    -999.2500    -999.2500    -999.2500       0.0648       2.6419       0.0049       2.6395       1.1491       1.5028
   3230.2698       6.6709       6.9491      11.7381       0.2317      54.6376      24.9407      26.0110     152.4643     155.1744    -999.2500    -999.2500    -999.2500       0.0650       2.6616       0.0046       2.6532       1.5122       1.4699
   3230.4224       6.5585       6.8535      12.0149       0.2145      54.4710      25.3271      25.6189     152.2905     153.6757    -999.2500    -999.2500    -999.2500       0.0658       2.6671       0.0041       2.6512       1.7763       1.4821
   3230.5747       6.4308       6.7368      11.0912       0.1917      54.9314      24.9048      25.5435     154.3868     156.8536    -999.2500    -999.2500    -999.2500       0.0655       2.7663       0.0041       2.6303       1.5279       1.5379
   3230.7271       6.4145       6.6793       9.6129       0.1850      55.4792      24.4907      24.9268     155.8882     161.1255    -999.2500    -999.2500    -999.2500       0.0652       2.7178       0.0043       2.6159       1.0250       1.6564
   3230.8794       6.4516       6.6943       7.3353       0.1892      55.4995      24.1080      23.5586     166.7426     167.0006    -999.2500    -999.2500    -999.2500       0.0646       2.6444       0.0047       2.6199       0.2124       1.8673
   3231.0320       6.5091       6.7492       6.8094       0.2055      54.9301      23.6763      22.2932     172.5742     170.8767    -999.2500    -999.2500    -999.2500       0.0657       2.5241       0.0046       2.6523       0.1028       1.8778
   3231.1843       6.5662       6.8222       8.3173       0.2115      54.2493      23.4560      21.6847     173.2950     166.5120    -999.2500    -999.2500    -999.2500       0.0649       2.5465       0.0041       2.6839       0.7269       1.6854
   3231.3367       6.5842       6.8770       9.5974       0.2126      53.9822      23.4649      22.2500     170.6898     166.6789    -999.2500    -999.2500    -999.2500       0.0631       2.6043       0.0041       2.7029       1.1108       1.5439
   3231.4890       6.5580       6.8445       9.3999       0.2051      54.2629      23.7390      23.1616     165.8979     169.7477    -999.2500    -999.2500    -999.2500       0.0610       2.6094       0.0040       2.6958       1.0892       1.5964
