#------------------------------------------------------------------------------
#
#   Created by  : [OpenWorks] Log Export Utility (LEXP)
#   Created on  : 2016-05-23 11:55:55
#   Project     : CANT971
#   User        : R5K
#   Interpreter : PEP
#
#------------------------------------------------------------------------------
~VERSION INFORMATION
VERS. 2.0 : CWLS Log ASCII Standard - version 2.0
WRAP.  NO : One line per depth step
~WELL INFORMATION
#MNEMONIC   .UNIT                                           VALUE :DESCRIPTION
#------------------------------------------------------------------------------
STRT        .M                                          2870.4541 :START DEPTH
STOP        .M                                          3966.9722 :STOP DEPTH
STEP        .M                                             0.1524 :STEP
NULL        .                                           -999.2500 :NULL VALUE
COMP        .                                             UNKNOWN :COMPANY
WELL        .                                            418D-ST1 :WELL
FLD         .                                             UNKNOWN :FIELD
LOC         .                                             UNKNOWN :LOCATION
CNTY        .                                             UNKNOWN :COUNTY
STAT        .                                             UNKNOWN :STATE
CTRY        .                                             UNKNOWN :COUNTRY
SRVC        .                                             UNKNOWN :SERVICE COMPANY
DATE        .                                             UNKNOWN :LOG DATE
UWI         .                                            418D-ST1 :UNIQUE WELL ID
XCOORD      .                                       597130.010000 :SURFACE X
YCOORD      .                                      2144879.410000 :SURFACE Y
LAT         .                                           19.396924 :LATITUDE
LON         .                                          -92.074978 :LONGITUDE
ELEV        .M                                             0.0000 :SURFACE ELEV
ELEV_TYPE   .                                                  NA :ELEV TYPE
~CURVE INFORMATION
#MNEMONIC.UNIT        API CODE       : CURVE DESCRIPTION
#------------------------------------------------------------------------------
DEPTH    .M                          : Measured Depth
CALI     .inches      UNKNOWN        : CALI:litodensidad:rC:NONE:v0 (auto-composite)
CGR      .API         UNKNOWN        : CGR:litodensidad:rC:NONE:v0 (auto-composite)
DRHO     .g/cm3       UNKNOWN        : DRHO:litodensidad:rC:NONE:v0 (auto-composite)
DT       .us/ft       UNKNOWN        : DT:DT-Load:rC:NONE:v0 (auto-composite)
GR       .API         UNKNOWN        : GR:litodensidad:rC:NONE:v0 (auto-composite)
LLD      .ohm.m       UNKNOWN        : LLD:PETROWORKS:rC:NONE:v1 
LLS      .ohm.m       UNKNOWN        : LLS:PETROWORKS:rC:NONE:v1 
MSFL     .ohm.m       UNKNOWN        : MSFL:resistivos:rC:NONE:v0 (auto-composite)
NPHI     .v/v_decimal UNKNOWN        : NPHI:litodensidad:rC:NONE:v0 (auto-composite)
PEF      .UNKNOWN     UNKNOWN        : PEF:litodensidad:rC:NONE:v0 (auto-composite)
POTA     .UNKNOWN     UNKNOWN        : POTA:litodensidad:rC:NONE:v0 (auto-composite)
RHOB     .g/cm3       UNKNOWN        : RHOB:litodensidad:rC:NONE:v0 (auto-composite)
THOR     .ppm         UNKNOWN        : THOR:litodensidad:rC:NONE:v0 (auto-composite)
URAN     .ppm         UNKNOWN        : URAN:litodensidad:rC:NONE:v0 (auto-composite)
~A     DEPTH         CALI          CGR         DRHO           DT           GR          LLD          LLS         MSFL         NPHI          PEF         POTA         RHOB         THOR         URAN
# ...
   3216.0974      20.0938      73.6036       0.0406    -999.2500      95.1899       5.3156       4.8996       0.4429       0.2740       5.1758       0.0246       2.3508       9.3019       2.7743
   3216.2498      20.8594      86.1241       0.0363    -999.2500     104.1096       4.3764       4.2011       0.4526       0.2801       4.9297       0.0295       2.4339      10.5876       2.3116
   3216.4021      21.1875      98.1895       0.0420    -999.2500     117.9862       5.0806       4.9063       0.4326       0.2748       5.0547       0.0346       2.4907      11.6492       2.5443
   3216.5544      22.0156      97.9108       0.0330    -999.2500     117.3393       6.0586       5.8528       0.4385       0.2948       5.0039       0.0343       2.4696      11.6825       2.4970
   3216.7068      23.9063      97.6049       0.0306    -999.2500     117.0321       6.8435       6.4935       0.4751       0.2970       5.2461       0.0342       2.4755      11.6633       2.4968
   3216.8594      24.6719      94.7332       0.0385    -999.2500     112.9535       7.3538       6.9483       0.5205       0.2551       5.1094       0.0332       2.5000      11.3024       2.3417
   3217.0117      23.5781      94.4100       0.0517    -999.2500     112.6832       8.7544       8.3242       0.4399       0.1931       4.9180       0.0329       2.5355      11.3697       2.3485
   3217.1641      24.1406      92.5112       0.0412    -999.2500     110.5281      13.6851      12.4504       0.4189       0.1385       4.7891       0.0321       2.5453      11.2007       2.3156
   3217.3164      18.4219      80.2869       0.0330    -999.2500      96.8391      16.3290      14.5272       0.4600       0.1429       4.5156       0.0253       2.5889      10.7979       2.1273
   3217.4690      13.4063      53.5430       0.0329    -999.2500      66.0904      17.9262      15.7518       0.4438       0.1294       4.2031       0.0204       2.6510       5.6827       1.6126
   3217.6213      13.3984      47.6265       0.0236    -999.2500      57.0940      17.0221      15.4520       0.4482       0.0871       3.7480       0.0165       2.6923       5.7860       1.2168
   3217.7737      13.3750      48.4529       0.0083    -999.2500      58.3632      12.4277      11.9087       0.4688       0.0611       3.4453       0.0167       2.6816       5.8915       1.2737
   3217.9260      13.3438      48.3766       0.0085    -999.2500      58.2147      10.4190      10.2830       0.4673       0.0563       3.2227       0.0169       2.6745       5.7910       1.2644
   3218.0786      13.3438      47.0547       0.0108    -999.2500      56.3474       9.0245       8.8958       0.4604       0.0678       3.1465       0.0164       2.6360       5.6772       1.1943
   3218.2310      13.3438      54.1642       0.0115    -999.2500      64.0232       7.3315       7.0709       0.4512       0.0696       2.9883       0.0168       2.5788       7.4231       1.2671
   3218.3833      13.3516      67.5426       0.0104    -999.2500      78.9993       4.7791       4.6825       0.4365       0.0743       3.5117       0.0226       2.5168       8.5224       1.4725
   3218.5356      13.4609      78.0165       0.0242    -999.2500      90.6308       4.1685       4.1239       0.4302       0.0828       4.5508       0.0262       2.4680       9.7961       1.6212
   3218.6880      14.1250      82.7128       0.0475    -999.2500      96.4403       3.7878       3.7789       0.4292       0.1505       5.6602       0.0274       2.3749      10.5438       1.7643
   3218.8406      16.1406      94.6675       0.0628    -999.2500     107.5191       3.4231       3.3922       0.4229       0.2261       6.1406       0.0328       2.3357      11.4815       1.6517
   3218.9929      18.8750      95.2736       0.0635    -999.2500     108.4106       4.0893       4.0272       0.4263       0.2859       5.3828       0.0331       2.3580      11.4966       1.6884
   3219.1453      19.0938      96.8579       0.0918    -999.2500     111.1625       4.8424       4.7582       0.4155       0.3184       5.5977       0.0337       2.4766      11.6797       1.8385
   3219.2976      15.6172      91.4336       0.0891    -999.2500     104.4229       6.0096       5.8208       0.4385       0.3369       6.4258       0.0323       2.5153      10.8240       1.6694
   3219.4502      17.0313      91.2146       0.0342    -999.2500     104.9269      10.0440       9.5915       0.4839       0.3126       6.4453       0.0321       2.4816      10.8540       1.7624
   3219.6025      19.0781      83.5273       0.0070    -999.2500      96.4187      14.3523      13.5092       0.5015       0.2396       5.5820       0.0280       2.5210      10.5079       1.6568
   3219.7549      16.5781      69.2181       0.0122    -999.2500      82.4979      13.0365      12.4385       0.4883       0.1696       4.4883       0.0235       2.6431       8.5917       1.7068
   3219.9072      13.3594      67.6620       0.0088    -999.2500      80.2628      12.7759      12.3653       0.4556       0.1221       3.8926       0.0233       2.7155       8.2732       1.6195
   3220.0598      13.3672      68.1022      -0.0033    -999.2500      81.1176      12.3926      11.9599       0.4380       0.0821       3.7227       0.0236       2.7248       8.2332       1.6728
   3220.2122      13.3984      76.5667      -0.0035    -999.2500      93.8688      12.4970      11.8551       0.4263       0.0705       3.5996       0.0289       2.7142       8.2695       2.2237
   3220.3645      13.3750      79.0765      -0.0029    -999.2500      97.8356      11.3218      10.7565       0.4375       0.0786       3.6777       0.0296       2.6822       8.6228       2.4110
   3220.5168      13.5000      65.9958      -0.0029    -999.2500      84.4562       9.6726       9.3764       0.4517       0.0795       4.3281       0.0245       2.6830       7.2860       2.3726
   3220.6692      13.3516      59.7182       0.0034    -999.2500      73.5253       8.2770       8.1647       0.4443       0.0801       4.8984       0.0225       2.7013       6.4626       1.7745
   3220.8218      13.7500      62.6292       0.0067    -999.2500      77.2027       7.7528       7.6856       0.4277       0.0714       5.1211       0.0237       2.6624       6.7269       1.8730
   3220.9741      14.9766      68.0267       0.0037    -999.2500      82.6108       9.1272       8.9830       0.4331       0.1079       4.8477       0.0256       2.6328       7.3700       1.8744
   3221.1265      13.3047      82.2361       0.0009    -999.2500      97.1206       9.4653       9.3212       0.4282       0.1451       4.1367       0.0297       2.6047       9.4282       1.9130
   3221.2788      13.2031      82.4183       0.0185    -999.2500      96.8624       9.3942       9.2288       0.4375       0.1627       3.6660       0.0296       2.6381       9.5277       1.8564
   3221.4314      13.1797      83.5259       0.0335    -999.2500      98.0564      11.0921      10.9752       0.4404       0.1430       3.4570       0.0301       2.6515       9.6053       1.8675
   3221.5837      13.0703      86.7355       0.0248    -999.2500     102.3667      11.0395      10.7577       0.4565       0.1414       3.7109       0.0313       2.6439       9.9598       2.0090
   3221.7361      12.9453      85.8372       0.0246    -999.2500     100.5015      10.6953      10.5309       0.4927       0.1245       3.9004       0.0311       2.6575       9.8309       1.8847
   3221.8884      12.7891      69.8822       0.0280    -999.2500      79.5901       9.3284       9.3798       0.4980       0.1061       3.8164       0.0221       2.6719       9.3576       1.2477
   3222.0410      12.7188      66.3948       0.0178    -999.2500      74.0785       7.5717       7.7051       0.4805       0.0664       3.6914       0.0207       2.6625       9.0198       0.9875
   3222.1934      12.8047      75.3527       0.0106    -999.2500      86.0038       7.6273       7.6486       0.4912       0.0638       4.0195       0.0245       2.6467       9.8284       1.3689
   3222.3457      13.0078      73.1919       0.0113    -999.2500      82.6351       7.5315       7.6285       0.4653       0.0906       4.2695       0.0238       2.6031       9.5503       1.2137
