#------------------------------------------------------------------------------
#
#   Created by  : [OpenWorks] Log Export Utility (LEXP)
#   Created on  : 2016-05-23 11:55:58
#   Project     : CANT971
#   User        : R5K
#   Interpreter : PEP
#
#------------------------------------------------------------------------------
~VERSION INFORMATION
VERS. 2.0 : CWLS Log ASCII Standard - version 2.0
WRAP.  NO : One line per depth step
~WELL INFORMATION
#MNEMONIC   .UNIT                                           VALUE :DESCRIPTION
#------------------------------------------------------------------------------
STRT        .M                                           646.6334 :START DEPTH
STOP        .M                                          2755.8494 :STOP DEPTH
STEP        .M                                             0.1524 :STEP
NULL        .                                           -999.2500 :NULL VALUE
COMP        .                                   PEMEX EXPL & PROD :COMPANY
WELL        .                                                  42 :WELL
FLD         .                                           CANTARELL :FIELD
LOC         .                                             UNKNOWN :LOCATION
CNTY        .                                      CD. DEL CARMEN :COUNTY
STAT        .                                            CAMPECHE :STATE
CTRY        .                                              MEXICO :COUNTRY
SRVC        .                                             UNKNOWN :SERVICE COMPANY
DATE        .                                             UNKNOWN :LOG DATE
UWI         .                                          3060000464 :UNIQUE WELL ID
XCOORD      .                                       599690.710000 :SURFACE X
YCOORD      .                                      2143036.470000 :SURFACE Y
LAT         .                                           19.380144 :LATITUDE
LON         .                                          -92.050691 :LONGITUDE
ELEV        .M                                            26.7400 :SURFACE ELEV
ELEV_TYPE   .                                                  KB :ELEV TYPE
~CURVE INFORMATION
#MNEMONIC.UNIT        API CODE       : CURVE DESCRIPTION
#------------------------------------------------------------------------------
DEPTH    .M                          : Measured Depth
CALI     .inches      UNKNOWN        : CALI:Import:rC:NONE:v0 (auto-composite)
DRHO     .g/cm3       UNKNOWN        : DRHO:Import:rC:NONE:v0 (auto-composite)
DT       .us/ft       UNKNOWN        : DT:Import:rC:NONE:v0 (auto-composite)
GR       .API         UNKNOWN        : GR:Import:rC:NONE:v0 (auto-composite)
ILD      .ohm.m       UNKNOWN        : ILD:Import:rC:NONE:v0 (auto-composite)
ILM      .ohm.m       UNKNOWN        : ILM:Import:rC:NONE:v0 (auto-composite)
LLD      .ohm.m       UNKNOWN        : LLD:Import:rC:NONE:v0 (auto-composite)
LLS      .ohm.m       UNKNOWN        : LLS:Import:rC:NONE:v0 (auto-composite)
MSFL     .ohm.m       UNKNOWN        : MSFL:Import:rC:NONE:v0 (auto-composite)
NPHI     .v/v_decimal UNKNOWN        : NPHI:Import:rC:NONE:v0 (auto-composite)
PEF      .b/elec      UNKNOWN        : PEF:Import:rC:NONE:v0 (auto-composite)
RHOB     .g/cm3       UNKNOWN        : RHOB:Import:rC:NONE:v0 (auto-composite)
~A     DEPTH         CALI         DRHO           DT           GR          ILD          ILM          LLD          LLS         MSFL         NPHI          PEF         RHOB
# ...
   2387.6509       8.9060       0.0220      38.5384      42.8312    -999.2500    -999.2500    7649.3862    7184.7534    -999.2500       0.0368       4.1024       2.7365
   2387.8035       8.9060       0.0240      41.6960      41.2240    -999.2500    -999.2500    7490.1548    6781.2432    -999.2500       0.0324       4.0120       2.7390
   2387.9558       8.9060       0.0305      45.0592      37.0460    -999.2500    -999.2500    7785.7910    4501.4102    -999.2500       0.0322       3.8303       2.7465
   2388.1082       8.9060       0.0370      48.4220      32.8550    -999.2500    -999.2500    8081.3979    2221.8020    -999.2500       0.0348       3.6490       2.7540
   2388.2605       8.9060       0.0345      50.1665      35.9510    -999.2500    -999.2500    7425.2363    3299.7500    -999.2500       0.0390       3.6915       2.7480
   2388.4128       8.9060       0.0320      51.9110      39.0570    -999.2500    -999.2500    6769.0571    4377.7271    -999.2500       0.0424       3.7340       2.7420
   2388.5654       8.9060       0.0245      51.8835      47.9141    -999.2500    -999.2500    5676.0137    5858.2231    -999.2500       0.0427       3.7725       2.7430
   2388.7178       8.9060       0.0170      51.8560      56.8010    -999.2500    -999.2500    4582.8032    7338.9448    -999.2500       0.0420       3.8110       2.7440
   2388.8701       8.9060       0.0100      51.9170      65.4245    -999.2500    -999.2500    3515.8723    7251.9819    -999.2500       0.0420       3.8440       2.7440
   2389.0225       8.9060       0.0030      51.9780      74.0780    -999.2500    -999.2500    2448.6450    7164.9951    -999.2500       0.0424       3.8770       2.7440
   2389.1750       8.9060      -0.0005      52.0935      69.2078    -999.2500    -999.2500    2025.7625    6942.0425    -999.2500       0.0428       3.9160       2.7375
   2389.3274       8.9060      -0.0040      52.2090      64.3200    -999.2500    -999.2500    1602.7090    6719.0000    -999.2500       0.0433       3.9550       2.7310
   2389.4797       8.9060      -0.0010      52.4939      59.1512    -999.2500    -999.2500    1633.5529    6331.3228    -999.2500       0.0440       3.9770       2.7230
   2389.6321       8.9060       0.0020      52.7790      53.9630    -999.2500    -999.2500    1664.4130    5943.4399    -999.2500       0.0446       3.9990       2.7150
   2389.7847       8.9060       0.0005      53.2683      51.2183    -999.2500    -999.2500    1808.1519    5387.0049    -999.2500       0.0451       3.8859       2.7015
   2389.9370       8.9060      -0.0010      53.7580      48.4630    -999.2500    -999.2500    1951.9850    4830.2051    -999.2500       0.0450       3.7730       2.6880
   2390.0894       8.9060       0.0000      53.3999      46.1925    -999.2500    -999.2500    2495.7783    4560.9590    -999.2500       0.0440       3.6364       2.6910
   2390.2417       8.9060       0.0010      53.0420      43.9130    -999.2500    -999.2500    3039.9961    4291.5029    -999.2500       0.0433       3.5000       2.6940
   2390.3940       8.9060       0.0040      50.9968      42.9779    -999.2500    -999.2500    3915.7332    4063.6199    -999.2500       0.0442       3.6390       2.7030
   2390.5466       8.9060       0.0070      48.9530      42.0390    -999.2500    -999.2500    4792.2642    3835.5300    -999.2500       0.0461       3.7780       2.7120
   2390.6990       8.9060       0.0115      50.2069      39.2943    -999.2500    -999.2500    4156.9287    2467.2898    -999.2500       0.0483       4.2391       2.7200
   2390.8513       8.9060       0.0160      51.4600      36.5380    -999.2500    -999.2500    3521.9561    1099.8300    -999.2500       0.0505       4.7000       2.7280
   2391.0037       8.9060       0.0140      53.5495      37.5977    -999.2500    -999.2500    2624.7170    1910.2306    -999.2500       0.0522       4.5829       2.7175
   2391.1562       8.9060       0.0120      55.6380      38.6620    -999.2500    -999.2500    1727.8770    2720.2710    -999.2500       0.0531       4.4660       2.7070
   2391.3086       8.9060       0.0090      54.4718      37.7151    -999.2500    -999.2500    1793.6790    4321.7393    -999.2500       0.0527       4.1862       2.6980
   2391.4609       8.9060       0.0060      53.3060      36.7640    -999.2500    -999.2500    1859.4600    5922.6968    -999.2500       0.0513       3.9070       2.6890
   2391.6133       8.9060       0.0040      53.3890      34.7696    -999.2500    -999.2500    2570.9778    4202.4478    -999.2500       0.0493       3.7564       2.6955
   2391.7659       8.9060       0.0020      53.4720      32.7660    -999.2500    -999.2500    3282.3579    2482.5310    -999.2500       0.0460       3.6060       2.7020
   2391.9182       8.9060       0.0035      53.7160      28.7863    -999.2500    -999.2500    4691.8887    2732.1226    -999.2500       0.0410       3.5034       2.7115
   2392.0706       8.9060       0.0050      53.9600      24.7940    -999.2500    -999.2500    6101.3232    2981.6970    -999.2500       0.0368       3.4010       2.7210
   2392.2229       8.9060       0.0075      53.5015      22.4059    -999.2500    -999.2500    7172.9829    3240.8564    -999.2500       0.0362       3.4200       2.7360
   2392.3752       8.9060       0.0100      53.0430      20.0100    -999.2500    -999.2500    8244.7041    3500.0310    -999.2500       0.0377       3.4390       2.7510
   2392.5278       8.9060       0.0085      52.6275      20.4822    -999.2500    -999.2500    7939.0107    4910.6333    -999.2500       0.0395       3.4520       2.7420
   2392.6802       8.9060       0.0070      52.2120      20.9560    -999.2500    -999.2500    7633.2612    6321.4941    -999.2500       0.0399       3.4650       2.7330
   2392.8325       8.9060       0.0045      52.4555      20.5108    -999.2500    -999.2500    6590.6914    4275.9185    -999.2500       0.0372       3.7807       2.7355
   2392.9849       8.9060       0.0020      52.6990      20.0640    -999.2500    -999.2500    5547.7998    2229.7109    -999.2500       0.0330       4.0960       2.7380
   2393.1375       8.9060       0.0030      52.3471      20.0805    -999.2500    -999.2500    5590.8472    2809.5334    -999.2500       0.0288       4.0880       2.7445
   2393.2898       8.9060       0.0040      51.9950      20.0970    -999.2500    -999.2500    5633.9131    3389.6079    -999.2500       0.0259       4.0800       2.7510
   2393.4421       8.9060       0.0065      51.3552      20.1788    -999.2500    -999.2500    6152.9341    3907.7305    -999.2500       0.0253       3.9354       2.7545
   2393.5945       8.9060       0.0090      50.7160      20.2610    -999.2500    -999.2500    6672.2461    4426.1431    -999.2500       0.0262       3.7910       2.7580
   2393.7471       8.9060       0.0140      50.8646      20.0524    -999.2500    -999.2500    7827.8696    5059.2515    -999.2500       0.0277       3.6089       2.7535
   2393.8994       8.9060       0.0190      51.0130      19.8430    -999.2500    -999.2500    8984.2861    5692.7939    -999.2500       0.0299       3.4270       2.7490
   2394.0518       8.9060       0.0180      51.2061      19.3580    -999.2500    -999.2500    5461.3853    4611.9834    -999.2500       0.0326       3.4460       2.7330
   2394.2041       8.9060       0.0170      51.3990      18.8710    -999.2500    -999.2500    1935.6270    3530.2959    -999.2500       0.0347       3.4650       2.7170
   2394.3564       8.9100       0.0145      51.2750      18.3611    -999.2500    -999.2500    2820.2207    5361.0796    -999.2500       0.0348       3.6466       2.7225
   2394.5090       8.9140       0.0120      51.1510      17.8490    -999.2500    -999.2500    3705.6440    7193.5801    -999.2500       0.0335       3.8280       2.7280
   2394.6614       8.9115       0.0105      51.0480      18.7007    -999.2500    -999.2500    4792.2480    5400.9521    -999.2500       0.0316       3.9365       2.7345
   2394.8137       8.9090       0.0090      50.9450      19.5560    -999.2500    -999.2500    5878.2661    3609.2920    -999.2500       0.0302       4.0450       2.7410
