#------------------------------------------------------------------------------
#
#   Created by  : [OpenWorks] Log Export Utility (LEXP)
#   Created on  : 2016-05-23 11:55:56
#   Project     : CANT971
#   User        : R5K
#   Interpreter : PEP
#
#------------------------------------------------------------------------------
~VERSION INFORMATION
VERS. 2.0 : CWLS Log ASCII Standard - version 2.0
WRAP.  NO : One line per depth step
~WELL INFORMATION
#MNEMONIC   .UNIT                                           VALUE :DESCRIPTION
#------------------------------------------------------------------------------
STRT        .M                                          3767.4790 :START DEPTH
STOP        .M                                          5548.2729 :STOP DEPTH
STEP        .M                                             0.1524 :STEP
NULL        .                                           -999.2500 :NULL VALUE
COMP        .                                             UNKNOWN :COMPANY
WELL        .                                            418D-ST2 :WELL
FLD         .                                             UNKNOWN :FIELD
LOC         .                                             UNKNOWN :LOCATION
CNTY        .                                             UNKNOWN :COUNTY
STAT        .                                             UNKNOWN :STATE
CTRY        .                                             UNKNOWN :COUNTRY
SRVC        .                                             UNKNOWN :SERVICE COMPANY
DATE        .                                             UNKNOWN :LOG DATE
UWI         .                                            418D-ST2 :UNIQUE WELL ID
XCOORD      .                                       597130.010000 :SURFACE X
YCOORD      .                                      2144879.410000 :SURFACE Y
LAT         .                                           19.396924 :LATITUDE
LON         .                                          -92.074978 :LONGITUDE
ELEV        .M                                             0.0000 :SURFACE ELEV
ELEV_TYPE   .                                                  NA :ELEV TYPE
~CURVE INFORMATION
#MNEMONIC.UNIT        API CODE       : CURVE DESCRIPTION
#------------------------------------------------------------------------------
DEPTH    .M                          : Measured Depth
CALI     .inches      UNKNOWN        : CALI:PETROWORKS:rC:NONE:v1 
CGR      .API         UNKNOWN        : CGR:PETROWORKS:rC:NONE:v2 
DRHO     .g/cm3       UNKNOWN        : DRHO:PETROWORKS:rC:NONE:v1 
DT       .us/ft       UNKNOWN        : DT:PETROWORKS:rC:NONE:v2 
GR       .API         UNKNOWN        : GR:PETROWORKS:rC:NONE:v2 
ILD      .ohm.m       UNKNOWN        : ILD:PETROWORKS:rC:NONE:v2 
ILM      .ohm.m       UNKNOWN        : ILM:PETROWORKS:rC:NONE:v2 
NPHI     .v/v_decimal UNKNOWN        : NPHI:PETROWORKS:rC:NONE:v3 
PEF      .b/elec      UNKNOWN        : PEF:PETROWORKS:rC:NONE:v1 
POTA     .wtpercent   UNKNOWN        : POTA:PETROWORKS:rC:NONE:v2 
RHOB     .UNKNOWN     UNKNOWN        : RHOB:PETROWORKS:rC:NONE:v1 
THOR     .ppm         UNKNOWN        : THOR:PETROWORKS:rC:NONE:v2 
URAN     .ppm         UNKNOWN        : URAN:PETROWORKS:rC:NONE:v2 
~A     DEPTH         CALI          CGR         DRHO           DT           GR          ILD          ILM         NPHI          PEF         POTA         RHOB         THOR         URAN
# ...
   4511.8008      11.0041      31.3150       0.0580      72.6832      84.8749       2.7903       2.7098       0.1381       5.1812       0.0129       2.6534       3.3269       7.7562
   4511.9531      10.9552      30.3474       0.0586      70.4346      85.0226       2.7973       2.7197       0.1372       5.1152       0.0127       2.6591       3.1199       7.8905
   4512.1055      10.9570      30.3175       0.0622      69.3268      84.7172       2.8523       2.7762       0.1355       5.0707       0.0127       2.6702       3.0838       7.8694
   4512.2578      10.9842      31.0068       0.0646      70.2315      84.7044       2.9172       2.8394       0.1329       5.0023       0.0130       2.6792       3.1745       7.8056
   4512.4102      10.9865      31.2024       0.0663      68.9504      78.6077       3.0670       2.9844       0.1287       4.9183       0.0129       2.6837       3.2595       6.9992
   4512.5625      10.9574      30.5798       0.0684      66.4807      67.9848       3.2280       3.1458       0.1224       4.8198       0.0120       2.6836       3.5521       5.6316
   4512.7148      10.8695      29.2706       0.0657      66.2711      62.6951       3.5730       3.5153       0.1085       4.7736       0.0113       2.6721       3.4758       5.0465
   4512.8672      10.7671      28.3523       0.0618      67.5190      61.8338       3.8727       3.8581       0.1004       4.7647       0.0115       2.6594       3.1038       5.0467
   4513.0200      10.7268      28.6803       0.0609      69.3347      61.6741       4.0877       4.1474       0.1051       4.7092       0.0120       2.6537       2.9380       5.0030
   4513.1724      10.7219      30.1704       0.0639      70.4554      61.6526       4.1070       4.1871       0.1134       4.6286       0.0128       2.6525       2.9831       4.8632
   4513.3247      10.7046      31.9215       0.0638      70.4255      61.5508       3.9366       3.9571       0.1205       4.5672       0.0136       2.6510       3.1273       4.6879
   4513.4771      10.6720      32.9146       0.0606      69.9787      61.4923       3.8275       3.8017       0.1221       4.5196       0.0139       2.6500       3.2994       4.5757
   4513.6294      10.6800      33.1323       0.0625      69.4809      61.5166       3.8081       3.7662       0.1194       4.5194       0.0137       2.6532       3.4807       4.5344
   4513.7817      10.7175      31.5912       0.0666      68.8994      61.0103       3.8197       3.7780       0.1167       4.5959       0.0124       2.6522       3.6439       4.5855
   4513.9341      10.7385      29.5905       0.0674      69.0323      60.3018       3.8286       3.7993       0.1183       4.6575       0.0111       2.6472       3.6832       4.6721
   4514.0864      10.6741      27.4865       0.0668      70.9675      59.3439       3.8337       3.8105       0.1192       4.7052       0.0100       2.6372       3.6077       4.7544
   4514.2388      10.5875      25.7335       0.0669      72.2648      58.6231       3.8433       3.8129       0.1220       4.7556       0.0092       2.6295       3.4671       4.8143
   4514.3916      10.4718      24.1328       0.0679      71.2753      57.8386       3.8328       3.7966       0.1252       4.7401       0.0087       2.6248       3.1986       4.8835
   4514.5439      10.4036      23.6985       0.0700      70.2356      56.8402       3.7648       3.7203       0.1318       4.6579       0.0087       2.6257       3.0565       4.8052
   4514.6963      10.3731      24.4716       0.0708      69.8844      56.1114       3.7145       3.6580       0.1370       4.5646       0.0091       2.6277       3.0950       4.6089
   4514.8486      10.3332      24.8058       0.0705      69.6063      55.4981       3.7354       3.6635       0.1397       4.5144       0.0093       2.6241       3.1222       4.4861
   4515.0010      10.3177      24.6647       0.0675      69.3091      55.2075       3.9018       3.8328       0.1391       4.4630       0.0093       2.6168       3.0650       4.4617
   4515.1533      10.2947      24.6825       0.0666      69.2515      55.3255       4.0754       4.0208       0.1373       4.3796       0.0094       2.6098       3.0241       4.4653
   4515.3057      10.2596      24.6622       0.0706      70.2510      55.5870       4.2883       4.2655       0.1364       4.2909       0.0093       2.6053       3.0403       4.4844
   4515.4580      10.2230      24.3926       0.0723      71.0713      55.8735       4.3952       4.3920       0.1377       4.2226       0.0091       2.5995       3.0967       4.5332
   4515.6108      10.1750      23.9269       0.0710      69.6458      55.7643       4.3669       4.3592       0.1419       4.1569       0.0084       2.5938       3.2657       4.5486
   4515.7632      10.1592      23.2223       0.0709      68.0319      55.0618       4.3001       4.2794       0.1456       4.0953       0.0076       2.5921       3.4889       4.4996
   4515.9155      10.1366      21.9978       0.0756      67.3893      54.1200       4.1955       4.1591       0.1484       4.0670       0.0065       2.5997       3.6439       4.4671
   4516.0679      10.0798      20.5960       0.0776      66.7202      53.3957       4.1372       4.0954       0.1505       4.0555       0.0058       2.6059       3.6066       4.4545
   4516.2202      10.0367      20.1314       0.0742      66.3091      53.0384       4.1296       4.0908       0.1493       4.0411       0.0058       2.6068       3.4401       4.4230
   4516.3726      10.0244      20.4607       0.0710      66.7257      52.8216       4.1443       4.1097       0.1486       4.0477       0.0063       2.6105       3.2734       4.3769
   4516.5249      10.0019      20.7327       0.0683      67.6219      52.7786       4.2195       4.2003       0.1449       4.0593       0.0069       2.6136       3.0696       4.3708
   4516.6772       9.9314      21.0034       0.0657      67.9594      53.3122       4.3089       4.3112       0.1401       4.0726       0.0075       2.6113       2.8454       4.4523
   4516.8296       9.8550      21.6525       0.0633      66.9059      54.2208       4.4392       4.4726       0.1361       4.1082       0.0080       2.6118       2.7638       4.5279
   4516.9824       9.8272      22.2178       0.0605      65.1678      55.4857       4.5018       4.5466       0.1344       4.1229       0.0080       2.6116       2.9708       4.6190
   4517.1348       9.8277      22.3476       0.0583      64.7636      56.2378       4.4878       4.5165       0.1342       4.1024       0.0077       2.6075       3.1485       4.6882
   4517.2871       9.8165      22.7073       0.0630      66.0350      56.3773       4.4582       4.4667       0.1340       4.1647       0.0078       2.6090       3.1869       4.6694
   4517.4395       9.8070      23.0567       0.0678      67.0542      56.3918       4.3661       4.3494       0.1373       4.2377       0.0080       2.6107       3.1946       4.6356
   4517.5918       9.7242      22.4994       0.0678      67.7226      55.6726       4.2680       4.2396       0.1408       4.2268       0.0078       2.6083       3.1506       4.6176
   4517.7441       9.6362      21.3298       0.0718      68.4012      54.3619       4.1406       4.1059       0.1445       4.2272       0.0073       2.6140       3.0110       4.6001
   4517.8965       9.5986      20.7543       0.0747      68.8926      53.4201       4.0689       4.0255       0.1459       4.2646       0.0072       2.6201       2.8787       4.4947
   4518.0488       9.5846      20.5923       0.0758      68.8694      53.0251       4.0574       4.0015       0.1462       4.3089       0.0073       2.6236       2.8055       4.4125
   4518.2012       9.5264      20.7503       0.0728      68.4034      52.9380       4.0907       4.0455       0.1442       4.3047       0.0075       2.6187       2.7641       4.3857
   4518.3540       9.4103      21.0062       0.0684      68.2858      53.0239       4.1231       4.0973       0.1433       4.2578       0.0078       2.6093       2.6436       4.3854
