#------------------------------------------------------------------------------
#
#   Created by  : [OpenWorks] Log Export Utility (LEXP)
#   Created on  : 2016-05-23 11:56:43
#   Project     : CANT971
#   User        : R5K
#   Interpreter : PEP
#
#------------------------------------------------------------------------------
~VERSION INFORMATION
VERS. 2.0 : CWLS Log ASCII Standard - version 2.0
WRAP.  NO : One line per depth step
~WELL INFORMATION
#MNEMONIC   .UNIT                                           VALUE :DESCRIPTION
#------------------------------------------------------------------------------
STRT        .M                                           650.2150 :START DEPTH
STOP        .M                                          2618.6135 :STOP DEPTH
STEP        .M                                             0.1524 :STEP
NULL        .                                           -999.2500 :NULL VALUE
COMP        .                                   PEMEX EXPL & PROD :COMPANY
WELL        .                                                  4D :WELL
FLD         .                                           CANTARELL :FIELD
LOC         .                                             UNKNOWN :LOCATION
CNTY        .                                      CD. DEL CARMEN :COUNTY
STAT        .                                            CAMPECHE :STATE
CTRY        .                                              MEXICO :COUNTRY
SRVC        .                                             UNKNOWN :SERVICE COMPANY
DATE        .                                             UNKNOWN :LOG DATE
UWI         .                                          3060000662 :UNIQUE WELL ID
XCOORD      .                                       598468.500000 :SURFACE X
YCOORD      .                                      2145023.700000 :SURFACE Y
LAT         .                                           19.398162 :LATITUDE
LON         .                                          -92.062225 :LONGITUDE
ELEV        .M                                            26.5400 :SURFACE ELEV
ELEV_TYPE   .                                                  KB :ELEV TYPE
~CURVE INFORMATION
#MNEMONIC.UNIT        API CODE       : CURVE DESCRIPTION
#------------------------------------------------------------------------------
DEPTH    .M                          : Measured Depth
CAL      .inches      UNKNOWN        : CAL:UNKNOWN:rC:NONE:v0 (auto-composite)
CGR      .UNKNOWN     UNKNOWN        : CGR:UNKNOWN:rC:NONE:v0 (auto-composite)
DRHO     .UNKNOWN     UNKNOWN        : DRHO:UNKNOWN:rC:NONE:v0 (auto-composite)
DT       .us/ft       UNKNOWN        : DT:DT:rC:NONE:v0 (auto-composite)
GR       .API         UNKNOWN        : GR:UNKNOWN:rC:NONE:v0 (auto-composite)
ILD      .UNKNOWN     UNKNOWN        : ILD:UNKNOWN:rC:NONE:v0 (auto-composite)
ILM      .UNKNOWN     UNKNOWN        : ILM:UNKNOWN:rC:NONE:v0 (auto-composite)
LLD      .UNKNOWN     UNKNOWN        : LLD:UNKNOWN:rC:NONE:v0 (auto-composite)
LLS      .UNKNOWN     UNKNOWN        : LLS:UNKNOWN:rC:NONE:v0 (auto-composite)
MSFL     .UNKNOWN     UNKNOWN        : MSFL:UNKNOWN:rC:NONE:v0 (auto-composite)
NPHI     .v/v_decimal UNKNOWN        : NPHI:PETROWORKS:rC:NONE:v1 
PEF      .UNKNOWN     UNKNOWN        : PEF:UNKNOWN:rC:NONE:v0 (auto-composite)
POTA     .UNKNOWN     UNKNOWN        : POTA:UNKNOWN:rC:NONE:v0 (auto-composite)
RHOB     .UNKNOWN     UNKNOWN        : RHOB:UNKNOWN:rC:NONE:v0 (auto-composite)
THOR     .UNKNOWN     UNKNOWN        : THOR:UNKNOWN:rC:NONE:v0 (auto-composite)
URAN     .UNKNOWN     UNKNOWN        : URAN:UNKNOWN:rC:NONE:v0 (auto-composite)
~A     DEPTH          CAL          CGR         DRHO           DT           GR          ILD          ILM          LLD          LLS         MSFL         NPHI          PEF         POTA         RHOB         THOR         URAN
# ...
   2556.1294       6.9900       9.4100       0.0431      72.4389      23.8184    -999.2500    -999.2500      56.7524      32.0973      25.8394       0.1408       3.4304       0.0034       2.5431       0.9379       1.6640
   2556.2817       6.9309       8.6350       0.0475      66.6895      24.2286    -999.2500    -999.2500      57.0788      31.6507      34.6919       0.1571       3.3070       0.0030       2.5636       0.9287       1.7446
   2556.4343       7.0754       8.8406       0.0270      76.8908      24.4041    -999.2500    -999.2500      64.8247      34.5328      20.7118       0.1374       3.2490       0.0030       2.6251       0.9508       1.8012
   2556.5867       7.1865       8.7485       0.0103      84.5688      24.1500    -999.2500    -999.2500      71.5345      37.0822       8.7961       0.1227       3.1912       0.0029       2.6604       0.9266       1.8326
   2556.7390       7.1376       7.2147       0.0123      80.1617      21.8615    -999.2500    -999.2500      73.2263      38.0388       6.8799       0.1206       3.1342       0.0024       2.5699       0.6787       1.7426
   2556.8914       7.0905       5.8938       0.0157      75.4986      19.9096    -999.2500    -999.2500      75.2758      39.0572       5.0319       0.1225       3.0999       0.0020       2.4984       0.4839       1.6726
   2557.0439       7.0525       5.6107       0.0257      69.6025      19.5612    -999.2500    -999.2500      79.0687      40.3732       3.5158       0.1310       3.1749       0.0020       2.5179       0.5479       1.6996
   2557.1963       7.0183       5.4391       0.0371      63.6735      19.3448    -999.2500    -999.2500      82.3282      41.5326       3.4684       0.1345       3.2362       0.0021       2.5496       0.5835       1.7161
   2557.3486       7.0028       5.8079       0.0551      57.5871      19.7608    -999.2500    -999.2500      83.0019      41.9414      10.5409       0.1286       3.2317       0.0026       2.6401       0.4810       1.6816
   2557.5010       6.9801       6.5154       0.0680      52.8016      20.6976    -999.2500    -999.2500      81.2810      41.1369      17.5997       0.1203       3.2190       0.0031       2.7145       0.4412       1.6767
   2557.6533       6.9226       8.8748       0.0565      54.2896      24.1746    -999.2500    -999.2500      67.8800      34.4809      24.5923       0.1097       3.1665       0.0036       2.7115       0.7068       1.8157
   2557.8059       6.8934      10.5329       0.0467      56.1492      26.6868    -999.2500    -999.2500      55.9729      28.6127      27.9820       0.1065       3.1285       0.0039       2.7112       0.9029       1.9213
   2557.9583       6.9999       8.7887       0.0447      59.7917      24.4641    -999.2500    -999.2500      51.3139      26.5236      13.8901       0.1192       3.1605       0.0034       2.7237       0.7620       1.8649
   2558.1106       7.1163       7.6166       0.0437      65.2552      23.0349    -999.2500    -999.2500      47.2912      24.8157       2.0775       0.1310       3.1753       0.0031       2.7335       0.6653       1.8321
   2558.2629       7.2797       9.2377       0.0477      79.5095      25.3509    -999.2500    -999.2500      46.3749      24.9477       1.3922       0.1320       3.1078       0.0036       2.7305       0.7849       1.9151
   2558.4155       7.4257      10.4808       0.0549      93.3856      27.0463    -999.2500    -999.2500      44.9216      24.6249       0.9267       0.1309       3.0488       0.0041       2.7250       0.8464       1.9706
   2558.5679       7.4877       9.8880       0.0774     105.4455      25.7948    -999.2500    -999.2500      40.8609      22.1180       1.5285       0.1267       3.0303       0.0046       2.7075       0.6260       1.8921
   2558.7202       7.4913       9.5354       0.1011     113.9976      24.9016    -999.2500    -999.2500      37.1374      19.8413       2.1844       0.1295       3.0057       0.0051       2.6647       0.4170       1.8185
   2558.8726       7.2160      10.3557       0.1306     105.7917      25.7393    -999.2500    -999.2500      35.0616      18.6769       3.1053       0.1482       2.9523       0.0056       2.5013       0.2639       1.7685
   2559.0251       7.0291      11.1082       0.1533      99.2756      26.5872    -999.2500    -999.2500      33.7643      17.7642       3.6406       0.1723       2.9442       0.0059       2.3749       0.1825       1.7455
   2559.1775       7.2677      11.5315       0.1433     100.8817      27.4852    -999.2500    -999.2500      36.2513      18.0613       2.3022       0.2106       3.1543       0.0054       2.4264       0.4488       1.8540
   2559.3298       7.3922      11.7015       0.1272     101.8989      27.9518    -999.2500    -999.2500      38.8060      18.6693       1.5121       0.2306       3.3235       0.0050       2.4604       0.6348       1.9342
   2559.4822       6.9714      10.6326       0.0822     100.1002      26.4010    -999.2500    -999.2500      41.6926      20.7639       3.4038       0.2161       3.2975       0.0050       2.4110       0.4272       1.8767
   2559.6345       6.6346       9.9690       0.0481      96.0118      25.4915    -999.2500    -999.2500      44.9910      22.9412       8.9661       0.1988       3.2936       0.0051       2.3777       0.2856       1.8453
   2559.7871       6.7021      11.2769       0.0661      80.9092      27.5994    -999.2500    -999.2500      50.2932      25.5161      32.3860       0.2033       3.3962       0.0056       2.4222       0.4650       1.9407
   2559.9395       6.7509      12.4850       0.0801      70.6862      29.5774    -999.2500    -999.2500      54.8972      27.7705      48.7804       0.2009       3.4501       0.0060       2.4745       0.6436       2.0328
   2560.0918       6.7099      13.2043       0.0751      83.8150      30.9333    -999.2500    -999.2500      56.0831      28.4907      30.7858       0.1847       3.2712       0.0060       2.5639       0.8182       2.1083
   2560.2441       6.6793      13.6749       0.0676      94.3826      31.8032    -999.2500    -999.2500      57.2145      29.1794      16.7388       0.1677       3.1323       0.0060       2.6356       0.9391       2.1557
   2560.3967       6.6983      12.9346       0.0481      92.6185      30.3334    -999.2500    -999.2500      58.0803      29.7166      21.9148       0.1585       3.1863       0.0060       2.6216       0.7991       2.0656
   2560.5491       6.7107      12.4128       0.0336      91.9415      29.2094    -999.2500    -999.2500      59.6389      30.4427      25.4448       0.1542       3.2251       0.0060       2.6150       0.6721       1.9895
   2560.7014       6.6917      12.9490       0.0431      96.4720      29.7612    -999.2500    -999.2500      64.5533      32.0735      21.0022       0.1615       3.1911       0.0060       2.6440       0.6081       1.9810
   2560.8538       6.6753      12.6106       0.0529      97.6993      29.6324    -999.2500    -999.2500      68.8521      33.4259      16.5318       0.1642       3.1689       0.0057       2.6637       0.4998       2.0077
   2561.0063       6.6713       8.0095       0.0639      83.0078      26.1866    -999.2500    -999.2500      70.1511      33.4369      11.9256       0.1508       3.2034       0.0042       2.6387       0.1757       2.2058
   2561.1587       6.7005       4.2833       0.0777      73.1747      23.0341    -999.2500    -999.2500      69.1628      32.1910       7.4713       0.1401       3.2104       0.0030       2.6121      -0.0699       2.3172
   2561.3110       6.8885       4.7996       0.1053      86.6329      21.2724    -999.2500    -999.2500      57.0845      24.9191       3.7534       0.1468       3.0854       0.0030       2.5781       0.0650       2.0083
   2561.4634       7.1265       5.3002       0.1264      97.6481      19.3911    -999.2500    -999.2500      45.9686      18.6423       0.7193       0.1547       2.9965       0.0031       2.5493       0.1495       1.6925
   2561.6157       7.6023       5.7243       0.1174      96.8798      16.9397    -999.2500    -999.2500      39.5472      17.1647       1.0209       0.1636       3.0799       0.0036       2.5453      -0.0120       1.3429
