#------------------------------------------------------------------------------
#
#   Created by  : [OpenWorks] Log Export Utility (LEXP)
#   Created on  : 2016-05-12 17:01:20
#   Project     : CANT971
#   User        : R5K
#   Interpreter : PEP
#
#------------------------------------------------------------------------------
~VERSION INFORMATION
VERS. 2.0 : CWLS Log ASCII Standard - version 2.0
WRAP.  NO : One line per depth step
~WELL INFORMATION
#MNEMONIC   .UNIT                                           VALUE :DESCRIPTION
#------------------------------------------------------------------------------
STRT        .M                                           993.9530 :START DEPTH
STOP        .M                                          2371.9539 :STOP DEPTH
STEP        .M                                             0.1524 :STEP
NULL        .                                           -999.2500 :NULL VALUE
COMP        .                                   PEMEX EXPL & PROD :COMPANY
WELL        .                                                  55 :WELL
FLD         .                                           CANTARELL :FIELD
LOC         .                                             UNKNOWN :LOCATION
CNTY        .                                      CD. DEL CARMEN :COUNTY
STAT        .                                            CAMPECHE :STATE
CTRY        .                                              MEXICO :COUNTRY
SRVC        .                                             UNKNOWN :SERVICE COMPANY
DATE        .                                             UNKNOWN :LOG DATE
UWI         .                                          3060000168 :UNIQUE WELL ID
XCOORD      .                                       602149.520000 :SURFACE X
YCOORD      .                                      2147170.290000 :SURFACE Y
LAT         .                                           19.417375 :LATITUDE
LON         .                                          -92.027057 :LONGITUDE
ELEV        .M                                            28.1700 :SURFACE ELEV
ELEV_TYPE   .                                                  KB :ELEV TYPE
~CURVE INFORMATION
#MNEMONIC.UNIT        API CODE       : CURVE DESCRIPTION
#------------------------------------------------------------------------------
DEPTH    .M                          : Measured Depth
CALI     .inches      UNKNOWN        : CALI:CALI-Load:rC:NONE:v0 (auto-composite)
DRHO     .UNKNOWN     UNKNOWN        : DRHO:DRHO-Load:rC:NONE:v0 (auto-composite)
DT       .us/ft       UNKNOWN        : DT:DT:rC:NONE:v0 (auto-composite)
GR       .UNKNOWN     UNKNOWN        : GR:GR-Load:rC:NONE:v0 (auto-composite)
ILD      .UNKNOWN     UNKNOWN        : ILD:ILD-Load:rC:NONE:v0 (auto-composite)
LLD      .UNKNOWN     UNKNOWN        : LLD:LLD-Load:rC:NONE:v0 (auto-composite)
LLS      .UNKNOWN     UNKNOWN        : LLS:LLS-Load:rC:NONE:v0 (auto-composite)
MSFL     .UNKNOWN     UNKNOWN        : MSFL:MSFL-Load:rC:NONE:v0 (auto-composite)
NPHI     .v/v_decimal UNKNOWN        : NPHI:NPHI:rC:NONE:v0 (auto-composite)
RHOB     .UNKNOWN     UNKNOWN        : RHOB:RHOB-Load:rC:NONE:v0 (auto-composite)
SP       .UNKNOWN     UNKNOWN        : SP:SP-Load:rC:NONE:v0 (auto-composite)
~A     DEPTH         CALI         DRHO           DT           GR          ILD          LLD          LLS         MSFL         NPHI         RHOB           SP
# ...
   1120.7498    -999.2500       0.0110    -999.2500      49.4900       1.0830    -999.2500    -999.2500    -999.2500      41.2500       2.2200     107.4800
   1120.9022    -999.2500       0.0045    -999.2500      49.0537       1.0675    -999.2500    -999.2500    -999.2500      41.1095       2.2200     107.5125
   1121.0546    -999.2500      -0.0020    -999.2500      48.6170       1.0520    -999.2500    -999.2500    -999.2500      40.9690       2.2200     107.5450
   1121.2070    -999.2500      -0.0015    -999.2500      47.1298       1.0520    -999.2500    -999.2500    -999.2500      40.3999       2.2215     107.6800
   1121.3594    -999.2500      -0.0010    -999.2500      45.6420       1.0520    -999.2500    -999.2500    -999.2500      39.8310       2.2230     107.8150
   1121.5118    -999.2500       0.0015    -999.2500      44.5658       1.0520    -999.2500    -999.2500    -999.2500      38.6553       2.2265     108.0675
   1121.6642    -999.2500       0.0040    -999.2500      43.4900       1.0520    -999.2500    -999.2500    -999.2500      37.4800       2.2300     108.3200
   1121.8167    -999.2500       0.0075    -999.2500      44.2901       1.0520    -999.2500    -999.2500    -999.2500      37.5250       2.2300     108.2600
   1121.9690    -999.2500       0.0110    -999.2500      45.0900       1.0520    -999.2500    -999.2500    -999.2500      37.5700       2.2300     108.2000
   1122.1215    -999.2500       0.0075    -999.2500      44.9900       1.0535    -999.2500    -999.2500    -999.2500      38.6150       2.2300     108.2000
   1122.2738    -999.2500       0.0040    -999.2500      44.8900       1.0550    -999.2500    -999.2500    -999.2500      39.6600       2.2300     108.2000
   1122.4261    -999.2500       0.0045    -999.2500      45.1650       1.0605    -999.2500    -999.2500    -999.2500      39.4790       2.2315     108.3850
   1122.5786    -999.2500       0.0050    -999.2500      45.4400       1.0660    -999.2500    -999.2500    -999.2500      39.2980       2.2330     108.5700
   1122.7310    -999.2500       0.0070    -999.2500      45.2920       1.0785    -999.2500    -999.2500    -999.2500      38.5646       2.2365     108.5365
   1122.8834    -999.2500       0.0090    -999.2500      45.1440       1.0910    -999.2500    -999.2500    -999.2500      37.8310       2.2400     108.5030
   1123.0358    -999.2500       0.0090    -999.2500      43.9922       1.0905    -999.2500    -999.2500    -999.2500      37.0056       2.2450     108.3960
   1123.1882    -999.2500       0.0090    -999.2500      42.8400       1.0900    -999.2500    -999.2500    -999.2500      36.1800       2.2500     108.2890
   1123.3406    -999.2500       0.0075    -999.2500      42.8870       1.0860    -999.2500    -999.2500    -999.2500      36.6484       2.2450     108.1845
   1123.4930    -999.2500       0.0060    -999.2500      42.9340       1.0820    -999.2500    -999.2500    -999.2500      37.1170       2.2400     108.0800
   1123.6454    -999.2500       0.0030    -999.2500      43.8867       1.0670    -999.2500    -999.2500    -999.2500      38.6940       2.2400     108.0800
   1123.7979    -999.2500       0.0000    -999.2500      44.8400       1.0520    -999.2500    -999.2500    -999.2500      40.2720       2.2400     108.0800
   1123.9502    -999.2500      -0.0065    -999.2500      44.8335       1.0520    -999.2500    -999.2500    -999.2500      41.2660       2.2250     108.0800
   1124.1027    -999.2500      -0.0130    -999.2500      44.8270       1.0520    -999.2500    -999.2500    -999.2500      42.2600       2.2100     108.0800
   1124.2550    -999.2500      -0.0125    -999.2500      44.4337       1.0520    -999.2500    -999.2500    -999.2500      42.1415       2.2100     108.0490
   1124.4073    -999.2500      -0.0120    -999.2500      44.0400       1.0520    -999.2500    -999.2500    -999.2500      42.0230       2.2100     108.0180
   1124.5598    -999.2500      -0.0090    -999.2500      44.4898       1.0520    -999.2500    -999.2500    -999.2500      41.4733       2.2115     107.8691
   1124.7122    -999.2500      -0.0060    -999.2500      44.9400       1.0520    -999.2500    -999.2500    -999.2500      40.9240       2.2130     107.7200
   1124.8646    -999.2500      -0.0015    -999.2500      44.6152       1.0520    -999.2500    -999.2500    -999.2500      40.2288       2.2215     107.7355
   1125.0170    -999.2500       0.0030    -999.2500      44.2900       1.0520    -999.2500    -999.2500    -999.2500      39.5340       2.2300     107.7510
   1125.1694    -999.2500       0.0025    -999.2500      44.3400       1.0520    -999.2500    -999.2500    -999.2500      38.9969       2.2200     107.8270
   1125.3218    -999.2500       0.0020    -999.2500      44.3900       1.0520    -999.2500    -999.2500    -999.2500      38.4600       2.2100     107.9030
   1125.4742    -999.2500       0.0010    -999.2500      44.3325       1.0515    -999.2500    -999.2500    -999.2500      37.7749       2.2100     108.0070
   1125.6266    -999.2500       0.0000    -999.2500      44.2750       1.0510    -999.2500    -999.2500    -999.2500      37.0900       2.2100     108.1110
   1125.7791    -999.2500      -0.0025    -999.2500      43.1574       1.0450    -999.2500    -999.2500    -999.2500      37.2135       2.2050     108.1555
   1125.9314    -999.2500      -0.0050    -999.2500      42.0400       1.0390    -999.2500    -999.2500    -999.2500      37.3370       2.2000     108.2000
   1126.0839    -999.2500      -0.0045    -999.2500      42.2305       1.0265    -999.2500    -999.2500    -999.2500      37.8600       2.2000     108.1850
   1126.2362    -999.2500      -0.0040    -999.2500      42.4210       1.0140    -999.2500    -999.2500    -999.2500      38.3830       2.2000     108.1700
   1126.3885    -999.2500       0.0005    -999.2500      44.4554       1.0090    -999.2500    -999.2500    -999.2500      38.9840       2.2015     108.0765
   1126.5410    -999.2500       0.0050    -999.2500      46.4900       1.0040    -999.2500    -999.2500    -999.2500      39.5850       2.2030     107.9830
   1126.6934    -999.2500       0.0045    -999.2500      45.8651       0.9910    -999.2500    -999.2500    -999.2500      40.2034       2.2065     107.7915
   1126.8458    -999.2500       0.0040    -999.2500      45.2400       0.9780    -999.2500    -999.2500    -999.2500      40.8220       2.2100     107.6000
   1126.9982    -999.2500       0.0030    -999.2500      45.6399       0.9780    -999.2500    -999.2500    -999.2500      42.3657       2.2100     107.6600
   1127.1506    -999.2500       0.0020    -999.2500      46.0400       0.9780    -999.2500    -999.2500    -999.2500      43.9100       2.2100     107.7200
   1127.3030    -999.2500       0.0005    -999.2500      45.8900       0.9760    -999.2500    -999.2500    -999.2500      42.4054       2.2050     107.6000
   1127.4554    -999.2500      -0.0010    -999.2500      45.7400       0.9740    -999.2500    -999.2500    -999.2500      40.9000       2.2000     107.4800
   1127.6078    -999.2500      -0.0005    -999.2500      46.2648       0.9740    -999.2500    -999.2500    -999.2500      41.0015       2.2000     107.6000
   1127.7603    -999.2500       0.0000    -999.2500      46.7900       0.9740    -999.2500    -999.2500    -999.2500      41.1030       2.2000     107.7200
   1127.9126    -999.2500      -0.0005    -999.2500      46.2137       0.9745    -999.2500    -999.2500    -999.2500      41.5665       2.2000     107.7035
   1128.0651    -999.2500      -0.0010    -999.2500      45.6370       0.9750    -999.2500    -999.2500    -999.2500      42.0300       2.2000     107.6870
   1128.2174    -999.2500      -0.0035    -999.2500      43.4095       0.9765    -999.2500    -999.2500    -999.2500      41.7469       2.1950     107.5236
   1128.3698    -999.2500      -0.0060    -999.2500      41.1800       0.9780    -999.2500    -999.2500    -999.2500      41.4640       2.1900     107.3600
   1128.5222    -999.2500      -0.0030    -999.2500      41.5088       0.9780    -999.2500    -999.2500    -999.2500      40.5332       2.1900     107.3925
