#------------------------------------------------------------------------------
#
#   Created by  : [OpenWorks] Log Export Utility (LEXP)
#   Created on  : 2016-05-23 11:51:18
#   Project     : CANT971
#   User        : R5K
#   Interpreter : PEP
#
#------------------------------------------------------------------------------
~VERSION INFORMATION
VERS. 2.0 : CWLS Log ASCII Standard - version 2.0
WRAP.  NO : One line per depth step
~WELL INFORMATION
#MNEMONIC   .UNIT                                           VALUE :DESCRIPTION
#------------------------------------------------------------------------------
STRT        .M                                           690.7880 :START DEPTH
STOP        .M                                          2950.1179 :STOP DEPTH
STEP        .M                                             0.1524 :STEP
NULL        .                                           -999.2500 :NULL VALUE
COMP        .                                   PEMEX EXPL & PROD :COMPANY
WELL        .                                                1066 :WELL
FLD         .                                           CANTARELL :FIELD
LOC         .                                             UNKNOWN :LOCATION
CNTY        .                                      CD. DEL CARMEN :COUNTY
STAT        .                                            CAMPECHE :STATE
CTRY        .                                              MEXICO :COUNTRY
SRVC        .                                             UNKNOWN :SERVICE COMPANY
DATE        .                                             UNKNOWN :LOG DATE
UWI         .                                          3060000505 :UNIQUE WELL ID
XCOORD      .                                       596157.670000 :SURFACE X
YCOORD      .                                      2150605.920000 :SURFACE Y
LAT         .                                           19.448718 :LATITUDE
LON         .                                          -92.083948 :LONGITUDE
ELEV        .M                                            30.0000 :SURFACE ELEV
ELEV_TYPE   .                                                  KB :ELEV TYPE
~CURVE INFORMATION
#MNEMONIC.UNIT        API CODE       : CURVE DESCRIPTION
#------------------------------------------------------------------------------
DEPTH    .M                          : Measured Depth
CALI     .inches      UNKNOWN        : CALI:litodensidad:rC:NONE:v0 (auto-composite)
DRHO     .g/cm3       UNKNOWN        : DRHO:litodensidad:rC:NONE:v0 (auto-composite)
DT       .us/ft       UNKNOWN        : DT:DT:rC:NONE:v0 (auto-composite)
GR       .API         UNKNOWN        : GR:UNKNOWN:rC:NONE:v0 (auto-composite)
ILD      .ohmm        UNKNOWN        : ILD:UNKNOWN:rC:NONE:v0 (auto-composite)
ILM      .ohmm        UNKNOWN        : ILM:UNKNOWN:rC:NONE:v0 (auto-composite)
LLD      .ohmm        UNKNOWN        : LLD:UNKNOWN:rC:NONE:v0 (auto-composite)
LLS      .ohmm        UNKNOWN        : LLS:UNKNOWN:rC:NONE:v0 (auto-composite)
MSFL     .ohmm        UNKNOWN        : MSFL:UNKNOWN:rC:NONE:v0 (auto-composite)
NPHI     .v/v_decimal UNKNOWN        : NPHI:PETROWORKS:rC:NONE:v2 
PEF      .b/elec      UNKNOWN        : PEF:litodensidad:rC:NONE:v0 (auto-composite)
RHOB     .g/cm3       UNKNOWN        : RHOB:litodensidad:rC:NONE:v0 (auto-composite)
~A     DEPTH         CALI         DRHO           DT           GR          ILD          ILM          LLD          LLS         MSFL         NPHI          PEF         RHOB
# ...
   2336.7080    -999.2500    -999.2500    -999.2500      40.3710       0.8935       0.8714       0.2000       0.2000       0.2000      -0.1500    -999.2500    -999.2500
   2336.8604    -999.2500    -999.2500    -999.2500      38.2481       0.8840       0.8699       0.2000       0.2000       0.2000      -0.1500    -999.2500    -999.2500
   2337.0129    -999.2500    -999.2500    -999.2500      37.0548       0.8745       0.8655       0.2000       0.2000       0.2000      -0.1500    -999.2500    -999.2500
   2337.1653    -999.2500    -999.2500    -999.2500      37.4273       0.8649       0.8559       0.2000       0.2000       0.2000      -0.1500    -999.2500    -999.2500
   2337.3176    -999.2500    -999.2500    -999.2500      37.9915       0.8575       0.8474       0.2000       0.2000       0.2000      -0.1500    -999.2500    -999.2500
   2337.4700    -999.2500    -999.2500    -999.2500      38.8712       0.8535       0.8404       0.2000       0.2000       0.2000      -0.1500    -999.2500    -999.2500
   2337.6223    -999.2500    -999.2500    -999.2500      39.2369       0.8502       0.8360       0.2000       0.2000       0.2000      -0.1500    -999.2500    -999.2500
   2337.7749    -999.2500    -999.2500    -999.2500      38.7540       0.8482       0.8360       0.2000       0.2000       0.2000      -0.1500    -999.2500    -999.2500
   2337.9272    -999.2500    -999.2500    -999.2500      38.7945       0.8476       0.8377       0.2000       0.2000       0.2000      -0.1500    -999.2500    -999.2500
   2338.0796    -999.2500    -999.2500    -999.2500      39.6789       0.8491       0.8422       0.2000       0.2000       0.2000      -0.1500    -999.2500    -999.2500
   2338.2319    -999.2500    -999.2500    -999.2500      40.1721       0.8485       0.8448       0.2000       0.2000       0.2000      -0.1500    -999.2500    -999.2500
   2338.3845    -999.2500    -999.2500    -999.2500      40.0277       0.8445       0.8443       0.2000       0.2000       0.2000      -0.1500    -999.2500    -999.2500
   2338.5369    -999.2500    -999.2500    -999.2500      39.8042       0.8370       0.8378       0.2000       0.2000       0.2000      -0.1500    -999.2500    -999.2500
   2338.6892    -999.2500    -999.2500    -999.2500      39.4547       0.8239       0.8218       0.2000       0.2000       0.2000      -0.1500    -999.2500    -999.2500
   2338.8416    -999.2500    -999.2500    -999.2500      39.5385       0.8105       0.8052       0.2000       0.2000       0.2000      -0.1500    -999.2500    -999.2500
   2338.9941    -999.2500    -999.2500    -999.2500      40.2962       0.7965       0.7877       0.2000       0.2000       0.2000      -0.1500    -999.2500    -999.2500
   2339.1465    -999.2500    -999.2500    -999.2500      40.6074       0.7817       0.7723       0.2000       0.2000       0.2000      -0.1500    -999.2500    -999.2500
   2339.2988    -999.2500    -999.2500    -999.2500      40.2216       0.7657       0.7603       0.2000       0.2000       0.2000      -0.1500    -999.2500    -999.2500
   2339.4512    -999.2500    -999.2500    -999.2500      39.8973       0.7499       0.7479       0.2000       0.2000       0.2000      -0.1500    -999.2500    -999.2500
   2339.6035    -999.2500    -999.2500    -999.2500      39.6674       0.7344       0.7349       0.2000       0.2000       0.2000      -0.1500    -999.2500    -999.2500
   2339.7561    -999.2500    -999.2500    -999.2500      39.3216       0.7191       0.7223       0.2000       0.2000       0.2000      -0.1500    -999.2500    -999.2500
   2339.9084    -999.2500    -999.2500    -999.2500      38.7971       0.7040       0.7102       0.2000       0.2000       0.2000      -0.1500    -999.2500    -999.2500
   2340.0608    -999.2500    -999.2500    -999.2500      38.1116       0.6872       0.6972       0.2000       0.2000       0.2000      -0.1500    -999.2500    -999.2500
   2340.2131    -999.2500    -999.2500    -999.2500      37.1835       0.6676       0.6827       0.2000       0.2000       0.2000      -0.1500    -999.2500    -999.2500
   2340.3657    -999.2500    -999.2500    -999.2500      37.0943       0.6509       0.6671       0.2000       0.2000       0.2000      -0.1500    -999.2500    -999.2500
   2340.5181    -999.2500    -999.2500    -999.2500      38.2393       0.6384       0.6501       0.2000       0.2000       0.2000      -0.1500    -999.2500    -999.2500
   2340.6704    -999.2500    -999.2500    -999.2500      40.0500       0.6278       0.6374       0.2000       0.2000       0.2000      -0.1500    -999.2500    -999.2500
   2340.8228    -999.2500    -999.2500    -999.2500      42.8435       0.6197       0.6309       0.2000       0.2000       0.2000      -0.1500    -999.2500    -999.2500
   2340.9753    -999.2500    -999.2500    -999.2500      44.2169       0.6111       0.6248       0.2000       0.2000       0.2000      -0.1500    -999.2500    -999.2500
   2341.1277    -999.2500    -999.2500    -999.2500      43.5275       0.6016       0.6192       0.2000       0.2000       0.2000      -0.1500    -999.2500    -999.2500
   2341.2800    -999.2500    -999.2500    -999.2500      43.3946       0.5950       0.6148       0.2000       0.2000       0.2000      -0.1500    -999.2500    -999.2500
   2341.4324    -999.2500    -999.2500    -999.2500      44.0518       0.5925       0.6118       0.2000       0.2000       0.2000      -0.1500    -999.2500    -999.2500
   2341.5847    -999.2500    -999.2500    -999.2500      44.1437       0.5910       0.6090       0.2000       0.2000       0.2000      -0.1500    -999.2500    -999.2500
   2341.7373    -999.2500    -999.2500    -999.2500      43.4303       0.5910       0.6065       0.2000       0.2000       0.2000      -0.1500    -999.2500    -999.2500
   2341.8896    -999.2500    -999.2500    -999.2500      42.9707       0.5929       0.6077       0.2000       0.2000       0.2000      -0.1500    -999.2500    -999.2500
   2342.0420    -999.2500    -999.2500    -999.2500      42.8649       0.5974       0.6142       0.2000       0.2000       0.2000      -0.1500    -999.2500    -999.2500
   2342.1943    -999.2500    -999.2500    -999.2500      42.6934       0.6012       0.6205       0.2000       0.2000       0.2000      -0.1500    -999.2500    -999.2500
   2342.3469    -999.2500    -999.2500    -999.2500      42.4297       0.6043       0.6265       0.2000       0.2000       0.2000      -0.1500    -999.2500    -999.2500
   2342.4993    -999.2500    -999.2500    -999.2500      41.7944       0.6071       0.6317       0.2000       0.2000       0.2000      -0.1500    -999.2500    -999.2500
   2342.6516    -999.2500    -999.2500    -999.2500      40.6482       0.6096       0.6357       0.2000       0.2000       0.2000      -0.1500    -999.2500    -999.2500
   2342.8040    -999.2500    -999.2500    -999.2500      40.3168       0.6082       0.6337       0.2000       0.2000       0.2000      -0.1500    -999.2500    -999.2500
   2342.9565    -999.2500    -999.2500    -999.2500      41.0804       0.6017       0.6237       0.2000       0.2000       0.2000      -0.1500    -999.2500    -999.2500
   2343.1089    -999.2500    -999.2500    -999.2500      42.4825       0.5948       0.6129       0.2000       0.2000       0.2000      -0.1500    -999.2500    -999.2500
   2343.2612    -999.2500    -999.2500    -999.2500      44.7458       0.5873       0.6008       0.2000       0.2000       0.2000      -0.1500    -999.2500    -999.2500
   2343.4136    -999.2500    -999.2500    -999.2500      46.3167       0.5787       0.5914       0.2000       0.2000       0.2000      -0.1500    -999.2500    -999.2500
   2343.5659    -999.2500    -999.2500    -999.2500      46.9745       0.5687       0.5854       0.2000       0.2000       0.2000      -0.1500    -999.2500    -999.2500
   2343.7185    -999.2500    -999.2500    -999.2500      48.2693       0.5654       0.5822       0.2000       0.2000       0.2000      -0.1500    -999.2500    -999.2500
   2343.8708    -999.2500    -999.2500    -999.2500      50.3909       0.5709       0.5827       0.2000       0.2000       0.2000      -0.1500    -999.2500    -999.2500
