#------------------------------------------------------------------------------
#
#   Created by  : [OpenWorks] Log Export Utility (LEXP)
#   Created on  : 2016-05-23 11:56:01
#   Project     : CANT971
#   User        : R5K
#   Interpreter : PEP
#
#------------------------------------------------------------------------------
~VERSION INFORMATION
VERS. 2.0 : CWLS Log ASCII Standard - version 2.0
WRAP.  NO : One line per depth step
~WELL INFORMATION
#MNEMONIC   .UNIT                                           VALUE :DESCRIPTION
#------------------------------------------------------------------------------
STRT        .M                                          1572.0055 :START DEPTH
STOP        .M                                          3732.1230 :STOP DEPTH
STEP        .M                                             0.1524 :STEP
NULL        .                                           -999.2500 :NULL VALUE
COMP        .                                             UNKNOWN :COMPANY
WELL        .                                               428-V :WELL
FLD         .                                             UNKNOWN :FIELD
LOC         .                                             UNKNOWN :LOCATION
CNTY        .                                             UNKNOWN :COUNTY
STAT        .                                             UNKNOWN :STATE
CTRY        .                                             UNKNOWN :COUNTRY
SRVC        .                                             UNKNOWN :SERVICE COMPANY
DATE        .                                             UNKNOWN :LOG DATE
UWI         .                                               428-V :UNIQUE WELL ID
XCOORD      .                                            0.000000 :SURFACE X
YCOORD      .                                            0.000000 :SURFACE Y
LAT         .                                            0.000000 :LATITUDE
LON         .                                            0.000000 :LONGITUDE
ELEV        .M                                             0.0000 :SURFACE ELEV
ELEV_TYPE   .                                                  KB :ELEV TYPE
~CURVE INFORMATION
#MNEMONIC .UNIT        API CODE       : CURVE DESCRIPTION
#------------------------------------------------------------------------------
DEPTH     .M                          : Measured Depth
CALIH-LWD .inches      UNKNOWN        : CALIH-LWD:PETROWORKS:rC:NONE:v5 
CALIV-LWD .inches      UNKNOWN        : CALIV-LWD:PETROWORKS:rC:NONE:v5 
CGR       .API         UNKNOWN        : CGR:Espectrometria:rC:NONE:v0 (auto-composite)
DRHO-LWD  .g/cm3       UNKNOWN        : DRHO-LWD:PETROWORKS:rC:NONE:v5 
DT        .us/ft       UNKNOWN        : DT:sonico:rC:NONE:v0 (auto-composite)
GR        .API         UNKNOWN        : GR:Espectrometria:rC:NONE:v0 (auto-composite)
GR-LWD    .API         UNKNOWN        : GR-LWD:PETROWORKS:rC:NONE:v3 
ILD-LWD   .ohm.m       UNKNOWN        : ILD-LWD:PETROWORKS:rC:NONE:v2 
ILM-LWD   .ohm.m       UNKNOWN        : ILM-LWD:PETROWORKS:rC:NONE:v2 
LLD-LWD   .ohm.m       UNKNOWN        : LLD-LWD:registros-LWD:rC:NONE:v0 (auto-composite)
LLS-LWD   .ohm.m       UNKNOWN        : LLS-LWD:registros-LWD:rC:NONE:v0 (auto-composite)
MSFL-LWD  .ohm.m       UNKNOWN        : MSFL-LWD:registros-LWD:rC:NONE:v0 (auto-composite)
NPHI-LWD  .v/v_decimal UNKNOWN        : NPHI-LWD:PETROWORKS:rC:NONE:v5 
PEF-LWD   .b/elec      UNKNOWN        : PEF-LWD:PETROWORKS:rC:NONE:v5 
POTA      .wtpercent   UNKNOWN        : POTA:Espectrometria:rC:NONE:v0 (auto-composite)
RHOB-LWD  .g/cm3       UNKNOWN        : RHOB-LWD:PETROWORKS:rC:NONE:v5 
THOR      .UNKNOWN     UNKNOWN        : THOR:Espectrometria:rC:NONE:v0 (auto-composite)
URAN      .UNKNOWN     UNKNOWN        : URAN:Espectrometria:rC:NONE:v0 (auto-composite)
~A     DEPTH    CALIH-LWD    CALIV-LWD          CGR     DRHO-LWD           DT           GR       GR-LWD      ILD-LWD      ILM-LWD      LLD-LWD      LLS-LWD     MSFL-LWD     NPHI-LWD      PEF-LWD         POTA     RHOB-LWD         THOR         URAN
# ...
   3090.8240       6.2387       6.2990      14.3404       0.1536      56.6914      38.3507      37.2707      44.0297      41.5052    -999.2500    -999.2500    -999.2500       0.0676       2.9017       0.0069       2.8024       1.3207       2.6731
   3090.9763       6.2188       6.2743      17.0793       0.1492      57.4814      38.2701      36.8453      44.5406      40.6134    -999.2500    -999.2500    -999.2500       0.0684       2.9348       0.0094       2.7948       1.1168       2.3593
   3091.1287       6.2125       6.2606      19.4300       0.1484      58.5969      39.2094      38.6836      42.9795      38.4031    -999.2500    -999.2500    -999.2500       0.0703       2.9846       0.0111       2.7885       1.0893       2.2021
   3091.2810       6.2183       6.2535      22.6758       0.1512      60.0663      41.1976      41.7997      37.5545      35.2392    -999.2500    -999.2500    -999.2500       0.0730       2.9852       0.0128       2.7794       1.3514       2.0621
   3091.4336       6.2301       6.2543      24.0599       0.1512      61.3742      42.0643      42.8550      35.7019      34.6949    -999.2500    -999.2500    -999.2500       0.0760       2.9137       0.0139       2.7644       1.3195       2.0045
   3091.5859       6.2381       6.2633      23.5410       0.1483      62.0993      41.3696      41.1649      36.9276      35.0007    -999.2500    -999.2500    -999.2500       0.0787       2.8633       0.0135       2.7505       1.3392       1.9850
   3091.7383       6.2255       6.2596      21.6426       0.1430      62.1739      40.0652      38.6337      37.1450      34.5018    -999.2500    -999.2500    -999.2500       0.0808       2.8793       0.0124       2.7424       1.2247       2.0510
   3091.8906       6.2030       6.2382      19.0021       0.1390      61.8640      37.3444      36.2991      36.2890      33.7545    -999.2500    -999.2500    -999.2500       0.0821       2.9152       0.0096       2.7440       1.5976       2.0422
   3092.0432       6.1960       6.2220      17.2414       0.1390      61.3174      35.6830      34.1681      34.4929      32.4576    -999.2500    -999.2500    -999.2500       0.0821       2.9368       0.0083       2.7514       1.6117       2.0532
   3092.1956       6.2151       6.2416      15.0453       0.1412      60.8080      34.0933      33.2423      33.0771      30.8082    -999.2500    -999.2500    -999.2500       0.0815       2.9509       0.0071       2.7552       1.4491       2.1207
   3092.3479       6.2522       6.2865      13.3693       0.1446      60.9599      33.9940      33.6962      32.3308      29.5813    -999.2500    -999.2500    -999.2500       0.0813       2.9679       0.0068       2.7578       1.1030       2.2962
   3092.5002       6.2734       6.3102      12.1531       0.1488      62.0331      34.8048      34.8327      32.2127      29.3784    -999.2500    -999.2500    -999.2500       0.0825       3.0086       0.0067       2.7607       0.7862       2.5219
   3092.6526       6.2719       6.2989      14.9389       0.1478      63.5259      35.7681      35.9551      33.1861      29.6676    -999.2500    -999.2500    -999.2500       0.0848       3.0535       0.0091       2.7577       0.6420       2.3190
   3092.8052       6.2516       6.2811      16.4857       0.1437      64.0627      37.2091      36.8054      32.7947      29.5271    -999.2500    -999.2500    -999.2500       0.0859       3.0225       0.0106       2.7574       0.4800       2.3073
   3092.9575       6.2309       6.2773      19.7788       0.1459      63.1251      39.0493      37.5650      31.8920      28.7328    -999.2500    -999.2500    -999.2500       0.0854       2.9029       0.0121       2.7704       0.8211       2.1454
   3093.1099       6.2027       6.2522      20.7036       0.1477      62.1646      39.3618      38.2064      31.0363      27.9976    -999.2500    -999.2500    -999.2500       0.0847       2.8008       0.0118       2.7842       1.1826       2.0773
   3093.2622       6.1942       6.2392      19.4217       0.1426      62.2321      38.8683      38.4984      30.4120      27.8425    -999.2500    -999.2500    -999.2500       0.0845       2.8077       0.0097       2.7874       1.6650       2.1651
   3093.4148       6.1939       6.2253      17.3147       0.1379      62.5536      38.4117      38.7134      30.0965      27.4645    -999.2500    -999.2500    -999.2500       0.0839       2.8430       0.0083       2.7845       1.6143       2.3488
   3093.5671       6.2098       6.2348      16.5647       0.1344      61.8431      37.8734      38.0226      29.4078      26.5996    -999.2500    -999.2500    -999.2500       0.0829       2.8582       0.0082       2.7823       1.4597       2.3724
   3093.7195       6.1861       6.2103      17.4515       0.1359      59.9208      37.3192      37.2921      28.8625      25.9737    -999.2500    -999.2500    -999.2500       0.0825       2.8062       0.0093       2.7826       1.2508       2.2120
   3093.8718       6.1682       6.2004      18.7727       0.1400      57.6111      36.7496      35.4838      28.4504      25.8571    -999.2500    -999.2500    -999.2500       0.0825       2.8201       0.0104       2.7765       1.2064       2.0014
   3094.0244       6.1720       6.2007      18.5651       0.1444      55.7703      35.9874      34.1862      28.3379      25.6982    -999.2500    -999.2500    -999.2500       0.0824       2.8237       0.0107       2.7669       1.0249       1.9397
   3094.1768       6.1909       6.2141      16.8152       0.1469      54.4544      34.7611      33.7085      28.3544      25.7072    -999.2500    -999.2500    -999.2500       0.0818       2.8366       0.0097       2.7670       0.9218       1.9980
   3094.3291       6.2085       6.2440      14.7110       0.1509      53.3864      33.7651      33.2384      28.3357      25.5796    -999.2500    -999.2500    -999.2500       0.0807       2.8750       0.0086       2.7815       0.7663       2.1214
   3094.4814       6.2043       6.2649      12.4804       0.1452      52.6219      32.9886      33.2205      28.3861      25.7311    -999.2500    -999.2500    -999.2500       0.0793       2.8769       0.0068       2.7922       0.8395       2.2832
   3094.6338       6.2376       6.3155      12.7096       0.1373      52.6230      33.3085      33.7461      28.1983      25.8001    -999.2500    -999.2500    -999.2500       0.0781       2.8884       0.0065       2.7895       1.0446       2.2934
   3094.7864       6.2849       6.3563      15.4278       0.1381      53.4920      36.0507      36.3909      29.1431      26.5910    -999.2500    -999.2500    -999.2500       0.0772       2.8334       0.0071       2.7894       1.5463       2.2960
   3094.9387       6.3095       6.3733      18.5830       0.1435      54.8161      39.1555      42.8226      29.9143      27.5502    -999.2500    -999.2500    -999.2500       0.0764       2.8752       0.0084       2.7860       1.9305       2.2904
   3095.0911       6.2977       6.3466      23.2973       0.1603      55.9867      43.1816      45.8296      31.6690      28.7074    -999.2500    -999.2500    -999.2500       0.0764       2.9459       0.0109       2.7952       2.2709       2.2137
   3095.2434       6.2443       6.2835      23.6838       0.1529      56.8674      43.6815      45.4354      33.9033      30.7068    -999.2500    -999.2500    -999.2500       0.0777       2.9380       0.0116       2.7887       2.1178       2.2265
   3095.3960       6.1945       6.2230      18.5752       0.1493      57.9021      41.0754      40.6860      34.2276      32.0725    -999.2500    -999.2500    -999.2500       0.0784       2.8851       0.0099       2.7966       1.3498       2.5050
   3095.5483       6.1926       6.2310      15.2790       0.1393      59.6553      39.3897      37.6750      34.5795      32.7996    -999.2500    -999.2500    -999.2500       0.0781       2.8790       0.0083       2.7865       1.0251       2.6843
   3095.7007       6.2063       6.2375      13.7413       0.1487      61.9300      39.2243      37.6417      34.6088      32.8357    -999.2500    -999.2500    -999.2500       0.0769       2.8763       0.0075       2.7733       0.9137       2.8371
