#------------------------------------------------------------------------------
#
#   Created by  : [OpenWorks] Log Export Utility (LEXP)
#   Created on  : 2016-05-23 11:55:51
#   Project     : CANT971
#   User        : R5K
#   Interpreter : PEP
#
#------------------------------------------------------------------------------
~VERSION INFORMATION
VERS. 2.0 : CWLS Log ASCII Standard - version 2.0
WRAP.  NO : One line per depth step
~WELL INFORMATION
#MNEMONIC   .UNIT                                           VALUE :DESCRIPTION
#------------------------------------------------------------------------------
STRT        .M                                           490.1183 :START DEPTH
STOP        .M                                          2794.5586 :STOP DEPTH
STEP        .M                                             0.1524 :STEP
NULL        .                                           -999.2500 :NULL VALUE
COMP        .                                   PEMEX EXPL & PROD :COMPANY
WELL        .                                                  41 :WELL
FLD         .                                           CANTARELL :FIELD
LOC         .                                             UNKNOWN :LOCATION
CNTY        .                                      CD. DEL CARMEN :COUNTY
STAT        .                                            CAMPECHE :STATE
CTRY        .                                              MEXICO :COUNTRY
SRVC        .                                             UNKNOWN :SERVICE COMPANY
DATE        .                                             UNKNOWN :LOG DATE
UWI         .                                          3060000463 :UNIQUE WELL ID
XCOORD      .                                       601713.000000 :SURFACE X
YCOORD      .                                      2142348.040000 :SURFACE Y
LAT         .                                           19.373822 :LATITUDE
LON         .                                          -92.031472 :LONGITUDE
ELEV        .M                                            24.0000 :SURFACE ELEV
ELEV_TYPE   .                                                  KB :ELEV TYPE
~CURVE INFORMATION
#MNEMONIC.UNIT        API CODE       : CURVE DESCRIPTION
#------------------------------------------------------------------------------
DEPTH    .M                          : Measured Depth
CALI     .inches      UNKNOWN        : CALI:Import:rC:NONE:v0 (auto-composite)
DRHO     .g/cm3       UNKNOWN        : DRHO:Import:rC:NONE:v0 (auto-composite)
DT       .us/ft       UNKNOWN        : DT:Import:rC:NONE:v0 (auto-composite)
GR       .API         UNKNOWN        : GR:Import:rC:NONE:v0 (auto-composite)
ILD      .ohm.m       UNKNOWN        : ILD:Import:rC:NONE:v0 (auto-composite)
LLD      .ohm.m       UNKNOWN        : LLD:Import:rC:NONE:v0 (auto-composite)
LLS      .ohm.m       UNKNOWN        : LLS:Import:rC:NONE:v0 (auto-composite)
NPHI     .v/v_decimal UNKNOWN        : NPHI:Import:rC:NONE:v0 (auto-composite)
PEF      .b/elec      UNKNOWN        : PEF:Import:rC:NONE:v0 (auto-composite)
RHOB     .g/cm3       UNKNOWN        : RHOB:Import:rC:NONE:v0 (auto-composite)
~A     DEPTH         CALI         DRHO           DT           GR          ILD          LLD          LLS         NPHI          PEF         RHOB
# ...
   2666.3904       8.7500       0.0530      55.9000      27.5760    -999.2500     214.6550     101.2200       0.0370       3.6110       2.7990
   2666.5427       8.7630       0.0505      55.8280      26.8945    -999.2500     234.0586     104.8057       0.0371       3.5295       2.8030
   2666.6951       8.7760       0.0480      55.7560      26.2140    -999.2500     253.4650     108.3920       0.0373       3.4480       2.8070
   2666.8474       8.7770       0.0440      55.0656      26.2715    -999.2500     272.8614     112.1430       0.0385       3.4130       2.8135
   2667.0000       8.7780       0.0400      54.3750      26.3290    -999.2500     292.2630     115.8950       0.0396       3.3780       2.8200
   2667.1523       8.7865       0.0370      54.4520      26.7848    -999.2500     314.6900     125.2507       0.0394       3.3430       2.8265
   2667.3047       8.7950       0.0340      54.5290      27.2400    -999.2500     337.0900     134.6100       0.0389       3.3080       2.8330
   2667.4570       8.8245       0.0425      55.4987      27.1960    -999.2500     350.6673     143.2802       0.0384       3.3195       2.8400
   2667.6094       8.8540       0.0510      56.4690      27.1520    -999.2500     364.2300     151.9550       0.0380       3.3310       2.8470
   2667.7620       8.8710       0.0820      55.4295      27.3756    -999.2500     378.8700     156.5100       0.0387       3.4431       2.8420
   2667.9143       8.8880       0.1130      54.3910      27.5990    -999.2500     393.4960     161.0680       0.0394       3.5550       2.8370
   2668.0667       8.8635       0.1550      53.4606      28.0135    -999.2500     424.9270     164.2708       0.0398       3.5305       2.8270
   2668.2190       8.8390       0.1970      52.5310      28.4270    -999.2500     456.3320     167.4760       0.0402       3.5060       2.8170
   2668.3716       8.7880       0.1845      53.0527      29.4267    -999.2500     472.7523     173.2264       0.0411       3.4545       2.8105
   2668.5239       8.7370       0.1720      53.5740      30.4240    -999.2500     489.1610     178.9820       0.0421       3.4030       2.8040
   2668.6763       8.7020       0.1730      54.1622      31.1693    -999.2500     471.0247     173.5493       0.0436       3.3835       2.8020
   2668.8286       8.6670       0.1740      54.7500      31.9130    -999.2500     452.8990     168.1110       0.0448       3.3640       2.8000
   2668.9812       8.6670       0.1890      54.2654      31.3579    -999.2500     430.3829     160.3257       0.0436       3.4045       2.8025
   2669.1335       8.6670       0.2040      53.7810      30.8040    -999.2500     407.8770     152.5440       0.0424       3.4450       2.8050
   2669.2859       8.7105       0.2270      53.8200      29.8636    -999.2500     391.5718     147.4887       0.0433       3.5190       2.8115
   2669.4382       8.7540       0.2500      53.8590      28.9250    -999.2500     375.2720     142.4350       0.0449       3.5930       2.8180
   2669.5906       8.8860       0.2220      54.1040      28.3215    -999.2500     356.1165     137.4020       0.0501       3.8000       2.8225
   2669.7432       9.0180       0.1940      54.3490      27.7190    -999.2500     336.9650     132.3700       0.0560       4.0070       2.8270
   2669.8955       9.1525       0.1470      63.0993      27.0209    -999.2500     294.0944     123.7332       0.0635       4.3010       2.8155
   2670.0479       9.2870       0.1000      71.8490      26.3240    -999.2500     251.2270     115.0970       0.0712       4.5950       2.8040
   2670.2002       9.4225       0.0730      75.7169      25.2722    -999.2500     193.7919     101.6768       0.0790       4.8135       2.7675
   2670.3528       9.5580       0.0460      79.5850      24.2220    -999.2500     136.3540      88.2560       0.0870       5.0320       2.7310
   2670.5051       9.7210       0.0350      97.9314      24.2600    -999.2500      96.7315      71.3120       0.0973       5.2625       2.6690
   2670.6575       9.8840       0.0240     116.2810      24.2980    -999.2500      57.1020      54.3650       0.1092       5.4930       2.6070
   2670.8098       9.8010       0.0310     113.8154      25.5333    -999.2500      39.2527      41.5909       0.1308       5.7960       2.5109
   2670.9624       9.7180       0.0380     111.3490      26.7670    -999.2500      21.3980      28.8130       0.1535       6.0990       2.4150
   2671.1147       9.5139       0.0460     100.9154      28.4855    -999.2500      18.2126      22.9487       0.1746       6.0360       2.4335
   2671.2671       9.3100       0.0540      90.4940      30.2020    -999.2500      15.0310      17.0820       0.1905       5.9730       2.4520
   2671.4194       9.1674       0.0570      78.5092      31.0489    -999.2500      21.6855      13.8804       0.1658       5.6803       2.5290
   2671.5718       9.0250       0.0600      66.5370      31.8950    -999.2500      28.3330      10.6770       0.1356       5.3880       2.6060
   2671.7244       8.9710       0.0580      60.0135      31.1587    -999.2500      42.0463      13.0837       0.1015       4.9798       2.6920
   2671.8767       8.9170       0.0560      53.4960      30.4230    -999.2500      55.7470      15.4920       0.0689       4.5720       2.7780
   2672.0291       8.9030       0.0545      51.9974      29.3737    -999.2500      76.7819      25.2306       0.0519       4.2684       2.8040
   2672.1814       8.8890       0.0530      50.5000      28.3270    -999.2500      97.8000      34.9770       0.0386       3.9650       2.8300
   2672.3340       8.8890       0.0560      50.5225      27.9295    -999.2500     136.6166      54.1581       0.0373       3.7749       2.8210
   2672.4863       8.8890       0.0590      50.5450      27.5330    -999.2500     175.4070      73.3570       0.0377       3.5850       2.8120
   2672.6387       8.8890       0.0635      50.9751      28.3203    -999.2500     235.3824      95.5378       0.0394       3.4615       2.8045
   2672.7910       8.8890       0.0680      51.4050      29.1060    -999.2500     295.3250     117.7420       0.0413       3.3380       2.7970
   2672.9436       8.8890       0.0745      52.1212      30.5044    -999.2500     349.8460     136.3989       0.0437       3.2800       2.7925
   2673.0959       8.8890       0.0810      52.8370      31.9000    -999.2500     404.3440     155.0480       0.0460       3.2220       2.7880
   2673.2483       8.8890       0.0810      53.1005      31.2749    -999.2500     383.7260     163.3482       0.0477       3.2220       2.7830
   2673.4006       8.8890       0.0810      53.3640      30.6510    -999.2500     363.1140     171.6460       0.0494       3.2220       2.7780
   2673.5530       8.8890       0.0705      53.7460      30.7806    -999.2500     337.7408     164.7659       0.0526       3.2220       2.7750
   2673.7056       8.8890       0.0600      54.1280      30.9100    -999.2500     312.3720     157.8870       0.0561       3.2220       2.7720
   2673.8579       8.8890       0.0490      54.5325      32.0199    -999.2500     299.8982     150.4273       0.0609       3.2220       2.7705
   2674.0103       8.8890       0.0380      54.9370      33.1280    -999.2500     287.4250     142.9680       0.0652       3.2220       2.7690
   2674.1626       8.8890       0.0295      54.2825      32.2543    -999.2500     266.6133     135.2118       0.0637       3.2095       2.7815
   2674.3152       8.8890       0.0210      53.6280      31.3820    -999.2500     245.8000     127.4550       0.0613       3.1970       2.7940
   2674.4675       8.8890       0.0220      52.6086      29.5622    -999.2500     217.5773     117.8760       0.0579       3.1680       2.8100
   2674.6199       8.8890       0.0230      51.5890      27.7450    -999.2500     189.3940     108.2950       0.0545       3.1390       2.8260
   2674.7722       8.8890       0.0325      50.9821      26.7053    -999.2500     174.5986     100.7173       0.0525       3.1260       2.8190
