#------------------------------------------------------------------------------
#
#   Created by  : [OpenWorks] Log Export Utility (LEXP)
#   Created on  : 2016-05-23 11:55:56
#   Project     : CANT971
#   User        : R5K
#   Interpreter : PEP
#
#------------------------------------------------------------------------------
~VERSION INFORMATION
VERS. 2.0 : CWLS Log ASCII Standard - version 2.0
WRAP.  NO : One line per depth step
~WELL INFORMATION
#MNEMONIC   .UNIT                                           VALUE :DESCRIPTION
#------------------------------------------------------------------------------
STRT        .M                                          3767.4790 :START DEPTH
STOP        .M                                          5548.2729 :STOP DEPTH
STEP        .M                                             0.1524 :STEP
NULL        .                                           -999.2500 :NULL VALUE
COMP        .                                             UNKNOWN :COMPANY
WELL        .                                            418D-ST2 :WELL
FLD         .                                             UNKNOWN :FIELD
LOC         .                                             UNKNOWN :LOCATION
CNTY        .                                             UNKNOWN :COUNTY
STAT        .                                             UNKNOWN :STATE
CTRY        .                                             UNKNOWN :COUNTRY
SRVC        .                                             UNKNOWN :SERVICE COMPANY
DATE        .                                             UNKNOWN :LOG DATE
UWI         .                                            418D-ST2 :UNIQUE WELL ID
XCOORD      .                                       597130.010000 :SURFACE X
YCOORD      .                                      2144879.410000 :SURFACE Y
LAT         .                                           19.396924 :LATITUDE
LON         .                                          -92.074978 :LONGITUDE
ELEV        .M                                             0.0000 :SURFACE ELEV
ELEV_TYPE   .                                                  NA :ELEV TYPE
~CURVE INFORMATION
#MNEMONIC.UNIT        API CODE       : CURVE DESCRIPTION
#------------------------------------------------------------------------------
DEPTH    .M                          : Measured Depth
CALI     .inches      UNKNOWN        : CALI:PETROWORKS:rC:NONE:v1 
CGR      .API         UNKNOWN        : CGR:PETROWORKS:rC:NONE:v2 
DRHO     .g/cm3       UNKNOWN        : DRHO:PETROWORKS:rC:NONE:v1 
DT       .us/ft       UNKNOWN        : DT:PETROWORKS:rC:NONE:v2 
GR       .API         UNKNOWN        : GR:PETROWORKS:rC:NONE:v2 
ILD      .ohm.m       UNKNOWN        : ILD:PETROWORKS:rC:NONE:v2 
ILM      .ohm.m       UNKNOWN        : ILM:PETROWORKS:rC:NONE:v2 
NPHI     .v/v_decimal UNKNOWN        : NPHI:PETROWORKS:rC:NONE:v3 
PEF      .b/elec      UNKNOWN        : PEF:PETROWORKS:rC:NONE:v1 
POTA     .wtpercent   UNKNOWN        : POTA:PETROWORKS:rC:NONE:v2 
RHOB     .UNKNOWN     UNKNOWN        : RHOB:PETROWORKS:rC:NONE:v1 
THOR     .ppm         UNKNOWN        : THOR:PETROWORKS:rC:NONE:v2 
URAN     .ppm         UNKNOWN        : URAN:PETROWORKS:rC:NONE:v2 
~A     DEPTH         CALI          CGR         DRHO           DT           GR          ILD          ILM         NPHI          PEF         POTA         RHOB         THOR         URAN
# ...
   4585.5620       6.7458      14.4352       0.0444      49.5608      47.6241    1171.6437     228.8274       0.0609       4.3631       0.0051       2.7487       1.9572       4.0096
   4585.7148       6.7177      14.3404       0.0332      50.0078      47.8003    1214.2897     326.6672       0.0611       4.3091       0.0051       2.7251       1.9245       4.0475
   4585.8672       6.6989      14.5141       0.0278      50.4496      48.4419     912.9589     349.3059       0.0562       4.2427       0.0051       2.7192       2.0021       4.1160
   4586.0195       6.7193      15.4036       0.0221      50.7078      49.1648     598.5804     270.2055       0.0511       4.3395       0.0052       2.7150       2.2480       4.0884
   4586.1719       6.7460      16.1446       0.0147      50.4839      49.5590     380.4858     206.5823       0.0485       4.5043       0.0051       2.6942       2.5005       4.0179
   4586.3242       6.7663      16.8182       0.0159      49.7401      49.5386     324.1650     188.7242       0.0460       4.5184       0.0053       2.7021       2.6251       3.9260
   4586.4766       6.7639      17.8773       0.0274      49.2847      49.2889     554.0477     184.5930       0.0438       4.4788       0.0059       2.7322       2.6760       3.7917
   4586.6289       6.7450      18.5877       0.0342      50.3369      49.3445    1241.3596     186.8160       0.0431       4.4474       0.0065       2.7431       2.5678       3.7505
   4586.7812       6.7666      18.0657       0.0439      53.4966      50.0906    2389.2456     211.5991       0.0427       4.3358       0.0067       2.7650       2.2854       3.9280
   4586.9336       6.7886      17.4765       0.0571      55.9285      50.8388    2672.0535     210.7563       0.0428       4.2022       0.0067       2.7956       2.1293       4.0990
   4587.0864       6.7788      17.1783       0.0513      56.2799      51.4583    1690.5372     196.3024       0.0439       4.0549       0.0066       2.7784       2.0458       4.2245
   4587.2388       6.7810      16.9118       0.0447      55.8065      51.8307    1004.8417     160.8482       0.0445       4.0098       0.0066       2.7542       1.9607       4.3122
   4587.3911       6.7757      17.2503       0.0403      54.0073      51.4702     719.4281     148.4320       0.0471       4.0656       0.0068       2.7397       1.9653       4.2331
   4587.5435       6.7520      17.9155       0.0339      51.6986      50.8350     472.8583     171.8210       0.0506       4.0724       0.0071       2.7223       2.0512       4.0793
   4587.6958       6.7403      18.3883       0.0363      50.3410      50.4768     362.8187     196.5014       0.0512       4.0529       0.0072       2.7213       2.1416       3.9811
   4587.8481       6.7526      18.6419       0.0459      50.2081      50.4259     289.9410     228.2070       0.0499       4.0687       0.0072       2.7308       2.2035       3.9467
   4588.0005       6.7697      18.8981       0.0516      50.4126      50.3486     268.3496     227.8141       0.0479       4.0941       0.0072       2.7356       2.2951       3.9062
   4588.1528       6.7868      18.8247       0.0533      50.6262      50.1192     309.0531     207.2515       0.0447       4.1226       0.0070       2.7402       2.4035       3.8758
   4588.3052       6.7659      18.4874       0.0573      52.1928      49.9486     450.8362     223.3987       0.0420       4.1485       0.0066       2.7511       2.5080       3.8819
   4588.4580       6.7466      18.1588       0.0642      53.8771      49.9584     708.1138     302.1445       0.0403       4.2118       0.0062       2.7646       2.5850       3.9107
   4588.6104       6.7459      18.2038       0.0654      53.7366      50.0662    1544.3107     471.7714       0.0413       4.2400       0.0062       2.7682       2.6201       3.9125
   4588.7627       6.7504      18.4289       0.0559      52.8612      50.2154    3942.9980     820.0528       0.0463       4.1743       0.0064       2.7525       2.5712       3.9046
   4588.9150       6.7546      18.7364       0.0462      52.5107      50.5039    6746.8735    1012.3003       0.0528       4.1172       0.0066       2.7296       2.5692       3.9077
   4589.0674       6.7277      19.6062       0.0415      52.4392      50.9495    6154.7920     800.8360       0.0572       4.0854       0.0068       2.7135       2.7336       3.8598
   4589.2197       6.7128      20.3899       0.0390      51.8704      51.3284    4042.4089     537.3261       0.0575       4.0753       0.0069       2.7075       2.9152       3.8080
   4589.3721       6.7133      20.5218       0.0365      51.2014      51.5290    3050.7783     412.7872       0.0529       4.0489       0.0069       2.7144       2.9886       3.8015
   4589.5244       6.7271      20.7475       0.0413      50.8149      52.0154    2349.7439     366.8398       0.0462       4.1372       0.0072       2.7361       2.8940       3.8378
   4589.6772       6.7379      20.4455       0.0487      50.6010      52.6809    1494.4583     345.1558       0.0395       4.4154       0.0077       2.7556       2.5414       3.9757
   4589.8296       6.7297      19.4931       0.0536      50.7417      53.0283     857.9511     328.5393       0.0359       4.6003       0.0078       2.7691       2.1949       4.1369
   4589.9819       6.7332      18.5782       0.0565      51.8473      53.3587     535.9895     260.0494       0.0365       4.6676       0.0075       2.7746       2.0127       4.2610
   4590.1343       6.7491      18.1556       0.0556      53.2094      53.6785     391.8535     196.0026       0.0381       4.7251       0.0074       2.7697       1.9488       4.3243
   4590.2866       6.7577      18.5815       0.0546      53.9831      54.4721     353.3637     168.2645       0.0412       4.7155       0.0077       2.7662       1.9370       4.3473
   4590.4390       6.7615      18.9261       0.0542      53.8168      55.1834     340.6749     153.7615       0.0439       4.6238       0.0080       2.7660       1.9040       4.3725
   4590.5913       6.7605      18.8761       0.0508      52.7045      56.7292     541.7239     179.4778       0.0432       4.4478       0.0078       2.7621       1.9659       4.5522
   4590.7437       6.7308      19.4113       0.0468      51.7242      59.5116     902.4320     220.8672       0.0411       4.3100       0.0075       2.7607       2.2940       4.8162
   4590.8960       6.7181      19.3845       0.0446      50.6132      61.5511    1968.0256     268.1780       0.0402       4.2392       0.0071       2.7600       2.5119       5.0645
   4591.0488       6.7569      18.6109       0.0430      49.7624      62.2892    4082.8000     322.6114       0.0409       4.1678       0.0067       2.7554       2.4647       5.2426
   4591.2012       6.8023      17.9986       0.0426      49.6353      61.2912    9663.7871     349.9482       0.0421       4.1702       0.0066       2.7481       2.3109       5.2019
   4591.3535       6.7948      17.8962       0.0412      49.5860      57.1042   14542.3848     338.6608       0.0432       4.1706       0.0069       2.7398       2.1519       4.7531
   4591.5059       6.7627      17.4864       0.0409      49.4731      52.8530    9992.4766     308.6566       0.0424       4.1617       0.0069       2.7379       1.9970       4.3317
   4591.6582       6.7595      14.9125       0.0437      49.6084      49.2445    3422.1960     278.3666       0.0399       4.1674       0.0055       2.7478       1.9355       4.1783
   4591.8105       6.7881      13.1684       0.0487      49.9621      47.3642    1283.0093     256.3357       0.0382       4.1848       0.0044       2.7634       1.9474       4.1264
   4591.9629       6.8157      13.5340       0.0560      50.1470      47.4170     724.9846     240.1626       0.0384       4.2051       0.0046       2.7806       1.9341       4.0964
   4592.1152       6.8355      13.8683       0.0589      50.7476      47.5959     492.1193     217.4955       0.0404       4.2046       0.0049       2.7884       1.8831       4.0965
