#------------------------------------------------------------------------------
#
#   Created by  : [OpenWorks] Log Export Utility (LEXP)
#   Created on  : 2016-05-23 11:57:02
#   Project     : CANT971
#   User        : R5K
#   Interpreter : PEP
#
#------------------------------------------------------------------------------
~VERSION INFORMATION
VERS. 2.0 : CWLS Log ASCII Standard - version 2.0
WRAP.  NO : One line per depth step
~WELL INFORMATION
#MNEMONIC   .UNIT                                           VALUE :DESCRIPTION
#------------------------------------------------------------------------------
STRT        .M                                           493.3184 :START DEPTH
STOP        .M                                          2467.0508 :STOP DEPTH
STEP        .M                                             0.1524 :STEP
NULL        .                                           -999.2500 :NULL VALUE
COMP        .                                   PEMEX EXPL & PROD :COMPANY
WELL        .                                                  63 :WELL
FLD         .                                           CANTARELL :FIELD
LOC         .                                             UNKNOWN :LOCATION
CNTY        .                                      CD. DEL CARMEN :COUNTY
STAT        .                                            CAMPECHE :STATE
CTRY        .                                              MEXICO :COUNTRY
SRVC        .                                             UNKNOWN :SERVICE COMPANY
DATE        .                                             UNKNOWN :LOG DATE
UWI         .                                          3060000615 :UNIQUE WELL ID
XCOORD      .                                       601716.240000 :SURFACE X
YCOORD      .                                      2142344.800000 :SURFACE Y
LAT         .                                           19.373792 :LATITUDE
LON         .                                          -92.031441 :LONGITUDE
ELEV        .M                                            24.0000 :SURFACE ELEV
ELEV_TYPE   .                                                  KB :ELEV TYPE
~CURVE INFORMATION
#MNEMONIC.UNIT        API CODE       : CURVE DESCRIPTION
#------------------------------------------------------------------------------
DEPTH    .M                          : Measured Depth
CALI     .inches      UNKNOWN        : CALI:Import:rC:NONE:v0 (auto-composite)
DRHO     .g/cm3       UNKNOWN        : DRHO:Import:rC:NONE:v0 (auto-composite)
DT       .us/ft       UNKNOWN        : DT:Import:rC:NONE:v0 (auto-composite)
GR       .API         UNKNOWN        : GR:Import:rC:NONE:v0 (auto-composite)
ILD      .ohm.m       UNKNOWN        : ILD:Import:rC:NONE:v0 (auto-composite)
ILM      .ohm.m       UNKNOWN        : ILM:Import:rC:NONE:v0 (auto-composite)
LLD      .ohm.m       UNKNOWN        : LLD:Import:rC:NONE:v0 (auto-composite)
LLS      .ohm.m       UNKNOWN        : LLS:Import:rC:NONE:v0 (auto-composite)
MSFL     .ohm.m       UNKNOWN        : MSFL:Import:rC:NONE:v0 (auto-composite)
NPHI     .v/v_decimal UNKNOWN        : NPHI:Import:rC:NONE:v0 (auto-composite)
PEF      .b/elec      UNKNOWN        : PEF:Import:rC:NONE:v0 (auto-composite)
RHOB     .g/cm3       UNKNOWN        : RHOB:Import:rC:NONE:v0 (auto-composite)
~A     DEPTH         CALI         DRHO           DT           GR          ILD          ILM          LLD          LLS         MSFL         NPHI          PEF         RHOB
# ...
   2263.5967       5.7115       0.0400      54.0868      69.8641    -999.2500    -999.2500     290.4332     179.8729     127.1134       0.0752       3.0430       2.7470
   2263.7493       5.7120       0.0260      53.1810      69.7910    -999.2500    -999.2500     248.9900     152.5310     127.2580       0.0713       3.0460       2.7470
   2263.9016       5.7380       0.0250      52.8408      67.2046    -999.2500    -999.2500     222.1836     134.7733     132.5848       0.0671       3.1554       2.7580
   2264.0540       5.7640       0.0240      52.5000      64.6090    -999.2500    -999.2500     195.3250     116.9810     137.9220       0.0639       3.2650       2.7690
   2264.2063       5.7825       0.0265      52.4565      60.2530    -999.2500    -999.2500     197.1111     117.5090     129.1671       0.0631       3.0527       2.7585
   2264.3586       5.8010       0.0290      52.4130      55.8880    -999.2500    -999.2500     198.9010     118.0380     120.3940       0.0646       2.8400       2.7480
   2264.5112       5.7531       0.0285      52.1568      52.2060    -999.2500    -999.2500     192.5550     112.8632     107.4767       0.0686       3.1302       2.7380
   2264.6636       5.7050       0.0280      51.9000      48.5160    -999.2500    -999.2500     186.1950     107.6770      94.5310       0.0754       3.4210       2.7280
   2264.8159       5.6990       0.0430      52.8504      51.2718    -999.2500    -999.2500     201.6915     110.5107     309.5154       0.0855       3.3206       2.7415
   2264.9683       5.6930       0.0580      53.8030      54.0340    -999.2500    -999.2500     217.2240     113.3510     525.0000       0.0933       3.2200       2.7550
   2265.1208       5.7000       0.0570      56.1255      56.2797    -999.2500    -999.2500     214.1473     120.2520     457.2340       0.0926       3.2245       2.7430
   2265.2732       5.7070       0.0560      58.4500      58.5310    -999.2500    -999.2500     211.0630     127.1700     389.3020       0.0892       3.2290       2.7310
   2265.4255       5.7754       0.0525      58.3785      57.2751    -999.2500    -999.2500     211.7731     127.6514     248.7382       0.0881       3.2220       2.7310
   2265.5779       5.8440       0.0490      58.3070      56.0160    -999.2500    -999.2500     212.4850     128.1340     107.8120       0.0883       3.2150       2.7310
   2265.7305       5.8390       0.0475      57.2686      56.0974    -999.2500    -999.2500     223.8851     133.2466      70.7810       0.0887       3.1051       2.7360
   2265.8828       5.8340       0.0460      56.2290      56.1790    -999.2500    -999.2500     235.3160     138.3730      33.6500       0.0897       2.9950       2.7410
   2266.0352       5.7616       0.0455      56.0646      57.4392    -999.2500    -999.2500     245.4077     143.5876      32.7832       0.0919       2.9451       2.7450
   2266.1875       5.6890       0.0450      55.9000      58.7030    -999.2500    -999.2500     255.5280     148.8170      31.9140       0.0915       2.8950       2.7490
   2266.3398       5.7255       0.0480      55.7251      55.5906    -999.2500    -999.2500     238.4216     138.1497      32.4866       0.0839       3.0484       2.7565
   2266.4924       5.7620       0.0510      55.5500      52.4690    -999.2500    -999.2500     221.2920     127.4680      33.0600       0.0749       3.2020       2.7640
   2266.6448       5.7835       0.0525      56.3244      47.6469    -999.2500    -999.2500     229.7702     131.4820      50.4447       0.0701       3.2475       2.7705
   2266.7971       5.8050       0.0540      57.1000      42.8100    -999.2500    -999.2500     238.2610     135.5020      67.8550       0.0675       3.2930       2.7770
   2266.9495       5.7425       0.0585      55.9509      40.5102    -999.2500    -999.2500     248.1236     139.1301      87.5707       0.0658       3.2111       2.7820
   2267.1021       5.6800       0.0630      54.8000      38.2030    -999.2500    -999.2500     258.0020     142.7640     107.3180       0.0646       3.1290       2.7870
   2267.2544       5.7305       0.0665      55.5494      39.3960    -999.2500    -999.2500     257.1502     144.4391     229.2413       0.0634       3.1395       2.7910
   2267.4067       5.7810       0.0700      56.3000      40.5930    -999.2500    -999.2500     256.2970     146.1170     351.3750       0.0623       3.1500       2.7950
   2267.5591       5.7550       0.0730      55.7625      43.0727    -999.2500    -999.2500     258.3316     144.9411     198.3898       0.0613       3.2079       2.7900
   2267.7117       5.7290       0.0760      55.2240      45.5610    -999.2500    -999.2500     260.3700     143.7630      45.1210       0.0625       3.2660       2.7850
   2267.8640       5.7650       0.0795      53.8384      47.5584    -999.2500    -999.2500     251.6037     138.5731      66.4459       0.0688       3.4193       2.7965
   2268.0164       5.8010       0.0830      52.4500      49.5630    -999.2500    -999.2500     242.8200     133.3730      87.8130       0.0753       3.5730       2.8080
   2268.1687       5.7970       0.0790      54.7231      49.0186    -999.2500    -999.2500     208.7074     113.3171      87.7296       0.0772       3.4346       2.8030
   2268.3210       5.7930       0.0750      57.0010      48.4730    -999.2500    -999.2500     174.5230      93.2190      87.6460       0.0769       3.2960       2.7980
   2268.4736       5.7540       0.0765      57.2752      42.6260    -999.2500    -999.2500     171.8909      91.5638      86.7615       0.0761       3.3230       2.7785
   2268.6260       5.7150       0.0780      57.5500      36.7660    -999.2500    -999.2500     169.2530      89.9050      85.8750       0.0746       3.3500       2.7590
   2268.7783       5.7315       0.1000      55.9269      30.9833    -999.2500    -999.2500     180.6181      97.9176      51.1794       0.0719       3.3525       2.7485
   2268.9307       5.7480       0.1220      54.3000      25.1870    -999.2500    -999.2500     192.0100     105.9490      16.4020       0.0702       3.3550       2.7380
   2269.0833       5.7540       0.1515      54.8802      30.1613    -999.2500    -999.2500     211.3380     117.6400      34.6114       0.0714       3.4464       2.7580
   2269.2356       5.7600       0.1810      55.4610      35.1480    -999.2500    -999.2500     230.7140     129.3600      52.8660       0.0730       3.5380       2.7780
   2269.3879       5.7460       0.1635      55.8553      37.2667    -999.2500    -999.2500     206.6284     115.3523     117.0992       0.0720       3.4202       2.8010
   2269.5403       5.7320       0.1460      56.2500      39.3910    -999.2500    -999.2500     182.4800     101.3080     181.5000       0.0695       3.3020       2.8240
   2269.6929       5.7515       0.1150      55.2366      36.4350    -999.2500    -999.2500     150.7898      86.5477     172.0784       0.0658       3.3220       2.8230
   2269.8452       5.7710       0.0840      54.2220      33.4710    -999.2500    -999.2500     119.0130      71.7470     162.6310       0.0628       3.3420       2.8220
   2269.9976       5.7685       0.0750      53.1117      30.3180    -999.2500    -999.2500     129.7437      68.3109     117.5984       0.0624       3.1528       2.7142
   2270.1499       5.7660       0.0660      52.0000      27.1560    -999.2500    -999.2500     140.5050      64.8650      72.4370       0.0662       2.9630       2.6060
   2270.3022       5.7995       0.0915      52.2993      34.1301    -999.2500    -999.2500     129.9208      70.9323      61.4216       0.0768       2.9650       2.6125
   2270.4548       5.8330       0.1170      52.5990      41.1250    -999.2500    -999.2500     119.3220      77.0080      50.3910       0.0872       2.9670       2.6190
   2270.6072       5.8410       0.1160      53.7591      41.1015    -999.2500    -999.2500     119.7847      71.7724      53.1179       0.0901       2.9935       2.6650
   2270.7595       5.8490       0.1150      54.9210      41.0780    -999.2500    -999.2500     120.2480      66.5290      55.8490       0.0887       3.0200       2.7110
