#------------------------------------------------------------------------------
#
#   Created by  : [OpenWorks] Log Export Utility (LEXP)
#   Created on  : 2016-05-23 11:57:10
#   Project     : CANT971
#   User        : R5K
#   Interpreter : PEP
#
#------------------------------------------------------------------------------
~VERSION INFORMATION
VERS. 2.0 : CWLS Log ASCII Standard - version 2.0
WRAP.  NO : One line per depth step
~WELL INFORMATION
#MNEMONIC   .UNIT                                           VALUE :DESCRIPTION
#------------------------------------------------------------------------------
STRT        .M                                           345.0980 :START DEPTH
STOP        .M                                          2040.8528 :STOP DEPTH
STEP        .M                                             0.1524 :STEP
NULL        .                                           -999.2500 :NULL VALUE
COMP        .                                   PEMEX EXPL & PROD :COMPANY
WELL        .                                                  71 :WELL
FLD         .                                           CANTARELL :FIELD
LOC         .                                             UNKNOWN :LOCATION
CNTY        .                                      CD. DEL CARMEN :COUNTY
STAT        .                                            CAMPECHE :STATE
CTRY        .                                              MEXICO :COUNTRY
SRVC        .                                             UNKNOWN :SERVICE COMPANY
DATE        .                                             UNKNOWN :LOG DATE
UWI         .                                          3060000175 :UNIQUE WELL ID
XCOORD      .                                       599724.470000 :SURFACE X
YCOORD      .                                      2147216.900000 :SURFACE Y
LAT         .                                           19.417919 :LATITUDE
LON         .                                          -92.050150 :LONGITUDE
ELEV        .M                                            27.8000 :SURFACE ELEV
ELEV_TYPE   .                                                  KB :ELEV TYPE
~CURVE INFORMATION
#MNEMONIC.UNIT        API CODE       : CURVE DESCRIPTION
#------------------------------------------------------------------------------
DEPTH    .M                          : Measured Depth
DT       .us/ft       UNKNOWN        : DT:DT:rC:NONE:v0 (auto-composite)
GR       .UNKNOWN     UNKNOWN        : GR:GR-Load:rC:NONE:v0 (auto-composite)
ILD      .UNKNOWN     UNKNOWN        : ILD:ILD-Load:rC:NONE:v0 (auto-composite)
NPHI     .v/v_decimal UNKNOWN        : NPHI:NPHI:rC:NONE:v0 (auto-composite)
RG       .UNKNOWN     UNKNOWN        : RG:RG-Loader:rC:NONE:v0 (auto-composite)
RHOB     .UNKNOWN     UNKNOWN        : RHOB:RHOB-Load:rC:NONE:v0 (auto-composite)
~A     DEPTH           DT           GR          ILD         NPHI           RG         RHOB
# ...
    506.0324     140.0371      36.5563      91.2570    -999.2500    -999.2500    -999.2500
    506.1848     140.3756      36.9878      89.7146    -999.2500    -999.2500    -999.2500
    506.3372     143.2741      37.3029      88.4716    -999.2500    -999.2500    -999.2500
    506.4896     149.6684      37.4574      87.6401    -999.2500    -999.2500    -999.2500
    506.6420     151.6013      36.7775      87.6401    -999.2500    -999.2500    -999.2500
    506.7944     147.4405      34.9466      88.7816    -999.2500    -999.2500    -999.2500
    506.9468     141.5781      34.2873      91.0971    -999.2500    -999.2500    -999.2500
    507.0992     133.3929      35.2448      95.0244    -999.2500    -999.2500    -999.2500
    507.2516     129.1837      36.4404     100.0526    -999.2500    -999.2500    -999.2500
    507.4040     130.4037      37.9645     106.5926    -999.2500    -999.2500    -999.2500
    507.5564     130.5462      38.7635     113.5255    -999.2500    -999.2500    -999.2500
    507.7088     129.2171      38.5625     120.9977    -999.2500    -999.2500    -999.2500
    507.8612     127.3473      38.6769     128.4544    -999.2500    -999.2500    -999.2500
    508.0136     124.7394      39.2264     135.8897    -999.2500    -999.2500    -999.2500
    508.1660     122.2777      39.2748     141.8915    -999.2500    -999.2500    -999.2500
    508.3184     120.0158      38.6318     145.9247    -999.2500    -999.2500    -999.2500
    508.4708     118.8501      38.4050     147.9788    -999.2500    -999.2500    -999.2500
    508.6232     119.1816      38.7525     147.3163    -999.2500    -999.2500    -999.2500
    508.7756     119.1348      39.3448     146.3386    -999.2500    -999.2500    -999.2500
    508.9280     118.5713      40.2748     144.9281    -999.2500    -999.2500    -999.2500
    509.0804     118.5426      40.8096     143.5553    -999.2500    -999.2500    -999.2500
    509.2328     119.2440      40.7991     142.2342    -999.2500    -999.2500    -999.2500
    509.3852     120.0474      40.4573     141.2917    -999.2500    -999.2500    -999.2500
    509.5376     120.9899      39.6583     140.8687    -999.2500    -999.2500    -999.2500
    509.6900     121.1982      38.4590     139.8355    -999.2500    -999.2500    -999.2500
    509.8424     120.4036      36.7075     137.9646    -999.2500    -999.2500    -999.2500
    509.9948     119.6349      35.9672     135.5526    -999.2500    -999.2500    -999.2500
    510.1472     118.9014      36.6222     132.3979    -999.2500    -999.2500    -999.2500
    510.2996     120.2010      36.9585     129.2448    -999.2500    -999.2500    -999.2500
    510.4520     124.2768      36.8550     126.0939    -999.2500    -999.2500    -999.2500
    510.6044     127.9997      36.9560     122.9120    -999.2500    -999.2500    -999.2500
    510.7568     131.2404      37.3389     119.6876    -999.2500    -999.2500    -999.2500
    510.9092     132.9573      38.1333     116.4398    -999.2500    -999.2500    -999.2500
    511.0616     132.5938      39.4952     113.1600    -999.2500    -999.2500    -999.2500
    511.2140     130.6804      40.1608     111.5694    -999.2500    -999.2500    -999.2500
    511.3664     126.6505      39.8653     112.2989    -999.2500    -999.2500    -999.2500
    511.5188     123.3856      39.3706     114.0395    -999.2500    -999.2500    -999.2500
    511.6712     121.1654      38.6011     117.1679    -999.2500    -999.2500    -999.2500
    511.8236     119.3583      38.5681     120.9303    -999.2500    -999.2500    -999.2500
    511.9760     118.1150      39.5510     125.5632    -999.2500    -999.2500    -999.2500
    512.1284     118.6936      39.7349     129.8958    -999.2500    -999.2500    -999.2500
    512.2808     121.7621      38.8159     133.8162    -999.2500    -999.2500    -999.2500
    512.4332     124.5783      38.6735     135.2442    -999.2500    -999.2500    -999.2500
    512.5856     127.0503      39.6029     133.2483    -999.2500    -999.2500    -999.2500
    512.7380     127.5100      40.0632     130.3040    -999.2500    -999.2500    -999.2500
    512.8904     125.2231      39.8757     126.0587    -999.2500    -999.2500    -999.2500
    513.0428     123.6109      39.8107     124.6788    -999.2500    -999.2500    -999.2500
    513.1953     122.9199      39.9147     127.2307    -999.2500    -999.2500    -999.2500
    513.3476     121.3476      39.7132     131.0635    -999.2500    -999.2500    -999.2500
    513.5000     118.5717      39.0902     136.6543    -999.2500    -999.2500    -999.2500
    513.6524     114.8715      38.2844     141.3436    -999.2500    -999.2500    -999.2500
    513.8048     109.9087      37.2264     144.7949    -999.2500    -999.2500    -999.2500
    513.9572     113.2721      37.8029     145.9023    -999.2500    -999.2500    -999.2500
    514.1096     128.0131      40.6348     143.7909    -999.2500    -999.2500    -999.2500
    514.2620     136.4729      42.1913     142.0468    -999.2500    -999.2500    -999.2500
    514.4144     136.3613      41.9873     140.8073    -999.2500    -999.2500    -999.2500
    514.5668     133.5668      42.1215     139.4540    -999.2500    -999.2500    -999.2500
    514.7192     127.1100      42.7226     137.9443    -999.2500    -999.2500    -999.2500
    514.8716     117.5931      42.9295     135.3464    -999.2500    -999.2500    -999.2500
    515.0240     103.8986      42.5931     131.2555    -999.2500    -999.2500    -999.2500
    515.1765     110.8804      42.5464     129.7206    -999.2500    -999.2500    -999.2500
    515.3288     146.0983      42.8994     131.6936    -999.2500    -999.2500    -999.2500
    515.4812     163.4987      43.2219     133.7793    -999.2500    -999.2500    -999.2500
    515.6336     156.5609      43.5024     136.0197    -999.2500    -999.2500    -999.2500
    515.7860     139.8629      43.5352     136.7714    -999.2500    -999.2500    -999.2500
    515.9384     109.8293      43.2262     135.4789    -999.2500    -999.2500    -999.2500
    516.0908      99.6361      42.4112     133.7314    -999.2500    -999.2500    -999.2500
    516.2432     116.5579      40.8977     131.3590    -999.2500    -999.2500    -999.2500
    516.3956     125.4335      39.7944     130.1543    -999.2500    -999.2500    -999.2500
    516.5480     123.3275      39.2573     130.5539    -999.2500    -999.2500    -999.2500
    516.7004     118.2377      38.1975     132.0144    -999.2500    -999.2500    -999.2500
    516.8528     109.0745      36.4170     134.9303    -999.2500    -999.2500    -999.2500
    517.0052     104.5195      34.9449     139.4238    -999.2500    -999.2500    -999.2500
    517.1576     106.2570      33.8979     146.0821    -999.2500    -999.2500    -999.2500
    517.3100     107.7919      33.3971     151.2047    -999.2500    -999.2500    -999.2500
    517.4624     109.0504      33.6496     154.2196    -999.2500    -999.2500    -999.2500
    517.6148     110.5275      33.6859     155.8898    -999.2500    -999.2500    -999.2500
    517.7672     112.3035      33.4239     155.7138    -999.2500    -999.2500    -999.2500
    517.9196     113.5399      32.8521     154.8645    -999.2500    -999.2500    -999.2500
    518.0720     114.0390      31.8526     153.0906    -999.2500    -999.2500    -999.2500
    518.2244     114.0187      31.6559     150.8587    -999.2500    -999.2500    -999.2500
    518.3768     113.2897      32.5674     147.9978    -999.2500    -999.2500    -999.2500
    518.5292     113.3565      33.6327     145.3856    -999.2500    -999.2500    -999.2500
    518.6816     114.5095      34.9104     143.1153    -999.2500    -999.2500    -999.2500
    518.8340     115.9045      35.5480     141.0704    -999.2500    -999.2500    -999.2500
    518.9865     117.6299      35.3030     139.3349    -999.2500    -999.2500    -999.2500
    519.1388     118.2874      34.7443     137.7082    -999.2500    -999.2500    -999.2500
    519.2912     117.4865      33.7528     136.2308    -999.2500    -999.2500    -999.2500
