#------------------------------------------------------------------------------
#
#   Created by  : [OpenWorks] Log Export Utility (LEXP)
#   Created on  : 2016-05-23 11:56:20
#   Project     : CANT971
#   User        : R5K
#   Interpreter : PEP
#
#------------------------------------------------------------------------------
~VERSION INFORMATION
VERS. 2.0 : CWLS Log ASCII Standard - version 2.0
WRAP.  NO : One line per depth step
~WELL INFORMATION
#MNEMONIC   .UNIT                                           VALUE :DESCRIPTION
#------------------------------------------------------------------------------
STRT        .M                                          1446.1469 :START DEPTH
STOP        .M                                          3739.7668 :STOP DEPTH
STEP        .M                                             0.1524 :STEP
NULL        .                                           -999.2500 :NULL VALUE
COMP        .                                             UNKNOWN :COMPANY
WELL        .                                               468-V :WELL
FLD         .                                             UNKNOWN :FIELD
LOC         .                                             UNKNOWN :LOCATION
CNTY        .                                             UNKNOWN :COUNTY
STAT        .                                             UNKNOWN :STATE
CTRY        .                                             UNKNOWN :COUNTRY
SRVC        .                                             UNKNOWN :SERVICE COMPANY
DATE        .                                             UNKNOWN :LOG DATE
UWI         .                                               468-V :UNIQUE WELL ID
XCOORD      .                                       598699.140000 :SURFACE X
YCOORD      .                                      2143301.650000 :SURFACE Y
LAT         .                                           19.382589 :LATITUDE
LON         .                                          -92.060118 :LONGITUDE
ELEV        .M                                             0.0000 :SURFACE ELEV
ELEV_TYPE   .                                                  NA :ELEV TYPE
~CURVE INFORMATION
#MNEMONIC.UNIT        API CODE       : CURVE DESCRIPTION
#------------------------------------------------------------------------------
DEPTH    .M                          : Measured Depth
CALI     .inches      UNKNOWN        : CALI:PETROWORKS:rC:NONE:v1 
DRHO     .g/cm3       UNKNOWN        : DRHO:PETROWORKS:rC:NONE:v1 
DT       .us/ft       UNKNOWN        : DT:sonico:rC:NONE:v0 (auto-composite)
GR       .API         UNKNOWN        : GR:PETROWORKS:rC:NONE:v1 
GR-LWD   .API         UNKNOWN        : GR-LWD:PETROWORKS:rC:NONE:v3 
ILD-LWD  .ohm.m       UNKNOWN        : ILD-LWD:PETROWORKS:rC:NONE:v3 
ILM-LWD  .UNKNOWN     UNKNOWN        : ILM-LWD:PETROWORKS:rC:NONE:v3 
NPHI     .v/v_decimal UNKNOWN        : NPHI:PETROWORKS:rC:NONE:v1 
PEF      .b/elec      UNKNOWN        : PEF:PETROWORKS:rC:NONE:v1 
RHOB     .g/cm3       UNKNOWN        : RHOB:PETROWORKS:rC:NONE:v1 
~A     DEPTH         CALI         DRHO           DT           GR       GR-LWD      ILD-LWD      ILM-LWD         NPHI          PEF         RHOB
# ...
   1958.2108      17.1461       0.3625    -999.2500      47.4633      24.9452      31.8052      26.3456      -0.0516       3.1854       2.4233
   1958.3633      16.5165       0.4083    -999.2500      47.9642      24.4555      33.1801      26.9814      -0.0511       3.2709       2.4155
   1958.5156      15.7387       0.4644    -999.2500      52.5206      24.5256      34.6977      27.7845      -0.0492       3.5302       2.4385
   1958.6681      15.4295       0.4613    -999.2500      52.4086      23.5244      38.2978      30.1345      -0.0471       3.6838       2.4533
   1958.8204      14.9311       0.3859    -999.2500      45.4635      23.2565      41.9716      32.8371      -0.0453       3.6375       2.4139
   1958.9729      14.5720       0.3959    -999.2500      42.3809      22.5985      45.0844      35.7452      -0.0439       3.4156       2.3115
   1959.1252      14.2343       0.4593    -999.2500      43.2173      22.5746      48.1274      38.7176      -0.0404       3.1673       2.2359
   1959.2777      13.6368       0.4290    -999.2500      48.9777      22.5962      51.1423      41.9620      -0.0356       3.0502       2.3298
   1959.4301      12.9181       0.2900    -999.2500      51.6033      22.7261      54.9519      46.5711      -0.0326       3.1444       2.4950
   1959.5824      12.5260       0.1792    -999.2500      47.8030      23.2754      59.4682      52.6567      -0.0293       3.2500       2.6195
   1959.7349      12.2176       0.1257    -999.2500      43.6966      23.9083      62.9879      58.5384      -0.0265       3.2736       2.6050
   1959.8872      12.0497       0.0563    -999.2500      42.2840      24.4876      66.5200      65.0431      -0.0227       3.3072       2.5369
   1960.0397      11.9822       0.0340    -999.2500      44.6757      24.7685      68.7063      70.0067      -0.0197       3.3374       2.5001
   1960.1920      12.0766       0.0297    -999.2500      48.6232      25.0119      69.9422      73.1607      -0.0235       3.3103       2.4877
   1960.3445      12.1937       0.0331    -999.2500      52.0806      25.2667      70.7043      75.1319      -0.0218       3.2270       2.4925
   1960.4968      12.2178       0.0472    -999.2500      54.5572      25.2113      70.8422      75.9440      -0.0197       3.1741       2.4956
   1960.6493      12.1733       0.0769    -999.2500      53.2729      25.3295      69.8633      74.3701      -0.0225       3.1839       2.4970
   1960.8016      12.0111       0.1197    -999.2500      46.5455      25.3300      68.2500      71.3900      -0.0202       3.1785       2.5252
   1960.9541      12.0497       0.1105    -999.2500      45.1287      24.5020      65.1390      65.4890      -0.0208       3.1637       2.5558
   1961.1064      11.9997       0.0740    -999.2500      49.9555      24.0187      61.7155      59.0242      -0.0230       3.2101       2.5495
   1961.2589      12.0906       0.0640    -999.2500      52.6247      22.9044      58.9628      53.9391      -0.0242       3.2354       2.4984
   1961.4113      12.2056       0.0479    -999.2500      51.7731      22.0699      56.2915      49.2713      -0.0235       3.2029       2.4294
   1961.5636      12.1142       0.0313    -999.2500      48.4160      21.8310      53.8817      45.2821      -0.0230       3.1742       2.4418
   1961.7161      12.0489       0.0716    -999.2500      44.2985      21.6236      51.6346      41.6915      -0.0253       3.2308       2.5418
   1961.8684      11.8222       0.2135    -999.2500      43.1412      21.8226      49.9464      39.1353      -0.0242       3.3178       2.6214
   1962.0209      11.7527       0.6315    -999.2500      48.8635      22.3392      48.4363      37.0588      -0.0231       3.3391       2.7478
   1962.1732      11.5312       0.8463    -999.2500      55.5915      22.8817      47.5754      36.0773      -0.0249       3.3248       2.7358
   1962.3257      11.5283       0.9191    -999.2500      59.4213      23.9977      47.1565      35.7346      -0.0255       3.3699       2.5583
   1962.4780      11.5127       0.8272    -999.2500      56.0072      25.0592      47.0144      35.7446      -0.0251       3.4013       2.2448
   1962.6305      11.7153       0.7140    -999.2500      51.0802      25.7339      47.1350      35.9623      -0.0292       3.3010       2.1569
   1962.7828      12.1274       0.6211    -999.2500      47.6678      25.9444      48.1663      37.0066      -0.0316       3.2421       2.2615
   1962.9353      12.2139       0.6176    -999.2500      48.2289      25.4014      49.6863      38.2130      -0.0313       3.3939       2.4088
   1963.0876      11.9701       0.6249    -999.2500      48.2088      24.5146      51.9323      39.8208      -0.0306       3.5595       2.5051
   1963.2400      11.5530       0.4932    -999.2500      44.5409      23.5241      54.4096      41.4238      -0.0306       3.5066       2.5291
   1963.3925      11.6856       0.2728    -999.2500      40.4529      22.7771      58.2620      43.7832      -0.0308       3.3931       2.5135
   1963.5448      11.9268       0.1819    -999.2500      42.1529      22.0756      62.1041      46.0582      -0.0311       3.4034       2.4837
   1963.6973      11.8397       0.1691    -999.2500      46.4539      21.7545      66.2814      48.5782      -0.0320       3.4662       2.4461
   1963.8496      12.1027       0.1776    -999.2500      47.5859      22.0446      70.5451      51.1539      -0.0320       3.4687       2.3589
   1964.0021      11.6660       0.2002    -999.2500      44.8050      22.5084      74.9991      53.9831      -0.0301       3.3649       2.2262
   1964.1544      11.5194       0.1935    -999.2500      43.6620      23.1818      80.2859      57.5910      -0.0261       3.2720       2.2903
   1964.3069      11.1098       0.1105    -999.2500      41.3184      23.2318      88.0915      63.2196      -0.0237       3.1679       2.5182
   1964.4592      10.9668       0.0518    -999.2500      42.3475      22.9541      96.2250      70.0844      -0.0217       3.1561       2.5870
   1964.6117      10.6701       0.0119    -999.2500      46.4261      22.5920     106.0061      78.6692      -0.0230       3.1573       2.5933
   1964.7640      10.4629       0.0069    -999.2500      46.7566      22.8304     117.1878      89.9582      -0.0247       3.1940       2.5238
   1964.9165      10.3714      -0.0060    -999.2500      47.3655      23.4682     127.7880     101.6371      -0.0283       3.0293       2.0419
   1965.0688      10.2033      -0.0111    -999.2500      48.2170      25.1615     140.7525     117.2114      -0.0252       2.6406       1.6454
   1965.2212      10.2529      -0.0077    -999.2500      51.6064      26.7605     152.8852     132.9467      -0.0159       2.3646       1.6832
   1965.3737      10.4076      -0.0014    -999.2500      57.8611      28.7975     167.8214     151.5349      -0.0148       2.6098       2.1393
   1965.5260      10.5023       0.0015    -999.2500      64.2169      31.0027     182.2564     169.6577      -0.0152       2.8806       2.5728
   1965.6785      10.1381      -0.0018    -999.2500      68.6500      33.0642     194.1404     183.6290      -0.0158       3.0498       2.7882
   1965.8308      10.0164      -0.0005    -999.2500      69.4400      35.2637     205.6216     197.0189      -0.0149       3.0994       2.7808
   1965.9833       9.8549       0.0081    -999.2500      67.0035      37.1075     214.7514     206.7214      -0.0140       3.1131       2.7610
   1966.1356       9.8241       0.0123    -999.2500      64.0478      38.1027     224.4072     215.1703      -0.0142       3.1341       2.7592
   1966.2881       9.9151       0.0106    -999.2500      63.0067      38.1536     230.5952     220.6572      -0.0144       3.1906       2.7533
   1966.4404       9.9290       0.0063    -999.2500      63.6623      38.0177     236.4562     225.4967      -0.0143       3.2045       2.7449
   1966.5929       9.8003       0.0047    -999.2500      60.2797      37.5804     238.9336     227.2717      -0.0136       3.1674       2.7412
