#------------------------------------------------------------------------------
#
#   Created by  : [OpenWorks] Log Export Utility (LEXP)
#   Created on  : 2016-05-23 11:52:51
#   Project     : CANT971
#   User        : R5K
#   Interpreter : PEP
#
#------------------------------------------------------------------------------
~VERSION INFORMATION
VERS. 2.0 : CWLS Log ASCII Standard - version 2.0
WRAP.  NO : One line per depth step
~WELL INFORMATION
#MNEMONIC   .UNIT                                           VALUE :DESCRIPTION
#------------------------------------------------------------------------------
STRT        .M                                           691.4386 :START DEPTH
STOP        .M                                          2836.4685 :STOP DEPTH
STEP        .M                                             0.1524 :STEP
NULL        .                                           -999.2500 :NULL VALUE
COMP        .                                   PEMEX EXPL & PROD :COMPANY
WELL        .                                                2094 :WELL
FLD         .                                           CANTARELL :FIELD
LOC         .                                             UNKNOWN :LOCATION
CNTY        .                                      CD. DEL CARMEN :COUNTY
STAT        .                                            CAMPECHE :STATE
CTRY        .                                              MEXICO :COUNTRY
SRVC        .                                             UNKNOWN :SERVICE COMPANY
DATE        .                                             UNKNOWN :LOG DATE
UWI         .                                          3060000525 :UNIQUE WELL ID
XCOORD      .                                       601711.170000 :SURFACE X
YCOORD      .                                      2142342.970000 :SURFACE Y
LAT         .                                           19.373776 :LATITUDE
LON         .                                          -92.031490 :LONGITUDE
ELEV        .M                                            24.0000 :SURFACE ELEV
ELEV_TYPE   .                                                  KB :ELEV TYPE
~CURVE INFORMATION
#MNEMONIC.UNIT        API CODE       : CURVE DESCRIPTION
#------------------------------------------------------------------------------
DEPTH    .M                          : Measured Depth
CALI     .in          UNKNOWN        : CALI:registros:rC:NONE:v0 (auto-composite)
DRHO     .g/cm3       UNKNOWN        : DRHO:registros:rC:NONE:v0 (auto-composite)
DT       .us/ft       UNKNOWN        : DT:registros:rC:NONE:v0 (auto-composite)
GR       .API         UNKNOWN        : GR:registros:rC:NONE:v0 (auto-composite)
ILD      .ohm.m       UNKNOWN        : ILD:registros:rC:NONE:v0 (auto-composite)
ILM      .ohm.m       UNKNOWN        : ILM:registros:rC:NONE:v0 (auto-composite)
LLD      .ohm.m       UNKNOWN        : LLD:registros:rC:NONE:v0 (auto-composite)
LLS      .ohm.m       UNKNOWN        : LLS:registros:rC:NONE:v0 (auto-composite)
MSFL     .ohm.m       UNKNOWN        : MSFL:registros:rC:NONE:v0 (auto-composite)
NPHI     .v/v_decimal UNKNOWN        : NPHI:registros:rC:NONE:v0 (auto-composite)
PEF      .b/elec      UNKNOWN        : PEF:registros:rC:NONE:v0 (auto-composite)
RHOB     .g/cm3       UNKNOWN        : RHOB:registros:rC:NONE:v0 (auto-composite)
~A     DEPTH         CALI         DRHO           DT           GR          ILD          ILM          LLD          LLS         MSFL         NPHI          PEF         RHOB
# ...
   2286.1521      13.9558       0.1130      88.3766      41.8335    -999.2500    -999.2500      11.1642      12.1723      18.9664       0.3265       3.1027       2.1889
   2286.3047      13.3694       0.1147      91.8921      42.1020    -999.2500    -999.2500      11.2050      12.2420      19.2810       0.3102       3.3000       2.2840
   2286.4570      12.9802       0.1185      93.3191      42.5085    -999.2500    -999.2500      11.2326      12.2039      19.2027       0.2996       3.4333       2.3569
   2286.6094      12.6651       0.1219      93.6043      42.9120    -999.2500    -999.2500      11.2600      12.1660      19.1250       0.2904       3.4798       2.4077
   2286.7617      12.3944       0.1215      92.2925      43.0109    -999.2500    -999.2500      11.0757      11.9360      19.2600       0.2845       3.3094       2.4095
   2286.9143      12.0949       0.1208      89.9685      43.1090    -999.2500    -999.2500      10.8930      11.7080      19.3940       0.2779       3.1871       2.3895
   2287.0667      11.6578       0.1225      85.9629      43.3599    -999.2500    -999.2500      10.4275      11.0160      19.5064       0.2623       3.4369       2.3486
   2287.2190      11.1570       0.1245      82.4912      43.6090    -999.2500    -999.2500       9.9660      10.3300      19.6180       0.2438       3.7321       2.3175
   2287.3713      10.5899       0.1250      82.3348      41.7666    -999.2500    -999.2500       9.6773      10.3506      20.0912       0.2152       3.7990       2.3389
   2287.5237      10.1144       0.1261      83.1293      39.9370    -999.2500    -999.2500       9.3910      10.3710      20.5610       0.1886       3.7879       2.3809
   2287.6763      10.0005       0.1305      83.6426      39.9480    -999.2500    -999.2500       9.4106      10.5362      20.9644       0.1853       3.7576       2.4354
   2287.8286      10.0030       0.1367      84.0164      39.9590    -999.2500    -999.2500       9.4300      10.7000      21.3650       0.1859       3.7219       2.4880
   2287.9810      10.0120       0.1450      84.2333      40.1833    -999.2500    -999.2500       9.8482      11.0399      21.6680       0.1893       3.6891       2.5220
   2288.1333       9.9964       0.1491      84.0044      40.4060    -999.2500    -999.2500      10.2630      11.3770      21.9690       0.1925       3.6912       2.5460
   2288.2859       9.8967       0.1380      82.5334      38.5850    -999.2500    -999.2500      10.3835      11.5171      24.0970       0.1905       3.8013       2.5575
   2288.4382       9.7915       0.1204      80.7890      36.7760    -999.2500    -999.2500      10.5030      11.6560      26.2110       0.1873       3.9294       2.5630
   2288.5906       9.7530       0.0975      79.4074      35.1861    -999.2500    -999.2500      10.2018      11.2930      23.4144       0.1813       4.0059       2.5625
   2288.7429       9.7177       0.0731      78.2721      33.6090    -999.2500    -999.2500       9.9030      10.9330      20.6360       0.1752       4.0505       2.5580
   2288.8955       9.6252       0.0490      77.5357      34.1120    -999.2500    -999.2500       9.5140      10.6574      19.3218       0.1703       4.0470       2.5470
   2289.0479       9.5277       0.0312      76.9586      34.6110    -999.2500    -999.2500       9.1280      10.3840      18.0160       0.1648       4.0276       2.5398
   2289.2002       9.4721       0.0325      76.4709      34.9473    -999.2500    -999.2500       9.4533      10.6224      19.6170       0.1533       4.0070       2.5505
   2289.3525       9.4381       0.0389      75.0866      35.2810    -999.2500    -999.2500       9.7760      10.8590      21.2080       0.1414       4.0372       2.5659
   2289.5049       9.4290       0.0420      70.8483      33.8144    -999.2500    -999.2500      10.0616      11.2244      22.6278       0.1320       4.2250       2.5780
   2289.6575       9.4137       0.0426      67.1212      32.3590    -999.2500    -999.2500      10.3450      11.5870      24.0390       0.1242       4.3868       2.5855
   2289.8098       9.3546       0.0390      67.7409      33.1048    -999.2500    -999.2500      10.5553      11.8184      23.2160       0.1257       4.3093       2.5825
   2289.9622       9.2956       0.0343      69.8039      33.8450    -999.2500    -999.2500      10.7640      12.0480      22.3980       0.1287       4.1463       2.5756
   2290.1145       9.2810       0.0305      71.9429      36.2219    -999.2500    -999.2500      11.2473      12.5343      25.9905       0.1339       3.9622       2.5675
   2290.2671       9.2810       0.0270      73.7673      38.5810    -999.2500    -999.2500      11.7270      13.0170      29.5620       0.1388       3.8093       2.5607
   2290.4194       9.2810       0.0235      74.5826      39.6319    -999.2500    -999.2500      12.1872      13.5986      29.5595       0.1394       3.7715       2.5590
   2290.5718       9.2810       0.0207      75.7896      40.6750    -999.2500    -999.2500      12.6440      14.1760      29.5570       0.1391       3.7984       2.5613
   2290.7241       9.2810       0.0200      79.1853      41.7945    -999.2500    -999.2500      13.2577      14.7430      27.8112       0.1368       3.9052       2.5705
   2290.8767       9.2810       0.0199      77.6366      42.9060    -999.2500    -999.2500      13.8660      15.3050      26.0780       0.1342       4.0266       2.5800
   2291.0291       9.2810       0.0195      59.1152      44.0977    -999.2500    -999.2500      14.7769      16.2757      28.1805       0.1310       4.1114       2.5835
   2291.1814       9.2724       0.0189      42.8389      45.2810    -999.2500    -999.2500      15.6800      17.2380      30.2680       0.1277       4.1648       2.5833
   2291.3337       9.2381       0.0180      49.9033      45.2108    -999.2500    -999.2500      16.5849      18.2071      32.3051       0.1247       4.1610       2.5780
   2291.4861       9.2068       0.0194      63.0200      45.1410    -999.2500    -999.2500      17.4820      19.1680      34.3280       0.1230       4.1059       2.5736
   2291.6387       9.2105       0.0280      70.9687      46.0581    -999.2500    -999.2500      17.8385      19.6279      33.0737       0.1306       3.9550       2.5770
   2291.7910       9.2461       0.0362      75.8513      46.9690    -999.2500    -999.2500      18.1920      20.0840      31.8280       0.1424       3.7816       2.5593
   2291.9434       9.3412       0.0360      76.8937      47.1964    -999.2500    -999.2500      18.2969      19.9670      31.7417       0.1788       3.6388       2.4713
   2292.0957       9.4316       0.0306      76.4341      47.4220    -999.2500    -999.2500      18.4010      19.8510      31.6560       0.2142       3.5381       2.3831
   2292.2483       9.4475       0.0180      75.3756      46.4335    -999.2500    -999.2500      18.5657      20.0594      32.9653       0.2165       3.5320       2.3655
   2292.4006       9.4239       0.0068      74.1274      45.4530    -999.2500    -999.2500      18.7290      20.2660      34.2660       0.2132       3.6296       2.3929
   2292.5530       9.3587       0.0065      72.9068      45.4716    -999.2500    -999.2500      19.3610      20.7218      33.4704       0.1984       3.9383       2.4818
   2292.7053       9.2766       0.0093      71.9481      45.4900    -999.2500    -999.2500      19.9880      21.1740      32.6800       0.1817       4.2421       2.5695
   2292.8579       9.1872       0.0100      71.7120      46.0653    -999.2500    -999.2500      20.7661      22.2779      32.7547       0.1597       4.3200       2.5920
   2293.0103       9.1042       0.0099      71.8008      46.6360    -999.2500    -999.2500      21.5380      23.3730      32.8290       0.1390       4.3198       2.5906
   2293.1626       9.0476       0.0095      72.1124      48.8737    -999.2500    -999.2500      22.9641      24.5807      35.4852       0.1341       4.3190       2.5850
   2293.3149       9.0098       0.0090      72.3006      51.0940    -999.2500    -999.2500      24.3790      25.7790      38.1250       0.1314       4.2890       2.5792
