#------------------------------------------------------------------------------
#
#   Created by  : [OpenWorks] Log Export Utility (LEXP)
#   Created on  : 2016-05-23 11:56:16
#   Project     : CANT971
#   User        : R5K
#   Interpreter : PEP
#
#------------------------------------------------------------------------------
~VERSION INFORMATION
VERS. 2.0 : CWLS Log ASCII Standard - version 2.0
WRAP.  NO : One line per depth step
~WELL INFORMATION
#MNEMONIC   .UNIT                                           VALUE :DESCRIPTION
#------------------------------------------------------------------------------
STRT        .M                                           785.0543 :START DEPTH
STOP        .M                                          3464.0940 :STOP DEPTH
STEP        .M                                             0.1524 :STEP
NULL        .                                           -999.2500 :NULL VALUE
COMP        .                                   PEMEX EXPL & PROD :COMPANY
WELL        .                                                448D :WELL
FLD         .                                           CANTARELL :FIELD
LOC         .                                             UNKNOWN :LOCATION
CNTY        .                                      CD. DEL CARMEN :COUNTY
STAT        .                                            CAMPECHE :STATE
CTRY        .                                              MEXICO :COUNTRY
SRVC        .                                             UNKNOWN :SERVICE COMPANY
DATE        .                                             UNKNOWN :LOG DATE
UWI         .                                          3060000822 :UNIQUE WELL ID
XCOORD      .                                       598710.240000 :SURFACE X
YCOORD      .                                      2143307.000000 :SURFACE Y
LAT         .                                           19.382637 :LATITUDE
LON         .                                          -92.060012 :LONGITUDE
ELEV        .M                                            28.0000 :SURFACE ELEV
ELEV_TYPE   .                                                  KB :ELEV TYPE
~CURVE INFORMATION
#MNEMONIC.UNIT        API CODE       : CURVE DESCRIPTION
#------------------------------------------------------------------------------
DEPTH    .M                          : Measured Depth
CALI     .inches      UNKNOWN        : CALI:registros:rC:NONE:v0 (auto-composite)
DRHO     .g/cm3       UNKNOWN        : DRHO:registros:rC:NONE:v0 (auto-composite)
DT       .us/ft       UNKNOWN        : DT:registros:rC:NONE:v0 (auto-composite)
GR       .API         UNKNOWN        : GR:registros:rC:NONE:v0 (auto-composite)
LLD      .ohm.m       UNKNOWN        : LLD:registros:rC:NONE:v0 (auto-composite)
LLS      .ohm.m       UNKNOWN        : LLS:registros:rC:NONE:v0 (auto-composite)
MSFL     .ohm.m       UNKNOWN        : MSFL:registros:rC:NONE:v0 (auto-composite)
NPHI     .v/v_decimal UNKNOWN        : NPHI:registros:rC:NONE:v0 (auto-composite)
PEF      .b/elec      UNKNOWN        : PEF:registros:rC:NONE:v0 (auto-composite)
RHOB     .g/cm3       UNKNOWN        : RHOB:registros:rC:NONE:v0 (auto-composite)
~A     DEPTH         CALI         DRHO           DT           GR          LLD          LLS         MSFL         NPHI          PEF         RHOB
# ...
   2875.9824      18.6094       0.0119      51.1195      23.9183     135.7107      79.5257     119.3699       0.0225       3.3857       2.7716
   2876.1348      18.5526       0.0120      51.2416      25.9850     132.4452      78.0661     211.9690       0.0212       3.2626       2.7764
   2876.2871      18.5498       0.0126      51.5209      25.4314     125.2040      74.8447     309.7354       0.0220       3.3638       2.7893
   2876.4395      18.5450       0.0150      51.5453      23.5384     113.7069      70.3414     152.7887       0.0208       3.5850       2.8052
   2876.5920      18.4187       0.0161      51.4546      21.3111     110.6343      69.6764     164.8111       0.0203       3.7591       2.8007
   2876.7444      18.1832       0.0142      51.5047      22.5907     113.5641      71.0694     163.3873       0.0191       3.8156       2.7749
   2876.8967      18.1926       0.0143      50.3281      24.1563     117.7220      72.7400     128.4529       0.0178       3.6962       2.7563
   2877.0491      18.2823       0.0172      49.9939      24.8686     120.6531      73.9410     151.9860       0.0178       3.7139       2.7602
   2877.2014      18.2628       0.0216      51.6769      23.6446     122.6426      74.6716     169.4180       0.0175       3.7889       2.7836
   2877.3540      18.2455       0.0288      50.9793      24.3710     118.4384      72.9871     173.4582       0.0172       3.8322       2.7946
   2877.5063      18.1972       0.0307      51.1961      25.1568     113.2273      71.0339     143.9584       0.0155       3.7147       2.7891
   2877.6587      18.0947       0.0352      51.0055      25.7307     109.9828      69.9793     158.0671       0.0144       3.5593       2.7789
   2877.8110      17.9641       0.0406      50.1661      25.9930     107.9629      69.3082     163.6183       0.0139       3.5538       2.7843
   2877.9636      17.9475       0.0527      49.8521      26.1036     106.7099      68.8695     123.0278       0.0132       3.5902       2.8109
   2878.1160      17.9539       0.0581      50.9443      26.6305     108.1555      69.5630     111.8302       0.0124       3.5924       2.8320
   2878.2683      17.9561       0.0594      51.1383      26.1204     110.1773      70.3238     137.4275       0.0119       3.3594       2.8433
   2878.4207      17.9551       0.0569      50.8512      27.0836     108.7390      69.9630     161.4281       0.0107       3.3174       2.8395
   2878.5732      17.9705       0.0622      50.9981      26.7625     108.2469      69.7389     179.8191       0.0101       3.3877       2.8487
   2878.7256      18.0248       0.0635      50.9493      27.0155     111.5969      70.8759     172.2606       0.0090       3.4682       2.8537
   2878.8779      18.1140       0.0625      50.5457      24.7181     117.9972      73.3011     116.4057       0.0096       3.4788       2.8545
   2879.0303      18.1406       0.0668      49.4435      23.5438     123.4061      75.6074     189.7828       0.0105       3.3676       2.8599
   2879.1826      18.1779       0.0599      49.2255      21.4099     129.6135      78.2409     240.5320       0.0125       3.4809       2.8485
   2879.3352      18.2786       0.0491      49.7125      22.0581     130.1129      78.6653     223.9588       0.0131       3.5447       2.8374
   2879.4875      18.2653       0.0448      49.7059      23.8320     127.2857      77.4746     338.0941       0.0140       3.6987       2.8308
   2879.6399      18.1768       0.0420      49.5693      25.5581     124.0305      76.4763     236.1863       0.0151       3.6824       2.8276
   2879.7922      18.2194       0.0312      49.7754      26.4459     124.7275      76.1546     221.5961       0.0144       3.7550       2.8057
   2879.9448      18.2198       0.0268      49.9823      26.2844     121.3981      74.4317     165.7381       0.0138       3.8117       2.7903
   2880.0972      18.2542       0.0298      50.0051      24.6385     127.4128      76.0471     167.5735       0.0135       3.8680       2.7834
   2880.2495      18.2623       0.0290      50.2558      23.6903     134.4590      78.0108     160.8200       0.0155       3.7568       2.7763
   2880.4019      18.2139       0.0338      50.1093      22.9261     136.1477      78.3459     105.2013       0.0182       3.6083       2.7764
   2880.5542      18.1156       0.0397      50.3782      24.6635     142.3920      83.0271     145.6127       0.0200       3.6474       2.7821
   2880.7068      18.0932       0.0516      50.3464      24.6255     146.1816      86.8116     209.6651       0.0236       3.6648       2.8052
   2880.8591      18.0810       0.0576      50.9348      24.2409     146.5113      87.6222     236.4445       0.0273       3.6162       2.8131
   2881.0115      18.0823       0.0594      50.3572      24.2777     145.6991      85.1572     213.1266       0.0272       3.5008       2.8040
   2881.1638      18.0632       0.0544      50.0746      25.0861     143.9045      82.3812     208.3060       0.0239       3.4180       2.7814
   2881.3164      18.0398       0.0631      50.6390      24.6651     135.3022      78.6315     183.3042       0.0200       3.5643       2.7969
   2881.4688      17.9577       0.0709      50.7427      21.9193     136.8685      79.3797     261.6480       0.0166       3.6355       2.8194
   2881.6211      17.9312       0.0770      50.0766      20.1629     132.7524      78.8986     131.0339       0.0140       3.7425       2.8398
   2881.7734      17.9480       0.0814      50.0740      18.7117     129.6115      78.7400     147.1216       0.0150       3.5668       2.8373
   2881.9260      18.0274       0.0830      51.2478      22.1293     130.0495      78.8044     225.7110       0.0206       3.6863       2.8209
   2882.0784      18.2023       0.0735      50.9739      23.6909     126.4838      76.9658     224.7035       0.0280       3.7326       2.7856
   2882.2307      18.3049       0.0572      50.6520      26.9497     124.8996      76.1395     179.3133       0.0335       3.8217       2.7371
   2882.3831      18.3532       0.0494      51.4811      26.8250     121.9194      74.4929     132.8472       0.0391       3.7009       2.7144
   2882.5354      18.3789       0.0380      52.0834      27.3536     111.6359      69.5369     122.3877       0.0457       3.6335       2.6911
   2882.6880      18.3830       0.0238      53.1581      27.2312     106.7662      66.5154     163.7037       0.0603       3.5222       2.6682
   2882.8403      18.4639       0.0192      53.8649      26.3456     104.3281      64.7967     105.5421       0.0675       3.5101       2.6739
   2882.9927      18.9842       0.0246      53.6048      27.5855     101.2436      63.2975     119.5831       0.0665       3.5168       2.6932
   2883.1450      19.0856       0.0219      55.1218      31.0732      98.3010      61.2858     114.8672       0.0579       3.5803       2.7114
   2883.2976      19.0832       0.0199      57.0596      34.0809     102.3414      62.5432     110.8941       0.0488       3.6506       2.7157
   2883.4500      18.9521       0.0320      57.2027      34.7858     106.1270      63.9722     116.9768       0.0421       3.5931       2.7507
   2883.6023      18.6314       0.0430      57.7254      33.4999     106.1665      63.6322      97.3200       0.0359       3.5901       2.7762
   2883.7546      18.5664       0.0461      57.6544      31.8277     111.5472      65.4735     109.3386       0.0321       3.4955       2.7812
   2883.9072      18.5533       0.0558      55.8163      30.1287     110.7729      65.2623      89.5411       0.0310       3.3891       2.7801
   2884.0596      18.5573       0.0628      55.1103      28.7130     102.2074      61.2708     112.9803       0.0325       3.3351       2.7867
   2884.2119      18.5611       0.0661      54.8331      27.9482      98.4678      59.4425     119.1792       0.0421       3.3378       2.7940
   2884.3643      18.5379       0.0589      54.1076      27.5969      91.1127      55.9560     141.8673       0.0542       3.4125       2.7814
