#------------------------------------------------------------------------------
#
#   Created by  : [OpenWorks] Log Export Utility (LEXP)
#   Created on  : 2016-05-23 11:57:09
#   Project     : CANT971
#   User        : R5K
#   Interpreter : PEP
#
#------------------------------------------------------------------------------
~VERSION INFORMATION
VERS. 2.0 : CWLS Log ASCII Standard - version 2.0
WRAP.  NO : One line per depth step
~WELL INFORMATION
#MNEMONIC   .UNIT                                           VALUE :DESCRIPTION
#------------------------------------------------------------------------------
STRT        .M                                           143.0270 :START DEPTH
STOP        .M                                          2096.0330 :STOP DEPTH
STEP        .M                                             0.1524 :STEP
NULL        .                                           -999.2500 :NULL VALUE
COMP        .                                   PEMEX EXPL & PROD :COMPANY
WELL        .                                                   7 :WELL
FLD         .                                           CANTARELL :FIELD
LOC         .                                             UNKNOWN :LOCATION
CNTY        .                                      CD. DEL CARMEN :COUNTY
STAT        .                                            CAMPECHE :STATE
CTRY        .                                              MEXICO :COUNTRY
SRVC        .                                             UNKNOWN :SERVICE COMPANY
DATE        .                                             UNKNOWN :LOG DATE
UWI         .                                            W-C-0007 :UNIQUE WELL ID
XCOORD      .                                       603360.340000 :SURFACE X
YCOORD      .                                      2145093.880000 :SURFACE Y
LAT         .                                           19.398550 :LATITUDE
LON         .                                          -92.015638 :LONGITUDE
ELEV        .M                                            27.1400 :SURFACE ELEV
ELEV_TYPE   .                                                  KB :ELEV TYPE
~CURVE INFORMATION
#MNEMONIC.UNIT        API CODE       : CURVE DESCRIPTION
#------------------------------------------------------------------------------
DEPTH    .M                          : Measured Depth
CAL      .inches      UNKNOWN        : CAL:UNKNOWN:rC:NONE:v0 (auto-composite)
DRHO     .g/cm3       UNKNOWN        : DRHO:UNKNOWN:rC:NONE:v0 (auto-composite)
DT       .us/ft       UNKNOWN        : DT:UNKNOWN:rC:NONE:v0 (auto-composite)
GR       .api         UNKNOWN        : GR:UNKNOWN:rC:NONE:v0 (auto-composite)
ILD      .ohmm        UNKNOWN        : ILD:UNKNOWN:rC:NONE:v0 (auto-composite)
NPHI     .v/v_decimal UNKNOWN        : NPHI:UNKNOWN:rC:NONE:v0 (auto-composite)
RHOB     .g/cm3       UNKNOWN        : RHOB:UNKNOWN:rC:NONE:v0 (auto-composite)
~A     DEPTH          CAL         DRHO           DT           GR          ILD         NPHI         RHOB
# ...
   1433.8550      14.1538      -0.0188     130.2033      45.9935       1.1055       0.3313       2.1811
   1434.0074      13.8740      -0.0228     126.6647      46.7375       1.1169       0.3446       2.1694
   1434.1598      13.6338      -0.0262     120.3976      47.7845       1.1300       0.3586       2.1601
   1434.3121      13.3414      -0.0222     114.0914      49.2333       1.1460       0.3593       2.1766
   1434.4646      13.0331      -0.0158     107.7734      50.8026       1.1630       0.3558       2.2009
   1434.6169      12.7455      -0.0092     106.7699      52.4049       1.1800       0.3261       2.2767
   1434.7694      12.4664      -0.0024     107.9625      54.0207       1.1970       0.2855       2.3738
   1434.9218      12.2935       0.0000     109.3720      54.4081       1.2068       0.2704       2.4030
   1435.0742      12.1785       0.0000     110.8994      54.1290       1.2126       0.2690       2.3952
   1435.2266      12.2383       0.0031     109.4248      53.2920       1.2079       0.2701       2.3920
   1435.3790      12.4213       0.0085     105.8338      52.0644       1.1957       0.2730       2.3920
   1435.5314      12.5893       0.0105     104.1570      50.9868       1.1747       0.2780       2.3961
   1435.6838      12.7436       0.0095     104.2026      50.0432       1.1455       0.2851       2.4039
   1435.8362      13.0012       0.0090     106.6789      50.1428       1.1185       0.2914       2.4062
   1435.9886      13.3769       0.0090     111.9378      51.4291       1.0937       0.2969       2.4023
   1436.1410      13.8660       0.0096     115.8949      53.6317       1.0725       0.2975       2.3988
   1436.2933      14.5211       0.0110     117.9484      57.1698       1.0565       0.2908       2.3959
   1436.4458      14.9534       0.0122     119.2754      60.3376       1.0488       0.2868       2.3885
   1436.5981      14.9631       0.0127     119.2244      62.8078       1.0571       0.2880       2.3725
   1436.7506      14.6873       0.0134     118.7234      64.0827       1.0725       0.2891       2.3643
   1436.9030      13.6957       0.0149     117.0934      62.3825       1.1060       0.2902       2.3760
   1437.0554      12.8361       0.0177     114.8936      60.3132       1.1406       0.2900       2.3848
   1437.2078      12.4319       0.0255     110.7300      56.9780       1.1790       0.2850       2.3838
   1437.3602      12.0626       0.0316     106.9268      54.0155       1.2162       0.2813       2.3836
   1437.5126      11.8714       0.0292     104.9619      52.9311       1.2477       0.2838       2.3870
   1437.6650      11.6932       0.0270     103.1609      51.9291       1.2772       0.2866       2.3904
   1437.8174      11.6282       0.0270     102.7745      51.6263       1.2883       0.2925       2.3943
   1437.9698      11.5632       0.0271     102.4989      51.2803       1.2985       0.2980       2.3988
   1438.1222      11.4981       0.0305     104.6488      50.0051       1.2879       0.2955       2.4183
   1438.2745      11.4331       0.0339     106.7986      48.7300       1.2772       0.2931       2.4377
   1438.4270      11.2755       0.0316     109.8883      48.3846       1.2689       0.2913       2.4323
   1438.5793      11.1163       0.0292     112.9937      48.0541       1.2606       0.2896       2.4265
   1438.7318      10.9741       0.0245     111.1126      47.9218       1.2604       0.2942       2.4144
   1438.8842      10.8334       0.0197     108.8132      47.8058       1.2609       0.2994       2.4017
   1439.0366      10.7416       0.0211     108.4535      47.5070       1.2731       0.3051       2.3887
   1439.1890      10.6576       0.0235     108.4030      47.1795       1.2872       0.3110       2.3756
   1439.3414      10.5733       0.0185     108.7741      47.6132       1.3106       0.3143       2.3940
   1439.4938      10.4888       0.0118     109.2492      48.2336       1.3363       0.3170       2.4202
   1439.6462      10.4332       0.0111     106.7093      48.9239       1.3707       0.3026       2.4252
   1439.7986      10.3875       0.0125     103.1177      49.6384       1.4081       0.2822       2.4228
   1439.9510      10.3641       0.0104     100.2432      50.0774       1.4415       0.2710       2.4260
   1440.1034      10.3510       0.0065      97.7040      50.3884       1.4730       0.2642       2.4318
   1440.2557      10.3351       0.0047      97.6308      50.0366       1.4904       0.2586       2.4415
   1440.4082      10.3177       0.0042      99.0617      49.2818       1.4992       0.2538       2.4537
   1440.5605      10.3084       0.0045     101.0563      48.5540       1.5049       0.2542       2.4661
   1440.7130      10.3055       0.0055     103.4935      47.8472       1.5083       0.2586       2.4787
   1440.8654      10.3047       0.0094     105.6674      47.7227       1.5119       0.2625       2.4784
   1441.0178      10.3062       0.0162     107.5779      48.1765       1.5158       0.2662       2.4653
   1441.1702      10.3074       0.0232     107.0053      48.3685       1.5227       0.2687       2.4505
   1441.3226      10.3084       0.0305     103.2710      48.2293       1.5334       0.2698       2.4335
   1441.4750      10.3097       0.0324     100.2818      47.9370       1.5503       0.2690       2.4112
   1441.6274      10.3117       0.0256      98.5093      47.3958       1.5775       0.2650       2.3802
   1441.7798      10.3133       0.0182      97.4993      46.9152       1.6048       0.2610       2.3629
   1441.9323      10.3143       0.0095      98.1182      46.5633       1.6325       0.2570       2.3750
   1442.0846      10.3179       0.0046      99.0342      46.8161       1.6544       0.2539       2.3905
   1442.2369      10.3291       0.0109     100.8016      48.7870       1.6597       0.2533       2.4158
   1442.3894      10.3383       0.0165     102.1698      50.4555       1.6566       0.2532       2.4362
   1442.5417      10.3397       0.0189     101.9272      50.9093       1.6192       0.2551       2.4372
   1442.6942      10.3399       0.0213     101.8098      51.3895       1.5813       0.2572       2.4369
   1442.8466      10.3322       0.0238     102.4767      52.0322       1.5401       0.2604       2.4286
   1442.9990      10.3251       0.0266     103.0214      52.6280       1.4992       0.2635       2.4217
   1443.1514      10.3266       0.0344     102.1098      52.6790       1.4628       0.2653       2.4309
   1443.3038      10.3280       0.0421     101.2347      52.7201       1.4265       0.2670       2.4399
   1443.4562      10.3295       0.0474     102.4273      52.2499       1.3979       0.2685       2.4341
   1443.6086      10.3309       0.0528     103.6200      51.7797       1.3692       0.2700       2.4282
   1443.7610      10.3329       0.0432     102.9358      51.5140       1.3508       0.2706       2.4015
   1443.9135      10.3348       0.0331     102.1677      51.2572       1.3329       0.2712       2.3739
   1444.0658      10.3363       0.0185     103.5855      50.8928       1.3223       0.2753       2.3401
   1444.2181      10.3378       0.0035     105.2562      50.5161       1.3126       0.2799       2.3056
   1444.3706      10.3388       0.0022     106.1278      49.9042       1.3065       0.2860       2.2862
   1444.5229      10.3398       0.0037     106.8428      49.2467       1.3012       0.2925       2.2697
   1444.6754      10.3490      -0.0001     107.1126      49.4714       1.3038       0.2897       2.2780
   1444.8278      10.3607      -0.0055     107.2538      49.9495       1.3086       0.2841       2.2936
   1444.9802      10.3689       0.0062     107.0861      51.4636       1.3149       0.2838       2.3095
   1445.1326      10.3757       0.0246     106.7953      53.3873       1.3217       0.2855       2.3255
   1445.2850      10.3691       0.0307     107.1321      54.8606       1.3288       0.2877       2.3412
   1445.4374      10.3555       0.0302     107.7996      56.0984       1.3360       0.2902       2.3567
