#------------------------------------------------------------------------------
#
#   Created by  : [OpenWorks] Log Export Utility (LEXP)
#   Created on  : 2016-05-12 17:01:20
#   Project     : CANT971
#   User        : R5K
#   Interpreter : PEP
#
#------------------------------------------------------------------------------
~VERSION INFORMATION
VERS. 2.0 : CWLS Log ASCII Standard - version 2.0
WRAP.  NO : One line per depth step
~WELL INFORMATION
#MNEMONIC   .UNIT                                           VALUE :DESCRIPTION
#------------------------------------------------------------------------------
STRT        .M                                           993.9530 :START DEPTH
STOP        .M                                          2371.9539 :STOP DEPTH
STEP        .M                                             0.1524 :STEP
NULL        .                                           -999.2500 :NULL VALUE
COMP        .                                   PEMEX EXPL & PROD :COMPANY
WELL        .                                                  55 :WELL
FLD         .                                           CANTARELL :FIELD
LOC         .                                             UNKNOWN :LOCATION
CNTY        .                                      CD. DEL CARMEN :COUNTY
STAT        .                                            CAMPECHE :STATE
CTRY        .                                              MEXICO :COUNTRY
SRVC        .                                             UNKNOWN :SERVICE COMPANY
DATE        .                                             UNKNOWN :LOG DATE
UWI         .                                          3060000168 :UNIQUE WELL ID
XCOORD      .                                       602149.520000 :SURFACE X
YCOORD      .                                      2147170.290000 :SURFACE Y
LAT         .                                           19.417375 :LATITUDE
LON         .                                          -92.027057 :LONGITUDE
ELEV        .M                                            28.1700 :SURFACE ELEV
ELEV_TYPE   .                                                  KB :ELEV TYPE
~CURVE INFORMATION
#MNEMONIC.UNIT        API CODE       : CURVE DESCRIPTION
#------------------------------------------------------------------------------
DEPTH    .M                          : Measured Depth
CALI     .inches      UNKNOWN        : CALI:CALI-Load:rC:NONE:v0 (auto-composite)
DRHO     .UNKNOWN     UNKNOWN        : DRHO:DRHO-Load:rC:NONE:v0 (auto-composite)
DT       .us/ft       UNKNOWN        : DT:DT:rC:NONE:v0 (auto-composite)
GR       .UNKNOWN     UNKNOWN        : GR:GR-Load:rC:NONE:v0 (auto-composite)
ILD      .UNKNOWN     UNKNOWN        : ILD:ILD-Load:rC:NONE:v0 (auto-composite)
LLD      .UNKNOWN     UNKNOWN        : LLD:LLD-Load:rC:NONE:v0 (auto-composite)
LLS      .UNKNOWN     UNKNOWN        : LLS:LLS-Load:rC:NONE:v0 (auto-composite)
MSFL     .UNKNOWN     UNKNOWN        : MSFL:MSFL-Load:rC:NONE:v0 (auto-composite)
NPHI     .v/v_decimal UNKNOWN        : NPHI:NPHI:rC:NONE:v0 (auto-composite)
RHOB     .UNKNOWN     UNKNOWN        : RHOB:RHOB-Load:rC:NONE:v0 (auto-composite)
SP       .UNKNOWN     UNKNOWN        : SP:SP-Load:rC:NONE:v0 (auto-composite)
~A     DEPTH         CALI         DRHO           DT           GR          ILD          LLD          LLS         MSFL         NPHI         RHOB           SP
# ...
   2008.3274    -999.2500       0.1920    -999.2500      22.9530    -999.2500     457.4980      59.9080      22.6560      13.8490       2.5910     -37.5940
   2008.4799    -999.2500       0.2015    -999.2500      22.1947    -999.2500     459.2262      59.5198      21.1926      13.8620       2.6005     -37.6170
   2008.6322    -999.2500       0.2110    -999.2500      21.4340    -999.2500     460.9570      59.1310      19.7270      13.8750       2.6100     -37.6400
   2008.7845    -999.2500       0.2070    -999.2500      19.8720    -999.2500     428.2510      56.0418      23.6663      13.8810       2.6065     -38.9349
   2008.9370    -999.2500       0.2030    -999.2500      18.3050    -999.2500     395.5170      52.9500      27.6090      13.8870       2.6030     -40.2340
   2009.0894    -999.2500       0.1985    -999.2500      18.8336    -999.2500     360.3106      47.3340      26.8266      13.8885       2.5930     -39.3919
   2009.2418    -999.2500       0.1940    -999.2500      19.3640    -999.2500     325.0980      41.7170      26.0440      13.8900       2.5830     -38.5470
   2009.3942    -999.2500       0.1865    -999.2500      20.9437    -999.2500     318.0376      41.7650      25.4631      13.8900       2.5765     -38.7162
   2009.5466    -999.2500       0.1790    -999.2500      22.5290    -999.2500     310.9750      41.8130      24.8820      13.8900       2.5700     -38.8860
   2009.6990    -999.2500       0.1975    -999.2500      23.0568    -999.2500     318.9058      43.8806      20.0540      13.8900       2.5949     -40.5187
   2009.8514    -999.2500       0.2160    -999.2500      23.5860    -999.2500     326.8400      45.9490      15.2240      13.8900       2.6200     -42.1560
   2010.0038    -999.2500       0.2155    -999.2500      23.5066    -999.2500     326.7540      45.9455      11.7190      13.8845       2.6200     -42.1350
   2010.1562    -999.2500       0.2150    -999.2500      23.4270    -999.2500     326.6680      45.9420       8.2120      13.8790       2.6200     -42.1140
   2010.3086    -999.2500       0.2050    -999.2500      20.6697    -999.2500     323.7150      45.8235       8.1585      13.8695       2.6150     -41.3858
   2010.4611    -999.2500       0.1950    -999.2500      17.9060    -999.2500     320.7600      45.7050       8.1050      13.8600       2.6100     -40.6560
   2010.6134    -999.2500       0.1940    -999.2500      18.0184    -999.2500     316.7286      45.6930       8.4439      13.7880       2.6060     -40.9122
   2010.7657    -999.2500       0.1930    -999.2500      18.1310    -999.2500     312.6940      45.6810       8.7830      13.7160       2.6020     -41.1690
   2010.9182    -999.2500       0.1915    -999.2500      18.6154    -999.2500     309.6144      43.8114      12.2434       7.8685       2.5910     -41.2888
   2011.0706    -999.2500       0.1900    -999.2500      19.1010    -999.2500     306.5320      41.9400      15.7070       2.0250       2.5800     -41.4090
   2011.2230    -999.2500       0.1900    -999.2500      19.4136    -999.2500     296.6397      40.8766      12.2698    -999.2500       2.5800     -42.4142
   2011.3754    -999.2500       0.1900    -999.2500      19.7270    -999.2500     286.7370      39.8120       8.8290    -999.2500       2.5800     -43.4220
   2011.5278    -999.2500       0.1890    -999.2500      18.3499    -999.2500     288.5454      40.0029       8.6666    -999.2500       2.5850     -42.6261
   2011.6802    -999.2500       0.1880    -999.2500      16.9690    -999.2500     290.3560      40.1940       8.5040    -999.2500       2.5900     -41.8280
   2011.8326    -999.2500       0.1930    -999.2500      17.1248    -999.2500     307.7001      42.6064       9.7157    -999.2500       2.5850     -41.8500
   2011.9850    -999.2500       0.1980    -999.2500      17.2810    -999.2500     325.0670      45.0220      10.9290    -999.2500       2.5800     -41.8720
   2012.1375    -999.2500       0.1975    -999.2500      17.1747    -999.2500     324.8741      44.9840      15.3948    -999.2500       2.5850     -42.1666
   2012.2898    -999.2500       0.1970    -999.2500      17.0680    -999.2500     324.6810      44.9460      19.8670    -999.2500       2.5900     -42.4620
   2012.4423    -999.2500       0.1935    -999.2500      15.8679    -999.2500     322.5242      44.5218      22.4430    -999.2500       2.5900     -43.5653
   2012.5946    -999.2500       0.1900    -999.2500      14.6640    -999.2500     320.3640      44.0970      25.0230    -999.2500       2.5900     -44.6720
   2012.7469    -999.2500    -999.2500    -999.2500      15.6544    -999.2500     323.9994      44.0750      24.4762    -999.2500    -999.2500     -42.8730
   2012.8994    -999.2500    -999.2500    -999.2500      16.6480    -999.2500     327.6380      44.0530      23.9290    -999.2500    -999.2500     -41.0680
   2013.0518    -999.2500    -999.2500    -999.2500      16.3845    -999.2500     310.0073      43.1766      21.9532    -999.2500    -999.2500     -40.5963
   2013.2042    -999.2500    -999.2500    -999.2500      16.1200    -999.2500     292.3730      42.3000      19.9770    -999.2500    -999.2500     -40.1230
   2013.3566    -999.2500    -999.2500    -999.2500      14.7199    -999.2500     362.9027      50.8371      28.6081    -999.2500    -999.2500     -40.8185
   2013.5090    -999.2500    -999.2500    -999.2500      13.3160    -999.2500     433.4560      59.3770      37.2420    -999.2500    -999.2500     -41.5160
   2013.6614    -999.2500    -999.2500    -999.2500      13.4294    -999.2500     431.3695      59.3190      33.1065    -999.2500    -999.2500     -41.0400
   2013.8138    -999.2500    -999.2500    -999.2500      13.5430    -999.2500     429.2820      59.2610      28.9690    -999.2500    -999.2500     -40.5630
   2013.9662    -999.2500    -999.2500    -999.2500      14.4101    -999.2500     399.1818      56.0454      29.1679    -999.2500    -999.2500     -40.5825
   2014.1187    -999.2500    -999.2500    -999.2500      15.2790    -999.2500     369.0640      52.8280      29.3670    -999.2500    -999.2500     -40.6020
   2014.2710    -999.2500    -999.2500    -999.2500      16.9830    -999.2500     288.9825      41.2051      28.0040    -999.2500    -999.2500     -40.7543
   2014.4235    -999.2500    -999.2500    -999.2500      18.6910    -999.2500     208.8440      29.5740      26.6400    -999.2500    -999.2500     -40.9070
   2014.5758    -999.2500    -999.2500    -999.2500      19.8716    -999.2500     177.0828      25.0619      20.4826    -999.2500    -999.2500     -41.2576
   2014.7281    -999.2500    -999.2500    -999.2500      21.0550    -999.2500     145.2950      20.5460      14.3200    -999.2500    -999.2500     -41.6090
   2014.8806    -999.2500    -999.2500    -999.2500      21.6128    -999.2500     143.6058      20.5620      13.6133    -999.2500    -999.2500     -42.1473
   2015.0330    -999.2500    -999.2500    -999.2500      22.1720    -999.2500     141.9150      20.5780      12.9060    -999.2500    -999.2500     -42.6870
   2015.1854    -999.2500    -999.2500    -999.2500      20.6116    -999.2500     160.6138      22.9467      13.2793    -999.2500    -999.2500     -42.3594
   2015.3378    -999.2500    -999.2500    -999.2500      19.0470    -999.2500     179.3330      25.3180      13.6530    -999.2500    -999.2500     -42.0310
   2015.4902    -999.2500    -999.2500    -999.2500      20.6348    -999.2500     204.4592      31.0475      17.1289    -999.2500    -999.2500     -42.7725
   2015.6426    -999.2500    -999.2500    -999.2500      22.2270    -999.2500     229.6160      36.7840      20.6090    -999.2500    -999.2500     -43.5160
   2015.7950    -999.2500    -999.2500    -999.2500      20.6393    -999.2500     231.6551      36.6071      19.6871    -999.2500    -999.2500     -43.2968
   2015.9474    -999.2500    -999.2500    -999.2500      19.0470    -999.2500     233.6970      36.4300      18.7640    -999.2500    -999.2500     -43.0770
   2016.0999    -999.2500    -999.2500    -999.2500      20.6720    -999.2500     229.0484      36.0358      16.2783    -999.2500    -999.2500     -42.1864
