#------------------------------------------------------------------------------
#
#   Created by  : [OpenWorks] Log Export Utility (LEXP)
#   Created on  : 2016-05-23 11:56:12
#   Project     : CANT971
#   User        : R5K
#   Interpreter : PEP
#
#------------------------------------------------------------------------------
~VERSION INFORMATION
VERS. 2.0 : CWLS Log ASCII Standard - version 2.0
WRAP.  NO : One line per depth step
~WELL INFORMATION
#MNEMONIC   .UNIT                                           VALUE :DESCRIPTION
#------------------------------------------------------------------------------
STRT        .M                                           365.7604 :START DEPTH
STOP        .M                                          2883.8655 :STOP DEPTH
STEP        .M                                             0.1524 :STEP
NULL        .                                           -999.2500 :NULL VALUE
COMP        .                                   PEMEX EXPL & PROD :COMPANY
WELL        .                                                  44 :WELL
FLD         .                                           CANTARELL :FIELD
LOC         .                                             UNKNOWN :LOCATION
CNTY        .                                      CD. DEL CARMEN :COUNTY
STAT        .                                            CAMPECHE :STATE
CTRY        .                                              MEXICO :COUNTRY
SRVC        .                                             UNKNOWN :SERVICE COMPANY
DATE        .                                             UNKNOWN :LOG DATE
UWI         .                                          3060000162 :UNIQUE WELL ID
XCOORD      .                                       599695.380000 :SURFACE X
YCOORD      .                                      2143038.730000 :SURFACE Y
LAT         .                                           19.380164 :LATITUDE
LON         .                                          -92.050646 :LONGITUDE
ELEV        .M                                            26.7400 :SURFACE ELEV
ELEV_TYPE   .                                                  KB :ELEV TYPE
~CURVE INFORMATION
#MNEMONIC.UNIT        API CODE       : CURVE DESCRIPTION
#------------------------------------------------------------------------------
DEPTH    .M                          : Measured Depth
CALI     .inches      UNKNOWN        : CALI:registros:rC:NONE:v0 (auto-composite)
CGR      .API         UNKNOWN        : CGR:registros:rC:NONE:v0 (auto-composite)
DRHO     .g/cm3       UNKNOWN        : DRHO:registros:rC:NONE:v0 (auto-composite)
DT       .UNKNOWN     UNKNOWN        : DT:registros:rC:NONE:v0 (auto-composite)
GR       .API         UNKNOWN        : GR:registros:rC:NONE:v0 (auto-composite)
ILD      .ohm.m       UNKNOWN        : ILD:registros:rC:NONE:v0 (auto-composite)
LLD      .ohm.m       UNKNOWN        : LLD:registros:rC:NONE:v0 (auto-composite)
LLS      .ohm.m       UNKNOWN        : LLS:registros:rC:NONE:v0 (auto-composite)
MSFL     .ohm.m       UNKNOWN        : MSFL:registros:rC:NONE:v0 (auto-composite)
NPHI     .UNKNOWN     UNKNOWN        : NPHI:registros:rC:NONE:v0 (auto-composite)
PEF      .b/elec      UNKNOWN        : PEF:registros:rC:NONE:v0 (auto-composite)
POTA     .wtpercent   UNKNOWN        : POTA:registros:rC:NONE:v0 (auto-composite)
RHOB     .g/cm3       UNKNOWN        : RHOB:registros:rC:NONE:v0 (auto-composite)
THOR     .ppm         UNKNOWN        : THOR:registros:rC:NONE:v0 (auto-composite)
URAN     .ppm         UNKNOWN        : URAN:registros:rC:NONE:v0 (auto-composite)
~A     DEPTH         CALI          CGR         DRHO           DT           GR          ILD          LLD          LLS         MSFL         NPHI          PEF         POTA         RHOB         THOR         URAN
# ...
   2350.9229       0.0000      13.4570       0.0560      75.1800       0.0000    -999.2500       0.2000       0.2000       0.2000       0.0440    -999.2500       0.0034       2.6270       1.3457       1.2830
   2351.0752       0.0000      12.8710       0.0223      74.6383       0.0000    -999.2500       0.2000       0.2000       0.2000       0.0425    -999.2500       0.0039       2.5838       1.2871       1.3875
   2351.2275       0.0000      12.2850      -0.0110      74.1010       0.0000    -999.2500       0.2000       0.2000       0.2000       0.0396    -999.2500       0.0044       2.5410       1.2285       1.4920
   2351.3799       0.0000      12.5635       0.0021      71.3428       0.0000    -999.2500       0.2000       0.2000       0.2000       0.0346    -999.2500       0.0043       2.5692       1.2563       1.3930
   2351.5325       0.0000      12.8420       0.0150      68.6020       0.0000    -999.2500       0.2000       0.2000       0.2000       0.0322    -999.2500       0.0041       2.5970       1.2842       1.2940
   2351.6848       0.0000      13.1555       0.0723      69.3442       0.0000    -999.2500       0.2000       0.2000       0.2000       0.0371    -999.2500       0.0042       2.6624       1.3155       1.3715
   2351.8372       0.0000      13.4690       0.1290      70.0830       0.0000    -999.2500       0.2000       0.2000       0.2000       0.0192    -999.2500       0.0043       2.7270       1.3469       1.4490
   2351.9895       0.0000      13.9409      -0.0615      74.5546       0.0000    -999.2500       0.2000       0.2000       0.2000      -0.0523    -999.2500       0.0045       2.3364       1.3941       1.6246
   2352.1421       0.0000      14.4130      -0.2500      78.9920       0.0000    -999.2500       0.2000       0.2000       0.2000      -0.1259    -999.2500       0.0048       1.9500       1.4413       1.8000
   2352.2944       0.0000      15.5467      -0.2500      77.6177       0.0000    -999.2500       0.2000       0.2000       0.2000      -0.1500    -999.2500       0.0050       1.9500       1.5548       1.9751
   2352.4468       0.0000      16.6810      -0.2500      76.2580       0.0000    -999.2500       0.2000       0.2000       0.2000      -0.1500      28.6800       0.0052       1.9500       1.6681       2.1500
   2352.5991       0.0000      17.2393      -0.2500      73.8135       0.0000    -999.2500       0.2000       0.2000       0.2000      -0.1500      25.6048       0.0056       1.9500       1.7239       2.1360
   2352.7515       0.0000      17.7970      -0.2500      71.3910       0.0000    -999.2500       0.2000       0.2000       0.2000      -0.1500      22.5620       0.0059       1.9500       1.7797       2.1220
   2352.9041       0.0000      17.7825      -0.2500      73.3049       0.0000    -999.2500       0.2000       0.2000       0.2000      -0.1500      23.8366       0.0061       1.9500       1.7782       2.0370
   2353.0564       0.0000      17.7680      -0.2500      75.2050       0.0000    -999.2500       0.2000       0.2000       0.2000      -0.1500      25.0980       0.0063       1.9500       1.7768       1.9520
   2353.2087       0.0000      17.2053      -0.2500      76.2896       0.0000    -999.2500       0.2000       0.2000       0.2000      -0.1500      25.0372       0.0060       1.9500       1.7205       1.8770
   2353.3611       0.0000      16.6430      -0.2500      77.3700       0.0000    -999.2500       0.2000       0.2000       0.2000      -0.1500      24.9770       0.0056       1.9500       1.6643       1.8020
   2353.5137       0.0000      15.6767      -0.2500      76.8923       0.0000    -999.2500       0.2000       0.2000       0.2000      -0.1500      24.7730       0.0050       1.9500       1.5677       1.6620
   2353.6660       0.0000      14.7110      -0.2500      76.4180       0.0000    -999.2500       0.2000       0.2000       0.2000      -0.1362      24.5710       0.0044       1.9500       1.4711       1.5220
   2353.8184       1.1074      14.4434      -0.2938      74.6216       5.7303    -999.2500       0.2000       0.2000       0.2000      -0.0944      23.8036       0.0048       2.0913       1.4443       1.7521
   2353.9707       2.2020      14.1760      -0.3370      72.8460      11.3940    -999.2500       0.2000       0.2000       0.2000      -0.0262      23.0440       0.0053       2.2310       1.4176       1.9820
   2354.1233       3.6845      15.5523      -0.2591      73.1641      21.8087    -999.2500       0.2000       0.2000       0.2000       0.0684      23.9068       0.0056       2.3819       1.5552       2.6291
   2354.2756       5.1500      16.9280      -0.1820      73.4790      32.1200    -999.2500       0.2000       0.2000       0.2000       0.1458      24.7610       0.0058       2.5310       1.6928       3.2760
   2354.4280       5.5538      17.8741      -0.1091      72.1205      35.3070    -999.2500       0.2000       0.2000       0.2000       0.1620      68.1086       0.0058       2.5028       1.7874       3.1085
   2354.5803       5.9530      18.8200      -0.0370      70.7710      38.4730    -999.2500       0.2000       0.2000       0.2000       0.1488     111.0310       0.0059       2.4750       1.8820       2.9410
   2354.7327       6.1994      18.5935      -0.0189      72.2675      37.6056    -999.2500      12.7793       8.4006       3.5340       0.1366    -119.7732       0.0061       2.4473       1.8593       2.8370
   2354.8853       6.4430      18.3670      -0.0010      73.7590      36.7410    -999.2500      25.3170      16.5740       6.8570       0.1250    -348.3440       0.0064       2.4200       1.8367       2.7330
   2355.0376       6.8488      18.5310       0.0513      77.1767      37.4779    -999.2500     182.6777      69.4337       5.2822       0.1141    -264.4399       0.0070       2.3813       1.8531       2.8190
   2355.1899       7.2500      18.6950       0.1030      80.5670      38.2090    -999.2500     338.7810     121.8710       3.7200       0.1076    -181.3380       0.0075       2.3430       1.8695       2.9050
   2355.3423       7.3747      18.4838       0.1648      77.6627      38.0837    -999.2500     242.2093     161.3038       3.9449       0.1093     -87.5529       0.0077       2.3661       1.8484       2.8680
   2355.4949       7.4980      18.2730       0.2260      74.7950      37.9600    -999.2500     146.8540     200.2400       4.1670       0.1161       5.3480       0.0078       2.3890       1.8273       2.8310
   2355.6472       7.5146      17.8552       0.2104      76.0594      38.0459    -999.2500     158.8658     239.8818       9.4742       0.1252       4.8748       0.0081       2.4207       1.7855       2.7935
   2355.7996       7.5310      17.4380       0.1950      77.3120      38.1310    -999.2500     170.7660     279.1550      14.7320       0.1315       4.4060       0.0083       2.4520       1.7438       2.7560
   2355.9519       7.4209      17.0898       0.1709      78.3581      36.8221    -999.2500     183.4160     299.4323      13.5655       0.1300       3.8811       0.0082       2.4912       1.7090       2.8656
   2356.1045       7.3120      16.7420       0.1470      79.3980      35.5210    -999.2500     195.9900     319.5880      12.4060       0.1261       3.3610       0.0081       2.5300       1.6742       2.9750
   2356.2568       6.8814      21.4010       0.1581      79.7533      42.0164    -999.2500     146.7761     334.4238       9.8390       0.1249       2.8437       0.0098       2.5773       2.1401       2.9670
   2356.4092       6.4560      26.0550       0.1690      80.1070      48.4840    -999.2500      97.7730     349.1960       7.2830       0.1224       2.3310       0.0115       2.6240       2.6055       2.9590
   2356.5615       6.2000      24.6388       0.1353      76.3185      46.7241    -999.2500      66.8806     325.7163       9.5758       0.1145       2.0721       0.0097       2.6673       2.4639       2.8514
   2356.7139       5.9470      23.2240       0.1020      72.5640      44.9800    -999.2500      36.2650     302.4470      11.8480       0.1020       1.8160       0.0080       2.7100       2.3224       2.7440
