#------------------------------------------------------------------------------
#
#   Created by  : [OpenWorks] Log Export Utility (LEXP)
#   Created on  : 2016-05-23 11:50:52
#   Project     : CANT971
#   User        : R5K
#   Interpreter : PEP
#
#------------------------------------------------------------------------------
~VERSION INFORMATION
VERS. 2.0 : CWLS Log ASCII Standard - version 2.0
WRAP.  NO : One line per depth step
~WELL INFORMATION
#MNEMONIC   .UNIT                                           VALUE :DESCRIPTION
#------------------------------------------------------------------------------
STRT        .M                                           540.4100 :START DEPTH
STOP        .M                                          3242.0049 :STOP DEPTH
STEP        .M                                             0.1524 :STEP
NULL        .                                           -999.2500 :NULL VALUE
COMP        .                                   PEMEX EXPL & PROD :COMPANY
WELL        .                                                1041 :WELL
FLD         .                                           CANTARELL :FIELD
LOC         .                                             UNKNOWN :LOCATION
CNTY        .                                      CD. DEL CARMEN :COUNTY
STAT        .                                            CAMPECHE :STATE
CTRY        .                                              MEXICO :COUNTRY
SRVC        .                                             UNKNOWN :SERVICE COMPANY
DATE        .                                             UNKNOWN :LOG DATE
UWI         .                                          3060000494 :UNIQUE WELL ID
XCOORD      .                                       596162.660000 :SURFACE X
YCOORD      .                                      2150607.940000 :SURFACE Y
LAT         .                                           19.448736 :LATITUDE
LON         .                                          -92.083900 :LONGITUDE
ELEV        .M                                            30.0000 :SURFACE ELEV
ELEV_TYPE   .                                                  KB :ELEV TYPE
~CURVE INFORMATION
#MNEMONIC.UNIT        API CODE       : CURVE DESCRIPTION
#------------------------------------------------------------------------------
DEPTH    .M                          : Measured Depth
CALI     .inches      UNKNOWN        : CALI:litodensidad:rC:NONE:v0 (auto-composite)
DRHO     .g/cm3      UNKNOWN        : DRHO:DRHO-Load:rC:NONE:v0 (auto-composite)
DT       .us/ft       UNKNOWN        : DT:DT:rC:NONE:v0 (auto-composite)
GR       .API         UNKNOWN        : GR:GR-Load:rC:NONE:v0 (auto-composite)
ILD      .ohmm        UNKNOWN        : ILD:ILD-Load:rC:NONE:v0 (auto-composite)
ILM      .ohmm        UNKNOWN        : ILM:ILM-Load:rC:NONE:v0 (auto-composite)
LLD      .ohmm        UNKNOWN        : LLD:LLD-Load:rC:NONE:v0 (auto-composite)
LLS      .ohmm        UNKNOWN        : LLS:LLS-Load:rC:NONE:v0 (auto-composite)
MSFL     .ohmm        UNKNOWN        : MSFL:MSFL-Load:rC:NONE:v0 (auto-composite)
NPHI     .v/v_decimal UNKNOWN        : NPHI:NPHI-Load:rC:NONE:v0 (auto-composite)
PEF      .b/elec      UNKNOWN        : PEF:PEF-Load:rC:NONE:v0 (auto-composite)
RHOB     .g/cm3       UNKNOWN        : RHOB:RHOB-Load:rC:NONE:v0 (auto-composite)
~A     DEPTH         CALI         DRHO           DT           GR          ILD          ILM          LLD          LLS         MSFL         NPHI          PEF         RHOB
# ...
   2808.1221    -999.2500       0.0310      82.2320      38.7700    -999.2500    -999.2500    1259.4890     427.3840      48.9950       0.2038       3.4750       2.4500
   2808.2744    -999.2500      -0.0010      64.7620      39.0950    -999.2500    -999.2500    1949.3910     575.6010      74.1760       0.1986       3.2100       2.5420
   2808.4268    -999.2500      -0.0010      64.7620      39.4200    -999.2500    -999.2500    1949.3910     575.6010     112.2990       0.1934       3.2100       2.6330
   2808.5791    -999.2500       0.0010      66.3520      41.3420    -999.2500    -999.2500    1927.0649     571.6630     188.9340       0.1711       3.2280       2.6550
   2808.7317    -999.2500       0.0030      67.9440      43.2680    -999.2500    -999.2500    1904.9600     567.7450     318.1340       0.1489       3.2450       2.6760
   2808.8840    -999.2500       0.0020      66.5990      43.0270    -999.2500    -999.2500    1787.5920     545.1460     266.8670       0.1204       3.2780       2.6740
   2809.0364    -999.2500       0.0020      65.2530      42.7870    -999.2500    -999.2500    1677.4550     523.4450     223.8620       0.0920       3.3110       2.6720
   2809.1887    -999.2500       0.0040      47.1960      43.2510    -999.2500    -999.2500    1524.3030     448.3660     368.3430       0.0941       3.3230       2.6660
   2809.3411    -999.2500       0.0060      47.1960      43.7150    -999.2500    -999.2500    1385.1320     448.3660     368.3430       0.0961       3.3350       2.6600
   2809.4937    -999.2500       0.0150      56.3380      45.3000    -999.2500    -999.2500    1320.3420     453.0500     360.1830       0.0999       3.3700       2.6520
   2809.6460    -999.2500       0.0240      65.4640      46.8830    -999.2500    -999.2500    1258.6780     457.7760     352.2160       0.1038       3.4040       2.6440
   2809.7983    -999.2500       0.0410      85.4840      46.4310    -999.2500    -999.2500    1204.5551     445.5070     317.0710       0.1059       3.4470       2.6270
   2809.9507    -999.2500       0.0590     105.5030      45.9800    -999.2500    -999.2500    1152.7600     445.5070     285.4340       0.1080       3.4910       2.6100
   2810.1033    -999.2500       0.0760     122.6050      43.6750    -999.2500    -999.2500    1102.0551     454.4340     222.4640       0.1153       3.5560       2.5800
   2810.2556    -999.2500       0.0930     139.6790      41.3750    -999.2500    -999.2500    1053.6560     463.5250     173.4550       0.1226       3.6210       2.5500
   2810.4080    -999.2500       0.1030     175.3350      33.7790    -999.2500    -999.2500     974.6780     375.1290     127.3730       0.1745       4.3750       2.4550
   2810.5603    -999.2500       0.1130     175.3350      33.7790    -999.2500    -999.2500     901.6200     375.1290      93.5340       0.1745       4.3750       2.4550
   2810.7129    -999.2500       0.1270     170.2810      34.4040    -999.2500    -999.2500     782.7890     375.3710      79.5120       0.1742       4.2460       2.4650
   2810.8652    -999.2500       0.1410     165.2350      35.0280    -999.2500    -999.2500     679.7740     375.6120      67.6100       0.1739       4.1170       2.4750
   2811.0176    -999.2500       0.2050      41.4110      32.3780    -999.2500    -999.2500     721.3280     400.4710      35.6590       0.1725       3.3450       2.5800
   2811.1699    -999.2500       0.2050      41.4110      32.3780    -999.2500    -999.2500     765.4220     426.9760      35.6590       0.1711       3.3450       2.5800
   2811.3223    -999.2500       0.1950      70.1010      32.5230    -999.2500    -999.2500     917.1350     516.4660      42.5280       0.1640       3.3460       2.5760
   2811.4749    -999.2500       0.1860      98.8360      32.6680    -999.2500    -999.2500    1099.2371     624.9020      50.7360       0.1569       3.3460       2.5720
   2811.6272    -999.2500       0.1590      96.4280      33.4210    -999.2500    -999.2500    1349.3459     770.0090      81.9640       0.1123       3.4190       2.5760
   2811.7795    -999.2500       0.1310      94.0190      34.1740    -999.2500    -999.2500    1656.3621     948.8110     132.4150       0.1123       3.4190       2.5810
   2811.9319    -999.2500       0.1040      59.9350      35.2950    -999.2500    -999.2500    1908.0291    1096.4690     199.8820       0.1128       3.3850       2.6170
   2812.0845    -999.2500       0.0770      25.7970      36.4170    -999.2500    -999.2500    2198.4309    1267.4010     301.9210       0.1134       3.3510       2.6540
   2812.2368    -999.2500       0.0610      73.5240      35.6250    -999.2500    -999.2500    2314.4961    1350.5040     252.1960       0.1257       3.2900       2.6530
   2812.3892    -999.2500       0.0440      73.5240      35.6250    -999.2500    -999.2500    2436.6890    1439.0560     252.1960       0.1257       3.2280       2.6520
   2812.5415    -999.2500       0.0320      72.2550      35.8860    -999.2500    -999.2500    2597.9480    1536.0090     342.2880       0.1222       3.2080       2.6360
   2812.6941    -999.2500       0.0190      70.9840      36.1470    -999.2500    -999.2500    2770.1650    1639.6650     464.7920       0.1188       3.1880       2.6200
   2812.8464    -999.2500       0.0200      66.4880      39.2440    -999.2500    -999.2500    3061.1311    1815.6960     379.5410       0.1113       3.3660       2.6440
   2812.9988    -999.2500       0.0210      61.9920      42.3420    -999.2500    -999.2500    3382.6580    2010.6260     309.9270       0.1037       3.5440       2.6680
   2813.1511    -999.2500       0.0340      62.2230      42.1800    -999.2500    -999.2500    3658.3110    2253.6509     344.2210       0.0997       3.5160       2.6680
   2813.3035    -999.2500       0.0340      62.4550      42.1800    -999.2500    -999.2500    3658.3110    2253.6509     382.3090       0.0956       3.4890       2.6670
   2813.4561    -999.2500       0.0320      63.8140      42.3250    -999.2500    -999.2500    3593.8401    2214.5840     478.6080       0.0929       3.3700       2.6580
   2813.6084    -999.2500       0.0300      65.1700      42.4690    -999.2500    -999.2500    3530.6060    2176.2539     598.9480       0.0903       3.2510       2.6490
   2813.7607    -999.2500       0.0240      64.7790      41.9180    -999.2500    -999.2500    3401.0569    2116.8940     323.1150       0.0838       3.2890       2.6720
   2813.9131    -999.2500       0.0180      64.3890      41.3660    -999.2500    -999.2500    3276.2600    2059.1521     323.1150       0.0838       3.3260       2.6720
   2814.0657    -999.2500       0.0080      63.0170      39.7900    -999.2500    -999.2500    3174.4851    2040.6820     424.2930       0.0864       3.4330       2.6670
   2814.2180    -999.2500      -0.0020      61.6480      38.2170    -999.2500    -999.2500    3076.0239    2022.4070     556.9110       0.0889       3.5390       2.6630
   2814.3704    -999.2500      -0.0010      57.6960      36.1000    -999.2500    -999.2500    2763.5510    1860.5900     531.9240       0.0880       3.5320       2.6080
   2814.5227    -999.2500       0.0000      53.7440      33.9820    -999.2500    -999.2500    2482.8181    1711.7200     508.0580       0.0872       3.5250       2.6080
   2814.6753    -999.2500       0.0090      45.3420      32.3910    -999.2500    -999.2500    1857.5010    1295.5179     468.0970       0.0762       3.4560       2.6170
   2814.8276    -999.2500       0.0180      36.9540      30.8020    -999.2500    -999.2500    1390.3199     980.9520     431.3350       0.0652       3.3870       2.6250
   2814.9800    -999.2500       0.0820      40.4960      30.4310    -999.2500    -999.2500    1454.7581    1029.4100     163.1540       0.0655       3.1120       2.6140
   2815.1323    -999.2500       0.0820      44.0380      30.0610    -999.2500    -999.2500    1522.1820    1080.2620     163.1540       0.0659       3.1120       2.6140
   2815.2847    -999.2500       0.0800      51.4150      29.4100    -999.2500    -999.2500    2177.3960    1548.8210     219.0450       0.0721       3.1280       2.6270
