#------------------------------------------------------------------------------
#
#   Created by  : [OpenWorks] Log Export Utility (LEXP)
#   Created on  : 2016-05-12 17:01:28
#   Project     : CANT971
#   User        : R5K
#   Interpreter : PEP
#
#------------------------------------------------------------------------------
~VERSION INFORMATION
VERS. 2.0 : CWLS Log ASCII Standard - version 2.0
WRAP.  NO : One line per depth step
~WELL INFORMATION
#MNEMONIC   .UNIT                                           VALUE :DESCRIPTION
#------------------------------------------------------------------------------
STRT        .M                                           350.5962 :START DEPTH
STOP        .M                                          2218.5630 :STOP DEPTH
STEP        .M                                             0.1524 :STEP
NULL        .                                           -999.2500 :NULL VALUE
COMP        .                                   PEMEX EXPL & PROD :COMPANY
WELL        .                                                  79 :WELL
FLD         .                                           CANTARELL :FIELD
LOC         .                                             UNKNOWN :LOCATION
CNTY        .                                      CD. DEL CARMEN :COUNTY
STAT        .                                            CAMPECHE :STATE
CTRY        .                                              MEXICO :COUNTRY
SRVC        .                                             UNKNOWN :SERVICE COMPANY
DATE        .                                             UNKNOWN :LOG DATE
UWI         .                                          3060000183 :UNIQUE WELL ID
XCOORD      .                                       602154.470000 :SURFACE X
YCOORD      .                                      2147172.410000 :SURFACE Y
LAT         .                                           19.417394 :LATITUDE
LON         .                                          -92.027010 :LONGITUDE
ELEV        .M                                            28.1700 :SURFACE ELEV
ELEV_TYPE   .                                                  KB :ELEV TYPE
~CURVE INFORMATION
#MNEMONIC.UNIT        API CODE       : CURVE DESCRIPTION
#------------------------------------------------------------------------------
DEPTH    .M                          : Measured Depth
CALI     .inches      UNKNOWN        : CALI:CALI-Load:rC:NONE:v0 (auto-composite)
DT       .us/ft       UNKNOWN        : DT:DT:rC:NONE:v0 (auto-composite)
GR       .UNKNOWN     UNKNOWN        : GR:GR-Load:rC:NONE:v0 (auto-composite)
ILD      .UNKNOWN     UNKNOWN        : ILD:ILD-Load:rC:NONE:v0 (auto-composite)
LLD      .UNKNOWN     UNKNOWN        : LLD:LLD-Load:rC:NONE:v0 (auto-composite)
LLS      .UNKNOWN     UNKNOWN        : LLS:LLS-Load:rC:NONE:v0 (auto-composite)
MSFL     .UNKNOWN     UNKNOWN        : MSFL:MSFL-Load:rC:NONE:v0 (auto-composite)
NPHI     .v/v_decimal UNKNOWN        : NPHI:NPHI:rC:NONE:v0 (auto-composite)
RG       .API         UNKNOWN        : RG:UNKNOWN:rC:NONE:v0 (auto-composite)
RHOB     .UNKNOWN     UNKNOWN        : RHOB:RHOB-Load:rC:NONE:v0 (auto-composite)
SP       .UNKNOWN     UNKNOWN        : SP:SP-Load:rC:NONE:v0 (auto-composite)
~A     DEPTH         CALI           DT           GR          ILD          LLD          LLS         MSFL         NPHI           RG         RHOB           SP
# ...
    818.1594      18.1585    -999.2500      53.6947       1.0470    -999.2500    -999.2500    -999.2500       0.3713    -999.2500       2.1970      16.3413
    818.3118      18.1715    -999.2500      52.8307       1.0470    -999.2500    -999.2500    -999.2500       0.3776    -999.2500       2.1990      16.3878
    818.4642      18.1730    -999.2500      51.9927       1.0470    -999.2500    -999.2500    -999.2500       0.3804    -999.2500       2.2023      16.4420
    818.6166      18.1630    -999.2500      51.1808       1.0470    -999.2500    -999.2500    -999.2500       0.3798    -999.2500       2.2068      16.5040
    818.7690      18.0617    -999.2500      50.4246       1.0480    -999.2500    -999.2500    -999.2500       0.3780    -999.2500       2.2065      16.5428
    818.9214      17.8692    -999.2500      49.7241       1.0500    -999.2500    -999.2500    -999.2500       0.3750    -999.2500       2.2015      16.5583
    819.0738      17.8013    -999.2500      49.7619       1.0512    -999.2500    -999.2500    -999.2500       0.3714    -999.2500       2.1962      16.5660
    819.2262      17.8578    -999.2500      50.5374       1.0517    -999.2500    -999.2500    -999.2500       0.3671    -999.2500       2.1907      16.5660
    819.3786      18.2566    -999.2500      50.5024       1.0508    -999.2500    -999.2500    -999.2500       0.3685    -999.2500       2.1900      16.5660
    819.5310      18.9976    -999.2500      49.6574       1.0483    -999.2500    -999.2500    -999.2500       0.3757    -999.2500       2.1940      16.5660
    819.6834      19.5783    -999.2500      48.5067       1.0497    -999.2500    -999.2500    -999.2500       0.3860    -999.2500       2.1945      16.5893
    819.8358      19.9989    -999.2500      47.0505       1.0552    -999.2500    -999.2500    -999.2500       0.3995    -999.2500       2.1915      16.6358
    819.9882      20.3484    -999.2500      46.7361       1.0607    -999.2500    -999.2500    -999.2500       0.4048    -999.2500       2.1990      16.7909
    820.1406      20.6269    -999.2500      47.5616       1.0662    -999.2500    -999.2500    -999.2500       0.4020    -999.2500       2.2170      17.0544
    820.2930      20.8643    -999.2500      48.4246       1.0722    -999.2500    -999.2500    -999.2500       0.3925    -999.2500       2.2237      17.1627
    820.4454      21.0608    -999.2500      49.3250       1.0787    -999.2500    -999.2500    -999.2500       0.3764    -999.2500       2.2192      17.1162
    820.5978      21.1795    -999.2500      49.5219       1.0830    -999.2500    -999.2500    -999.2500       0.3658    -999.2500       2.2170      17.0232
    820.7502      21.2205    -999.2500      49.0159       1.0850    -999.2500    -999.2500    -999.2500       0.3606    -999.2500       2.2170      16.8837
    820.9026      21.2410    -999.2500      48.3778       1.0843    -999.2500    -999.2500    -999.2500       0.3592    -999.2500       2.2170      16.8140
    821.0550      21.2410    -999.2500      47.6079       1.0808    -999.2500    -999.2500    -999.2500       0.3617    -999.2500       2.2170      16.8140
    821.2074      21.2410    -999.2500      47.9362       1.0765    -999.2500    -999.2500    -999.2500       0.3664    -999.2500       2.2135      16.8140
    821.3598      21.2410    -999.2500      49.3622       1.0715    -999.2500    -999.2500    -999.2500       0.3733    -999.2500       2.2065      16.8140
    821.5122      21.2315    -999.2500      50.0092       1.0660    -999.2500    -999.2500    -999.2500       0.3708    -999.2500       2.2035      16.8140
    821.6646      21.2125    -999.2500      49.8777       1.0600    -999.2500    -999.2500    -999.2500       0.3590    -999.2500       2.2045      16.8140
    821.8170      21.1712    -999.2500      49.4900       1.0570    -999.2500    -999.2500    -999.2500       0.3542    -999.2500       2.2042      16.8605
    821.9694      21.1077    -999.2500      48.8465       1.0570    -999.2500    -999.2500    -999.2500       0.3562    -999.2500       2.2027      16.9535
    822.1218      21.0540    -999.2500      48.3246       1.0587    -999.2500    -999.2500    -999.2500       0.3578    -999.2500       2.2063      17.0155
    822.2742      21.0100    -999.2500      47.9241       1.0622    -999.2500    -999.2500    -999.2500       0.3587    -999.2500       2.2148      17.0465
    822.4266      21.0005    -999.2500      47.7710       1.0647    -999.2500    -999.2500    -999.2500       0.3567    -999.2500       2.2155      17.1318
    822.5790      21.0255    -999.2500      47.8650       1.0662    -999.2500    -999.2500    -999.2500       0.3516    -999.2500       2.2085      17.2713
    822.7314      21.0095    -999.2500      48.1809       1.0687    -999.2500    -999.2500    -999.2500       0.3513    -999.2500       2.2053      17.3875
    822.8838      20.9525    -999.2500      48.7184       1.0722    -999.2500    -999.2500    -999.2500       0.3556    -999.2500       2.2058      17.4805
    823.0362      20.8765    -999.2500      49.3841       1.0765    -999.2500    -999.2500    -999.2500       0.3588    -999.2500       2.2027      17.5348
    823.1886      20.7815    -999.2500      50.1781       1.0815    -999.2500    -999.2500    -999.2500       0.3610    -999.2500       2.1962      17.5503
    823.3410      20.7072    -999.2500      50.5625       1.0860    -999.2500    -999.2500    -999.2500       0.3633    -999.2500       2.1978      17.5115
    823.4934      20.6537    -999.2500      50.5375       1.0900    -999.2500    -999.2500    -999.2500       0.3658    -999.2500       2.2073      17.4185
    823.6458      20.6127    -999.2500      50.5625       1.0905    -999.2500    -999.2500    -999.2500       0.3698    -999.2500       2.2087      17.3255
    823.7982      20.5842    -999.2500      50.6375       1.0875    -999.2500    -999.2500    -999.2500       0.3751    -999.2500       2.2022      17.2325
    823.9506      20.5415    -999.2500      50.5436       1.0890    -999.2500    -999.2500    -999.2500       0.3837    -999.2500       2.2015      17.2791
    824.1030      20.4845    -999.2500      50.2812       1.0950    -999.2500    -999.2500    -999.2500       0.3954    -999.2500       2.2065      17.4651
    824.2554      20.4560    -999.2500      49.9651       1.1037    -999.2500    -999.2500    -999.2500       0.3981    -999.2500       2.2138      17.6818
    824.4078      20.4560    -999.2500      49.5956       1.1152    -999.2500    -999.2500    -999.2500       0.3919    -999.2500       2.2233      17.9293
    824.5602      20.4370    -999.2500      49.1141       1.1237    -999.2500    -999.2500    -999.2500       0.3825    -999.2500       2.2323      17.9910
    824.7126      20.3990    -999.2500      48.5206       1.1292    -999.2500    -999.2500    -999.2500       0.3698    -999.2500       2.2408      17.8670
    824.8650      20.3485    -999.2500      48.6994       1.1283    -999.2500    -999.2500    -999.2500       0.3652    -999.2500       2.2430      17.8050
    825.0174      20.2855    -999.2500      49.6499       1.1208    -999.2500    -999.2500    -999.2500       0.3689    -999.2500       2.2390      17.8050
    825.1698      20.2540    -999.2500      49.9497       1.1170    -999.2500    -999.2500    -999.2500       0.3690    -999.2500       2.2398      17.8050
    825.3222      20.2540    -999.2500      49.5992       1.1170    -999.2500    -999.2500    -999.2500       0.3655    -999.2500       2.2453      17.8050
    825.4746      20.2635    -999.2500      49.7369       1.1105    -999.2500    -999.2500    -999.2500       0.3631    -999.2500       2.2450      17.8515
    825.6270      20.2825    -999.2500      50.3625       1.0975    -999.2500    -999.2500    -999.2500       0.3618    -999.2500       2.2390      17.9445
    825.7794      20.3648    -999.2500      50.3930       1.0830    -999.2500    -999.2500    -999.2500       0.3601    -999.2500       2.2287      18.0065
    825.9318      20.5103    -999.2500      49.8295       1.0670    -999.2500    -999.2500    -999.2500       0.3580    -999.2500       2.2142      18.0375
