#------------------------------------------------------------------------------
#
#   Created by  : [OpenWorks] Log Export Utility (LEXP)
#   Created on  : 2016-05-23 11:50:52
#   Project     : CANT971
#   User        : R5K
#   Interpreter : PEP
#
#------------------------------------------------------------------------------
~VERSION INFORMATION
VERS. 2.0 : CWLS Log ASCII Standard - version 2.0
WRAP.  NO : One line per depth step
~WELL INFORMATION
#MNEMONIC   .UNIT                                           VALUE :DESCRIPTION
#------------------------------------------------------------------------------
STRT        .M                                           540.4100 :START DEPTH
STOP        .M                                          3242.0049 :STOP DEPTH
STEP        .M                                             0.1524 :STEP
NULL        .                                           -999.2500 :NULL VALUE
COMP        .                                   PEMEX EXPL & PROD :COMPANY
WELL        .                                                1041 :WELL
FLD         .                                           CANTARELL :FIELD
LOC         .                                             UNKNOWN :LOCATION
CNTY        .                                      CD. DEL CARMEN :COUNTY
STAT        .                                            CAMPECHE :STATE
CTRY        .                                              MEXICO :COUNTRY
SRVC        .                                             UNKNOWN :SERVICE COMPANY
DATE        .                                             UNKNOWN :LOG DATE
UWI         .                                          3060000494 :UNIQUE WELL ID
XCOORD      .                                       596162.660000 :SURFACE X
YCOORD      .                                      2150607.940000 :SURFACE Y
LAT         .                                           19.448736 :LATITUDE
LON         .                                          -92.083900 :LONGITUDE
ELEV        .M                                            30.0000 :SURFACE ELEV
ELEV_TYPE   .                                                  KB :ELEV TYPE
~CURVE INFORMATION
#MNEMONIC.UNIT        API CODE       : CURVE DESCRIPTION
#------------------------------------------------------------------------------
DEPTH    .M                          : Measured Depth
CALI     .inches      UNKNOWN        : CALI:litodensidad:rC:NONE:v0 (auto-composite)
DRHO     .g/cm3      UNKNOWN        : DRHO:DRHO-Load:rC:NONE:v0 (auto-composite)
DT       .us/ft       UNKNOWN        : DT:DT:rC:NONE:v0 (auto-composite)
GR       .API         UNKNOWN        : GR:GR-Load:rC:NONE:v0 (auto-composite)
ILD      .ohmm        UNKNOWN        : ILD:ILD-Load:rC:NONE:v0 (auto-composite)
ILM      .ohmm        UNKNOWN        : ILM:ILM-Load:rC:NONE:v0 (auto-composite)
LLD      .ohmm        UNKNOWN        : LLD:LLD-Load:rC:NONE:v0 (auto-composite)
LLS      .ohmm        UNKNOWN        : LLS:LLS-Load:rC:NONE:v0 (auto-composite)
MSFL     .ohmm        UNKNOWN        : MSFL:MSFL-Load:rC:NONE:v0 (auto-composite)
NPHI     .v/v_decimal UNKNOWN        : NPHI:NPHI-Load:rC:NONE:v0 (auto-composite)
PEF      .b/elec      UNKNOWN        : PEF:PEF-Load:rC:NONE:v0 (auto-composite)
RHOB     .g/cm3       UNKNOWN        : RHOB:RHOB-Load:rC:NONE:v0 (auto-composite)
~A     DEPTH         CALI         DRHO           DT           GR          ILD          ILM          LLD          LLS         MSFL         NPHI          PEF         RHOB
# ...
   2998.3171       6.9402    -999.2500    -999.2500      16.9278    -999.2500    -999.2500     234.2377      73.0912      80.3281       0.1064    -999.2500    -999.2500
   2998.4695       6.9061    -999.2500    -999.2500      15.4185    -999.2500    -999.2500     268.4155      82.2819     126.1569       0.0984    -999.2500    -999.2500
   2998.6221       6.8014    -999.2500    -999.2500      15.4311    -999.2500    -999.2500     294.8027      89.0427      91.2482       0.0990    -999.2500    -999.2500
   2998.7744       6.7925    -999.2500    -999.2500      16.2612    -999.2500    -999.2500     315.4699      94.6757     116.8591       0.1060    -999.2500    -999.2500
   2998.9268       6.9797    -999.2500    -999.2500      18.0914    -999.2500    -999.2500     299.9929      91.7419      91.0180       0.0997    -999.2500    -999.2500
   2999.0791       7.0519    -999.2500    -999.2500      18.8015    -999.2500    -999.2500     312.7934      95.8457     142.3816       0.0851    -999.2500    -999.2500
   2999.2317       6.9823    -999.2500    -999.2500      18.4726    -999.2500    -999.2500     389.4063     117.3871     464.5618       0.0727    -999.2500    -999.2500
   2999.3840       6.8393    -999.2500    -999.2500      17.0279    -999.2500    -999.2500     452.9208     136.3811     315.4416       0.0717    -999.2500    -999.2500
   2999.5364       6.8070    -999.2500    -999.2500      16.3385    -999.2500    -999.2500     620.1588     182.8261     163.2596       0.0737    -999.2500    -999.2500
   2999.6887       6.9147    -999.2500    -999.2500      15.4339    -999.2500    -999.2500     692.4521     204.1454     539.7896       0.0773    -999.2500    -999.2500
   2999.8411       7.0125    -999.2500    -999.2500      14.0513    -999.2500    -999.2500     576.0848     170.7469     350.4698       0.0830    -999.2500    -999.2500
   2999.9937       6.9829    -999.2500    -999.2500      13.0561    -999.2500    -999.2500     502.5331     148.9300     572.7816       0.0883    -999.2500    -999.2500
   3000.1460       6.8328    -999.2500    -999.2500      13.3767    -999.2500    -999.2500     442.9099     131.9457     445.5402       0.0893    -999.2500    -999.2500
   3000.2983       6.7825    -999.2500    -999.2500      15.0624    -999.2500    -999.2500     397.3458     117.5328     331.9365       0.0903    -999.2500    -999.2500
   3000.4507       6.8751    -999.2500    -999.2500      17.2624    -999.2500    -999.2500     365.3484     107.7423     283.9506       0.0943    -999.2500    -999.2500
   3000.6033       6.9449    -999.2500    -999.2500      19.7161    -999.2500    -999.2500     309.1480      93.1476     533.5511       0.0980    -999.2500    -999.2500
   3000.7556       6.9199    -999.2500    -999.2500      21.1518    -999.2500    -999.2500     243.6233      75.9826     297.3742       0.1016    -999.2500    -999.2500
   3000.9080       6.8400    -999.2500    -999.2500      22.1814    -999.2500    -999.2500     196.6688      63.8596      86.4818       0.1063    -999.2500    -999.2500
   3001.0603       6.7696    -999.2500    -999.2500      22.0258    -999.2500    -999.2500     166.8488      56.4074     113.2052       0.1093    -999.2500    -999.2500
   3001.2129       6.8299    -999.2500    -999.2500      22.5426    -999.2500    -999.2500     153.0767      53.6660      80.8671       0.1100    -999.2500    -999.2500
   3001.3652       6.9232    -999.2500    -999.2500      22.7866    -999.2500    -999.2500     162.4881      57.8440      63.4624       0.1054    -999.2500    -999.2500
   3001.5176       6.9179    -999.2500    -999.2500      23.3180    -999.2500    -999.2500     165.3877      59.6512      56.6760       0.1023    -999.2500    -999.2500
   3001.6699       6.8377    -999.2500    -999.2500      24.7457    -999.2500    -999.2500     149.3829      54.9268      99.6812       0.1060    -999.2500    -999.2500
   3001.8223       6.7557    -999.2500    -999.2500      28.3556    -999.2500    -999.2500     132.5567      49.9567      89.2643       0.1120    -999.2500    -999.2500
   3001.9749       6.7655    -999.2500    -999.2500      32.1508    -999.2500    -999.2500     111.3868      43.2338      58.0977       0.1113    -999.2500    -999.2500
   3002.1272       6.8725    -999.2500    -999.2500      34.0029    -999.2500    -999.2500      95.5732      37.6800      34.1649       0.1093    -999.2500    -999.2500
   3002.2795       6.8864    -999.2500    -999.2500      33.5347    -999.2500    -999.2500      97.3693      37.9876      12.2056       0.1070    -999.2500    -999.2500
   3002.4319       6.8166    -999.2500    -999.2500      33.0881    -999.2500    -999.2500     101.9817      40.0695      10.7948       0.1080    -999.2500    -999.2500
   3002.5845       6.7706    -999.2500    -999.2500      33.3199    -999.2500    -999.2500     105.8747      42.4348       8.4111       0.1097    -999.2500    -999.2500
   3002.7368       6.7899    -999.2500    -999.2500      32.9785    -999.2500    -999.2500     116.4254      46.9940      37.0146       0.1113    -999.2500    -999.2500
   3002.8892       6.8850    -999.2500    -999.2500      32.6801    -999.2500    -999.2500     126.1130      51.7862      24.9411       0.1120    -999.2500    -999.2500
   3003.0415       6.9106    -999.2500    -999.2500      31.8430    -999.2500    -999.2500     134.3374      56.6518      51.0265       0.1120    -999.2500    -999.2500
   3003.1941       6.8579    -999.2500    -999.2500      30.7759    -999.2500    -999.2500     147.4705      64.0606      97.8780       0.1140    -999.2500    -999.2500
   3003.3464       6.7910    -999.2500    -999.2500      29.9849    -999.2500    -999.2500     159.9025      70.9649      68.5254       0.1177    -999.2500    -999.2500
   3003.4988       6.7101    -999.2500    -999.2500      32.5192    -999.2500    -999.2500     169.0531      75.8889      48.3969       0.1223    -999.2500    -999.2500
   3003.6511       6.7358    -999.2500    -999.2500      36.3136    -999.2500    -999.2500     173.2543      78.0610      77.0487       0.1266    -999.2500    -999.2500
   3003.8035       6.8628    -999.2500    -999.2500      38.5687    -999.2500    -999.2500     168.0109      75.3575      69.6384       0.1313    -999.2500    -999.2500
   3003.9561       6.9199    -999.2500    -999.2500      40.1647    -999.2500    -999.2500     136.1671      61.6556      78.1485       0.1370    -999.2500    -999.2500
   3004.1084       6.8954    -999.2500    -999.2500      41.6614    -999.2500    -999.2500     115.6387      52.6097      49.8895       0.1357    -999.2500    -999.2500
   3004.2607       6.7593    -999.2500    -999.2500      43.1029    -999.2500    -999.2500     118.1663      52.2467      41.6795       0.1274    -999.2500    -999.2500
   3004.4131       6.6908    -999.2500    -999.2500      42.9146    -999.2500    -999.2500     129.3227      56.0122      85.0342       0.1174    -999.2500    -999.2500
   3004.5657       6.7208    -999.2500    -999.2500      42.9773    -999.2500    -999.2500     142.9583      62.8359      84.2134       0.1087    -999.2500    -999.2500
   3004.7180       6.8157    -999.2500    -999.2500      44.4434    -999.2500    -999.2500     164.0234      76.8055      51.0946       0.1047    -999.2500    -999.2500
   3004.8704       6.8652    -999.2500    -999.2500      44.1562    -999.2500    -999.2500     170.8377      84.2815      52.7456       0.0994    -999.2500    -999.2500
   3005.0227       6.7845    -999.2500    -999.2500      41.5056    -999.2500    -999.2500     183.8568      92.3382      47.1080       0.0957    -999.2500    -999.2500
   3005.1753       6.7033    -999.2500    -999.2500      36.5514    -999.2500    -999.2500     264.6660     133.4356     118.7355       0.0917    -999.2500    -999.2500
   3005.3276       6.7457    -999.2500    -999.2500      32.3042    -999.2500    -999.2500     282.6895     146.0521     222.1415       0.0880    -999.2500    -999.2500
   3005.4800       6.8294    -999.2500    -999.2500      32.0397    -999.2500    -999.2500     253.7922     134.8598      99.8950       0.0863    -999.2500    -999.2500
