#------------------------------------------------------------------------------
#
#   Created by  : [OpenWorks] Log Export Utility (LEXP)
#   Created on  : 2016-05-23 11:55:51
#   Project     : CANT971
#   User        : R5K
#   Interpreter : PEP
#
#------------------------------------------------------------------------------
~VERSION INFORMATION
VERS. 2.0 : CWLS Log ASCII Standard - version 2.0
WRAP.  NO : One line per depth step
~WELL INFORMATION
#MNEMONIC   .UNIT                                           VALUE :DESCRIPTION
#------------------------------------------------------------------------------
STRT        .M                                           490.1183 :START DEPTH
STOP        .M                                          2794.5586 :STOP DEPTH
STEP        .M                                             0.1524 :STEP
NULL        .                                           -999.2500 :NULL VALUE
COMP        .                                   PEMEX EXPL & PROD :COMPANY
WELL        .                                                  41 :WELL
FLD         .                                           CANTARELL :FIELD
LOC         .                                             UNKNOWN :LOCATION
CNTY        .                                      CD. DEL CARMEN :COUNTY
STAT        .                                            CAMPECHE :STATE
CTRY        .                                              MEXICO :COUNTRY
SRVC        .                                             UNKNOWN :SERVICE COMPANY
DATE        .                                             UNKNOWN :LOG DATE
UWI         .                                          3060000463 :UNIQUE WELL ID
XCOORD      .                                       601713.000000 :SURFACE X
YCOORD      .                                      2142348.040000 :SURFACE Y
LAT         .                                           19.373822 :LATITUDE
LON         .                                          -92.031472 :LONGITUDE
ELEV        .M                                            24.0000 :SURFACE ELEV
ELEV_TYPE   .                                                  KB :ELEV TYPE
~CURVE INFORMATION
#MNEMONIC.UNIT        API CODE       : CURVE DESCRIPTION
#------------------------------------------------------------------------------
DEPTH    .M                          : Measured Depth
CALI     .inches      UNKNOWN        : CALI:Import:rC:NONE:v0 (auto-composite)
DRHO     .g/cm3       UNKNOWN        : DRHO:Import:rC:NONE:v0 (auto-composite)
DT       .us/ft       UNKNOWN        : DT:Import:rC:NONE:v0 (auto-composite)
GR       .API         UNKNOWN        : GR:Import:rC:NONE:v0 (auto-composite)
ILD      .ohm.m       UNKNOWN        : ILD:Import:rC:NONE:v0 (auto-composite)
LLD      .ohm.m       UNKNOWN        : LLD:Import:rC:NONE:v0 (auto-composite)
LLS      .ohm.m       UNKNOWN        : LLS:Import:rC:NONE:v0 (auto-composite)
NPHI     .v/v_decimal UNKNOWN        : NPHI:Import:rC:NONE:v0 (auto-composite)
PEF      .b/elec      UNKNOWN        : PEF:Import:rC:NONE:v0 (auto-composite)
RHOB     .g/cm3       UNKNOWN        : RHOB:Import:rC:NONE:v0 (auto-composite)
~A     DEPTH         CALI         DRHO           DT           GR          ILD          LLD          LLS         NPHI          PEF         RHOB
# ...
   2325.0144       8.4290       0.0300    -999.2500      27.7780    -999.2500       4.4790       4.5870       0.4300       3.1710       1.9670
   2325.1667       8.3060       0.0390    -999.2500      27.7780    -999.2500       8.8950       6.2331       0.4317       3.2120       1.9955
   2325.3191       8.1830       0.0480    -999.2500      27.7780    -999.2500      13.3130       7.8800       0.4088       3.2530       2.0240
   2325.4714       8.1910       0.0575    -999.2500      27.8520    -999.2500      28.4081      14.1642       0.3562       3.3190       2.1581
   2325.6238       8.1990       0.0670    -999.2500      27.9260    -999.2500      43.5120      20.4520       0.2797       3.3850       2.2920
   2325.7764       8.2440       0.0670    -999.2500      28.5373    -999.2500      76.2837      32.7722       0.1786       3.3735       2.5026
   2325.9287       8.2890       0.0670    -999.2500      29.1480    -999.2500     109.0260      45.1010       0.0950       3.3620       2.7130
   2326.0811       8.3155       0.0685    -999.2500      30.5816    -999.2500     161.0461      68.3054       0.0755       3.3040       2.7005
   2326.2334       8.3420       0.0700    -999.2500      32.0140    -999.2500     213.0260      91.5290       0.0821       3.2460       2.6880
   2326.3860       8.3760       0.0795    -999.2500      33.3459    -999.2500     261.2356     128.0371       0.0839       3.2215       2.6890
   2326.5383       8.4100       0.0890    -999.2500      34.6770    -999.2500     309.4140     164.5800       0.0828       3.1970       2.6900
   2326.6907       8.4650       0.0920    -999.2500      34.5205    -999.2500     337.2958     224.9484       0.0800       3.0585       2.7070
   2326.8430       8.5200       0.0950    -999.2500      34.3640    -999.2500     365.1630     285.3820       0.0774       2.9200       2.7240
   2326.9956       8.5380       0.1040    -999.2500      33.4763    -999.2500     358.4992     284.7959       0.0770       2.9300       2.7235
   2327.1479       8.5560       0.1130    -999.2500      32.5890    -999.2500     351.8380     284.2100       0.0782       2.9400       2.7230
   2327.3003       8.5560       0.1115    -999.2500      32.6626    -999.2500     290.1401     275.7373       0.0808       3.0195       2.7065
   2327.4526       8.5560       0.1100    -999.2500      32.7360    -999.2500     228.4590     267.2670       0.0842       3.0990       2.6900
   2327.6050       8.5560       0.1030    -999.2500      31.2582    -999.2500     229.0360     240.4905       0.0877       3.3585       2.6900
   2327.7576       8.5560       0.0960    -999.2500      29.7830    -999.2500     229.6130     213.7180       0.0911       3.6180       2.6900
   2327.9099       8.5560       0.0860    -999.2500      30.1463    -999.2500     227.1240     201.6339       0.0939       3.6145       2.6980
   2328.0623       8.5560       0.0760    -999.2500      30.5090    -999.2500     224.6350     189.5500       0.0958       3.6110       2.7060
   2328.2146       8.5560       0.0695    -999.2500      33.0929    -999.2500     209.2278     186.5727       0.0961       3.5760       2.7040
   2328.3672       8.5560       0.0630    -999.2500      35.6730    -999.2500     193.8190     183.5950       0.0955       3.5410       2.7020
   2328.5195       8.5560       0.0585    -999.2500      41.3974    -999.2500     172.3085     172.5988       0.0941       3.3705       2.7030
   2328.6719       8.5560       0.0540    -999.2500      47.1140    -999.2500     150.7930     161.6000       0.0924       3.2000       2.7040
   2328.8242       8.5560       0.0540    -999.2500      46.6637    -999.2500     135.1083     147.4185       0.0906       3.2090       2.7035
   2328.9768       8.5560       0.0540    -999.2500      46.2140    -999.2500     119.4180     133.2320       0.0894       3.2180       2.7030
   2329.1292       8.5560       0.0620    -999.2500      41.6800    -999.2500     104.0292     119.6623       0.0897       3.2095       2.6970
   2329.2815       8.5560       0.0700    -999.2500      37.1510    -999.2500      88.6330     106.0860       0.0920       3.2010       2.6910
   2329.4338       8.5560       0.0690    -999.2500      37.5457    -999.2500      75.8224      93.2404       0.0972       3.1360       2.6715
   2329.5862       8.5560       0.0680    -999.2500      37.9400    -999.2500      63.0040      80.3870       0.1055       3.0710       2.6520
   2329.7388       8.5560       0.0605    -999.2500      43.1893    -999.2500      63.4822      69.4840       0.1184       2.8139       2.6340
   2329.8911       8.5560       0.0530    -999.2500      48.4340    -999.2500      63.9600      58.5730       0.1295       2.5570       2.6160
   2330.0435       8.5560       0.0430    -999.2500      48.1864    -999.2500      66.6025      58.5730       0.1319       2.5625       2.6205
   2330.1958       8.5560       0.0330    -999.2500      47.9390    -999.2500      69.2430      58.5730       0.1290       2.5680       2.6250
   2330.3484       8.5560       0.0260    -999.2500      46.4235    -999.2500      72.1884      58.7479       0.1226       2.6250       2.6490
   2330.5007       8.5560       0.0190    -999.2500      44.9090    -999.2500      75.1320      58.9230       0.1139       2.6820       2.6730
   2330.6531       8.5560       0.0150    -999.2500      42.9805    -999.2500      81.6681      60.0919       0.1034       2.8510       2.7005
   2330.8054       8.5560       0.0110    -999.2500      41.0530    -999.2500      88.2010      61.2620       0.0930       3.0200       2.7280
   2330.9580       8.5560       0.0110    -999.2500      40.4834    -999.2500      87.8724      64.4436       0.0847       3.1190       2.7275
   2331.1104       8.5560       0.0110    -999.2500      39.9140    -999.2500      87.5440      67.6240       0.0775       3.2180       2.7270
   2331.2627       8.5560       0.0145    -999.2500      37.4983    -999.2500      85.2682      67.0369       0.0711       3.4135       2.7225
   2331.4150       8.5560       0.0180    -999.2500      35.0870    -999.2500      82.9930      66.4500       0.0667       3.6090       2.7180
   2331.5674       8.5560       0.0170    -999.2500      27.0246    -999.2500      78.5742      63.4403       0.0664       3.6075       2.7040
   2331.7200       8.5560       0.0160    -999.2500      18.9760    -999.2500      74.1560      60.4310       0.0703       3.6060       2.6900
   2331.8723       8.5560       0.0165    -999.2500      19.8752    -999.2500      75.0795      60.9835       0.0806       3.6090       2.6905
   2332.0247       8.5560       0.0170    -999.2500      20.7730    -999.2500      76.0030      61.5360       0.0906       3.6120       2.6910
   2332.1770       8.5560       0.0245    -999.2500      30.8134    -999.2500      82.5531      66.2682       0.0933       3.6400       2.6965
   2332.3296       8.5560       0.0320    -999.2500      40.8390    -999.2500      89.1040      71.0010       0.0913       3.6680       2.7020
   2332.4819       8.5560       0.0540    -999.2500      39.8694    -999.2500      88.8145      70.6320       0.0851       3.7555       2.7175
   2332.6343       8.5560       0.0760    -999.2500      38.9010    -999.2500      88.5250      70.2630       0.0791       3.8430       2.7330
   2332.7866       8.5560       0.0830    -999.2500      39.6364    -999.2500      84.9857      67.1406       0.0776       3.9625       2.7325
   2332.9390       8.5560       0.0900    -999.2500      40.3710    -999.2500      81.4450      64.0170       0.0786       4.0820       2.7320
   2333.0916       8.5560       0.0950    -999.2500      51.5416    -999.2500      70.6203      56.8398       0.0812       4.2065       2.7255
   2333.2439       8.5560       0.1000    -999.2500      62.7000    -999.2500      59.7900      49.6590       0.0857       4.3310       2.7190
   2333.3962       8.5560       0.0980    -999.2500      61.7986    -999.2500      50.6229      42.3543       0.0934       4.3285       2.6930
