#------------------------------------------------------------------------------
#
#   Created by  : [OpenWorks] Log Export Utility (LEXP)
#   Created on  : 2016-05-23 11:52:25
#   Project     : CANT971
#   User        : R5K
#   Interpreter : PEP
#
#------------------------------------------------------------------------------
~VERSION INFORMATION
VERS. 2.0 : CWLS Log ASCII Standard - version 2.0
WRAP.  NO : One line per depth step
~WELL INFORMATION
#MNEMONIC   .UNIT                                           VALUE :DESCRIPTION
#------------------------------------------------------------------------------
STRT        .M                                           940.1293 :START DEPTH
STOP        .M                                          2672.0029 :STOP DEPTH
STEP        .M                                             0.1524 :STEP
NULL        .                                           -999.2500 :NULL VALUE
COMP        .                                   PEMEX EXPL & PROD :COMPANY
WELL        .                                               2071D :WELL
FLD         .                                           CANTARELL :FIELD
LOC         .                                             UNKNOWN :LOCATION
CNTY        .                                      CD. DEL CARMEN :COUNTY
STAT        .                                            CAMPECHE :STATE
CTRY        .                                              MEXICO :COUNTRY
SRVC        .                                             UNKNOWN :SERVICE COMPANY
DATE        .                                             UNKNOWN :LOG DATE
UWI         .                                          3060000679 :UNIQUE WELL ID
XCOORD      .                                       601713.940000 :SURFACE X
YCOORD      .                                      2142372.000000 :SURFACE Y
LAT         .                                           19.374038 :LATITUDE
LON         .                                          -92.031462 :LONGITUDE
ELEV        .M                                            30.0000 :SURFACE ELEV
ELEV_TYPEF  .b/elec                                            KB :ELEV TYPE
~CURVE INFORMATION
#MNEMONIC.UNIT        API CODE       : CURVE DESCRIPTION
#------------------------------------------------------------------------------
DEPTH    .M                          : Measured Depth
CALI     .in          UNKNOWN        : CALI:UNKNOWN:rC:NONE:v0 (auto-composite)
DRHO     .g/cm3       UNKNOWN        : DRHO:UNKNOWN:rC:NONE:v0 (auto-composite)
DT       .us/ft       UNKNOWN        : DT:DT:rC:NONE:v0 (auto-composite)
GR       .API         UNKNOWN        : GR:UNKNOWN:rC:NONE:v0 (auto-composite)
ILD      .ohmm        UNKNOWN        : ILD:UNKNOWN:rC:NONE:v0 (auto-composite)
ILM      .ohmm        UNKNOWN        : ILM:UNKNOWN:rC:NONE:v0 (auto-composite)
LLD      .ohmm        UNKNOWN        : LLD:UNKNOWN:rC:NONE:v0 (auto-composite)
LLS      .ohmm        UNKNOWN        : LLS:UNKNOWN:rC:NONE:v0 (auto-composite)
MSFL     .ohmm        UNKNOWN        : MSFL:UNKNOWN:rC:NONE:v0 (auto-composite)
NPHI     .v/v_decimal UNKNOWN        : NPHI:UNKNOWN:rC:NONE:v0 (auto-composite)
PEF      .b/elec      UNKNOWN        : PEF:UNKNOWN:rC:NONE:v0 (auto-composite)
RHOB     .g/cm3       UNKNOWN        : RHOB:UNKNOWN:rC:NONE:v0 (auto-composite)
~A     DEPTH         CALI         DRHO           DT           GR          ILD          ILM          LLD          LLS         MSFL         NPHI          PEF         RHOB
# ...
   2629.9404       9.0380       0.2877    -999.2500      29.8569    -999.2500    -999.2500    3467.1912    1264.3370    1209.7852       0.0760       3.1081       2.3567
   2630.0930       9.0344       0.2918    -999.2500      31.2723    -999.2500    -999.2500    2539.6067     958.2208     243.3787       0.0736       3.0946       2.3437
   2630.2454       9.0264       0.3003    -999.2500      34.2410    -999.2500    -999.2500    2045.2677     811.5291     194.4474       0.0682       3.1056       2.3307
   2630.3977       9.0169       0.3080    -999.2500      37.4000    -999.2500    -999.2500    1600.5601     677.3960     225.1675       0.0621       3.1239       2.3364
   2630.5500       9.0044       0.3140    -999.2500      40.9506    -999.2500    -999.2500    1258.0044     569.1110     419.8270       0.0543       3.1574       2.3803
   2630.7026       8.9950       0.3131    -999.2500      43.8242    -999.2500    -999.2500     981.7924     487.6221     525.8676       0.0480       3.1862       2.4170
   2630.8550       8.9920       0.2981    -999.2500      45.2886    -999.2500    -999.2500     843.6711     461.9077     447.4530       0.0450       3.2052       2.4385
   2631.0073       8.9918       0.2901    -999.2500      46.1729    -999.2500    -999.2500     730.2964     458.9077     414.4639       0.0428       3.2159       2.4429
   2631.1597       8.9973       0.2966    -999.2500      45.8450    -999.2500    -999.2500     668.6340     503.3735     476.3991       0.0421       3.2094       2.4119
   2631.3120       8.9994       0.3028    -999.2500      45.7622    -999.2500    -999.2500     581.4783     514.1586     530.1688       0.0436       3.2116       2.4019
   2631.4646       8.9944       0.3083    -999.2500      46.1790    -999.2500    -999.2500     442.3769     456.3145     567.3003       0.0499       3.2316       2.4348
   2631.6169       8.9928       0.3095    -999.2500      48.3269    -999.2500    -999.2500     304.2873     366.2290     532.7289       0.0573       3.2529       2.4481
   2631.7693       8.9983       0.3020    -999.2500      54.0159    -999.2500    -999.2500     168.2675     210.1894     351.4804       0.0673       3.2768       2.4212
   2631.9216       9.0000       0.3001    -999.2500      60.6122    -999.2500    -999.2500      68.7528      93.4452     196.1961       0.0805       3.3165       2.3978
   2632.0742       8.9940       0.3096    -999.2500      69.0856    -999.2500    -999.2500      44.7552      57.9906      94.6235       0.1005       3.3884       2.3818
   2632.2266       8.9918       0.3175    -999.2500      73.8859    -999.2500    -999.2500      29.5071      33.3937      24.2501       0.1166       3.4464       2.3775
   2632.3789       8.9973       0.3220    -999.2500      71.0582    -999.2500    -999.2500      32.4303      31.3465      18.6720       0.1245       3.4754       2.3975
   2632.5312       8.9994       0.3234    -999.2500      65.8060    -999.2500    -999.2500      44.2099      44.9105     167.6375       0.1174       3.4579       2.4105
   2632.6838       8.9944       0.3184    -999.2500      55.4989    -999.2500    -999.2500      74.4553      91.0238     638.8307       0.0792       3.3436       2.4090
   2632.8362       8.9935       0.3178    -999.2500      46.4765    -999.2500    -999.2500     176.7524     225.4156     828.7786       0.0514       3.2594       2.4148
   2632.9885       9.0010       0.3263    -999.2500      40.0659    -999.2500    -999.2500     425.5417     539.2906     446.9128       0.0452       3.2365       2.4352
   2633.1409       9.0031       0.3295    -999.2500      38.0254    -999.2500    -999.2500    1085.0038    1001.6061     278.7424       0.0424       3.2339       2.4449
   2633.2932       8.9941       0.3221    -999.2500      44.9699    -999.2500    -999.2500    2588.8108    1769.1155     549.9302       0.0467       3.2734       2.4324
   2633.4458       8.9919       0.3165    -999.2500      50.5490    -999.2500    -999.2500    3493.0996    2174.1885     742.3738       0.0491       3.2904       2.4185
   2633.5981       9.0039       0.3150    -999.2500      53.3098    -999.2500    -999.2500    3159.9275    1831.1586     772.2819       0.0475       3.2609       2.4015
   2633.7505       9.0087       0.3130    -999.2500      53.6852    -999.2500    -999.2500    2887.1460    1554.9772     793.5533       0.0452       3.2334       2.3959
   2633.9028       8.9988       0.3100    -999.2500      49.1173    -999.2500    -999.2500    2739.5076    1417.3203     796.9277       0.0413       3.2099       2.4138
   2634.0554       8.9862       0.3074    -999.2500      45.9419    -999.2500    -999.2500    2707.7649    1358.1613     743.9522       0.0403       3.2008       2.4236
   2634.2078       8.9681       0.3053    -999.2500      45.6847    -999.2500    -999.2500    2918.9016    1463.5077     572.8860       0.0452       3.2219       2.4160
   2634.3601       8.9575       0.3084    -999.2500      45.4583    -999.2500    -999.2500    3139.9780    1576.5999     478.6776       0.0493       3.2291       2.4156
   2634.5125       8.9620       0.3219    -999.2500      45.2949    -999.2500    -999.2500    3381.3652    1705.5198     541.5234       0.0520       3.2081       2.4296
   2634.6650       8.9496       0.3254    -999.2500      44.8137    -999.2500    -999.2500    3488.0994    1767.6261     545.0359       0.0526       3.1852       2.4403
   2634.8174       8.9026       0.3084    -999.2500      43.6807    -999.2500    -999.2500    3318.5974    1692.6669     426.8279       0.0492       3.1582       2.4443
   2634.9697       8.8575       0.2941    -999.2500      42.6722    -999.2500    -999.2500    3081.3826    1579.2729     335.3262       0.0466       3.1462       2.4393
   2635.1221       8.8160       0.2851    -999.2500      41.9201    -999.2500    -999.2500    2704.7104    1386.7213     298.8267       0.0457       3.1652       2.4159
   2635.2744       8.7812       0.2816    -999.2500      41.1106    -999.2500    -999.2500    2375.3379    1222.6604     247.2935       0.0460       3.1754       2.4023
   2635.4270       8.7602       0.2896    -999.2500      40.1815    -999.2500    -999.2500    2144.4800    1117.9397     164.4483       0.0486       3.1674       2.4093
   2635.5793       8.7314       0.2921    -999.2500      39.3451    -999.2500    -999.2500    1978.6000    1059.6295     111.6253       0.0512       3.1571       2.4013
   2635.7317       8.6863       0.2831    -999.2500      38.7023    -999.2500    -999.2500    1948.5892    1098.3644     121.5794       0.0539       3.1421       2.3622
   2635.8840       8.6539       0.2813    -999.2500      38.6749    -999.2500    -999.2500    2015.1647    1172.0745     117.7809       0.0572       3.1402       2.3432
   2636.0366       8.6474       0.2943    -999.2500      39.9024    -999.2500    -999.2500    2278.6729    1317.0968      85.9417       0.0617       3.1652       2.3652
   2636.1890       8.6435       0.3048    -999.2500      40.4022    -999.2500    -999.2500    2542.8228    1475.6896      61.0774       0.0644       3.1735       2.3846
   2636.3413       8.6450       0.3103    -999.2500      39.4124    -999.2500    -999.2500    2808.2859    1662.0603      50.4904       0.0635       3.1475       2.3986
   2636.4937       8.6493       0.3101    -999.2500      37.7684    -999.2500    -999.2500    2842.5991    1708.0011      50.1030       0.0658       3.1223       2.4018
   2636.6462       8.6593       0.2981    -999.2500      34.7702    -999.2500    -999.2500    2398.4314    1463.2518      70.8285       0.0748       3.0989       2.3828
   2636.7986       8.6191       0.2877    -999.2500      32.5849    -999.2500    -999.2500    1992.2302    1240.7830      74.9697       0.0889       3.1017       2.3728
   2636.9509       8.4746       0.2807    -999.2500      32.0891    -999.2500    -999.2500    1664.9296    1064.6166      44.6458       0.1138       3.1591       2.3813
   2637.1033       8.3455       0.2804    -999.2500      33.3392    -999.2500    -999.2500    1431.1022     957.9073      24.6878       0.1258       3.2014       2.3898
