#------------------------------------------------------------------------------
#
#   Created by  : [OpenWorks] Log Export Utility (LEXP)
#   Created on  : 2016-05-23 11:52:25
#   Project     : CANT971
#   User        : R5K
#   Interpreter : PEP
#
#------------------------------------------------------------------------------
~VERSION INFORMATION
VERS. 2.0 : CWLS Log ASCII Standard - version 2.0
WRAP.  NO : One line per depth step
~WELL INFORMATION
#MNEMONIC   .UNIT                                           VALUE :DESCRIPTION
#------------------------------------------------------------------------------
STRT        .M                                           940.1293 :START DEPTH
STOP        .M                                          2672.0029 :STOP DEPTH
STEP        .M                                             0.1524 :STEP
NULL        .                                           -999.2500 :NULL VALUE
COMP        .                                   PEMEX EXPL & PROD :COMPANY
WELL        .                                               2071D :WELL
FLD         .                                           CANTARELL :FIELD
LOC         .                                             UNKNOWN :LOCATION
CNTY        .                                      CD. DEL CARMEN :COUNTY
STAT        .                                            CAMPECHE :STATE
CTRY        .                                              MEXICO :COUNTRY
SRVC        .                                             UNKNOWN :SERVICE COMPANY
DATE        .                                             UNKNOWN :LOG DATE
UWI         .                                          3060000679 :UNIQUE WELL ID
XCOORD      .                                       601713.940000 :SURFACE X
YCOORD      .                                      2142372.000000 :SURFACE Y
LAT         .                                           19.374038 :LATITUDE
LON         .                                          -92.031462 :LONGITUDE
ELEV        .M                                            30.0000 :SURFACE ELEV
ELEV_TYPEF  .b/elec                                            KB :ELEV TYPE
~CURVE INFORMATION
#MNEMONIC.UNIT        API CODE       : CURVE DESCRIPTION
#------------------------------------------------------------------------------
DEPTH    .M                          : Measured Depth
CALI     .in          UNKNOWN        : CALI:UNKNOWN:rC:NONE:v0 (auto-composite)
DRHO     .g/cm3       UNKNOWN        : DRHO:UNKNOWN:rC:NONE:v0 (auto-composite)
DT       .us/ft       UNKNOWN        : DT:DT:rC:NONE:v0 (auto-composite)
GR       .API         UNKNOWN        : GR:UNKNOWN:rC:NONE:v0 (auto-composite)
ILD      .ohmm        UNKNOWN        : ILD:UNKNOWN:rC:NONE:v0 (auto-composite)
ILM      .ohmm        UNKNOWN        : ILM:UNKNOWN:rC:NONE:v0 (auto-composite)
LLD      .ohmm        UNKNOWN        : LLD:UNKNOWN:rC:NONE:v0 (auto-composite)
LLS      .ohmm        UNKNOWN        : LLS:UNKNOWN:rC:NONE:v0 (auto-composite)
MSFL     .ohmm        UNKNOWN        : MSFL:UNKNOWN:rC:NONE:v0 (auto-composite)
NPHI     .v/v_decimal UNKNOWN        : NPHI:UNKNOWN:rC:NONE:v0 (auto-composite)
PEF      .b/elec      UNKNOWN        : PEF:UNKNOWN:rC:NONE:v0 (auto-composite)
RHOB     .g/cm3       UNKNOWN        : RHOB:UNKNOWN:rC:NONE:v0 (auto-composite)
~A     DEPTH         CALI         DRHO           DT           GR          ILD          ILM          LLD          LLS         MSFL         NPHI          PEF         RHOB
# ...
   2132.5068      17.8978       0.0780      68.6333      54.3288    -999.2500    -999.2500      37.1576      29.8019      42.8391       0.1404       3.2894       2.4930
   2132.6594      18.1440       0.0630      66.8320      52.1360    -999.2500    -999.2500      37.6750      29.6160      20.2670       0.1383       3.2450       2.4870
   2132.8118      17.5737       0.0550      68.3017      51.0760    -999.2500    -999.2500      38.1086      29.6896      11.9531       0.1447       3.2856       2.4665
   2132.9641      17.0050       0.0470      69.7720      50.0190    -999.2500    -999.2500      38.5410      29.7630       3.6620       0.1510       3.3260       2.4460
   2133.1165      16.8800       0.0685      71.4850      51.2052    -999.2500    -999.2500      39.3523      30.0399       6.7961       0.1673       3.4610       2.4390
   2133.2690      16.7550       0.0900      73.1990      52.3920    -999.2500    -999.2500      40.1640      30.3170       9.9320       0.1836       3.5960       2.4320
   2133.4214      16.7194       0.0980      73.3504      53.4727    -999.2500    -999.2500      42.0218      31.4198       6.5676       0.1790       3.6366       2.4485
   2133.5737      16.6840       0.1060      73.5020      54.5490    -999.2500    -999.2500      43.8720      32.5180       3.2170       0.1743       3.6770       2.4650
   2133.7261      16.7277       0.0955      72.0309      53.1338    -999.2500    -999.2500      45.8411      33.9779       4.0376       0.1644       3.5690       2.4776
   2133.8784      16.7710       0.0850      70.5610      51.7310    -999.2500    -999.2500      47.7930      35.4250       4.8510       0.1545       3.4620       2.4900
   2134.0310      16.7364       0.0935      69.8383      52.8029    -999.2500    -999.2500      48.0963      35.8045       2.6590       0.1512       3.3627       2.4990
   2134.1833      16.7020       0.1020      69.1160      53.8690    -999.2500    -999.2500      48.3980      36.1820       0.4790       0.1478       3.2640       2.5080
   2134.3357      16.4863       0.1080      69.5546      54.8405    -999.2500    -999.2500      47.2923      34.8501       0.6337       0.1452       3.3131       2.4925
   2134.4880      16.2710       0.1140      69.9930      55.8100    -999.2500    -999.2500      46.1890      33.5210       0.7880       0.1425       3.3620       2.4770
   2134.6406      16.3745       0.1165      70.8147      54.6533    -999.2500    -999.2500      47.1252      34.5467       0.6235       0.1486       3.3890       2.4810
   2134.7930      16.4780       0.1190      71.6360      53.4970    -999.2500    -999.2500      48.0610      35.5720       0.4590       0.1547       3.4160       2.4850
   2134.9453      16.5559       0.0870      72.0281      54.3724    -999.2500    -999.2500      47.4664      35.2542       0.9862       0.1457       3.3361       2.4635
   2135.0977      16.6340       0.0550      72.4200      55.2490    -999.2500    -999.2500      46.8710      34.9360       1.5140       0.1368       3.2560       2.4420
   2135.2502      17.1475       0.0465      71.4834      54.9883    -999.2500    -999.2500      45.3096      33.3676       1.0341       0.1275       3.1899       2.4440
   2135.4026      17.6600       0.0380      70.5470      54.7280    -999.2500    -999.2500      43.7510      31.8020       0.5550       0.1183       3.1240       2.4460
   2135.5549      17.4500       0.0435      68.8310      53.2555    -999.2500    -999.2500      45.2551      32.8686       0.9555       0.1143       3.1430       2.4706
   2135.7073      17.2410       0.0490      67.1150      51.7900    -999.2500    -999.2500      46.7520      33.9300       1.3540       0.1103       3.1620       2.4950
   2135.8596      16.4057       0.0605      67.0510      52.1926    -999.2500    -999.2500      50.8058      36.9502       8.0809       0.1085       3.2086       2.5260
   2136.0122      15.5730       0.0720      66.9870      52.5940    -999.2500    -999.2500      54.8470      39.9610      14.7870       0.1068       3.2550       2.5570
   2136.1646      15.8852       0.0685      66.4521      52.3929    -999.2500    -999.2500      56.9364      41.2369      10.7858       0.1029       3.2455       2.5725
   2136.3169      16.1970       0.0650      65.9170      52.1920    -999.2500    -999.2500      59.0230      42.5110       6.7900       0.0991       3.2360       2.5880
   2136.4692      17.3758       0.0675      65.1516      53.2170    -999.2500    -999.2500      58.1189      41.2467       3.9283       0.0917       3.2000       2.6040
   2136.6218      18.5570       0.0700      64.3860      54.2440    -999.2500    -999.2500      57.2130      39.9800       1.0610       0.0843       3.1640       2.6200
   2136.7742      18.3156       0.0885      64.9974      56.3908    -999.2500    -999.2500      55.7524      38.4211      18.4180       0.0820       3.2313       2.6255
   2136.9265      18.0730       0.1070      65.6090      58.5490    -999.2500    -999.2500      54.2840      36.8540      35.8670       0.0796       3.2990       2.6310
   2137.0789      18.2789       0.1520      70.5460      59.9731    -999.2500    -999.2500      55.6181      37.6932      21.2319       0.0967       3.4155       2.5965
   2137.2314      18.4850       0.1970      75.4860      61.3980    -999.2500    -999.2500      56.9530      38.5330       6.5880       0.1139       3.5320       2.5620
   2137.3838      18.0491       0.2115      71.9468      60.3454    -999.2500    -999.2500      57.9345      38.9564       3.6185       0.1196       3.6427       2.5395
   2137.5361      17.6150       0.2260      68.4050      59.2970    -999.2500    -999.2500      58.9120      39.3780       0.6610       0.1252       3.7530       2.5170
   2137.6885      17.2604       0.2130      66.5148      58.6748    -999.2500    -999.2500      57.9451      39.1104       5.2137       0.1203       3.7780       2.5575
   2137.8408      16.9060       0.2000      64.6260      58.0530    -999.2500    -999.2500      56.9790      38.8430       9.7630       0.1154       3.8030       2.5980
   2137.9934      16.8146       0.1630      66.2480      56.8191    -999.2500    -999.2500      55.7431      37.5756       6.9941       0.1146       3.6916       2.6225
   2138.1458      16.7230       0.1260      67.8690      55.5820    -999.2500    -999.2500      54.5040      36.3050       4.2180       0.1137       3.5800       2.6470
   2138.2981      16.0688       0.1435      66.5772      54.3692    -999.2500    -999.2500      53.6221      35.0892       2.3911       0.1222       3.5324       2.6280
   2138.4504      15.4160       0.1610      65.2860      53.1590    -999.2500    -999.2500      52.7420      33.8760       0.5680       0.1306       3.4850       2.6090
   2138.6030      15.3076       0.1961      66.0932      52.7035    -999.2500    -999.2500      53.1042      33.6979       0.7722       0.1290       3.6295       2.5945
   2138.7554      15.2000       0.2310      66.9000      52.2510    -999.2500    -999.2500      53.4640      33.5210       0.9750       0.1274       3.7730       2.5800
   2138.9077      15.6052       0.2400      67.3761      53.4080    -999.2500    -999.2500      53.9999      33.5941       1.9036       0.1341       3.8667       2.5680
   2139.0601      16.0090       0.2490      67.8520      54.5610    -999.2500    -999.2500      54.5340      33.6670       2.8290       0.1408       3.9600       2.5560
   2139.2126      15.7550       0.2635      67.4170      54.2465    -999.2500    -999.2500      54.5890      33.3925       3.1220       0.1347       4.0185       2.5705
   2139.3650      15.5010       0.2780      66.9820      53.9320    -999.2500    -999.2500      54.6440      33.1180       3.4150       0.1286       4.0770       2.5850
   2139.5173      16.1909       0.2785      68.0515      52.5921    -999.2500    -999.2500      55.2325      33.3658       2.5877       0.1272       3.9796       2.5290
   2139.6697      16.8820       0.2790      69.1210      51.2500    -999.2500    -999.2500      55.8220      33.6140       1.7590       0.1257       3.8820       2.4730
