#------------------------------------------------------------------------------
#
#   Created by  : [OpenWorks] Log Export Utility (LEXP)
#   Created on  : 2016-05-11 12:45:43
#   Project     : CANT971
#   User        : R5K
#   Interpreter : PEP
#
#------------------------------------------------------------------------------
~VERSION INFORMATION
VERS. 2.0 : CWLS Log ASCII Standard - version 2.0
WRAP.  NO : One line per depth step
~WELL INFORMATION
#MNEMONIC   .UNIT                                           VALUE :DESCRIPTION
#------------------------------------------------------------------------------
STRT        .M                                            80.3144 :START DEPTH
STOP        .M                                          1350.4160 :STOP DEPTH
STEP        .M                                             0.1524 :STEP
NULL        .                                           -999.2500 :NULL VALUE
COMP        .                                   PEMEX EXPL & PROD :COMPANY
WELL        .                                         CANTARELL-3 :WELL
FLD         .                                           CANTARELL :FIELD
LOC         .                                             UNKNOWN :LOCATION
CNTY        .                                      CD. DEL CARMEN :COUNTY
STAT        .                                            CAMPECHE :STATE
CTRY        .                                              MEXICO :COUNTRY
SRVC        .                                             UNKNOWN :SERVICE COMPANY
DATE        .                                             UNKNOWN :LOG DATE
UWI         .                                          3060000139 :UNIQUE WELL ID
XCOORD      .                                       600825.370000 :SURFACE X
YCOORD      .                                      2145118.460000 :SURFACE Y
LAT         .                                           19.398901 :LATITUDE
LON         .                                          -92.039777 :LONGITUDE
ELEV        .M                                            27.7000 :SURFACE ELEV
ELEV_TYPE   .                                                  KB :ELEV TYPE
~CURVE INFORMATION
#MNEMONIC.UNIT        API CODE       : CURVE DESCRIPTION
#------------------------------------------------------------------------------
DEPTH    .M                          : Measured Depth
CALI     .inches      UNKNOWN        : CALI:Import:rC:NONE:v0 (auto-composite)
DRHO     .g/cm3       UNKNOWN        : DRHO:Import:rC:NONE:v0 (auto-composite)
DT       .us/ft       UNKNOWN        : DT:Import:rC:NONE:v0 (auto-composite)
GR       .API         UNKNOWN        : GR:Import:rC:NONE:v0 (auto-composite)
ILD      .ohm.m       UNKNOWN        : ILD:Import:rC:NONE:v0 (auto-composite)
NPHI     .v/v_decimal UNKNOWN        : NPHI:Import:rC:NONE:v0 (auto-composite)
RHOB     .g/cm3       UNKNOWN        : RHOB:Import:rC:NONE:v0 (auto-composite)
SP       .mV          UNKNOWN        : SP:Import:rC:NONE:v0 (auto-composite)
~A     DEPTH         CALI         DRHO           DT           GR          ILD         NPHI         RHOB           SP
# ...
    364.2356      16.8410       0.1060     160.8207    -999.2500    -999.2500    -999.2500       1.8930    -999.2500
    364.3880      16.7935       0.1040     155.1460    -999.2500    -999.2500    -999.2500       1.8970    -999.2500
    364.5404      16.7460       0.1020     149.7337    -999.2500    -999.2500    -999.2500       1.9010    -999.2500
    364.6928      16.5666       0.0905     144.3280    -999.2500    -999.2500    -999.2500       1.9040    -999.2500
    364.8452      16.3870       0.0790     141.4894    -999.2500    -999.2500    -999.2500       1.9070    -999.2500
    364.9976      16.1516       0.0620     138.6540    -999.2500    -999.2500    -999.2500       1.9115    -999.2500
    365.1500      15.9160       0.0450     133.0912    -999.2500    -999.2500    -999.2500       1.9160    -999.2500
    365.3024      15.9840       0.0330     127.5350    -999.2500    -999.2500    -999.2500       1.9255    -999.2500
    365.4548      16.0520       0.0210     124.6687    -999.2500    -999.2500    -999.2500       1.9350    -999.2500
    365.6072      16.0225       0.0145     121.8060    -999.2500    -999.2500    -999.2500       1.9455    -999.2500
    365.7596      15.9930       0.0080     116.5996    -999.2500    -999.2500    -999.2500       1.9560    -999.2500
    365.9120      15.7161       0.0080     111.3990    -999.2500    -999.2500    -999.2500       1.9555    -999.2500
    366.0644      15.4390       0.0080     100.2398    -999.2500    -999.2500    -999.2500       1.9550    -999.2500
    366.2168      15.4855       0.0140      89.0940    -999.2500    -999.2500    -999.2500       1.9510    -999.2500
    366.3692      15.5320       0.0200      91.0798    -999.2500    -999.2500    -999.2500       1.9470    -999.2500
    366.5216      15.7919       0.0185      93.0630    -999.2500    -999.2500    -999.2500       1.9350    -999.2500
    366.6740      16.0520       0.0170     100.3382    -999.2500    -999.2500    -999.2500       1.9230    -999.2500
    366.8264      16.0375       0.0175     107.6050    -999.2500    -999.2500    -999.2500       1.9090    -999.2500
    366.9788      16.0230       0.0180     112.5730    -999.2500    -999.2500    -999.2500       1.8950    -999.2500
    367.1312      15.9181       0.0195     117.5350    -999.2500    -999.2500    -999.2500       1.8850    -999.2500
    367.2836      15.8130       0.0210     116.8556    -999.2500    -999.2500    -999.2500       1.8750    -999.2500
    367.4360      15.5571       0.0225     116.1770    -999.2500    -999.2500    -999.2500       1.8755    -999.2500
    367.5884      15.3010       0.0240     111.2266    -999.2500    -999.2500    -999.2500       1.8760    -999.2500
    367.7408      15.0796       0.0235     106.2820    -999.2500    -999.2500    -999.2500       1.8790    -999.2500
    367.8932      14.8580       0.0230     106.5622    -999.2500    -999.2500    -999.2500       1.8820    -999.2500
    368.0456      14.7321       0.0195     106.8420    -999.2500    -999.2500    -999.2500       1.8885    -999.2500
    368.1980      14.6060       0.0160     117.7682    -999.2500    -999.2500    -999.2500       1.8950    -999.2500
    368.3504      14.6085       0.0100     128.6800    -999.2500    -999.2500    -999.2500       1.8975    -999.2500
    368.5028      14.6110       0.0040     127.9346    -999.2500    -999.2500    -999.2500       1.9000    -999.2500
    368.6552      14.5985      -0.0030     127.1900    -999.2500    -999.2500    -999.2500       1.9000    -999.2500
    368.8076      14.5860      -0.0100     124.1816    -999.2500    -999.2500    -999.2500       1.9000    -999.2500
    368.9600      14.6100      -0.0080     121.1770    -999.2500    -999.2500    -999.2500       1.8970    -999.2500
    369.1124      14.6340      -0.0060     121.5903    -999.2500    -999.2500    -999.2500       1.8940    -999.2500
    369.2648      14.7434       0.0070     122.0030    -999.2500    -999.2500    -999.2500       1.8805    -999.2500
    369.4172      14.8530       0.0200     124.6871    -999.2500    -999.2500    -999.2500       1.8670    -999.2500
    369.5696      15.0204       0.0581     127.3680    -999.2500    -999.2500    -999.2500       1.8755    -999.2500
    369.7220      15.1880       0.0960     117.2219    -999.2500    -999.2500    -999.2500       1.8840    -999.2500
    369.8744      15.3684       0.0915     107.0870    -999.2500    -999.2500    -999.2500       1.8805    -999.2500
    370.0268      15.5490       0.0870     107.2676    -999.2500    -999.2500    -999.2500       1.8770    -999.2500
    370.1792      15.3836       0.0549     107.4480    -999.2500    -999.2500    -999.2500       1.8605    -999.2500
    370.3316      15.2180       0.0230     108.0929    -999.2500    -999.2500    -999.2500       1.8440    -999.2500
    370.4840      15.2470       0.0250     108.7370    -999.2500    -999.2500    -999.2500       1.8465    -999.2500
    370.6364      15.2760       0.0270     108.3658    -999.2500    -999.2500    -999.2500       1.8490    -999.2500
    370.7888      15.4094       0.0360     107.9950    -999.2500    -999.2500    -999.2500       1.8580    -999.2500
    370.9412      15.5430       0.0450     108.8585    -999.2500    -999.2500    -999.2500       1.8670    -999.2500
    371.0936      15.6914       0.0555     109.7210    -999.2500    -999.2500    -999.2500       1.8735    -999.2500
    371.2460      15.8400       0.0660     108.4507    -999.2500    -999.2500    -999.2500       1.8800    -999.2500
    371.3984      15.8205       0.0655     107.1820    -999.2500    -999.2500    -999.2500       1.8795    -999.2500
    371.5508      15.8010       0.0650     102.4643    -999.2500    -999.2500    -999.2500       1.8790    -999.2500
    371.7032      15.7225       0.0615      97.7520    -999.2500    -999.2500    -999.2500       1.8745    -999.2500
    371.8556      15.6440       0.0580     101.1336    -999.2500    -999.2500    -999.2500       1.8700    -999.2500
    372.0080      15.3966       0.0405     104.5110    -999.2500    -999.2500    -999.2500       1.8710    -999.2500
    372.1604      15.1490       0.0230     104.1037    -999.2500    -999.2500    -999.2500       1.8720    -999.2500
    372.3128      15.1640       0.0235     103.6970    -999.2500    -999.2500    -999.2500       1.8945    -999.2500
    372.4652      15.1790       0.0240     102.1401    -999.2500    -999.2500    -999.2500       1.9170    -999.2500
    372.6176      15.2590       0.0280     100.5850    -999.2500    -999.2500    -999.2500       1.9165    -999.2500
    372.7700      15.3390       0.0320     100.6525    -999.2500    -999.2500    -999.2500       1.9160    -999.2500
    372.9224      15.7588       0.0505     100.7200    -999.2500    -999.2500    -999.2500       1.9135    -999.2500
    373.0748      16.1790       0.0690     106.0085    -999.2500    -999.2500    -999.2500       1.9110    -999.2500
    373.2272      16.1645       0.0675     111.2900    -999.2500    -999.2500    -999.2500       1.9115    -999.2500
    373.3796      16.1500       0.0660     111.2135    -999.2500    -999.2500    -999.2500       1.9120    -999.2500
    373.5320      16.0620       0.0505     111.1370    -999.2500    -999.2500    -999.2500       1.9070    -999.2500
    373.6844      15.9740       0.0350     109.9573    -999.2500    -999.2500    -999.2500       1.9020    -999.2500
    373.8368      15.8136       0.0350     108.7790    -999.2500    -999.2500    -999.2500       1.9080    -999.2500
    373.9892      15.6530       0.0350     105.0215    -999.2500    -999.2500    -999.2500       1.9140    -999.2500
    374.1416      15.6560       0.0405     101.2690    -999.2500    -999.2500    -999.2500       1.9135    -999.2500
    374.2940      15.6590       0.0460     102.8530    -999.2500    -999.2500    -999.2500       1.9130    -999.2500
    374.4464      15.7360       0.0455     104.4350    -999.2500    -999.2500    -999.2500       1.9105    -999.2500
    374.5988      15.8130       0.0450     112.0949    -999.2500    -999.2500    -999.2500       1.9080    -999.2500
