#------------------------------------------------------------------------------
#
#   Created by  : [OpenWorks] Log Export Utility (LEXP)
#   Created on  : 2016-05-23 11:50:40
#   Project     : CANT971
#   User        : R5K
#   Interpreter : PEP
#
#------------------------------------------------------------------------------
~VERSION INFORMATION
VERS. 2.0 : CWLS Log ASCII Standard - version 2.0
WRAP.  NO : One line per depth step
~WELL INFORMATION
#MNEMONIC   .UNIT                                           VALUE :DESCRIPTION
#------------------------------------------------------------------------------
STRT        .M                                           697.2303 :START DEPTH
STOP        .M                                          3650.8948 :STOP DEPTH
STEP        .M                                             0.1524 :STEP
NULL        .                                           -999.2500 :NULL VALUE
COMP        .                                   PEMEX EXPL & PROD :COMPANY
WELL        .                                                1026 :WELL
FLD         .                                           CANTARELL :FIELD
LOC         .                                             UNKNOWN :LOCATION
CNTY        .                                      CD. DEL CARMEN :COUNTY
STAT        .                                            CAMPECHE :STATE
CTRY        .                                              MEXICO :COUNTRY
SRVC        .                                             UNKNOWN :SERVICE COMPANY
DATE        .                                             UNKNOWN :LOG DATE
UWI         .                                          3060000491 :UNIQUE WELL ID
XCOORD      .                                       596159.330000 :SURFACE X
YCOORD      .                                      2150607.710000 :SURFACE Y
LAT         .                                           19.448735 :LATITUDE
LON         .                                          -92.083932 :LONGITUDE
ELEV        .M                                            30.0000 :SURFACE ELEV
ELEV_TYPE   .                                                  KB :ELEV TYPE
~CURVE INFORMATION
#MNEMONIC.UNIT        API CODE       : CURVE DESCRIPTION
#------------------------------------------------------------------------------
DEPTH    .M                          : Measured Depth
CALI     .inches      UNKNOWN        : CALI:registros:rC:NONE:v0 (auto-composite)
DRHO     .g/cm3       UNKNOWN        : DRHO:registros:rC:NONE:v0 (auto-composite)
DT       .us/ft       UNKNOWN        : DT:registros:rC:NONE:v0 (auto-composite)
GR       .API         UNKNOWN        : GR:registros:rC:NONE:v0 (auto-composite)
ILD      .ohm.m       UNKNOWN        : ILD:registros:rC:NONE:v0 (auto-composite)
ILM      .ohm.m       UNKNOWN        : ILM:registros:rC:NONE:v0 (auto-composite)
LLD      .ohm.m       UNKNOWN        : LLD:registros:rC:NONE:v0 (auto-composite)
LLS      .ohm.m       UNKNOWN        : LLS:registros:rC:NONE:v0 (auto-composite)
MSFL     .ohm.m       UNKNOWN        : MSFL:registros:rC:NONE:v0 (auto-composite)
NPHI     .v/v_decimal UNKNOWN        : NPHI:registros:rC:NONE:v0 (auto-composite)
PEF      .b/elec      UNKNOWN        : PEF:registros:rC:NONE:v0 (auto-composite)
RHOB     .g/cm3       UNKNOWN        : RHOB:registros:rC:NONE:v0 (auto-composite)
~A     DEPTH         CALI         DRHO           DT           GR          ILD          ILM          LLD          LLS         MSFL         NPHI          PEF         RHOB
# ...
   3411.1694      10.0245       0.0640      68.4756      18.8437    -999.2500    -999.2500    1912.7827     830.9449      11.0409       0.0196       3.2690       2.7645
   3411.3218       9.9790       0.0540      69.1400      19.4170    -999.2500    -999.2500    1291.0850     615.0730      11.2970       0.0183       3.2810       2.7700
   3411.4744       9.9140       0.0380      78.0894      20.8327    -999.2500    -999.2500    1380.3306     659.4499      10.5749       0.0170       3.2930       2.7855
   3411.6267       9.8490       0.0220      87.0630      22.2500    -999.2500    -999.2500    1469.6750     703.8760       9.8520       0.0160       3.3050       2.8010
   3411.7791       9.8245       0.0155      83.9599      21.2741    -999.2500    -999.2500    1720.2914     837.6534      10.4062       0.0159       3.3720       2.7975
   3411.9314       9.8000       0.0090      80.8530      20.2970    -999.2500    -999.2500    1971.2170     971.5960      10.9610       0.0162       3.4390       2.7940
   3412.0840       9.7360       0.0090      78.1998      22.3771    -999.2500    -999.2500    2451.3533    1243.2555      12.6369       0.0170       3.3271       2.7790
   3412.2363       9.6720       0.0090      75.5430      24.4600    -999.2500    -999.2500    2932.1421    1515.2841      14.3150       0.0179       3.2150       2.7640
   3412.3887       9.6720       0.0245      73.1168      28.1178    -999.2500    -999.2500    3277.4185    1912.4784      18.2481       0.0187       3.3164       2.7795
   3412.5410       9.6720       0.0400      70.6870      31.7810    -999.2500    -999.2500    3623.2080    2310.2629      22.1870       0.0197       3.4180       2.7950
   3412.6936       9.6720       0.0365      71.3430      27.5034    -999.2500    -999.2500    2984.8145    1997.3221      20.3785       0.0207       3.3361       2.7535
   3412.8459       9.6720       0.0330      72.0000      23.2190    -999.2500    -999.2500    2346.4160    1684.3790      18.5700       0.0210       3.2540       2.7120
   3412.9983       9.6720       0.0300      68.1638      27.1346    -999.2500    -999.2500    1926.7565    1500.2772      17.0116       0.0194       3.1666       2.7135
   3413.1506       9.6720       0.0270      64.3210      31.0570    -999.2500    -999.2500    1507.0410    1316.1510      15.4530       0.0176       3.0790       2.7150
   3413.3030       9.6720       0.0350      57.9165      37.1009    -999.2500    -999.2500    2408.9268    2145.5776      17.1638       0.0175       2.9177       2.7500
   3413.4556       9.6720       0.0430      51.5000      43.1560    -999.2500    -999.2500    3311.0459    2975.2190      18.8750       0.0194       2.7560       2.7850
   3413.6079       9.6720       0.0380      56.0889      35.1175    -999.2500    -999.2500    2706.0872    2466.1553       9.7518       0.0248       2.7700       2.7620
   3413.7603       9.6720       0.0330      60.6870      27.0630    -999.2500    -999.2500    2100.8960    1956.8960       0.6250       0.0341       2.7840       2.7390
   3413.9126       9.6720       0.0425      56.9724      27.8498    -999.2500    -999.2500    1566.0895    1457.2994       2.6115       0.0504       2.8459       2.6970
   3414.0652       9.6720       0.0520      53.2500      28.6370    -999.2500    -999.2500    1031.0100     957.4480       4.5990       0.0677       2.9080       2.6550
   3414.2175       9.6720       0.0605      56.1727      35.2124    -999.2500    -999.2500    1099.8632    1013.0548      18.1467       0.0806       2.9844       2.5936
   3414.3699       9.6720       0.0690      59.1020      41.7920    -999.2500    -999.2500    1168.7600    1068.6970      31.7030       0.0877       3.0610       2.5320
   3414.5222       9.6015       0.0630      61.6909      53.1167    -999.2500    -999.2500    1426.9691    1310.9237      28.9306       0.0834       3.0215       2.5560
   3414.6748       9.5310       0.0570      64.2860      64.4500    -999.2500    -999.2500    1685.3750    1553.3350      26.1560       0.0751       2.9820       2.5800
   3414.8271       9.5490       0.0430      66.4208      69.9101    -999.2500    -999.2500    2633.6704    2468.0508      36.7298       0.0675       3.1148       2.6180
   3414.9795       9.5670       0.0290      68.5610      75.3750    -999.2500    -999.2500    3582.8069    3383.5779      47.3130       0.0614       3.2480       2.6560
   3415.1318       9.6030       0.0165      73.1495      71.0527    -999.2500    -999.2500    3267.1785    3122.5051      45.3320       0.0584       3.1741       2.6785
   3415.2842       9.6390       0.0040      77.7500      66.7260    -999.2500    -999.2500    2951.2300    2861.1680      43.3490       0.0567       3.1000       2.7010
   3415.4368       9.7025       0.0070      71.8516      60.9758    -999.2500    -999.2500    2158.2908    2154.4321      35.9837       0.0555       3.1499       2.7095
   3415.5891       9.7660       0.0100      65.9370      55.2190    -999.2500    -999.2500    1364.4490    1446.8920      28.6100       0.0550       3.2000       2.7180
   3415.7415       9.8325       0.0185      68.4944      63.5727    -999.2500    -999.2500    1024.3461    1116.8632      25.1922       0.0557       3.5393       2.7240
   3415.8938       9.8990       0.0270      71.0550      71.9370    -999.2500    -999.2500     683.8130     786.4170      21.7700       0.0638       3.8790       2.7300
   3416.0464       9.9220       0.0385      75.1681      69.8455    -999.2500    -999.2500     791.4812     908.3433      17.5834       0.0911       3.7041       2.6386
   3416.1987       9.9450       0.0500      79.2870      67.7510    -999.2500    -999.2500     899.2990    1030.4390      13.3910       0.1237       3.5290       2.5470
   3416.3511       9.9180       0.0320      84.7329      64.5569    -999.2500    -999.2500     719.0227     815.5654      16.2169       0.1516       3.3331       2.3786
   3416.5034       9.8910       0.0140      90.1870      61.3580    -999.2500    -999.2500     538.4730     600.3660      19.0470       0.1648       3.1370       2.2100
   3416.6560       9.7816       0.0464      82.6931      57.0800    -999.2500    -999.2500     550.5168     603.1155      29.1308       0.1412       3.1655       2.3674
   3416.8083       9.6720       0.0790      75.1870      52.7950    -999.2500    -999.2500     562.5610     605.8650      39.2150       0.1038       3.1940       2.5250
   3416.9607       9.6720       0.0600      80.7236      49.0648    -999.2500    -999.2500     789.1124     821.5108      50.5441       0.0650       3.4338       2.6559
   3417.1130       9.6720       0.0410      86.2700      45.3280    -999.2500    -999.2500    1015.7010    1037.1920      61.8750       0.0345       3.6740       2.7870
   3417.2654       9.6720       0.0270      92.5975      43.3614    -999.2500    -999.2500    1375.5139    1386.1909      54.3981       0.0291       3.5451       2.7770
   3417.4180       9.6720       0.0130      98.9370      41.3910    -999.2500    -999.2500    1735.4310    1735.2910      46.9190       0.0331       3.4160       2.7670
   3417.5703       9.6720       0.0125      97.1148      40.5244    -999.2500    -999.2500    1485.3145    1501.2335      42.1605       0.0383       3.4405       2.7505
   3417.7227       9.6720       0.0120      95.2890      39.6560    -999.2500    -999.2500    1235.0940    1267.0790      37.4000       0.0437       3.4650       2.7340
   3417.8750       9.6720       0.0095      82.9392      43.4675    -999.2500    -999.2500     916.8167     951.5239      30.6003       0.0485       3.4425       2.7170
   3418.0276       9.6720       0.0070      70.5630      47.2810    -999.2500    -999.2500     598.3670     635.7980      23.7970       0.0520       3.4200       2.7000
   3418.1799       9.6720       0.0035      72.3744      46.7132    -999.2500    -999.2500     434.7100     465.4518      25.1490       0.0522       3.4894       2.7080
   3418.3323       9.6720       0.0000      74.1900      46.1450    -999.2500    -999.2500     270.9440     294.9920      26.5020       0.0507       3.5590       2.7160
