#------------------------------------------------------------------------------
#
#   Created by  : [OpenWorks] Log Export Utility (LEXP)
#   Created on  : 2016-05-23 11:50:23
#   Project     : CANT971
#   User        : R5K
#   Interpreter : PEP
#
#------------------------------------------------------------------------------
~VERSION INFORMATION
VERS. 2.0 : CWLS Log ASCII Standard - version 2.0
WRAP.  NO : One line per depth step
~WELL INFORMATION
#MNEMONIC   .UNIT                                           VALUE :DESCRIPTION
#------------------------------------------------------------------------------
STRT        .M                                           790.6004 :START DEPTH
STOP        .M                                          2649.8804 :STOP DEPTH
STEP        .M                                             0.1524 :STEP
NULL        .                                           -999.2500 :NULL VALUE
COMP        .                                             UNKNOWN :COMPANY
WELL        .                                               1012D :WELL
FLD         .                                             UNKNOWN :FIELD
LOC         .                                             UNKNOWN :LOCATION
CNTY        .                                             UNKNOWN :COUNTY
STAT        .                                             UNKNOWN :STATE
CTRY        .                                             UNKNOWN :COUNTRY
SRVC        .                                             UNKNOWN :SERVICE COMPANY
DATE        .                                             UNKNOWN :LOG DATE
UWI         .                                               1012D :UNIQUE WELL ID
XCOORD      .                                       594334.990000 :SURFACE X
YCOORD      .                                      2152041.060000 :SURFACE Y
LAT         .                                           19.461774 :LATITUDE
LON         .                                          -92.101239 :LONGITUDE
ELEV        .M                                             0.0000 :SURFACE ELEV
ELEV_TYPE   .                                                  KB :ELEV TYPE
~CURVE INFORMATION
#MNEMONIC.UNIT        API CODE       : CURVE DESCRIPTION
#------------------------------------------------------------------------------
DEPTH    .M                          : Measured Depth
DT       .us/ft       UNKNOWN        : DT:UNKNOWN:rC:NONE:v0 (auto-composite)
GR       .API         UNKNOWN        : GR:PETROWORKS:rC:NONE:v1 
GR-LWD   .API         UNKNOWN        : GR-LWD:PETROWORKS:rC:NONE:v1 
ILD      .ohm.m       UNKNOWN        : ILD:resistivos:rC:NONE:v0 (auto-composite)
ILD-LWD  .ohm.m       UNKNOWN        : ILD-LWD:PETROWORKS:rC:NONE:v1 
ILM      .ohm.m       UNKNOWN        : ILM:resistivos:rC:NONE:v0 (auto-composite)
ILM-LWD  .ohm.m       UNKNOWN        : ILM-LWD:PETROWORKS:rC:NONE:v1 
~A     DEPTH           DT           GR       GR-LWD          ILD      ILD-LWD          ILM      ILM-LWD
# ...
   2421.7375      87.8405      19.1928      50.4192    -999.2500       1.2437    -999.2500       1.2149
   2421.8899      83.6321      18.4284      50.3904    -999.2500       1.2352    -999.2500       1.2168
   2422.0425      80.3902      18.9805      51.8626    -999.2500       1.4442    -999.2500       1.4314
   2422.1948      75.6715      20.4138      53.4809    -999.2500       1.6277    -999.2500       1.5986
   2422.3472      73.4800      21.6526      55.4711    -999.2500       1.7810    -999.2500       1.7383
   2422.4995      73.3200      20.4804      56.1179    -999.2500       1.9358    -999.2500       1.8707
   2422.6521      75.3466      19.7792      50.3980    -999.2500       2.1222    -999.2500       2.0465
   2422.8044      81.0512      17.2614      46.5860    -999.2500       2.2062    -999.2500       2.1330
   2422.9568      84.7857      18.3364      44.0135    -999.2500       2.3399    -999.2500       2.3012
   2423.1091      86.6115      19.0407      42.9981    -999.2500       2.3896    -999.2500       2.3576
   2423.2617      89.7113      20.0574      41.3641    -999.2500       3.8487    -999.2500       3.6924
   2423.4141     100.7159      19.3412      35.9034    -999.2500       5.5552    -999.2500       4.9841
   2423.5664     108.3838      20.7064      34.5195    -999.2500       4.7706    -999.2500       4.2223
   2423.7188     109.5312      22.5633      34.4413    -999.2500       3.5885    -999.2500       3.1304
   2423.8711     109.6718      24.0249      38.3633    -999.2500       2.8637    -999.2500       2.6261
   2424.0237     108.7901      24.7138      43.6888    -999.2500       2.3991    -999.2500       2.2549
   2424.1760     106.8691      24.9070      45.9966    -999.2500       2.2879    -999.2500       2.2084
   2424.3284     104.1621      25.2013      45.7986    -999.2500       2.1298    -999.2500       2.0875
   2424.4807     103.4177      23.4445      44.2735    -999.2500       2.1239    -999.2500       2.0225
   2424.6333     103.7481      21.6863      44.8209    -999.2500       1.8947    -999.2500       1.7885
   2424.7856     103.4500      21.0011      47.1317    -999.2500       1.4947    -999.2500       1.4700
   2424.9380    -999.2500      21.6840      52.1650    -999.2500       1.0674    -999.2500       1.0840
   2425.0903      98.9780      23.2463      54.4526    -999.2500       0.8975    -999.2500       0.9428
   2425.2429      97.7508      24.1588      57.1237    -999.2500       0.9415    -999.2500       0.9718
   2425.3953      97.1340      25.5251      54.8804    -999.2500       1.0971    -999.2500       1.1020
   2425.5476      97.7090      25.1220      51.6336    -999.2500       1.1737    -999.2500       1.1597
   2425.7000      96.7790      26.7561      48.8939    -999.2500       1.1537    -999.2500       1.1597
   2425.8523      96.0080      27.1936      48.7422    -999.2500       1.1184    -999.2500       1.1385
   2426.0049      94.8235      26.4908      52.3489    -999.2500       1.1099    -999.2500       1.1360
   2426.1572      97.9393      25.6985      54.1293    -999.2500       1.1213    -999.2500       1.1300
   2426.3096     102.5028      25.0710      55.1019    -999.2500       1.1157    -999.2500       1.1145
   2426.4619     103.0480      26.9568      56.6840    -999.2500       1.1112    -999.2500       1.1067
   2426.6145     101.7795      26.2122      56.8972    -999.2500       1.0941    -999.2500       1.0920
   2426.7668     100.2125      25.6574      56.7991    -999.2500       1.0896    -999.2500       1.0888
   2426.9192      99.9490      23.9641      57.4805    -999.2500       1.0869    -999.2500       1.0881
   2427.0715     109.1530      23.6380      58.0070    -999.2500       1.0816    -999.2500       1.0872
   2427.2241     109.1530      22.2710      57.9530    -999.2500       1.0763    -999.2500       1.0778
   2427.3765     112.1150      24.0290      55.4031    -999.2500       1.0489    -999.2500       1.0515
   2427.5288     110.3460      24.4200      52.5245    -999.2500       1.0236    -999.2500       1.0257
   2427.6812     108.8950      26.7640      51.0754    -999.2500       0.9888    -999.2500       0.9969
   2427.8335     107.4420      27.3500      49.8152    -999.2500       0.9598    -999.2500       0.9558
   2427.9861     107.8300      26.5690      54.2243    -999.2500       0.9421    -999.2500       0.9410
   2428.1384     108.0280      26.9590      57.3562    -999.2500       0.9147    -999.2500       0.9171
   2428.2908     107.4330      27.5450      57.4880    -999.2500       0.8742    -999.2500       0.8777
   2428.4431     107.7080      29.8900      57.9063    -999.2500       0.8695    -999.2500       0.8742
   2428.5957     108.1880      30.4760      58.0586    -999.2500       0.8739    -999.2500       0.8670
   2428.7480     107.7600      26.9590      61.6094    -999.2500       0.8614    -999.2500       0.8574
   2428.9004     107.7487      24.6477      60.6776    -999.2500       0.8460    -999.2500       0.8408
   2429.0527     107.6141      24.2861      58.4989    -999.2500       0.8320    -999.2500       0.8266
   2429.2053     106.8170      27.4781      55.2381    -999.2500       0.8360    -999.2500       0.8345
   2429.3577    -999.2500      29.4338      55.5723    -999.2500       0.8721    -999.2500       0.8663
   2429.5100    -999.2500      30.0190      56.9111    -999.2500       0.8821    -999.2500       0.8711
   2429.6624      97.2480      29.9577      57.1849    -999.2500       0.9177    -999.2500       0.8989
   2429.8147      96.8247      27.3537      56.6274    -999.2500       0.9272    -999.2500       0.9153
   2429.9673      96.2102      24.0962      55.1631    -999.2500       0.8363    -999.2500       0.8330
   2430.1196      97.6714      21.8154      53.5392    -999.2500       0.8671    -999.2500       0.8620
   2430.2720      99.6646      21.4882      52.2204    -999.2500       0.9238    -999.2500       0.9182
   2430.4243      99.8093      22.0771      51.0072    -999.2500       0.9694    -999.2500       0.9664
   2430.5769     100.1421      20.7733      50.0778    -999.2500       1.1087    -999.2500       1.0942
   2430.7292     100.4309      21.0986      46.8250    -999.2500       1.1210    -999.2500       1.1180
   2430.8816     100.2235      22.0749      44.3704    -999.2500       1.3300    -999.2500       1.2994
   2431.0339      99.8941      22.5104      43.6986    -999.2500       1.3858    -999.2500       1.3502
   2431.1865     100.4030      22.2840      42.6349    -999.2500       1.1285    -999.2500       1.1302
   2431.3389     101.6978      22.4111      44.8920    -999.2500       0.9561    -999.2500       0.9504
   2431.4912     102.9685      23.4713      44.5455    -999.2500       1.0458    -999.2500       1.0436
   2431.6436     104.5362      24.5020      45.0357    -999.2500       1.0725    -999.2500       1.0903
   2431.7959     105.8046      24.0831      44.9737    -999.2500       1.3193    -999.2500       1.3168
   2431.9485     106.0685      23.1717      47.6560    -999.2500       1.1248    -999.2500       1.1196
   2432.1008     106.3888      23.3119      48.3160    -999.2500       1.0609    -999.2500       1.0527
   2432.2532     107.0506      23.9200      49.1466    -999.2500       0.9897    -999.2500       0.9896
   2432.4055     107.7124      24.5281      50.4377    -999.2500       0.9054    -999.2500       0.9252
   2432.5581     108.8784      26.4417      51.9967    -999.2500       0.8631    -999.2500       0.8759
   2432.7104     110.3073      28.8778      54.3632    -999.2500       0.9086    -999.2500       0.9002
   2432.8628     112.4023      30.6846      56.4925    -999.2500       0.9097    -999.2500       0.8837
   2433.0151     115.8702      32.1502      60.0748    -999.2500       0.8223    -999.2500       0.8050
   2433.1677     119.3460      33.6190      64.7356    -999.2500       0.5612    -999.2500       0.5885
   2433.3201     120.1221      33.2942      67.0600    -999.2500       0.7642    -999.2500       0.7522
