#------------------------------------------------------------------------------
#
#   Created by  : [OpenWorks] Log Export Utility (LEXP)
#   Created on  : 2016-05-23 11:56:01
#   Project     : CANT971
#   User        : R5K
#   Interpreter : PEP
#
#------------------------------------------------------------------------------
~VERSION INFORMATION
VERS. 2.0 : CWLS Log ASCII Standard - version 2.0
WRAP.  NO : One line per depth step
~WELL INFORMATION
#MNEMONIC   .UNIT                                           VALUE :DESCRIPTION
#------------------------------------------------------------------------------
STRT        .M                                          1572.0055 :START DEPTH
STOP        .M                                          3732.1230 :STOP DEPTH
STEP        .M                                             0.1524 :STEP
NULL        .                                           -999.2500 :NULL VALUE
COMP        .                                             UNKNOWN :COMPANY
WELL        .                                               428-V :WELL
FLD         .                                             UNKNOWN :FIELD
LOC         .                                             UNKNOWN :LOCATION
CNTY        .                                             UNKNOWN :COUNTY
STAT        .                                             UNKNOWN :STATE
CTRY        .                                             UNKNOWN :COUNTRY
SRVC        .                                             UNKNOWN :SERVICE COMPANY
DATE        .                                             UNKNOWN :LOG DATE
UWI         .                                               428-V :UNIQUE WELL ID
XCOORD      .                                            0.000000 :SURFACE X
YCOORD      .                                            0.000000 :SURFACE Y
LAT         .                                            0.000000 :LATITUDE
LON         .                                            0.000000 :LONGITUDE
ELEV        .M                                             0.0000 :SURFACE ELEV
ELEV_TYPE   .                                                  KB :ELEV TYPE
~CURVE INFORMATION
#MNEMONIC .UNIT        API CODE       : CURVE DESCRIPTION
#------------------------------------------------------------------------------
DEPTH     .M                          : Measured Depth
CALIH-LWD .inches      UNKNOWN        : CALIH-LWD:PETROWORKS:rC:NONE:v5 
CALIV-LWD .inches      UNKNOWN        : CALIV-LWD:PETROWORKS:rC:NONE:v5 
CGR       .API         UNKNOWN        : CGR:Espectrometria:rC:NONE:v0 (auto-composite)
DRHO-LWD  .g/cm3       UNKNOWN        : DRHO-LWD:PETROWORKS:rC:NONE:v5 
DT        .us/ft       UNKNOWN        : DT:sonico:rC:NONE:v0 (auto-composite)
GR        .API         UNKNOWN        : GR:Espectrometria:rC:NONE:v0 (auto-composite)
GR-LWD    .API         UNKNOWN        : GR-LWD:PETROWORKS:rC:NONE:v3 
ILD-LWD   .ohm.m       UNKNOWN        : ILD-LWD:PETROWORKS:rC:NONE:v2 
ILM-LWD   .ohm.m       UNKNOWN        : ILM-LWD:PETROWORKS:rC:NONE:v2 
LLD-LWD   .ohm.m       UNKNOWN        : LLD-LWD:registros-LWD:rC:NONE:v0 (auto-composite)
LLS-LWD   .ohm.m       UNKNOWN        : LLS-LWD:registros-LWD:rC:NONE:v0 (auto-composite)
MSFL-LWD  .ohm.m       UNKNOWN        : MSFL-LWD:registros-LWD:rC:NONE:v0 (auto-composite)
NPHI-LWD  .v/v_decimal UNKNOWN        : NPHI-LWD:PETROWORKS:rC:NONE:v5 
PEF-LWD   .b/elec      UNKNOWN        : PEF-LWD:PETROWORKS:rC:NONE:v5 
POTA      .wtpercent   UNKNOWN        : POTA:Espectrometria:rC:NONE:v0 (auto-composite)
RHOB-LWD  .g/cm3       UNKNOWN        : RHOB-LWD:PETROWORKS:rC:NONE:v5 
THOR      .UNKNOWN     UNKNOWN        : THOR:Espectrometria:rC:NONE:v0 (auto-composite)
URAN      .UNKNOWN     UNKNOWN        : URAN:Espectrometria:rC:NONE:v0 (auto-composite)
~A     DEPTH    CALIH-LWD    CALIV-LWD          CGR     DRHO-LWD           DT           GR       GR-LWD      ILD-LWD      ILM-LWD      LLD-LWD      LLS-LWD     MSFL-LWD     NPHI-LWD      PEF-LWD         POTA     RHOB-LWD         THOR         URAN
# ...
   3578.6562       6.3087       6.7421       3.1609       0.2094      54.9906      14.3393      17.1314      95.1958      94.2981    -999.2500    -999.2500    -999.2500       0.0595       2.7257       0.0019       2.7061       0.1238       1.2445
   3578.8086       6.2621       6.7147       3.4502       0.2089      55.0209      15.2030      18.1608      92.1886      94.6738    -999.2500    -999.2500    -999.2500       0.0587       2.7188       0.0023       2.7007       0.0535       1.3085
   3578.9612       6.2188       6.6779       4.5766       0.2087      55.7884      16.4233      17.7752      97.5555      98.3519    -999.2500    -999.2500    -999.2500       0.0579       2.7005       0.0031       2.6917       0.0771       1.3189
   3579.1135       6.2090       6.6698       5.3697       0.2201      57.0051      17.1946      17.5354      98.5540      99.3206    -999.2500    -999.2500    -999.2500       0.0575       2.6690       0.0034       2.7026       0.1607       1.3165
   3579.2659       6.2117       6.6723       5.8242       0.2358      57.9970      18.1258      17.8777      95.9040      97.7309    -999.2500    -999.2500    -999.2500       0.0573       2.6327       0.0035       2.7208       0.2532       1.3695
   3579.4182       6.2088       6.6672       5.8237       0.2296      57.9324      18.3954      18.3166      93.9456      95.7744    -999.2500    -999.2500    -999.2500       0.0568       2.6050       0.0033       2.7226       0.3394       1.3997
   3579.5708       6.2041       6.6596       5.7677       0.2164      56.6564      18.1641      17.7119      90.8763      93.9674    -999.2500    -999.2500    -999.2500       0.0563       2.5800       0.0030       2.7193       0.4262       1.3801
   3579.7231       6.2080       6.6921       5.6217       0.2183      55.1607      17.8838      17.1485      94.9429      96.8865    -999.2500    -999.2500    -999.2500       0.0563       2.5902       0.0029       2.7310       0.4456       1.3652
   3579.8755       6.2142       6.7352       5.0628       0.2241      54.3578      17.5770      15.9818      97.8837     101.9717    -999.2500    -999.2500    -999.2500       0.0564       2.6097       0.0027       2.7467       0.3488       1.3932
   3580.0278       6.2073       6.7611       5.2239       0.2241      54.1556      17.5725      16.4911      94.4671      97.7522    -999.2500    -999.2500    -999.2500       0.0563       2.6199       0.0028       2.7436       0.3615       1.3748
   3580.1802       6.1975       6.7833       5.2837       0.2228      53.9848      17.3853      17.0209      97.6742     102.1121    -999.2500    -999.2500    -999.2500       0.0562       2.6281       0.0030       2.7365       0.3269       1.3473
   3580.3328       6.2411       6.8370       5.3677       0.2398      53.9824      17.1368      17.4715      98.9582     104.4097    -999.2500    -999.2500    -999.2500       0.0558       2.6267       0.0031       2.7469       0.2736       1.3103
   3580.4851       6.2938       6.8960       5.4862       0.2599      54.8111      16.3985      17.5163      89.5147      94.4540    -999.2500    -999.2500    -999.2500       0.0555       2.6236       0.0032       2.7603       0.3019       1.2149
   3580.6375       6.3497       6.9302       5.7850       0.2617      56.6122      15.7202      16.7191      83.0468      86.6527    -999.2500    -999.2500    -999.2500       0.0558       2.6084       0.0031       2.7549       0.3956       1.1061
   3580.7898       6.4060       6.9610       5.2426       0.2610      58.4789      14.4268      16.5950      79.1603      81.7599    -999.2500    -999.2500    -999.2500       0.0562       2.5917       0.0026       2.7471       0.4421       1.0226
   3580.9424       6.4331       6.9651       4.6402       0.2581      59.5409      13.5151      14.5030      97.5905      94.7865    -999.2500    -999.2500    -999.2500       0.0564       2.5972       0.0022       2.7423       0.4338       0.9880
   3581.0947       6.4576       6.9668       2.5864       0.2550      59.8955      12.3074      12.6678     100.9570     101.0195    -999.2500    -999.2500    -999.2500       0.0565       2.6049       0.0016       2.7378       0.0978       1.0823
   3581.2471       6.4358       6.9410       2.3076       0.2340      59.9579      12.0793      11.7230     104.2662     102.9563    -999.2500    -999.2500    -999.2500       0.0571       2.6201       0.0015       2.7109       0.0583       1.0879
   3581.3994       6.4115       6.9137       4.0508       0.2120      60.3063      12.1893      11.6828     104.4314     103.0904    -999.2500    -999.2500    -999.2500       0.0577       2.6358       0.0018       2.6826       0.4434       0.9061
   3581.5520       6.2845       6.7810       5.3206       0.1881      61.4093      12.7520      11.2400     106.9467     107.4071    -999.2500    -999.2500    -999.2500       0.0581       2.6241       0.0023       2.6280       0.6096       0.8274
   3581.7043       6.1580       6.6488       5.6727       0.1646      62.6267      13.2576      11.2559     105.0256     106.6801    -999.2500    -999.2500    -999.2500       0.0584       2.6120       0.0024       2.5740       0.6520       0.8444
   3581.8567       6.0966       6.4979       6.3396       0.1409      62.3557      13.7623      12.1799     105.3952     107.8668    -999.2500    -999.2500    -999.2500       0.0600       2.5693       0.0029       2.4961       0.6352       0.8264
   3582.0090       6.0452       6.3531       5.6355       0.1194      60.0806      14.2402      13.0931     106.3671     109.1542    -999.2500    -999.2500    -999.2500       0.0615       2.5278       0.0030       2.4208       0.4176       0.9580
   3582.1614       6.2066       6.3071       4.9292       0.1450      56.8103      14.8650      13.9059     101.7096     105.7279    -999.2500    -999.2500    -999.2500       0.0634       2.5010       0.0032       2.3819       0.1220       1.1062
   3582.3140       6.3655       6.2724       4.7570       0.1692      54.9065      14.9925      13.4482      99.2312     103.2403    -999.2500    -999.2500    -999.2500       0.0654       2.4774       0.0032       2.3445       0.0763       1.1396
   3582.4663       6.4970       6.3795       5.2157       0.1768      56.5296      15.1776      12.9925      99.3244     101.8566    -999.2500    -999.2500    -999.2500       0.0689       2.4922       0.0033       2.3245       0.1890       1.1091
   3582.6187       6.6036       6.4675       5.2683       0.1847      61.7061      15.4902      12.6476     100.0483     100.6945    -999.2500    -999.2500    -999.2500       0.0727       2.5092       0.0032       2.3105       0.2345       1.1381
   3582.7710       6.5006       6.3935       6.1053       0.1958      66.9784      16.1038      13.2267      99.5688      99.0553    -999.2500    -999.2500    -999.2500       0.0792       2.5445       0.0034       2.3458       0.3886       1.1131
   3582.9236       6.4211       6.3753       6.4237       0.2085      66.6701      16.3531      14.5182      99.7220      99.6222    -999.2500    -999.2500    -999.2500       0.0838       2.5714       0.0033       2.4096       0.5303       1.1054
   3583.0759       6.4930       6.6697       5.8576       0.2301      60.4125      16.4383      15.2788      98.6794      97.8602    -999.2500    -999.2500    -999.2500       0.0759       2.5485       0.0032       2.6262       0.3777       1.1780
   3583.2283       6.5145       6.6953       5.3030       0.2246      53.8593      16.5680      15.1964      95.0971      96.6694    -999.2500    -999.2500    -999.2500       0.0673       2.5762       0.0032       2.6870       0.2294       1.2542
   3583.3806       6.2352       6.5349       6.6730       0.1672      50.9936      16.8601      14.8329      90.6430      92.1057    -999.2500    -999.2500    -999.2500       0.0604       2.7176       0.0040       2.7000       0.3145       1.1341
   3583.5332       6.1296       6.6079       8.5479       0.1856      51.5771      17.1766      15.0265      89.6493      89.8099    -999.2500    -999.2500    -999.2500       0.0541       2.7225       0.0046       2.7609       0.5827       0.9607
