#------------------------------------------------------------------------------
#
#   Created by  : [OpenWorks] Log Export Utility (LEXP)
#   Created on  : 2016-05-23 11:56:16
#   Project     : CANT971
#   User        : R5K
#   Interpreter : PEP
#
#------------------------------------------------------------------------------
~VERSION INFORMATION
VERS. 2.0 : CWLS Log ASCII Standard - version 2.0
WRAP.  NO : One line per depth step
~WELL INFORMATION
#MNEMONIC   .UNIT                                           VALUE :DESCRIPTION
#------------------------------------------------------------------------------
STRT        .M                                           785.0543 :START DEPTH
STOP        .M                                          3464.0940 :STOP DEPTH
STEP        .M                                             0.1524 :STEP
NULL        .                                           -999.2500 :NULL VALUE
COMP        .                                   PEMEX EXPL & PROD :COMPANY
WELL        .                                                448D :WELL
FLD         .                                           CANTARELL :FIELD
LOC         .                                             UNKNOWN :LOCATION
CNTY        .                                      CD. DEL CARMEN :COUNTY
STAT        .                                            CAMPECHE :STATE
CTRY        .                                              MEXICO :COUNTRY
SRVC        .                                             UNKNOWN :SERVICE COMPANY
DATE        .                                             UNKNOWN :LOG DATE
UWI         .                                          3060000822 :UNIQUE WELL ID
XCOORD      .                                       598710.240000 :SURFACE X
YCOORD      .                                      2143307.000000 :SURFACE Y
LAT         .                                           19.382637 :LATITUDE
LON         .                                          -92.060012 :LONGITUDE
ELEV        .M                                            28.0000 :SURFACE ELEV
ELEV_TYPE   .                                                  KB :ELEV TYPE
~CURVE INFORMATION
#MNEMONIC.UNIT        API CODE       : CURVE DESCRIPTION
#------------------------------------------------------------------------------
DEPTH    .M                          : Measured Depth
CALI     .inches      UNKNOWN        : CALI:registros:rC:NONE:v0 (auto-composite)
DRHO     .g/cm3       UNKNOWN        : DRHO:registros:rC:NONE:v0 (auto-composite)
DT       .us/ft       UNKNOWN        : DT:registros:rC:NONE:v0 (auto-composite)
GR       .API         UNKNOWN        : GR:registros:rC:NONE:v0 (auto-composite)
LLD      .ohm.m       UNKNOWN        : LLD:registros:rC:NONE:v0 (auto-composite)
LLS      .ohm.m       UNKNOWN        : LLS:registros:rC:NONE:v0 (auto-composite)
MSFL     .ohm.m       UNKNOWN        : MSFL:registros:rC:NONE:v0 (auto-composite)
NPHI     .v/v_decimal UNKNOWN        : NPHI:registros:rC:NONE:v0 (auto-composite)
PEF      .b/elec      UNKNOWN        : PEF:registros:rC:NONE:v0 (auto-composite)
RHOB     .g/cm3       UNKNOWN        : RHOB:registros:rC:NONE:v0 (auto-composite)
~A     DEPTH         CALI         DRHO           DT           GR          LLD          LLS         MSFL         NPHI          PEF         RHOB
# ...
   3319.7712      14.4035       0.0060      83.8338     100.8570     136.6632     122.3358     655.9899       0.2434       4.0515       2.4545
   3319.9236      14.4088       0.0079      85.2400     104.4453     110.1379     101.4028     920.8918       0.2521       3.8704       2.4659
   3320.0759      14.3780       0.0122      85.0840     101.6398      74.4733      72.3564    1225.6746       0.2541       3.9836       2.4898
   3320.2283      14.3804       0.0132      85.6000     103.2263      56.3061      56.1156     255.3105       0.2550       4.3009       2.5241
   3320.3806      14.3901       0.0180      85.5568     104.9229      50.6400      50.9564     184.9175       0.2391       4.6777       2.5728
   3320.5332      14.3889       0.0271      84.5465      98.6428      47.5805      48.1562     186.0719       0.1956       4.7939       2.6126
   3320.6855      14.3936       0.0211      79.0584      82.0396      53.1534      53.6078      65.2663       0.1458       4.9592       2.6166
   3320.8379      14.3899       0.0155      70.6330      67.9100      68.7151      68.7754      83.7732       0.1195       4.8831       2.6038
   3320.9902      14.3843       0.0174      68.2011      59.6845      95.7271      93.7444     146.3436       0.1309       4.5130       2.5939
   3321.1428      14.3898       0.0162      56.5192      64.8300     135.8851     128.0230     219.0053       0.1399       4.2480       2.5618
   3321.2952      14.3904       0.0112      59.8496      74.0348     157.6057     145.5368     308.0571       0.1465       4.0687       2.5158
   3321.4475      14.4089       0.0109      60.1106      80.1692     142.5350     132.2069     264.6208       0.1532       4.1835       2.4692
   3321.5999      14.4033       0.0134      67.2100      83.4530     134.5080     124.8753      98.8993       0.1760       4.1213       2.4462
   3321.7524      14.4036       0.0142      88.9159      86.3220     132.1879     121.8212     103.7274       0.2157       4.0888       2.4309
   3321.9048      14.4128       0.0147      87.2693      95.9265     143.8018     129.0579     127.9022       0.2455       4.0224       2.4274
   3322.0571      14.4012       0.0156      87.1833     103.3731     174.4597     151.6486     158.9916       0.2492       4.1870       2.4307
   3322.2095      14.4094       0.0180      83.0595     104.8312     184.6906     159.6851      86.3943       0.2408       4.2933       2.4463
   3322.3618      14.4048       0.0148      71.8713      98.8464     176.9569     153.3459     102.0043       0.2332       4.3772       2.4490
   3322.5144      14.4049       0.0130      32.2742      88.7520     190.9773     163.1966     122.2158       0.2388       4.1967       2.4399
   3322.6667      14.4203       0.0106      33.1811      87.1930     220.1835     183.0751     103.2796       0.2404       4.1561       2.4256
   3322.8191      14.4246       0.0108      33.3462      91.7680     282.7789     222.3535     164.3912       0.2425       4.1830       2.4240
   3322.9714      14.4280       0.0109      38.4671     102.2058     383.0162     286.5506     139.4624       0.2276       4.3764       2.4360
   3323.1240      14.4289       0.0100      62.6336     101.8242     451.6062     326.8059      80.6305       0.2118       4.5413       2.4454
   3323.2764      14.4378       0.0108      64.4714      97.6432     586.5815     401.2625     192.7212       0.1999       4.5734       2.4581
   3323.4287      14.4304       0.0129      66.6457      93.6376     727.7863     477.9420     144.7555       0.1974       4.5816       2.4569
   3323.5811      14.4214       0.0094      66.5828      93.0681     633.7836     432.2961     111.8276       0.1954       4.4824       2.4541
   3323.7336      14.3919       0.0075      66.5576      93.2006     444.5865     332.7437     212.8155       0.1971       4.3603       2.4514
   3323.8860      14.3829       0.0094      67.2833      93.4365     334.4181     260.6552     590.6503       0.2075       4.2244       2.4679
   3324.0383      14.3920       0.0109      67.7465      99.3183     170.6931     146.6910     361.2943       0.2143       4.2048       2.4737
   3324.1907      14.3943       0.0121      71.2896     102.9073     113.4350     101.4122     392.0268       0.2187       4.2066       2.4799
   3324.3430      14.3872       0.0138      85.7337     102.6998     108.0602      97.4473     675.7406       0.2166       4.2414       2.4888
   3324.4956      14.4025       0.0197      84.9216      97.4858     104.4052      95.0348     429.6804       0.2132       4.2309       2.4991
   3324.6479      14.4252       0.0252      78.4785      93.8169     143.9407     124.6675     327.8714       0.2097       4.2745       2.5128
   3324.8003      14.4583       0.0335      58.3077      87.4444     236.2838     194.2023     380.4779       0.2062       4.3224       2.5429
   3324.9526      14.4482       0.0352      29.1690      86.1465     195.3457     164.2182     357.5698       0.1894       4.2912       2.5464
   3325.1052      14.4248       0.0305      50.6586      85.5080     165.8786     142.0124     381.1676       0.1738       4.2242       2.5393
   3325.2576      14.4436       0.0259      89.3328      83.2224     153.5813     133.5136     228.7916       0.1746       4.1137       2.5198
   3325.4099      14.4470       0.0275      83.7524      79.4448     132.4110     117.6441     410.0273       0.1859       4.1724       2.5245
   3325.5623      14.4359       0.0267      83.5083      81.3007     122.1859     110.2578     282.4207       0.2002       4.1008       2.5242
   3325.7146      14.4422       0.0202      81.6703      90.4652     128.0822     116.3884     125.2698       0.2113       4.0066       2.5197
   3325.8672      14.4407       0.0198      81.3000      94.6416     135.5358     123.5753     144.8748       0.2206       3.9759       2.5197
   3326.0195      14.4475       0.0180      81.3095      95.7686     144.1618     130.7634     195.4639       0.2205       3.8849       2.5238
   3326.1719      14.4412       0.0204      81.4697      97.4457     134.4573     122.6161     167.2377       0.2207       4.0046       2.5246
   3326.3242      14.4435       0.0252      82.1304      99.9130     110.5895     103.5453     271.5121       0.2246       3.9762       2.5298
   3326.4768      14.4331       0.0326      82.8238     109.3127      88.8360      85.8877     191.0092       0.2345       4.1253       2.5322
   3326.6292      14.4422       0.0397      83.8345     105.1219      66.6529      67.0541     154.7477       0.2355       4.0740       2.5399
   3326.7815      14.4445       0.0380      87.4906     102.9883      53.7830      55.3703     176.2381       0.2394       4.0788       2.5272
   3326.9338      14.4445       0.0271      87.7698      93.8243      51.5406      53.1759      78.4539       0.2433       4.0788       2.5012
   3327.0864      14.4584       0.0199      86.4768      99.3995      54.0909      55.6605      53.5742       0.2469       4.0909       2.4823
   3327.2388      14.4645       0.0142      85.4618     108.4108      63.7132      64.6614      47.7308       0.2512       4.1034       2.4654
   3327.3911      14.4597       0.0109      85.9445     117.2359      83.0109      81.7345      57.8614       0.2560       4.1020       2.4583
   3327.5435      14.4781       0.0062      84.9893     121.5430     110.4455     103.5627      86.9455       0.2549       4.1278       2.4650
   3327.6958      14.4843       0.0057      85.0346     119.3178     149.9988     134.4048      91.5184       0.2447       4.2780       2.4754
   3327.8484      14.4804       0.0070      83.8001     113.9626     172.8451     150.1271     205.3288       0.2288       4.3280       2.4771
   3328.0007      14.4802       0.0064      82.0820     108.5105     173.2144     149.5840     343.6989       0.2185       4.4040       2.4692
   3328.1531      14.4639       0.0060      82.5475     109.4404     167.8265     146.5925     327.4548       0.2172       4.2962       2.4646
