#------------------------------------------------------------------------------
#
#   Created by  : [OpenWorks] Log Export Utility (LEXP)
#   Created on  : 2016-05-23 11:51:57
#   Project     : CANT971
#   User        : R5K
#   Interpreter : PEP
#
#------------------------------------------------------------------------------
~VERSION INFORMATION
VERS. 2.0 : CWLS Log ASCII Standard - version 2.0
WRAP. YES : Mulitple lines per depth step
~WELL INFORMATION
#MNEMONIC   .UNIT                                           VALUE :DESCRIPTION
#------------------------------------------------------------------------------
STRT        .M                                           782.8787 :START DEPTH
STOP        .M                                          2966.0088 :STOP DEPTH
STEP        .M                                             0.1524 :STEP
NULL        .                                           -999.2500 :NULL VALUE
COMP        .                                   PEMEX EXPL & PROD :COMPANY
WELL        .                                                 178 :WELL
FLD         .                                           CANTARELL :FIELD
LOC         .                                             UNKNOWN :LOCATION
CNTY        .                                      CD. DEL CARMEN :COUNTY
STAT        .                                            CAMPECHE :STATE
CTRY        .                                              MEXICO :COUNTRY
SRVC        .                                             UNKNOWN :SERVICE COMPANY
DATE        .                                             UNKNOWN :LOG DATE
UWI         .                                          3060000702 :UNIQUE WELL ID
XCOORD      .                                       602144.590000 :SURFACE X
YCOORD      .                                      2147185.340000 :SURFACE Y
LAT         .                                           19.417512 :LATITUDE
LON         .                                          -92.027103 :LONGITUDE
ELEV        .M                                            28.1700 :SURFACE ELEV
ELEV_TYPE   .                                                  KB :ELEV TYPE
~CURVE INFORMATION
#MNEMONIC.UNIT        API CODE       : CURVE DESCRIPTION
#------------------------------------------------------------------------------
DEPTH    .M                          : Measured Depth
CALI     .inches      UNKNOWN        : CALI:registros:rC:NONE:v0 (auto-composite)
CGR      .API         UNKNOWN        : CGR:registros:rC:NONE:v0 (auto-composite)
DRHO     .g/cm3       UNKNOWN        : DRHO:registros:rC:NONE:v0 (auto-composite)
DT       .UNKNOWN     UNKNOWN        : DT:registros:rC:NONE:v0 (auto-composite)
GR       .API         UNKNOWN        : GR:registros:rC:NONE:v0 (auto-composite)
GR-LWD   .UNKNOWN     UNKNOWN        : GR-LWD:registros:rC:NONE:v0 (auto-composite)
ILD      .ohm.m       UNKNOWN        : ILD:registros:rC:NONE:v0 (auto-composite)
ILM      .ohm.m       UNKNOWN        : ILM:registros:rC:NONE:v0 (auto-composite)
LLD      .ohm.m       UNKNOWN        : LLD:registros:rC:NONE:v0 (auto-composite)
LLD-LWD  .UNKNOWN     UNKNOWN        : LLD-LWD:registros:rC:NONE:v0 (auto-composite)
LLS      .ohm.m       UNKNOWN        : LLS:registros:rC:NONE:v0 (auto-composite)
LLS-LWD  .UNKNOWN     UNKNOWN        : LLS-LWD:registros:rC:NONE:v0 (auto-composite)
MSFL     .ohm.m       UNKNOWN        : MSFL:registros:rC:NONE:v0 (auto-composite)
MSFL-LWD .UNKNOWN     UNKNOWN        : MSFL-LWD:registros:rC:NONE:v0 (auto-composite)
NPHI     .v/v_decimal UNKNOWN        : NPHI:registros:rC:NONE:v0 (auto-composite)
PEF      .b/elec      UNKNOWN        : PEF:registros:rC:NONE:v0 (auto-composite)
POTA     .wtpercent   UNKNOWN        : POTA:registros:rC:NONE:v0 (auto-composite)
RHOB     .g/cm3       UNKNOWN        : RHOB:registros:rC:NONE:v0 (auto-composite)
THOR     .ppm         UNKNOWN        : THOR:registros:rC:NONE:v0 (auto-composite)
URAN     .ppm         UNKNOWN        : URAN:registros:rC:NONE:v0 (auto-composite)
~A
# ...
   1719.8339
      16.4982      33.0807      -1.1374      56.0613      54.1267    -999.2500
    -999.2500    -999.2500       2.9545    -999.2500       2.7574    -999.2500
       1.2817    -999.2500      -0.0113      16.6803       0.0139       1.6010
       2.9990       2.7085
   1719.9863
      14.8231      34.6223      -1.0601      56.0849      56.0185    -999.2500
    -999.2500    -999.2500       3.0959    -999.2500       2.8049    -999.2500
       1.3084    -999.2500      -0.0116      16.6879       0.0145       1.6010
       3.0838       2.7365
   1720.1387
      13.4131      34.7746      -0.9753      56.1209      56.5190    -999.2500
    -999.2500    -999.2500       3.4951    -999.2500       3.1285    -999.2500
       1.1128    -999.2500      -0.0078      16.3902       0.0150       1.6010
       2.7717       2.8049
   1720.2911
      12.0533      34.8877      -0.8897      56.1554      56.9491    -999.2500
    -999.2500    -999.2500       3.8798    -999.2500       3.4434    -999.2500
       1.0120    -999.2500      -0.0036      16.0931       0.0154       1.6010
       2.4713       2.8691
   1720.4435
      11.3011      34.5491      -0.7993      56.1724      56.5702    -999.2500
    -999.2500    -999.2500       4.1018    -999.2500       3.6615    -999.2500
       2.0008    -999.2500       0.0045      15.8100       0.0157       1.6010
       2.3139       2.8826
   1720.5959
      10.6292      34.2193      -0.7176      56.1876      56.1155    -999.2500
    -999.2500    -999.2500       4.3016    -999.2500       3.8648    -999.2500
       2.8378    -999.2500       0.0131      15.5292       0.0159       1.6010
       2.1748       2.8830
   1720.7483
      10.8918      34.0001      -0.7371      56.1821      54.7755    -999.2500
    -999.2500    -999.2500       4.2466    -999.2500       3.8993    -999.2500
       1.9341    -999.2500       0.0249      15.2838       0.0158       1.6010
       2.2462       2.7346
   1720.9008
      11.2327      33.7534      -0.7580      56.1752      53.4625    -999.2500
    -999.2500    -999.2500       4.1809    -999.2500       3.9173    -999.2500
       1.0877    -999.2500       0.0360      15.0839       0.0157       1.6010
       2.3137       2.5954
   1721.0531
      12.4572      33.2007      -0.7955      56.1527      52.5123    -999.2500
    -999.2500    -999.2500       3.9924    -999.2500       3.7452    -999.2500
       0.8956    -999.2500       0.0410      15.4047       0.0155       1.6010
       2.3347       2.5629
   1721.2056
      13.5135      32.7715      -0.8290      56.1290      51.7194    -999.2500
    -999.2500    -999.2500       3.8016    -999.2500       3.5784    -999.2500
       0.7565    -999.2500       0.0453      15.7069       0.0155       1.6010
       2.3403       2.5313
   1721.3579
      12.6126      33.7712      -0.8165      56.0915      52.8200    -999.2500
    -999.2500    -999.2500       3.5836    -999.2500       3.4709    -999.2500
       1.2271    -999.2500       0.0443      15.7923       0.0160       1.6010
       2.1704       2.5108
   1721.5104
      11.8079      34.7865      -0.8018      56.0579      53.9075    -999.2500
    -999.2500    -999.2500       3.3701    -999.2500       3.3748    -999.2500
       1.6257    -999.2500       0.0429      15.8452       0.0166       1.6021
       2.0091       2.4893
   1721.6627
      12.1302      35.9477      -0.7618      56.0689      54.8078    -999.2500
    -999.2500    -999.2500       3.2087    -999.2500       3.4093    -999.2500
       1.1956    -999.2500       0.0398      15.5244       0.0173       1.6156
       1.9476       2.4558
   1721.8151
      12.4145      37.1162      -0.7238      56.0827      55.7884    -999.2500
    -999.2500    -999.2500       3.0612    -999.2500       3.4238    -999.2500
       0.7947    -999.2500       0.0371      15.2219       0.0181       1.6307
       1.8889       2.4311
   1721.9675
      12.2591      38.3493      -0.7093      56.1287      57.7100    -999.2500
    -999.2500    -999.2500       3.0757    -999.2500       3.2078    -999.2500
       0.7282    -999.2500       0.0384      15.1334       0.0187       1.6642
       1.8634       2.5076
   1722.1199
      12.0107      39.4387      -0.6954      56.1746      59.5763    -999.2500
    -999.2500    -999.2500       3.1020    -999.2500       3.0264    -999.2500
       0.7284    -999.2500       0.0400      15.0543       0.0190       1.6912
       1.8329       2.5939
   1722.2723
      10.7002      38.8626      -0.6874      56.2196      60.7667    -999.2500
    -999.2500    -999.2500       3.2634    -999.2500       3.2428    -999.2500
       1.4924    -999.2500       0.0433      15.0823       0.0189       1.6442
       1.7450       2.7917
   1722.4247
       9.4958      38.2343      -0.6829      56.2628      61.7641    -999.2500
    -999.2500    -999.2500       3.4266    -999.2500       3.4532    -999.2500
       2.1458    -999.2500       0.0476      15.1271       0.0185       1.6047
       1.6610       2.9774
   1722.5771
       9.5308      37.0173      -0.7194      56.2853      60.4638    -999.2500
    -999.2500    -999.2500       3.6091    -999.2500       3.5921    -999.2500
       1.5334    -999.2500       0.0619      15.3645       0.0181       1.6507
       1.6230       3.0198
   1722.7295
       9.5813      35.8806      -0.7515      56.3041      59.1382    -999.2500
    -999.2500    -999.2500       3.7934    -999.2500       3.7359    -999.2500
       0.9909    -999.2500       0.0766      15.5903       0.0178       1.6956
       1.5955       3.0433
   1722.8820
       9.8087      35.6883      -0.7335      56.2806      57.6110    -999.2500
    -999.2500    -999.2500       3.9978    -999.2500       3.9343    -999.2500
       1.2508    -999.2500       0.0927      15.6802       0.0177       1.7281
       1.6879       2.8491
   1723.0343
      10.0251      35.6254      -0.7163      56.2550      56.2247    -999.2500
    -999.2500    -999.2500       4.1966    -999.2500       4.1311    -999.2500
       1.4796    -999.2500       0.1071      15.7372       0.0177       1.7543
       1.7703       2.6569
   1723.1868
      10.1141      37.0521      -0.7078      56.2055      56.4985    -999.2500
    -999.2500    -999.2500       4.3291    -999.2500       4.3065    -999.2500
       1.3502    -999.2500       0.1023      15.4190       0.0182       1.7083
       1.7368       2.4957
   1723.3391
      10.2300      38.4738      -0.7007      56.1576      56.8198    -999.2500
    -999.2500    -999.2500       4.4450    -999.2500       4.4563    -999.2500
       1.2841    -999.2500       0.0974      15.1033       0.0188       1.6685
       1.6969       2.3405
   1723.4916
      10.6539      39.7947      -0.7092      56.1270      57.7039    -999.2500
    -999.2500    -999.2500       4.3700    -999.2500       4.3098    -999.2500
       1.9469    -999.2500       0.0941      14.8226       0.0194       1.7000
       1.5851       2.2607
   1723.6439
      11.0405      41.0370      -0.7159      56.1000      58.5667    -999.2500
    -999.2500    -999.2500       4.2990    -999.2500       4.1739    -999.2500
       2.5117    -999.2500       0.0911      14.5605       0.0200       1.7301
       1.4761       2.1904
   1723.7963
      10.9970      41.3345      -0.7019      56.1125      59.1835    -999.2500
    -999.2500    -999.2500       4.2745    -999.2500       4.1599    -999.2500
       1.9460    -999.2500       0.0921      14.5170       0.0202       1.7441
       1.4032       2.2318
   1723.9487
      10.9130      41.4349      -0.6881      56.1271      59.6194    -999.2500
    -999.2500    -999.2500       4.2493    -999.2500       4.1504    -999.2500
       1.4442    -999.2500       0.0934      14.4980       0.0200       1.7619
       1.3398       2.2768
   1724.1011
      10.3686      39.2795      -0.6771      56.1656      57.9255    -999.2500
    -999.2500    -999.2500       4.2153    -999.2500       4.1924    -999.2500
       1.6718    -999.2500       0.0993      14.7583       0.0194       1.8228
       1.3873       2.3612
