#------------------------------------------------------------------------------
#
#   Created by  : [OpenWorks] Log Export Utility (LEXP)
#   Created on  : 2015-10-01 09:50:16
#   Project     : CANT971
#   User        : R5K
#   Interpreter : PEP
#
#------------------------------------------------------------------------------
~VERSION INFORMATION
VERS. 2.0 : CWLS Log ASCII Standard - version 2.0
WRAP.  NO : One line per depth step
~WELL INFORMATION
#MNEMONIC   .UNIT                                           VALUE :DESCRIPTION
#------------------------------------------------------------------------------
STRT        .M                                           352.7300 :START DEPTH
STOP        .M                                          2346.8840 :STOP DEPTH
STEP        .M                                             0.1524 :STEP
NULL        .                                           -999.2500 :NULL VALUE
COMP        .                                   PEMEX EXPL & PROD :COMPANY
WELL        .                                        CANTARELL-64 :WELL
FLD         .                                           CANTARELL :FIELD
LOC         .                                             UNKNOWN :LOCATION
CNTY        .                                      CD. DEL CARMEN :COUNTY
STAT        .                                            CAMPECHE :STATE
CTRY        .                                              MEXICO :COUNTRY
SRVC        .                                             UNKNOWN :SERVICE COMPANY
DATE        .                                             UNKNOWN :LOG DATE
UWI         .                                          3060000172 :UNIQUE WELL ID
XCOORD      .                                       599695.280000 :SURFACE X
YCOORD      .                                      2143036.290000 :SURFACE Y
LAT         .                                           19.380142 :LATITUDE
LON         .                                          -92.050647 :LONGITUDE
ELEV        .M                                            26.7400 :SURFACE ELEV
ELEV_TYPE   .                                                  KB :ELEV TYPE
~CURVE INFORMATION
#MNEMONIC.UNIT        API CODE       : CURVE DESCRIPTION
#------------------------------------------------------------------------------
DEPTH    .M                          : Measured Depth
CALI     .inches      UNKNOWN        : CALI:UNKNOWN:rC:NONE:v0 (auto-composite)
DRHO     .g/cm3       UNKNOWN        : DRHO:UNKNOWN:rC:NONE:v0 (auto-composite)
DT       .us/ft       UNKNOWN        : DT:DT:rC:NONE:v0 (auto-composite)
GR       .API         UNKNOWN        : GR:GR-Load:rC:NONE:v0 (auto-composite)
ILD      .ohm.m       UNKNOWN        : ILD:ILD-Load:rC:NONE:v0 (auto-composite)
LLD      .ohm.m       UNKNOWN        : LLD:UNKNOWN:rC:NONE:v0 (auto-composite)
LLS      .ohm.m       UNKNOWN        : LLS:UNKNOWN:rC:NONE:v0 (auto-composite)
MSFL     .ohm.m       UNKNOWN        : MSFL:UNKNOWN:rC:NONE:v0 (auto-composite)
NPHI     .v/v_decimal UNKNOWN        : NPHI:NPHI:rC:NONE:v0 (auto-composite)
PEF      .b/elec      UNKNOWN        : PEF:UNKNOWN:rC:NONE:v0 (auto-composite)
RHOB     .g/cm3       UNKNOWN        : RHOB:RHOB-Load:rC:NONE:v0 (auto-composite)
~A     DEPTH        CALI         DRHO           DT           GR          ILD          LLD          LLS         MSFL         NPHI          PEF         RHOB
# ...
   2302.2310      5.5224       0.1228      53.4198      78.3489       0.0000     900.4443     573.9496     171.7547      10.9792       2.8019       2.5748 
   2302.3833      5.5294       0.1141      53.4233      65.5507       0.0000    1116.1924     687.7631     149.6292      11.2526       2.7777       2.5983 
   2302.5356      5.5244       0.1016      53.7405      54.3761       0.0000    1229.1826     711.0597     193.1328      11.3832       2.8123       2.6155 
   2302.6880      5.5221       0.0947      54.3677      44.8057       0.0000    1237.4553     689.5136     227.7997      11.3737       2.8607       2.6265 
   2302.8403      5.5256       0.1003      54.6770      39.0467       0.0000    1018.9957     570.8753     243.3333      11.1778       2.9388       2.6358 
   2302.9929      5.5307       0.1005      54.6730      37.0664       0.0000     747.1797     421.5706     226.2740      10.7995       2.9805       2.6433 
   2303.1453      5.5393       0.0894      54.5867      36.0928       0.0000     361.9188     207.0640     139.9166      10.0556       2.9444       2.6635 
   2303.2976      5.5468       0.0820      54.4192      36.1143       0.0000      99.9125      62.7634      97.7211       8.9527       2.9185       2.6966 
   2303.4500      5.5523       0.0820      53.9949      36.6244       0.0000      93.4024      63.9938     147.0694       8.4138       2.9140       2.7130 
   2303.6025      5.5467       0.0813      53.3177      37.6193       0.0000      87.0228      65.5797     163.9879       8.4273       2.9193       2.7130 
   2303.7549      5.5186       0.0793      53.0539      42.1324       0.0000      80.9069      67.8841     115.3516       8.6550       2.9444       2.7110 
   2303.9072      5.4983       0.0760      53.1990      50.1254       0.0000      70.6857      64.1036      71.7600       9.0931       2.9605       2.7070 
   2304.0596      5.4933       0.0700      53.2690      59.2565       0.0000      52.3704      48.3259      38.1147       9.5347       2.9590       2.6937 
   2304.2122      5.4933       0.0662      53.2650      69.5101       0.0000      36.7426      34.5233      17.6939       9.9795       2.9625       2.6712 
   2304.3645      5.5028       0.0667      53.1990      74.5376       0.0000      26.2839      24.5201      22.7103      10.1934       2.9755       2.6472 
   2304.5168      5.5093       0.0687      53.0720      74.3935       0.0000      23.9453      21.3007      39.5802      10.1804       2.9948       2.6217 
   2304.6692      5.5103       0.0737      52.8720      71.9660       0.0000      36.9549      30.9038      78.8556       9.9532       3.0258       2.6093 
   2304.8215      5.5142       0.0803      52.5999      67.2856       0.0000      61.3836      47.6022     122.0022       9.5161       3.0416       2.6098 
   2304.9741      5.5232       0.0899      52.1896      61.5787       0.0000     106.8762      77.3888     172.2896       8.7948       3.0291       2.6175 
   2305.1265      5.5448       0.0962      51.6434      54.8557       0.0000     288.4936     168.2768     190.8474       7.7957       3.0223       2.6325 
   2305.2788      5.5889       0.0967      50.3702      50.1040       0.0000     715.1954     369.1742     152.2780       6.7442       3.0258       2.6513 
   2305.4312      5.6123       0.0955      48.3795      47.2982       0.0000    1368.2145     669.7859     116.3853       5.6413       3.0338       2.6738 
   2305.5837      5.5992       0.0915      47.4285      45.7427       0.0000    2419.0144    1145.6581      85.1973       5.1005       3.0499       2.7051 
   2305.7361      5.5934       0.0825      47.5010      45.4256       0.0000    2882.8376    1381.2722      69.9649       5.1095       3.0192       2.7451 
   2305.8884      5.5999       0.0650      48.4749      40.9303       0.0000    2339.3503    1204.5793      82.1139       5.2367       2.9085       2.7640 
   2306.0408      5.6059       0.0473      50.3391      32.3085       0.0000    1781.4580    1007.2849      84.4128       5.4798       2.8508       2.7620 
   2306.1934      5.6109       0.0292      54.4757      28.0180       0.0000    1199.2596     775.2286      70.0916       5.8458       2.8823       2.7359 
   2306.3457      5.6026       0.0235      60.8499      28.0200       0.0000     765.8209     582.3687      56.2476       6.3321       2.9359       2.6859 
   2306.4980      5.5726       0.0380      64.0047      28.1319       0.0000     577.5193     454.0997      43.1899       8.0331       3.0256       2.5760 
   2306.6504      5.5404       0.0553      63.9782      28.3523       0.0000     427.1304     350.2879      40.8893      10.9266       3.0750       2.4064 
   2306.8027      5.5048       0.0768      63.5763      30.5451       0.0000     337.7642     285.8418      55.9029      12.3110       3.0595       2.3245 
   2306.9553      5.4828       0.0923      62.8046      34.6936       0.0000     276.5349     239.9086      71.6410      12.2181       3.0340       2.3295 
   2307.1077      5.4823       0.0984      60.1918      39.7166       0.0000     259.5468     223.0845      88.5183      11.0875       2.9929       2.3917 
   2307.2600      5.4838       0.1010      55.7586      45.6040       0.0000     268.0424     224.4633      89.6735       8.9377       2.9860       2.5107 
   2307.4124      5.4883       0.0985      52.3282      56.2389       0.0000     315.6854     253.8051      66.6768       7.1966       3.0316       2.6084 
   2307.5649      5.4944       0.0948      49.8863      71.5836       0.0000     574.8232     383.2373      54.7628       5.8556       3.0868       2.6849 
   2307.7173      5.5029       0.0893      48.2800      79.0538       0.0000    1151.4176     662.9066      59.4841       4.9059       3.1565       2.7295 
   2307.8696      5.5048       0.0945      47.5002      78.7352       0.0000    1859.6541     987.9706      60.3107       4.3407       3.2168       2.7425 
   2308.0220      5.4967       0.1156      48.0674      75.0691       0.0000    2762.2727    1380.0646      55.3866       3.7889       3.2635       2.7450 
   2308.1746      5.4908       0.1278      49.9631      68.1016       0.0000    3311.7080    1667.1503      47.8178       3.2502       3.2777       2.7370 
   2308.3269      5.4878       0.1273      50.8917      59.1563       0.0000    3351.4812    1802.7035      36.4328       2.9906       3.2451       2.7345 
   2308.4792      5.4858       0.1226      50.8692      48.2538       0.0000    3018.5374    1714.1677      30.3025       3.0036       3.2015       2.7375 
   2308.6316      5.4853       0.1121      50.5919      40.3704       0.0000    2159.9114    1309.5757      31.5835       3.1530       3.1423       2.7387 
   2308.7839      5.4877       0.1066      50.0632      35.4660       0.0000    1381.0432     909.2976      31.3113       3.4361       3.0882       2.7382 
   2308.9365      5.4943       0.1081      49.8380      33.1172       0.0000     712.1309     514.9670      28.8976       3.8416       3.0411       2.7265 
   2309.0889      5.5018       0.1088      49.9115      33.2988       0.0000     307.4758     272.6945      27.3227       4.3669       3.0181       2.7035 
   2309.2412      5.5109       0.1083      51.0200      35.2320       0.0000     258.9491     235.3444      26.8783       5.2080       3.0276       2.6920 
   2309.3936      5.5130       0.1061      53.1503      38.8944       0.0000     271.4513     248.7210      30.0822       6.3589       3.0533       2.6920 
   2309.5461      5.5060       0.1015      54.1833      49.3454       0.0000     364.8858     329.3681      38.1239       6.9149       3.1004       2.6925 
   2309.6985      5.5092       0.1025      54.1363      66.5212       0.0000     542.3339     467.6902      46.1205       6.8889       3.1375       2.6935 
   2309.8508      5.5258       0.1105      53.6749      74.9934       0.0000     828.7067     680.7889      54.0585       6.6258       3.1615       2.6990 
   2310.0032      5.5304       0.1190      52.8041      74.8689       0.0000     961.7312     757.5677      59.0041       6.1301       3.1900       2.7090 
