#------------------------------------------------------------------------------
#
#   Created by  : [OpenWorks] Log Export Utility (LEXP)
#   Created on  : 2016-05-23 11:52:56
#   Project     : CANT971
#   User        : R5K
#   Interpreter : PEP
#
#------------------------------------------------------------------------------
~VERSION INFORMATION
VERS. 2.0 : CWLS Log ASCII Standard - version 2.0
WRAP.  NO : One line per depth step
~WELL INFORMATION
#MNEMONIC   .UNIT                                           VALUE :DESCRIPTION
#------------------------------------------------------------------------------
STRT        .M                                           340.6189 :START DEPTH
STOP        .M                                          3243.0769 :STOP DEPTH
STEP        .M                                             0.1524 :STEP
NULL        .                                           -999.2500 :NULL VALUE
COMP        .                                   PEMEX EXPL & PROD :COMPANY
WELL        .                                                2098 :WELL
FLD         .                                           CANTARELL :FIELD
LOC         .                                             UNKNOWN :LOCATION
CNTY        .                                      CD. DEL CARMEN :COUNTY
STAT        .                                            CAMPECHE :STATE
CTRY        .                                              MEXICO :COUNTRY
SRVC        .                                             UNKNOWN :SERVICE COMPANY
DATE        .                                             UNKNOWN :LOG DATE
UWI         .                                          3060000229 :UNIQUE WELL ID
XCOORD      .                                       599692.800000 :SURFACE X
YCOORD      .                                      2143031.510000 :SURFACE Y
LAT         .                                           19.380099 :LATITUDE
LON         .                                          -92.050671 :LONGITUDE
ELEV        .M                                            26.7400 :SURFACE ELEV
ELEV_TYPE   .                                                  KB :ELEV TYPE
~CURVE INFORMATION
#MNEMONIC.UNIT        API CODE       : CURVE DESCRIPTION
#------------------------------------------------------------------------------
DEPTH    .M                          : Measured Depth
CALI     .inches      UNKNOWN        : CALI:litodensidad:rC:NONE:v0 (auto-composite)
CGR      .API         UNKNOWN        : CGR:Espectrometria:rC:NONE:v0 (auto-composite)
DRHO     .g/cm3       UNKNOWN        : DRHO:litodensidad:rC:NONE:v0 (auto-composite)
DT       .us/ft       UNKNOWN        : DT:DT-Load:rC:NONE:v0 (auto-composite)
GR       .API         UNKNOWN        : GR:GR-load:rC:NONE:v0 (auto-composite)
ILD      .UNKNOWN     UNKNOWN        : ILD:resistivos:rC:NONE:v0 (auto-composite)
LLD      .ohm.m       UNKNOWN        : LLD:resistivos:rC:NONE:v0 (auto-composite)
LLS      .UNKNOWN     UNKNOWN        : LLS:resistivos:rC:NONE:v0 (auto-composite)
MSFL     .UNKNOWN     UNKNOWN        : MSFL:resistivos:rC:NONE:v0 (auto-composite)
NPHI     .v/v_decimal UNKNOWN        : NPHI:porosidad:rC:NONE:v0 (auto-composite)
PEF      .UNKNOWN     UNKNOWN        : PEF:litodensidad:rC:NONE:v0 (auto-composite)
POTA     .UNKNOWN     UNKNOWN        : POTA:Espectrometria:rC:NONE:v0 (auto-composite)
RHOB     .UNKNOWN     UNKNOWN        : RHOB:litodensidad:rC:NONE:v0 (auto-composite)
THOR     .ppm         UNKNOWN        : THOR:Espectrometria:rC:NONE:v0 (auto-composite)
URAN     .ppm         UNKNOWN        : URAN:Espectrometria:rC:NONE:v0 (auto-composite)
~A     DEPTH         CALI          CGR         DRHO           DT           GR          ILD          LLD          LLS         MSFL         NPHI          PEF         POTA         RHOB         THOR         URAN
# ...
   3098.4492       6.3988       7.4376       0.0152      55.7136      21.0642    -999.2500      64.2548      49.1910      13.4572       0.0408       5.1254       0.0030       2.5505       0.5179       1.5439
   3098.6016       6.4010       4.2232       0.0198      55.0557      16.5114    -999.2500      68.0837      51.7255      20.5382       0.0427       5.2885       0.0012       2.5454       0.4798       1.3922
   3098.7542       6.3989       3.4679       0.0205      60.1705      16.3832    -999.2500      75.1420      57.0021      82.8585       0.0433       5.2467       0.0006       2.5573       0.5528       1.4633
   3098.9065       6.3947       2.1600       0.0149      56.5710      14.2954    -999.2500      88.7881      67.1421      35.2205       0.0358       5.5714       0.0003       2.5850       0.3626       1.3749
   3099.0588       6.3994       4.3849       0.0223      54.9741      10.6223    -999.2500     139.7765     105.4383     126.9036       0.0298       5.6741       0.0016       2.6253       0.3604       0.7067
   3099.2112       6.4004       4.2933       0.0264      53.4486       9.8663    -999.2500     192.4371     143.8149     211.0874       0.0234       5.5109       0.0018       2.6517       0.2798       0.6314
   3099.3638       6.3871       4.0276       0.0208      49.5900       8.8903    -999.2500     273.0369     199.4489     202.4246       0.0194       5.2481       0.0021       2.6588       0.0764       0.5509
   3099.5161       6.3698       2.9233       0.0261      47.6328      11.1834    -999.2500     415.9088     300.3475     450.1909       0.0161       4.8194       0.0015       2.6792       0.0673       0.9358
   3099.6685       6.3429       3.1368       0.0192      47.4953      12.1276    -999.2500     511.4120     375.4124     357.5237       0.0141       4.8023       0.0015       2.6885       0.1198       1.0186
   3099.8208       6.2764       2.8550       0.0121      46.5195      11.4713    -999.2500     427.0999     318.5528     286.0088       0.0136       4.9723       0.0014       2.6870       0.0780       0.9762
   3099.9731       6.2732       6.8433       0.0078      46.1592      16.1395    -999.2500     338.6175     250.6813     385.0307       0.0151       5.3261       0.0024       2.6818       0.6188       1.0532
   3100.1257       6.2754       5.8013       0.0057      45.5165      15.0303    -999.2500     309.5026     229.3131     437.1640       0.0161       5.5531       0.0018       2.6613       0.6133       1.0456
   3100.2781       6.2596       4.9446       0.0047      47.2335      13.8467    -999.2500     237.3088     176.5897     207.1375       0.0169       5.2283       0.0013       2.6466       0.6210       1.0086
   3100.4304       6.2374       2.6919       0.0107      47.0792      17.1993    -999.2500     209.0961     155.4359     265.1710       0.0158       5.0652       0.0008       2.6449       0.2945       1.6437
   3100.5828       6.2375       3.4820       0.0133      48.7058      18.6743    -999.2500     214.8273     159.7827     385.4013       0.0150       4.8868       0.0012       2.6602       0.3225       1.7213
   3100.7354       6.2355       3.6947       0.0197      48.9641      19.1578    -999.2500     192.4832     145.1895     331.4746       0.0143       5.0198       0.0012       2.6747       0.3857       1.7519
   3100.8877       6.2433       3.8716       0.0238      50.8411      18.8570    -999.2500     177.3378     133.9778     221.6643       0.0148       5.0432       0.0013       2.6871       0.3842       1.6978
   3101.0400       6.2438       4.2954       0.0172      50.5134      18.9879    -999.2500     206.6656     158.2758     243.7030       0.0151       5.2438       0.0010       2.6753       0.5885       1.6646
   3101.1924       6.2485       5.5336       0.0155      51.0636      19.9511    -999.2500     200.1302     154.7999     121.7145       0.0148       5.2656       0.0015       2.6707       0.6854       1.6335
   3101.3450       6.2675       3.0041       0.0229      51.8927      15.9604    -999.2500     189.1032     146.3037      98.1312       0.0145       5.1327       0.0011       2.6807       0.2593       1.4679
   3101.4973       6.2779       3.6139       0.0145      53.4569      16.0036    -999.2500     159.6896     126.0138      43.2292       0.0144       4.9281       0.0017       2.6566       0.1599       1.4037
   3101.6497       6.3249       2.5218       0.0092      50.3859      12.2648    -999.2500     144.1752     114.7007     125.8663       0.0162       4.8433       0.0019       2.6370      -0.1961       1.1039
   3101.8020       6.3689       0.8217       0.0077      51.0635       8.2032    -999.2500     146.3957     117.1864     118.9304       0.0156       5.2051       0.0008       2.6218      -0.1559       0.8363
   3101.9543       6.3665       2.7763       0.0038      54.0056      10.0051    -999.2500     150.3108     121.1211     483.3452       0.0150       5.4925       0.0020       2.6334      -0.1958       0.8190
   3102.1069       6.3090       1.6667       0.0021      54.3769       7.7538    -999.2500     165.7240     132.8518     163.2904       0.0130       5.5336       0.0013       2.6550      -0.1366       0.6897
   3102.2593       6.3010       2.9676       0.0040      53.8483       8.7165    -999.2500     180.1027     145.1707      81.0415       0.0136       5.4291       0.0018       2.6628      -0.0358       0.6513
   3102.4116       6.2963       2.2776       0.0037      50.7814       8.4394    -999.2500     167.7622     135.0895     206.3368       0.0152       5.1417       0.0010       2.6583       0.1072       0.6981
   3102.5640       6.2970       1.8413      -0.0004      49.2588       8.0186    -999.2500     169.2807     136.1060     181.0089       0.0169       5.3542       0.0003       2.6349       0.2957       0.6999
   3102.7166       6.2789       1.7362       0.0033      48.8141       8.2390    -999.2500     174.9365     139.3451     229.0624       0.0166       5.2378      -0.0000       2.6465       0.4076       0.7368
   3102.8689       6.2697       3.7696       0.0057      48.1369      10.9530    -999.2500     215.1560     166.7968      57.9235       0.0149       5.4948       0.0024       2.6506      -0.1254       0.8139
   3103.0212       6.2677       6.6515       0.0047      48.2720      16.4504    -999.2500     276.5930     210.3009      87.8782       0.0131       5.4449       0.0040       2.6599      -0.0935       1.1102
   3103.1736       6.2739       3.2528       0.0065      48.4314      13.2613    -999.2500     305.9356     232.7096     189.1324       0.0125       5.5887       0.0033       2.6653      -0.5904       1.1339
   3103.3262       6.2760       4.0641       0.0092      49.2394      15.3989    -999.2500     318.0483     242.7957     935.8447       0.0124       5.5833       0.0034       2.6763      -0.4328       1.2842
   3103.4785       6.2758       4.2623       0.0097      50.0738      16.8075    -999.2500     310.9265     241.8994     223.4375       0.0133       5.3723       0.0031       2.6781      -0.2931       1.4213
   3103.6309       6.2984       3.3767       0.0108      50.9090      20.5271    -999.2500     300.4954     238.4552     283.7790       0.0131       5.1914       0.0016       2.6717       0.1440       1.9431
   3103.7832       6.3077       2.6456       0.0159      50.2346      19.7425    -999.2500     298.8323     240.6165     158.3810       0.0147       5.0722       0.0014       2.6712       0.0467       1.9370
   3103.9355       6.3124       1.7372       0.0136      51.3364      18.6537    -999.2500     284.0451     231.2940     113.3413       0.0174       5.1430       0.0009       2.6514       0.0250       1.9166
   3104.0881       6.2848       1.9050       0.0104      52.2641      13.4531    -999.2500     269.1561     221.9039     117.6894       0.0215       5.0290       0.0021       2.6233      -0.4346       1.3084
   3104.2405       6.2998       3.2931       0.0074      52.9639      15.4815    -999.2500     215.7952     180.9060      85.5132       0.0235       4.9771       0.0025       2.5978      -0.2492       1.3809
