#------------------------------------------------------------------------------
#
#   Created by  : [OpenWorks] Log Export Utility (LEXP)
#   Created on  : 2016-05-23 11:57:14
#   Project     : CANT971
#   User        : R5K
#   Interpreter : PEP
#
#------------------------------------------------------------------------------
~VERSION INFORMATION
VERS. 2.0 : CWLS Log ASCII Standard - version 2.0
WRAP.  NO : One line per depth step
~WELL INFORMATION
#MNEMONIC   .UNIT                                           VALUE :DESCRIPTION
#------------------------------------------------------------------------------
STRT        .M                                           551.2302 :START DEPTH
STOP        .M                                          2435.9609 :STOP DEPTH
STEP        .M                                             0.1524 :STEP
NULL        .                                           -999.2500 :NULL VALUE
COMP        .                                   PEMEX EXPL & PROD :COMPANY
WELL        .                                                  76 :WELL
FLD         .                                           CANTARELL :FIELD
LOC         .                                             UNKNOWN :LOCATION
CNTY        .                                      CD. DEL CARMEN :COUNTY
STAT        .                                            CAMPECHE :STATE
CTRY        .                                              MEXICO :COUNTRY
SRVC        .                                             UNKNOWN :SERVICE COMPANY
DATE        .                                             UNKNOWN :LOG DATE
UWI         .                                          3060000416 :UNIQUE WELL ID
XCOORD      .                                       599729.570000 :SURFACE X
YCOORD      .                                      2147218.620000 :SURFACE Y
LAT         .                                           19.417934 :LATITUDE
LON         .                                          -92.050101 :LONGITUDE
ELEV        .M                                            27.8000 :SURFACE ELEV
ELEV_TYPE   .                                                  KB :ELEV TYPE
~CURVE INFORMATION
#MNEMONIC.UNIT        API CODE       : CURVE DESCRIPTION
#------------------------------------------------------------------------------
DEPTH    .M                          : Measured Depth
CAL      .inches      UNKNOWN        : CAL:UNKNOWN:rC:NONE:v0 (auto-composite)
DRHO     .UNKNOWN     UNKNOWN        : DRHO:UNKNOWN:rC:NONE:v0 (auto-composite)
DT       .us/ft       UNKNOWN        : DT:DT:rC:NONE:v0 (auto-composite)
GR       .UNKNOWN     UNKNOWN        : GR:GR-Load:rC:NONE:v0 (auto-composite)
ILD      .UNKNOWN     UNKNOWN        : ILD:ILD-Load:rC:NONE:v0 (auto-composite)
LLD      .UNKNOWN     UNKNOWN        : LLD:UNKNOWN:rC:NONE:v0 (auto-composite)
LLS      .UNKNOWN     UNKNOWN        : LLS:UNKNOWN:rC:NONE:v0 (auto-composite)
NPHI     .v/v_decimal UNKNOWN        : NPHI:NPHI:rC:NONE:v0 (auto-composite)
RHOB     .UNKNOWN     UNKNOWN        : RHOB:UNKNOWN:rC:NONE:v0 (auto-composite)
~A     DEPTH          CAL         DRHO           DT           GR          ILD          LLD          LLS         NPHI         RHOB
# ...
   1892.9598       0.0000       0.2500    -999.2500      47.6923       0.2000       0.2000       0.2000    -999.2500       1.9500
   1893.1122       0.0000       0.2500    -999.2500      47.1900       0.2000       0.2000       0.2000    -999.2500       1.9500
   1893.2646       0.0000       0.2500    -999.2500      45.1880       0.2000       0.2000       0.2000    -999.2500       1.9500
   1893.4170       0.0000       0.2500    -999.2500      43.1870       0.2000       0.2000       0.2000    -999.2500       1.9500
   1893.5695       0.0000       0.2500    -999.2500      44.1862       0.2000       0.2000       0.2000    -999.2500       1.9500
   1893.7218       0.0000       0.2500    -999.2500      45.1850       0.2000       0.2000       0.2000    -999.2500       1.9500
   1893.8743       0.0000       0.2500    -999.2500      48.2234       0.2000       0.2000       0.2000    -999.2500       1.9500
   1894.0266       0.0000       0.2500    -999.2500      51.2610       0.2000       0.2000       0.2000    -999.2500       1.9500
   1894.1791       0.0000       0.2500    -999.2500      53.1784       0.2000       0.2000       0.2000    -999.2500       1.9500
   1894.3314       0.0000       0.2500    -999.2500      55.0940       0.2000       0.2000       0.2000    -999.2500       1.9500
   1894.4838       0.0000       0.2500    -999.2500      55.3797       0.2000       0.2000       0.2000    -999.2500       1.9500
   1894.6362       0.0000       0.2500    -999.2500      55.6650       0.2000       0.2000       0.2000    -999.2500       1.9500
   1894.7886       0.0000       0.2500    -999.2500      60.8198       0.2000       0.2000       0.2000    -999.2500       1.9500
   1894.9410       0.0000       0.2500    -999.2500      65.9670       0.2000       0.2000       0.2000    -999.2500       1.9500
   1895.0934       0.0000       0.2500    -999.2500      71.0964       0.2000       0.2000       0.2000    -999.2500       1.9500
   1895.2458       0.0000       0.2500    -999.2500      76.2190       0.2000       0.2000       0.2000    -999.2500       1.9500
   1895.3982       0.0000       0.2500    -999.2500      67.9405       0.2000       0.2000       0.2000    -999.2500       1.9500
   1895.5507       0.0000       0.2500    -999.2500      59.6720       0.2000       0.2000       0.2000    -999.2500       1.9500
   1895.7030       0.0000       0.2500    -999.2500      59.8921       0.2000       0.2000       0.2000    -999.2500       1.9500
   1895.8555       0.0000       0.2500    -999.2500      60.1120       0.2000       0.2000       0.2000    -999.2500       1.9500
   1896.0078       0.0000       0.2500    -999.2500      60.6317       0.2000       0.2000       0.2000    -999.2500       1.9500
   1896.1603       0.0000       0.2500    -999.2500      61.1510       0.2000       0.2000       0.2000    -999.2500       1.9500
   1896.3126       0.0000       0.2500    -999.2500      63.6600       0.2000       0.2000       0.2000    -999.2500       1.9500
   1896.4650       0.0000       0.2500    -999.2500      66.1670       0.2000       0.2000       0.2000    -999.2500       1.9500
   1896.6174       0.0000       0.2500    -999.2500      69.6627       0.2000       0.2000       0.2000    -999.2500       1.9500
   1896.7698       0.0000       0.2500    -999.2500      73.1560       0.2000       0.2000       0.2000    -999.2500       1.9500
   1896.9222       0.0000       0.2500    -999.2500      73.8807       0.2000       0.2000       0.2000    -999.2500       1.9500
   1897.0746       0.0000       0.2500    -999.2500      74.6050       0.2000       0.2000       0.2000    -999.2500       1.9500
   1897.2271       0.0000       0.2500    -999.2500      79.4131       0.2000       0.2000       0.2000    -999.2500       1.9500
   1897.3794       0.0000       0.2500    -999.2500      84.2190       0.2000       0.2000       0.2000    -999.2500       1.9500
   1897.5319       0.0000       0.2500    -999.2500      74.4364       0.2000       0.2000       0.2000    -999.2500       1.9500
   1897.6842       0.0000       0.2500    -999.2500      64.6570       0.2000       0.2000       0.2000    -999.2500       1.9500
   1897.8367       0.0000       0.2500    -999.2500      42.8693       0.2000       0.2000       0.2000    -999.2500       1.9500
   1897.9890       0.0000       0.2500    -999.2500      21.0860       0.2000       0.2000       0.2000    -999.2500       1.9500
   1898.1415       0.0000       0.2500    -999.2500      21.6372       0.2000       0.2000       0.2000    -999.2500       1.9500
   1898.2938       0.0000       0.2500    -999.2500      22.1880       0.2000       0.2000       0.2000    -999.2500       1.9500
   1898.4462       0.0000       0.2500    -999.2500      24.2156       0.2000       0.2000       0.2000    -999.2500       1.9500
   1898.5986       0.0000       0.2500    -999.2500      26.2400       0.2000       0.2000       0.2000    -999.2500       1.9500
   1898.7510       0.0000       0.2500    -999.2500      28.8289       0.2000       0.2000       0.2000    -999.2500       1.9500
   1898.9034       0.0000       0.2500    -999.2500      31.4140       0.2000       0.2000       0.2000    -999.2500       1.9500
   1899.0558       0.0000       0.2500    -999.2500      34.3919       0.2000       0.2000       0.2000    -999.2500       1.9500
   1899.2083       0.0000       0.2500    -999.2500      37.3660       0.2000       0.2000       0.2000    -999.2500       1.9500
   1899.3606       0.0000       0.2500    -999.2500      50.2686       0.2000       0.2000       0.2000    -999.2500       1.9500
   1899.5131       0.0000       0.2500    -999.2500      63.1560       0.2000       0.2000       0.2000    -999.2500       1.9500
   1899.6654       0.0000       0.2500    -999.2500      60.6202       0.2000       0.2000       0.2000    -999.2500       1.9500
   1899.8179       0.0000       0.2500    -999.2500      58.0870       0.2000       0.2000       0.2000    -999.2500       1.9500
   1899.9702       0.0000       0.2500    -999.2500      53.2678       0.2000       0.2000       0.2000    -999.2500       1.9500
   1900.1227       0.0000       0.2500    -999.2500      48.4530       0.2000       0.2000       0.2000    -999.2500       1.9500
   1900.2750       0.0000       0.2500    -999.2500      49.1668       0.2000       0.2000       0.2000    -999.2500       1.9500
   1900.4274       0.0000       0.2500    -999.2500      49.8800       0.2000       0.2000       0.2000    -999.2500       1.9500
   1900.5798       0.0000       0.2500    -999.2500      51.6766       0.2000       0.2000       0.2000    -999.2500       1.9500
   1900.7322       0.0000       0.2500    -999.2500      53.4720       0.2000       0.2000       0.2000    -999.2500       1.9500
   1900.8846       0.0000       0.2500    -999.2500      61.5662       0.2000       0.2000       0.2000    -999.2500       1.9500
   1901.0370       0.0000       0.2500    -999.2500      69.6560       0.2000       0.2000       0.2000    -999.2500       1.9500
   1901.1895       0.0000       0.2500    -999.2500      68.0747       0.2000       0.2000       0.2000    -999.2500       1.9500
   1901.3418       0.0000       0.2500    -999.2500      66.4940       0.2000       0.2000       0.2000    -999.2500       1.9500
   1901.4943       0.0000       0.2500    -999.2500      58.4383       0.2000       0.2000       0.2000    -999.2500       1.9500
   1901.6466       0.0000       0.2500    -999.2500      50.3850       0.2000       0.2000       0.2000    -999.2500       1.9500
   1901.7991       0.0000       0.2500    -999.2500      41.4507       0.2000       0.2000       0.2000    -999.2500       1.9500
   1901.9514       0.0000       0.2500    -999.2500      32.5180       0.2000       0.2000       0.2000    -999.2500       1.9500
   1902.1039       0.0000       0.2500    -999.2500      30.8913       0.2000       0.2000       0.2000    -999.2500       1.9500
   1902.2562       0.0000       0.2500    -999.2500      29.2660       0.2000       0.2000       0.2000    -999.2500       1.9500
