#------------------------------------------------------------------------------
#
#   Created by  : [OpenWorks] Log Export Utility (LEXP)
#   Created on  : 2016-05-23 11:51:18
#   Project     : CANT971
#   User        : R5K
#   Interpreter : PEP
#
#------------------------------------------------------------------------------
~VERSION INFORMATION
VERS. 2.0 : CWLS Log ASCII Standard - version 2.0
WRAP.  NO : One line per depth step
~WELL INFORMATION
#MNEMONIC   .UNIT                                           VALUE :DESCRIPTION
#------------------------------------------------------------------------------
STRT        .M                                           690.7880 :START DEPTH
STOP        .M                                          2950.1179 :STOP DEPTH
STEP        .M                                             0.1524 :STEP
NULL        .                                           -999.2500 :NULL VALUE
COMP        .                                   PEMEX EXPL & PROD :COMPANY
WELL        .                                                1066 :WELL
FLD         .                                           CANTARELL :FIELD
LOC         .                                             UNKNOWN :LOCATION
CNTY        .                                      CD. DEL CARMEN :COUNTY
STAT        .                                            CAMPECHE :STATE
CTRY        .                                              MEXICO :COUNTRY
SRVC        .                                             UNKNOWN :SERVICE COMPANY
DATE        .                                             UNKNOWN :LOG DATE
UWI         .                                          3060000505 :UNIQUE WELL ID
XCOORD      .                                       596157.670000 :SURFACE X
YCOORD      .                                      2150605.920000 :SURFACE Y
LAT         .                                           19.448718 :LATITUDE
LON         .                                          -92.083948 :LONGITUDE
ELEV        .M                                            30.0000 :SURFACE ELEV
ELEV_TYPE   .                                                  KB :ELEV TYPE
~CURVE INFORMATION
#MNEMONIC.UNIT        API CODE       : CURVE DESCRIPTION
#------------------------------------------------------------------------------
DEPTH    .M                          : Measured Depth
CALI     .inches      UNKNOWN        : CALI:litodensidad:rC:NONE:v0 (auto-composite)
DRHO     .g/cm3       UNKNOWN        : DRHO:litodensidad:rC:NONE:v0 (auto-composite)
DT       .us/ft       UNKNOWN        : DT:DT:rC:NONE:v0 (auto-composite)
GR       .API         UNKNOWN        : GR:UNKNOWN:rC:NONE:v0 (auto-composite)
ILD      .ohmm        UNKNOWN        : ILD:UNKNOWN:rC:NONE:v0 (auto-composite)
ILM      .ohmm        UNKNOWN        : ILM:UNKNOWN:rC:NONE:v0 (auto-composite)
LLD      .ohmm        UNKNOWN        : LLD:UNKNOWN:rC:NONE:v0 (auto-composite)
LLS      .ohmm        UNKNOWN        : LLS:UNKNOWN:rC:NONE:v0 (auto-composite)
MSFL     .ohmm        UNKNOWN        : MSFL:UNKNOWN:rC:NONE:v0 (auto-composite)
NPHI     .v/v_decimal UNKNOWN        : NPHI:PETROWORKS:rC:NONE:v2 
PEF      .b/elec      UNKNOWN        : PEF:litodensidad:rC:NONE:v0 (auto-composite)
RHOB     .g/cm3       UNKNOWN        : RHOB:litodensidad:rC:NONE:v0 (auto-composite)
~A     DEPTH         CALI         DRHO           DT           GR          ILD          ILM          LLD          LLS         MSFL         NPHI          PEF         RHOB
# ...
   2936.5544       8.5885       0.0221      93.2204     132.0000       0.2000       0.2000       2.6477       2.7441       1.8347       0.3363       6.1025       2.5733
   2936.7068       8.6165       0.0181      93.0514     132.0000       0.2000       0.2000       2.6432       2.7521       1.8342       0.3385       5.8901       2.5778
   2936.8591       8.5915       0.0141      92.4538     132.0000       0.2000       0.2000       2.6441       2.7557       1.8337       0.3417       5.8341       2.5889
   2937.0117       8.5469       0.0101      91.6985     132.0000       0.2000       0.2000       2.6501       2.7552       1.8332       0.3458       5.8356       2.6024
   2937.1641       8.5365       0.0083      90.4916     132.0000       0.2000       0.2000       2.6543       2.7493       1.8330       0.3498       5.7464       2.6148
   2937.3164       8.5385       0.0073      89.1192     132.0000       0.2000       0.2000       2.6568       2.7383       1.8330       0.3536       5.6239       2.6268
   2937.4688       8.5390       0.0059      87.6143     132.0000       0.2000       0.2000       2.6572       2.7364       1.8330       0.3554       5.4846       2.6333
   2937.6213       8.5390       0.0044      86.0608     132.0000       0.2000       0.2000       2.6557       2.7429       1.8330       0.3548       5.3390       2.6378
   2937.7737       8.5390       0.0029      84.4064     132.0000       0.2000       0.2000       2.6540       2.7488       1.8327       0.3537       5.2740       2.6478
   2937.9260       8.5390       0.0014      82.7152     132.0000       0.2000       0.2000       2.6520       2.7544       1.8322       0.3522       5.2386       2.6598
   2938.0784       8.5386      -0.0001      81.6996     132.0000       0.2000       0.2000       2.6500       2.7531       1.8320       0.3519       5.1340       2.6663
   2938.2307       8.5381      -0.0016      80.9328     132.0000       0.2000       0.2000       2.6479       2.7456       1.8320       0.3530       5.0039       2.6708
   2938.3833       8.5281      -0.0009      80.5789     132.0000       0.2000       0.2000       2.6507       2.7378       1.8317       0.3537       4.8710       2.6691
   2938.5356       8.5146       0.0006      80.3765     132.0000       0.2000       0.2000       2.6577       2.7298       1.8312       0.3541       4.7371       2.6651
   2938.6880       8.5183       0.0028      79.9678     132.0000       0.2000       0.2000       2.6594       2.7397       1.8307       0.3528       4.7321       2.6534
   2938.8403       8.5283       0.0053      79.4831     132.0000       0.2000       0.2000       2.6564       2.7657       1.8302       0.3499       4.7746       2.6389
   2938.9929       8.5467       0.0097      79.5773     132.0000       0.2000       0.2000       2.6542       2.7754       1.8300       0.3473       4.7096       2.6083
   2939.1453       8.5682       0.0147      79.8839     132.0000       0.2000       0.2000       2.6527       2.7704       1.8300       0.3448       4.6051       2.5718
   2939.2976       8.4903       0.0270      80.3217     132.0000       0.2000       0.2000       2.6499       2.7627       1.8297       0.3438       4.3661       2.5463
   2939.4500       8.3758       0.0420      80.8075     132.0000       0.2000       0.2000       2.6459       2.7527       1.8292       0.3441       4.0775       2.5248
   2939.6025       8.3552       0.0544      81.0017     132.0000       0.2000       0.2000       2.6472       2.7515       1.8287       0.3456       3.9246       2.5241
   2939.7549       8.3692       0.0659      81.0887     132.0000       0.2000       0.2000       2.6532       2.7580       1.8282       0.3485       3.8216       2.5311
   2939.9072       8.3646       0.0661      81.1866    -999.2500    -999.2500    -999.2500    -999.2500    -999.2500    -999.2500    -999.2500       3.8229       2.5224
   2940.0596       8.3531       0.0621      81.2886    -999.2500    -999.2500    -999.2500    -999.2500    -999.2500    -999.2500    -999.2500       3.8624       2.5079
   2940.2119       8.3423       0.0577      81.2984    -999.2500    -999.2500    -999.2500    -999.2500    -999.2500    -999.2500    -999.2500       3.9502       2.4857
   2940.3645       8.3318       0.0532      81.2744    -999.2500    -999.2500    -999.2500    -999.2500    -999.2500    -999.2500    -999.2500       4.0557       2.4607
   2940.5168       8.3034       0.0527      81.2640    -999.2500    -999.2500    -999.2500    -999.2500    -999.2500    -999.2500    -999.2500       4.1378       2.4427
   2940.6692       8.2684       0.0537      81.2585    -999.2500    -999.2500    -999.2500    -999.2500    -999.2500    -999.2500    -999.2500       4.2112       2.4272
   2940.8215       8.2601       0.0533      81.2650    -999.2500    -999.2500    -999.2500    -999.2500    -999.2500    -999.2500    -999.2500       4.1725       2.4182
   2940.9741       8.2616       0.0523      81.2760    -999.2500    -999.2500    -999.2500    -999.2500    -999.2500    -999.2500    -999.2500       4.0925       2.4117
   2941.1265       8.2627       0.0520      81.2812    -999.2500    -999.2500    -999.2500    -999.2500    -999.2500    -999.2500    -999.2500       4.0403       2.4107
   2941.2788       8.2637       0.0520      81.2842    -999.2500    -999.2500    -999.2500    -999.2500    -999.2500    -999.2500    -999.2500       3.9983       2.4117
   2941.4312       8.2592       0.0524      81.2930    -999.2500    -999.2500    -999.2500    -999.2500    -999.2500    -999.2500    -999.2500       4.0766       2.4138
   2941.5837       8.2527       0.0529      81.3040    -999.2500    -999.2500    -999.2500    -999.2500    -999.2500    -999.2500    -999.2500       4.1991       2.4163
   2941.7361       8.2510       0.0526      81.2770    -999.2500    -999.2500    -999.2500    -999.2500    -999.2500    -999.2500    -999.2500       4.2905       2.4137
   2941.8884    -999.2500       0.0521      81.2360    -999.2500    -999.2500    -999.2500    -999.2500    -999.2500    -999.2500    -999.2500       4.3705       2.4092
   2942.0408    -999.2500       0.0502      81.2133    -999.2500    -999.2500    -999.2500    -999.2500    -999.2500    -999.2500    -999.2500       4.2922       2.4065
   2942.1931    -999.2500       0.0477      81.1973    -999.2500    -999.2500    -999.2500    -999.2500    -999.2500    -999.2500    -999.2500       4.1557       2.4045
   2942.3457    -999.2500       0.0441      81.1506    -999.2500    -999.2500    -999.2500    -999.2500    -999.2500    -999.2500    -999.2500       4.1201       2.4033
   2942.4980    -999.2500       0.0401      81.0926    -999.2500    -999.2500    -999.2500    -999.2500    -999.2500    -999.2500    -999.2500       4.1216       2.4023
   2942.6504    -999.2500       0.0401      81.1154    -999.2500    -999.2500    -999.2500    -999.2500    -999.2500    -999.2500    -999.2500       4.1622       2.4057
   2942.8027    -999.2500       0.0416      81.1679    -999.2500    -999.2500    -999.2500    -999.2500    -999.2500    -999.2500    -999.2500       4.2172       2.4107
   2942.9553    -999.2500       0.0420      81.1600    -999.2500    -999.2500    -999.2500    -999.2500    -999.2500    -999.2500    -999.2500       4.1702       2.4124
   2943.1077    -999.2500       0.0420      81.1300    -999.2500    -999.2500    -999.2500    -999.2500    -999.2500    -999.2500    -999.2500       4.0856       2.4129
   2943.2600    -999.2500       0.0416      81.1118    -999.2500    -999.2500    -999.2500    -999.2500    -999.2500    -999.2500    -999.2500       4.1036       2.4115
   2943.4124    -999.2500       0.0411      81.0978    -999.2500    -999.2500    -999.2500    -999.2500    -999.2500    -999.2500    -999.2500       4.1591       2.4095
   2943.5649    -999.2500       0.0403      81.1006    -999.2500    -999.2500    -999.2500    -999.2500    -999.2500    -999.2500    -999.2500       4.1689       2.4072
   2943.7173    -999.2500       0.0393      81.1096    -999.2500    -999.2500    -999.2500    -999.2500    -999.2500    -999.2500    -999.2500       4.1619       2.4047
