#------------------------------------------------------------------------------
#
#   Created by  : [OpenWorks] Log Export Utility (LEXP)
#   Created on  : 2015-10-01 09:50:16
#   Project     : CANT971
#   User        : R5K
#   Interpreter : PEP
#
#------------------------------------------------------------------------------
~VERSION INFORMATION
VERS. 2.0 : CWLS Log ASCII Standard - version 2.0
WRAP.  NO : One line per depth step
~WELL INFORMATION
#MNEMONIC   .UNIT                                           VALUE :DESCRIPTION
#------------------------------------------------------------------------------
STRT        .M                                           352.7300 :START DEPTH
STOP        .M                                          2346.8840 :STOP DEPTH
STEP        .M                                             0.1524 :STEP
NULL        .                                           -999.2500 :NULL VALUE
COMP        .                                   PEMEX EXPL & PROD :COMPANY
WELL        .                                        CANTARELL-64 :WELL
FLD         .                                           CANTARELL :FIELD
LOC         .                                             UNKNOWN :LOCATION
CNTY        .                                      CD. DEL CARMEN :COUNTY
STAT        .                                            CAMPECHE :STATE
CTRY        .                                              MEXICO :COUNTRY
SRVC        .                                             UNKNOWN :SERVICE COMPANY
DATE        .                                             UNKNOWN :LOG DATE
UWI         .                                          3060000172 :UNIQUE WELL ID
XCOORD      .                                       599695.280000 :SURFACE X
YCOORD      .                                      2143036.290000 :SURFACE Y
LAT         .                                           19.380142 :LATITUDE
LON         .                                          -92.050647 :LONGITUDE
ELEV        .M                                            26.7400 :SURFACE ELEV
ELEV_TYPE   .                                                  KB :ELEV TYPE
~CURVE INFORMATION
#MNEMONIC.UNIT        API CODE       : CURVE DESCRIPTION
#------------------------------------------------------------------------------
DEPTH    .M                          : Measured Depth
CALI     .inches      UNKNOWN        : CALI:UNKNOWN:rC:NONE:v0 (auto-composite)
DRHO     .g/cm3       UNKNOWN        : DRHO:UNKNOWN:rC:NONE:v0 (auto-composite)
DT       .us/ft       UNKNOWN        : DT:DT:rC:NONE:v0 (auto-composite)
GR       .API         UNKNOWN        : GR:GR-Load:rC:NONE:v0 (auto-composite)
ILD      .ohm.m       UNKNOWN        : ILD:ILD-Load:rC:NONE:v0 (auto-composite)
LLD      .ohm.m       UNKNOWN        : LLD:UNKNOWN:rC:NONE:v0 (auto-composite)
LLS      .ohm.m       UNKNOWN        : LLS:UNKNOWN:rC:NONE:v0 (auto-composite)
MSFL     .ohm.m       UNKNOWN        : MSFL:UNKNOWN:rC:NONE:v0 (auto-composite)
NPHI     .v/v_decimal UNKNOWN        : NPHI:NPHI:rC:NONE:v0 (auto-composite)
PEF      .b/elec      UNKNOWN        : PEF:UNKNOWN:rC:NONE:v0 (auto-composite)
RHOB     .g/cm3       UNKNOWN        : RHOB:RHOB-Load:rC:NONE:v0 (auto-composite)
~A     DEPTH        CALI         DRHO           DT           GR          ILD          LLD          LLS         MSFL         NPHI          PEF         RHOB
# ...
   1961.4645      6.3713       0.0017      55.7922      56.3132    -999.2500     596.6656     421.3581     346.4440       8.2703       3.2208       2.6740 
   1961.6168      6.3923       0.0034      56.0567      55.7337    -999.2500     558.6547     401.9477     383.8237       7.9504       3.1990       2.6780 
   1961.7693      6.4424       0.0114      55.5949      54.1741    -999.2500     523.5906     370.1553     299.8731       7.5614       3.1754       2.6863 
   1961.9216      6.4893       0.0197      54.4169      51.6482    -999.2500     487.5167     338.4646     218.5324       7.1049       3.2023       2.6988 
   1962.0741      6.5320       0.0282      53.9823      48.5980    -999.2500     450.1055     306.9087     140.6485       6.9598       3.2961       2.7105 
   1962.2264      6.5761       0.0306      54.2808      45.0306    -999.2500     405.5630     271.7812      87.8189       7.1198       3.3684       2.7215 
   1962.3788      6.6222       0.0251      54.3230      42.4473    -999.2500     351.7859     232.0290      67.4329       6.9872       3.4131       2.7210 
   1962.5312      6.6201       0.0264      54.1125      40.8349    -999.2500     308.6088     201.8362      50.6445       6.5677       3.4535       2.7090 
   1962.6836      6.5570       0.0364      54.7605      39.4134    -999.2500     278.8522     183.7462      38.4110       5.6309       3.4886       2.7055 
   1962.8361      6.5435       0.0451      56.2554      38.1805    -999.2500     230.8229     155.4804      34.3733       4.1869       3.5979       2.7105 
   1962.9884      6.5916       0.0522      56.4625      38.6538    -999.2500     160.0988     114.5760      40.5148       3.7545       3.7995       2.7127 
   1963.1409      6.6617       0.0481      55.3986      40.8112    -999.2500     113.8374      86.5680      39.0572       4.3139       3.7655       2.7122 
   1963.2932      6.7585       0.0305      55.2743      46.2593    -999.2500      97.2850      74.2223      28.3706       5.6440       3.4457       2.6952 
   1963.4457      6.7892       0.0192      56.0778      54.9560    -999.2500      94.6213      71.4312      29.0345       7.7299       3.2113       2.6617 
   1963.5980      6.7416       0.0152      57.0438      57.9020    -999.2500     108.4521      79.9875      43.1786       8.6204       3.0785       2.6483 
   1963.7505      6.7067       0.0114      58.1702      55.1690    -999.2500     125.6282      90.6435      64.3252       8.3379       3.0313       2.6548 
   1963.9028      6.6867       0.0079      58.5881      51.1196    -999.2500     146.7022     103.7458      93.6310       7.8960       3.0840       2.6645 
   1964.0553      6.6788       0.0076      58.3061      45.7698    -999.2500     172.5726     120.3444     267.7613       7.2975       3.1650       2.6775 
   1964.2076      6.6848       0.0112      57.7918      43.1113    -999.2500     203.9084     140.9270     606.9144       6.7737       3.2783       2.6905 
   1964.3600      6.6844       0.0173      57.0478      43.1118    -999.2500     231.4763     162.7290     786.5932       6.3232       3.3171       2.7035 
   1964.5125      6.6769       0.0263      55.5273      42.6880    -999.2500     254.8453     185.8899     788.5559       5.9433       3.2730       2.7236 
   1964.6648      6.6771       0.0286      53.2395      41.8450    -999.2500     247.3876     186.2081     805.6680       5.6328       3.6265       2.7506 
   1964.8173      6.6856       0.0236      53.2856      40.7562    -999.2500     206.2245     161.5502     839.3444       5.3662       4.4147       2.7587 
   1964.9696      6.7111       0.0261      55.6316      39.4242    -999.2500     153.2242     126.7612     677.0167       5.1426       5.0458       2.7482 
   1965.1221      6.7547       0.0366      56.7945      38.4441    -999.2500      87.5655      81.1380     305.0871       5.4839       5.5089       2.7292 
   1965.2744      6.7383       0.0366      56.7915      37.8119    -999.2500      55.7818      59.2299     131.0477       6.3784       5.3408       2.7017 
   1965.4269      6.6591       0.0256      56.8706      37.2034    -999.2500      59.5417      62.2051     164.6469       7.7022       4.5105       2.6765 
   1965.5792      6.5829       0.0180      57.0306      36.6184    -999.2500      89.0786      81.5936     209.8212       9.4467       4.0794       2.6535 
   1965.7317      6.5097       0.0140      56.8746      36.8793    -999.2500     145.0688     117.8260     266.8743       9.9827       4.0578       2.6505 
   1965.8840      6.4510       0.0105      56.4071      37.9743    -999.2500     184.4986     144.4726     259.3821       9.3347       3.9945       2.6675 
   1966.0365      6.4069       0.0075      55.8037      39.6678    -999.2500     207.3062     161.4975     187.1037       8.4418       3.8892       2.6861 
   1966.1888      6.3936       0.0063      55.0662      41.9518    -999.2500     207.4722     160.5364     186.2719       7.3088       3.7516       2.7061 
   1966.3412      6.4106       0.0068      54.5110      44.4791    -999.2500     185.3393     141.8617     255.8057       6.4564       3.5821       2.7132 
   1966.4937      6.4397       0.0113      54.1355      47.2465    -999.2500     171.0144     127.2812     241.4694       5.8789       3.4862       2.7077 
   1966.6460      6.4803       0.0199      53.7029      47.2470    -999.2500     164.2106     116.6448     146.3442       5.5367       3.4612       2.7098 
   1966.7985      6.4845       0.0206      53.2139      44.5171    -999.2500     187.2832     147.2996     245.3061       5.4252       3.4825       2.7193 
   1966.9508      6.4544       0.0141      52.3120      43.4139    -999.2500     238.5031     216.8561     527.1219       5.2837       3.5477       2.7293 
   1967.1033      6.4246       0.0110      51.0026      43.9164    -999.2500     286.7154     274.0624     640.5192       5.1127       3.5227       2.7398 
   1967.2556      6.3950       0.0110      50.5560      44.0639    -999.2500     332.1473     319.8524     598.2310       4.8554       3.4144       2.7488 
   1967.4081      6.3839       0.0139      50.9615      43.8609    -999.2500     354.4178     337.7350     636.3834       4.5134       3.3793       2.7563 
   1967.5604      6.3894       0.0194      51.0423      43.1183    -999.2500     355.7485     330.3871     747.2609       4.1699       3.4104       2.7653 
   1967.7129      6.3835       0.0231      50.8023      41.8428    -999.2500     334.2182     311.7508     676.7269       3.8249       3.4635       2.7758 
   1967.8652      6.3675       0.0251      50.5069      40.4730    -999.2500     292.4093     283.1014     445.2738       3.7037       3.5362       2.7838 
   1968.0177      6.3627       0.0260      50.1569      39.0101    -999.2500     274.6118     271.5827     341.6896       3.8022       3.5942       2.7893 
   1968.1700      6.3677       0.0260      50.2342      38.5373    -999.2500     277.6442     274.9250     349.0320       3.9933       3.6393       2.7905 
   1968.3224      6.3689       0.0222      50.7337      39.0427    -999.2500     299.6506     296.7173     367.6142       4.2753       3.6307       2.7875 
   1968.4749      6.3669       0.0152      51.2054      39.9154    -999.2500     337.7540     334.1621     395.7319       4.5063       3.5766       2.7822 
   1968.6272      6.3671       0.0104      51.6496      41.1508    -999.2500     372.6255     373.3555     360.1631       4.6873       3.5361       2.7747 
   1968.7797      6.3691       0.0073      51.7746      41.3839    -999.2500     404.8073     414.0042     271.5881       4.6014       3.5070       2.7685 
   1968.9320      6.3628       0.0071      51.5851      40.6261    -999.2500     418.2972     427.8051     260.1434       4.2532       3.7627       2.7635 
   1969.0845      6.3498       0.0091      51.6562      39.6993    -999.2500     416.5745     419.7553     311.4732       4.0997       4.2500       2.7582 
   1969.2368      6.3141       0.0078      51.9842      38.6058    -999.2500     404.4385     410.8513     271.6588       4.1367       4.3242       2.7527 
