#------------------------------------------------------------------------------
#
#   Created by  : [OpenWorks] Log Export Utility (LEXP)
#   Created on  : 2016-05-23 11:55:46
#   Project     : CANT971
#   User        : R5K
#   Interpreter : PEP
#
#------------------------------------------------------------------------------
~VERSION INFORMATION
VERS. 2.0 : CWLS Log ASCII Standard - version 2.0
WRAP.  NO : One line per depth step
~WELL INFORMATION
#MNEMONIC   .UNIT                                           VALUE :DESCRIPTION
#------------------------------------------------------------------------------
STRT        .M                                           292.5192 :START DEPTH
STOP        .M                                          2727.7188 :STOP DEPTH
STEP        .M                                             0.1524 :STEP
NULL        .                                           -999.2500 :NULL VALUE
COMP        .                                   PEMEX EXPL & PROD :COMPANY
WELL        .                                                  39 :WELL
FLD         .                                           CANTARELL :FIELD
LOC         .                                             UNKNOWN :LOCATION
CNTY        .                                      CD. DEL CARMEN :COUNTY
STAT        .                                            CAMPECHE :STATE
CTRY        .                                              MEXICO :COUNTRY
SRVC        .                                             UNKNOWN :SERVICE COMPANY
DATE        .                                             UNKNOWN :LOG DATE
UWI         .                                          3060000161 :UNIQUE WELL ID
XCOORD      .                                       603360.280000 :SURFACE X
YCOORD      .                                      2145098.760000 :SURFACE Y
LAT         .                                           19.398594 :LATITUDE
LON         .                                          -92.015639 :LONGITUDE
ELEV        .M                                            27.1400 :SURFACE ELEV
ELEV_TYPE   .                                                  KB :ELEV TYPE
~CURVE INFORMATION
#MNEMONIC.UNIT        API CODE       : CURVE DESCRIPTION
#------------------------------------------------------------------------------
DEPTH    .M                          : Measured Depth
CALI     .inches      UNKNOWN        : CALI:Import:rC:NONE:v0 (auto-composite)
DRHO     .g/cm3       UNKNOWN        : DRHO:Import:rC:NONE:v0 (auto-composite)
DT       .us/ft       UNKNOWN        : DT:Import:rC:NONE:v0 (auto-composite)
GR       .API         UNKNOWN        : GR:Import:rC:NONE:v0 (auto-composite)
ILD      .ohm.m       UNKNOWN        : ILD:Import:rC:NONE:v0 (auto-composite)
LLD      .ohm.m       UNKNOWN        : LLD:Import:rC:NONE:v0 (auto-composite)
LLS      .ohm.m       UNKNOWN        : LLS:Import:rC:NONE:v0 (auto-composite)
MSFL     .ohm.m       UNKNOWN        : MSFL:Import:rC:NONE:v0 (auto-composite)
NPHI     .v/v_decimal UNKNOWN        : NPHI:Import:rC:NONE:v0 (auto-composite)
RHOB     .g/cm3       UNKNOWN        : RHOB:Import:rC:NONE:v0 (auto-composite)
~A     DEPTH         CALI         DRHO           DT           GR          ILD          LLD          LLS         MSFL         NPHI         RHOB
# ...
   2554.1353       9.3148       0.0474     106.1072      55.5934       0.2000       4.6226       3.5798       0.2000       0.3606       1.9899
   2554.2876       8.4259       0.0614     111.4052      56.5242       0.2000       5.2298       3.6946       0.2000       0.3436       2.0299
   2554.4399       8.0266       0.0894     111.1498      55.4805       0.2000       5.8687       3.7736       0.2000       0.3362       2.0568
   2554.5923       7.9590       0.1270     107.1347      53.0999       0.2000       6.5291       3.8282       0.2000       0.3352       2.0748
   2554.7449       7.6971       0.1558     111.2329      52.3370       0.2000       6.5060       3.9568       0.2000       0.3422       2.0474
   2554.8972       7.3068       0.1788     120.6988      52.6443       0.2000       6.0307       4.1342       0.2000       0.3545       1.9899
   2555.0496       6.9970       0.1678     118.3926      47.8678       0.2000       5.9299       4.2363       0.2000       0.3480       2.0158
   2555.2019       6.7408       0.1342     108.2701      39.7157       0.2000       6.0778       4.2885       0.2000       0.3290       2.0970
   2555.3545       6.4165       0.1210     104.8180      35.3634       0.2000       6.5849       4.4848       0.2000       0.2832       2.1862
   2555.5068       6.0480       0.1210     105.6934      33.4761       0.2000       7.3249       4.7746       0.2000       0.2198       2.2804
   2555.6592       5.7137       0.1375      97.5136      32.2449       0.2000      14.0775       5.5940       0.2000       0.1640       2.3849
   2555.8115       5.4010       0.1645      83.5942      31.4294       0.2000      24.6409       6.7490       0.2000       0.1128       2.4957
   2555.9641       5.3331       0.1649      72.1498      31.1110       0.2000      42.0648       7.8201       0.2000       0.0775       2.5870
   2556.1165       5.4218       0.1484      62.2905      31.1110       0.2000      63.8822       8.8375       0.2000       0.0523       2.6657
   2556.2688       6.1786       0.1216      63.5514      31.4256       0.2000      60.2101       8.8842       0.2000       0.0625       2.6790
   2556.4211       7.3534       0.0886      71.7696      31.9370       0.2000      40.5902       8.3236       0.2000       0.0948       2.6515
   2556.5735       8.4176       0.0565      75.2940      33.3334       0.2000      25.6140       7.5812       0.2000       0.1309       2.5399
   2556.7261       9.4141       0.0250      75.9497      35.2705       0.2000      13.4758       6.7275       0.2000       0.1693       2.3769
   2556.8784      10.0056       0.0142      75.0746      37.2681       0.2000       8.1767       6.1709       0.2000       0.1971       2.2361
   2557.0308      10.3485       0.0162      73.2606      39.3027       0.2000       7.0726       5.7963       0.2000       0.2185       2.1087
   2557.1831      10.7940       0.0417      80.5414      41.1346       0.2000       6.6924       5.4939       0.2000       0.2108       2.0844
   2557.3357      11.3009       0.0811      93.2707      42.8450       0.2000       6.7458       5.2347       0.2000       0.1857       2.1219
   2557.4880      10.5201       0.0916     106.8813      44.6084       0.2000       6.2975       4.9815       0.2000       0.1553       2.2216
   2557.6404       8.9598       0.0846     121.0256      46.4039       0.2000       5.5454       4.7318       0.2000       0.1217       2.3590
   2557.7927       7.8402       0.0615     129.7004      48.6978       0.2000       5.4629       5.7034       0.2000       0.1021       2.4840
   2557.9453       6.9814       0.0289     135.1415      51.2865       0.2000       5.7763       7.3971       0.2000       0.0907       2.6019
   2558.0977       6.6670       0.0237     129.8973      52.8557       0.2000       9.7249      12.9666       0.2000       0.0782       2.6783
   2558.2500       6.6670       0.0341     118.4842      53.8362       0.2000      15.7723      20.7737       0.2000       0.0652       2.7307
   2558.4023       6.6670       0.0526     103.9720      52.8356       0.2000      27.8012      32.4009       0.2000       0.0561       2.7532
   2558.5547       6.6670       0.0756      87.6639      50.6869       0.2000      43.2962      46.2416       0.2000       0.0495       2.7582
   2558.7073       6.6670       0.0802      77.3677      47.3576       0.2000      55.9062      54.5709       0.2000       0.0410       2.7549
   2558.8596       6.6670       0.0742      70.4967      43.3559       0.2000      66.8724      59.7601       0.2000       0.0314       2.7469
   2559.0120       6.6670       0.0471      75.0207      40.0528       0.2000      62.6944      55.2935       0.2000       0.0254       2.7440
   2559.1643       6.6670       0.0080      86.0608      37.1492       0.2000      49.8564      45.3054       0.2000       0.0214       2.7440
   2559.3169       6.6670       0.0123     100.0466      36.7126       0.2000      38.8964      37.0486       0.2000       0.0271       2.7298
   2559.4692       6.6670       0.0409     115.6770      37.6532       0.2000      28.9849      29.7584       0.2000       0.0382       2.7078
   2559.6216       6.6560       0.0571     125.3855      38.1901       0.2000      25.2108      27.8075       0.2000       0.0504       2.6955
   2559.7739       6.6390       0.0666     131.8672      38.5070       0.2000      24.7810      28.7661       0.2000       0.0630       2.6885
   2559.9265       6.5890       0.0752     130.9697      37.0568       0.2000      27.9083      33.3704       0.2000       0.0699       2.6905
   2560.0789       6.5208       0.0832     126.0360      34.6400       0.2000      32.9813      39.9689       0.2000       0.0736       2.6975
   2560.2312       6.4527       0.0863     117.3076      33.0117       0.2000      38.2542      47.6470       0.2000       0.0720       2.7248
   2560.3835       6.3845       0.0868     106.5393      31.8074       0.2000      43.6346      55.9054       0.2000       0.0674       2.7629
   2560.5359       6.3869       0.0752     110.8451      33.0550       0.2000      46.2223      59.6980       0.2000       0.0640       2.7767
   2560.6885       6.4264       0.0572     123.0588      35.5889       0.2000      47.3448      61.1479       0.2000       0.0611       2.7777
   2560.8408       6.5211       0.0392     121.8171      37.2598       0.2000      47.0922      57.8214       0.2000       0.0618       2.7642
   2560.9932       6.6450       0.0211     113.4895      38.4762       0.2000      46.1155      51.9797       0.2000       0.0643       2.7431
   2561.1455       6.7025       0.0249     112.0812      38.8890       0.2000      41.4100      44.5991       0.2000       0.0678       2.7218
   2561.2981       6.7260       0.0399     114.2280      38.8890       0.2000      34.7887      36.4276       0.2000       0.0719       2.7003
   2561.4504       6.7119       0.0348     112.9392      38.8890       0.2000      28.5527      29.3097       0.2000       0.0747       2.7022
   2561.6028       6.6783       0.0192     109.8657      38.8890       0.2000      22.5170      22.7389       0.2000       0.0767       2.7163
   2561.7551       6.5745       0.0207     100.4702      36.7321       0.2000      19.3779      17.8813       0.2000       0.0755       2.7473
   2561.9077       6.4351       0.0307      87.8708      33.4821       0.2000      17.7068      13.8917       0.2000       0.0726       2.7869
   2562.0601       6.4469       0.0350      81.1323      31.1926       0.2000      22.4261      19.5077       0.2000       0.0676       2.7906
   2562.2124       6.5333       0.0365      77.2910      29.3779       0.2000      30.3042      29.8717       0.2000       0.0615       2.7766
   2562.3647       6.5972       0.0316      71.9529      27.7694       0.2000      43.4630      57.4793       0.2000       0.0560       2.7727
   2562.5171       6.6498       0.0236      65.8720      26.2632       0.2000      59.2423      93.6435       0.2000       0.0508       2.7737
