#------------------------------------------------------------------------------
#
#   Created by  : [OpenWorks] Log Export Utility (LEXP)
#   Created on  : 2016-05-23 11:52:51
#   Project     : CANT971
#   User        : R5K
#   Interpreter : PEP
#
#------------------------------------------------------------------------------
~VERSION INFORMATION
VERS. 2.0 : CWLS Log ASCII Standard - version 2.0
WRAP.  NO : One line per depth step
~WELL INFORMATION
#MNEMONIC   .UNIT                                           VALUE :DESCRIPTION
#------------------------------------------------------------------------------
STRT        .M                                           691.4386 :START DEPTH
STOP        .M                                          2836.4685 :STOP DEPTH
STEP        .M                                             0.1524 :STEP
NULL        .                                           -999.2500 :NULL VALUE
COMP        .                                   PEMEX EXPL & PROD :COMPANY
WELL        .                                                2094 :WELL
FLD         .                                           CANTARELL :FIELD
LOC         .                                             UNKNOWN :LOCATION
CNTY        .                                      CD. DEL CARMEN :COUNTY
STAT        .                                            CAMPECHE :STATE
CTRY        .                                              MEXICO :COUNTRY
SRVC        .                                             UNKNOWN :SERVICE COMPANY
DATE        .                                             UNKNOWN :LOG DATE
UWI         .                                          3060000525 :UNIQUE WELL ID
XCOORD      .                                       601711.170000 :SURFACE X
YCOORD      .                                      2142342.970000 :SURFACE Y
LAT         .                                           19.373776 :LATITUDE
LON         .                                          -92.031490 :LONGITUDE
ELEV        .M                                            24.0000 :SURFACE ELEV
ELEV_TYPE   .                                                  KB :ELEV TYPE
~CURVE INFORMATION
#MNEMONIC.UNIT        API CODE       : CURVE DESCRIPTION
#------------------------------------------------------------------------------
DEPTH    .M                          : Measured Depth
CALI     .in          UNKNOWN        : CALI:registros:rC:NONE:v0 (auto-composite)
DRHO     .g/cm3       UNKNOWN        : DRHO:registros:rC:NONE:v0 (auto-composite)
DT       .us/ft       UNKNOWN        : DT:registros:rC:NONE:v0 (auto-composite)
GR       .API         UNKNOWN        : GR:registros:rC:NONE:v0 (auto-composite)
ILD      .ohm.m       UNKNOWN        : ILD:registros:rC:NONE:v0 (auto-composite)
ILM      .ohm.m       UNKNOWN        : ILM:registros:rC:NONE:v0 (auto-composite)
LLD      .ohm.m       UNKNOWN        : LLD:registros:rC:NONE:v0 (auto-composite)
LLS      .ohm.m       UNKNOWN        : LLS:registros:rC:NONE:v0 (auto-composite)
MSFL     .ohm.m       UNKNOWN        : MSFL:registros:rC:NONE:v0 (auto-composite)
NPHI     .v/v_decimal UNKNOWN        : NPHI:registros:rC:NONE:v0 (auto-composite)
PEF      .b/elec      UNKNOWN        : PEF:registros:rC:NONE:v0 (auto-composite)
RHOB     .g/cm3       UNKNOWN        : RHOB:registros:rC:NONE:v0 (auto-composite)
~A     DEPTH         CALI         DRHO           DT           GR          ILD          ILM          LLD          LLS         MSFL         NPHI          PEF         RHOB
# ...
   2395.8801       1.7179       0.1990      25.8692      57.4160    -999.2500    -999.2500      27.6785      24.4800      55.5278       0.0931       1.6217       1.4224
   2396.0327       0.3404       0.0395       5.1137      57.6380    -999.2500    -999.2500      22.6790      19.5860      93.8830       0.0976       0.3213       0.2818
   2396.1851       0.0000       0.0000       0.0000      54.9339    -999.2500    -999.2500      20.9802      18.5812     551.3936       0.0957       0.0000       0.0000
   2396.3374       0.0000       0.0000       0.0000      52.2530    -999.2500    -999.2500      19.2960      17.5850    1005.6960       0.0998       0.0000       0.0000
   2396.4897       0.0000       0.0000       0.0000      40.6272    -999.2500    -999.2500      55.3041      47.0077     518.3620       0.0968       0.0000       0.0000
   2396.6421       0.0000       0.0000       0.0000      29.1000    -999.2500    -999.2500      91.0070      76.1810      34.3820       0.0663       0.0000       0.0000
   2396.7947       0.0000       0.0000       0.0000      23.5639    -999.2500    -999.2500     518.3128     349.8823     776.3630       0.0462       0.0000       0.0000
   2396.9470       0.0000       0.0000       0.0000      18.0740    -999.2500    -999.2500     942.0520     621.2990    1513.3260       0.0314       0.0000       0.0000
   2397.0994       0.0000       0.0000       0.0000      18.1714    -999.2500    -999.2500     773.9272     515.1543     804.9006       0.0281       0.0000       0.0000
   2397.2517       0.0000       0.0000       0.0000      18.2680    -999.2500    -999.2500     607.1860     409.8830     101.1740       0.0290       0.0000       0.0000
   2397.4043       0.0000       0.0000       0.0000      18.8077    -999.2500    -999.2500     523.5955     365.1624     354.2101       0.0308       0.0000       0.0000
   2397.5566       0.0000       0.0000       0.0000      19.3430    -999.2500    -999.2500     440.6820     320.8040     605.5980       0.0352       0.0000       0.0000
   2397.7090       0.0000       0.0000       0.0000      19.5413    -999.2500    -999.2500     364.8861     265.8091     350.0725       0.0349       0.0000       0.0000
   2397.8613       0.0000       0.0000       0.0000      19.7380    -999.2500    -999.2500     289.6950     211.2530      96.5860       0.0400       0.0000       0.0000
   2398.0139       0.0000       0.0000       0.0000      20.3860    -999.2500    -999.2500     266.1556     192.0215     348.2913       0.0412       0.0000       0.0000
   2398.1663       0.0000       0.0000       0.0000      21.0290    -999.2500    -999.2500     242.8010     172.9410     598.0210       0.0425       0.0000       0.0000
   2398.3186       0.0000       0.0000       0.0000      22.4957    -999.2500    -999.2500     303.5367     216.5927     343.1645       0.0371       0.0000       0.0000
   2398.4709       0.0000       0.0000       0.0000      23.9510    -999.2500    -999.2500     363.8030     259.9070      90.2780       0.0347       0.0000       0.0000
   2398.6233       0.0000       0.0000       0.0000      27.0126    -999.2500    -999.2500     305.2809     220.8781     107.9366       0.0319       0.0000       0.0000
   2398.7759       0.0000       0.0000       0.0000      30.0510    -999.2500    -999.2500     247.2970     182.2080     125.4610       0.0320       0.0000       0.0000
   2398.9282       0.0000       0.0000       0.0000      31.1491    -999.2500    -999.2500     219.4840     161.9562      77.0173       0.0340       0.0000       0.0000
   2399.0806       0.0000       0.0000       0.0000      32.2390    -999.2500    -999.2500     191.9230     141.8880      28.9360       0.0360       0.0000       0.0000
   2399.2329       0.0000       0.0000       0.0000      26.7533    -999.2500    -999.2500     222.1728     158.6942     134.2154       0.0360       0.0000       0.0000
   2399.3855       0.0000       0.0000       0.0000      21.3080    -999.2500    -999.2500     252.1520     175.3500     238.7210       0.0379       0.0000       0.0000
   2399.5378       0.0000       0.0000       0.0000      20.4248    -999.2500    -999.2500     286.9418     195.3979     147.1720       0.0407       0.0000       0.0000
   2399.6902       0.0000       0.0000       0.0000      19.5480    -999.2500    -999.2500     321.4250     215.2690      56.2850       0.0455       0.0000       0.0000
   2399.8425       0.0000       0.0000       0.0000      21.1068    -999.2500    -999.2500     240.8531     161.8582      43.4238       0.0472       0.0000       0.0000
   2399.9951    -999.2500    -999.2500    -999.2500      22.6520    -999.2500    -999.2500     160.9820     108.9120      30.6540       0.0485    -999.2500    -999.2500
   2400.1475    -999.2500    -999.2500    -999.2500      20.4199    -999.2500    -999.2500     191.5193     126.6515     172.5985       0.0497    -999.2500    -999.2500
   2400.2998    -999.2500    -999.2500    -999.2500      18.2070    -999.2500    -999.2500     221.7950     144.2390     313.5520       0.0496    -999.2500    -999.2500
   2400.4521    -999.2500    -999.2500    -999.2500      16.8583    -999.2500    -999.2500     378.6073     241.5867     240.2710       0.0476    -999.2500    -999.2500
   2400.6045    -999.2500    -999.2500    -999.2500      15.5210    -999.2500    -999.2500     534.0950     338.1120     167.4920       0.0450    -999.2500    -999.2500
   2400.7571    -999.2500    -999.2500    -999.2500      15.0465    -999.2500    -999.2500     597.9972     383.8206     186.9756       0.0470    -999.2500    -999.2500
   2400.9094    -999.2500    -999.2500    -999.2500      14.5760    -999.2500    -999.2500     661.3680     429.1490     206.3280       0.0509    -999.2500    -999.2500
   2401.0618    -999.2500    -999.2500    -999.2500      15.7458    -999.2500    -999.2500     592.3651     392.7362     142.3658       0.0579    -999.2500    -999.2500
   2401.2141    -999.2500    -999.2500    -999.2500      16.9060    -999.2500    -999.2500     523.9280     356.6220      78.8260       0.0630    -999.2500    -999.2500
   2401.3667    -999.2500    -999.2500    -999.2500      16.6013    -999.2500    -999.2500     541.9823     363.3552     176.9405       0.0667    -999.2500    -999.2500
   2401.5190    -999.2500    -999.2500    -999.2500      16.2990    -999.2500    -999.2500     559.8910     370.0340     274.4190       0.0586    -999.2500    -999.2500
   2401.6714    -999.2500    -999.2500    -999.2500      16.9702    -999.2500    -999.2500     614.8946     398.7265     339.2592       0.0439    -999.2500    -999.2500
   2401.8237    -999.2500    -999.2500    -999.2500      17.6360    -999.2500    -999.2500     669.4610     427.1910     403.5840       0.0325    -999.2500    -999.2500
   2401.9763    -999.2500    -999.2500    -999.2500      18.8994    -999.2500    -999.2500     462.5291     301.4871     267.4373       0.0275    -999.2500    -999.2500
   2402.1287    -999.2500    -999.2500    -999.2500      20.1530    -999.2500    -999.2500     257.2150     176.7660     132.3550       0.0330    -999.2500    -999.2500
   2402.2810    -999.2500    -999.2500    -999.2500      19.7796    -999.2500    -999.2500     215.2866     153.3368      91.1218       0.0465    -999.2500    -999.2500
   2402.4333    -999.2500    -999.2500    -999.2500      19.4090    -999.2500    -999.2500     173.6810     130.0880      50.2060       0.0626    -999.2500    -999.2500
   2402.5857    -999.2500    -999.2500    -999.2500      20.4966    -999.2500    -999.2500     163.8515     123.3466     130.7644       0.0733    -999.2500    -999.2500
   2402.7383    -999.2500    -999.2500    -999.2500      21.5760    -999.2500    -999.2500     154.1120     116.6670     210.7130       0.0699    -999.2500    -999.2500
   2402.8906    -999.2500    -999.2500    -999.2500      22.4503    -999.2500    -999.2500     173.7371     133.4734     142.5084       0.0652    -999.2500    -999.2500
   2403.0430    -999.2500    -999.2500    -999.2500      23.3180    -999.2500    -999.2500     193.1850     150.1280      74.8120       0.0607    -999.2500    -999.2500
