#------------------------------------------------------------------------------
#
#   Created by  : [OpenWorks] Log Export Utility (LEXP)
#   Created on  : 2016-05-12 17:01:14
#   Project     : CANT971
#   User        : R5K
#   Interpreter : PEP
#
#------------------------------------------------------------------------------
~VERSION INFORMATION
VERS. 2.0 : CWLS Log ASCII Standard - version 2.0
WRAP.  NO : One line per depth step
~WELL INFORMATION
#MNEMONIC   .UNIT                                           VALUE :DESCRIPTION
#------------------------------------------------------------------------------
STRT        .M                                          1708.0991 :START DEPTH
STOP        .M                                          2834.0303 :STOP DEPTH
STEP        .M                                             0.1524 :STEP
NULL        .                                           -999.2500 :NULL VALUE
COMP        .                                             UNKNOWN :COMPANY
WELL        .                                                3016 :WELL
FLD         .                                           CANTARELL :FIELD
LOC         .                                             UNKNOWN :LOCATION
CNTY        .                                             UNKNOWN :COUNTY
STAT        .                                            CAMPECHE :STATE
CTRY        .                                              MEXICO :COUNTRY
SRVC        .                                             UNKNOWN :SERVICE COMPANY
DATE        .                                             UNKNOWN :LOG DATE
UWI         .                                                3016 :UNIQUE WELL ID
XCOORD      .                                       192548.498000 :SURFACE X
YCOORD      .                                        92151.948000 :SURFACE Y
LAT         .                                            0.832805 :LATITUDE
LON         .                                          -95.762171 :LONGITUDE
ELEV        .M                                            46.0000 :SURFACE ELEV
ELEV_TYPE   .                                                  KB :ELEV TYPE
~CURVE INFORMATION
#MNEMONIC.UNIT        API CODE       : CURVE DESCRIPTION
#------------------------------------------------------------------------------
DEPTH    .M                          : Measured Depth
CALI     .inches      UNKNOWN        : CALI:litodensidad:rC:NONE:v0 (auto-composite)
CGR      .API         UNKNOWN        : CGR:Espectrometria:rC:NONE:v0 (auto-composite)
DRHO     .g/cm3       UNKNOWN        : DRHO:litodensidad:rC:NONE:v0 (auto-composite)
DT       .us/ft       UNKNOWN        : DT:DT-Load:rC:NONE:v0 (auto-composite)
GR       .API         UNKNOWN        : GR:PETROWORKS:rC:NONE:v1 
GR-LWD   .API         UNKNOWN        : GR-LWD:PETROWORKS:rC:NONE:v1 
ILD-LWD  .ohm.m       UNKNOWN        : ILD-LWD:PETROWORKS:rC:NONE:v1 
ILM-LWD  .ohm.m       UNKNOWN        : ILM-LWD:PETROWORKS:rC:NONE:v1 
LLD      .ohm.m       UNKNOWN        : LLD:Resistivos:rC:NONE:v0 (auto-composite)
LLS      .ohm.m       UNKNOWN        : LLS:Resistivos:rC:NONE:v0 (auto-composite)
MSFL     .ohm.m       UNKNOWN        : MSFL:Resistivos:rC:NONE:v0 (auto-composite)
NPHI     .v/v_decimal UNKNOWN        : NPHI:Porosidad:rC:NONE:v0 (auto-composite)
PEF      .UNKNOWN     UNKNOWN        : PEF:litodensidad:rC:NONE:v0 (auto-composite)
POTA     .wtpercent   UNKNOWN        : POTA:Espectrometria:rC:NONE:v0 (auto-composite)
RHOB     .g/cm3       UNKNOWN        : RHOB:litodensidad:rC:NONE:v0 (auto-composite)
SP       .mV          UNKNOWN        : SP:SP-Load:rC:NONE:v0 (auto-composite)
THOR     .ppm         UNKNOWN        : THOR:Espectrometria:rC:NONE:v0 (auto-composite)
URAN     .ppm         UNKNOWN        : URAN:Espectrometria:rC:NONE:v0 (auto-composite)
~A     DEPTH         CALI          CGR         DRHO           DT           GR       GR-LWD      ILD-LWD      ILM-LWD          LLD          LLS         MSFL         NPHI          PEF         POTA         RHOB           SP         THOR         URAN
# ...
   2236.1650    -999.2500      14.8876    -999.2500    -999.2500      24.1382      32.9569       8.3787       7.9041    -999.2500    -999.2500    -999.2500       0.0319    -999.2500       0.0059    -999.2500    -240.2500       1.3382       1.3026
   2236.3176    -999.2500      15.2377    -999.2500    -999.2500      25.0114      36.0593       8.4353       8.0604    -999.2500    -999.2500    -999.2500       0.0546    -999.2500       0.0064    -999.2500    -239.8125       1.1818       1.3816
   2236.4700    -999.2500      15.4342    -999.2500    -999.2500      24.1982      36.2931       8.9846       8.6939    -999.2500    -999.2500    -999.2500       0.0847    -999.2500       0.0067    -999.2500    -240.3125       1.0365       1.1837
   2236.6223    -999.2500      14.4040    -999.2500    -999.2500      23.2353      33.2183       9.7332       9.5994    -999.2500    -999.2500    -999.2500       0.1025    -999.2500       0.0061    -999.2500    -239.6250       1.0497       1.2194
   2236.7747    -999.2500      13.7610    -999.2500    -999.2500      21.3547      30.8684       9.8619       9.9537    -999.2500    -999.2500    -999.2500       0.0909    -999.2500       0.0057    -999.2500    -238.6250       1.0756       1.0320
   2236.9270    -999.2500      13.2036    -999.2500    -999.2500      20.6774      29.7778       8.7107       8.4945    -999.2500    -999.2500    -999.2500       0.0794    -999.2500       0.0055    -999.2500    -237.9375       1.0598       0.9742
   2237.0796    -999.2500      11.6427    -999.2500    -999.2500      19.9633      29.6482       8.3253       7.9822    -999.2500    -999.2500    -999.2500       0.0700    -999.2500       0.0048    -999.2500    -238.6875       0.9295       1.0660
   2237.2319    -999.2500      11.5952    -999.2500    -999.2500      20.5101      30.3614       8.0754       7.6780    -999.2500    -999.2500    -999.2500       0.0624    -999.2500       0.0047    -999.2500    -238.2500       0.9765       1.1503
   2237.3843    -999.2500      10.6481    -999.2500    -999.2500      21.5036      33.0518       7.8877       7.3720    -999.2500    -999.2500    -999.2500       0.0630    -999.2500       0.0043    -999.2500    -237.1875       0.9025       1.4033
   2237.5366    -999.2500      10.5794    -999.2500    -999.2500      21.5699      35.1564       6.9061       6.3520    -999.2500    -999.2500    -999.2500       0.0705    -999.2500       0.0046    -999.2500    -236.8750       0.7302       1.3927
   2237.6892    -999.2500       9.6064    -999.2500    -999.2500      20.0474      34.8024       6.8098       6.2777    -999.2500    -999.2500    -999.2500       0.0814    -999.2500       0.0042    -999.2500    -236.7500       0.6603       1.3475
   2237.8416    -999.2500       8.4053    -999.2500    -999.2500      17.3447      30.8560       7.6323       7.4365    -999.2500    -999.2500    -999.2500       0.0758    -999.2500       0.0038    -999.2500    -234.7500       0.4664       1.1394
   2237.9939    -999.2500       7.4707    -999.2500    -999.2500      16.8589      26.5488       9.1933       9.9680    -999.2500    -999.2500    -999.2500       0.0620    -999.2500       0.0033    -999.2500    -234.3125       0.4701       1.1905
   2238.1462    -999.2500       7.2771    -999.2500    -999.2500      18.6856      27.7126       9.5045      11.8902    -999.2500    -999.2500    -999.2500       0.0526    -999.2500       0.0032    -999.2500    -235.1250       0.4467       1.4611
   2238.2988    -999.2500       8.4384    -999.2500    -999.2500      20.5907      28.6165       9.9954      13.5097    -999.2500    -999.2500    -999.2500       0.0472    -999.2500       0.0036    -999.2500    -234.3125       0.6386       1.5437
   2238.4512    -999.2500      10.1337    -999.2500    -999.2500      22.4499      30.6512       9.8162      15.7159    -999.2500    -999.2500    -999.2500       0.0383    -999.2500       0.0044    -999.2500    -233.8125       0.6940       1.5435
   2238.6035    -999.2500       9.1908    -999.2500    -999.2500      22.2627      28.8004      10.2284      18.5366    -999.2500    -999.2500    -999.2500       0.0267    -999.2500       0.0039    -999.2500    -235.3125       0.6613       1.6851
   2238.7559    -999.2500      11.7976    -999.2500    -999.2500      23.4318      29.1375       9.9157      20.5594    -999.2500    -999.2500    -999.2500       0.0196    -999.2500       0.0046    -999.2500    -238.6250       1.0814       1.4869
   2238.9082    -999.2500      12.1417    -999.2500    -999.2500      23.4866      30.2132      11.8109      21.7828    -999.2500    -999.2500    -999.2500       0.0225    -999.2500       0.0049    -999.2500    -238.6250       1.0540       1.4511
   2239.0608    -999.2500      13.6910    -999.2500    -999.2500      25.4663      31.3634      12.0650      21.0541    -999.2500    -999.2500    -999.2500       0.0277    -999.2500       0.0054    -999.2500    -238.1875       1.2675       1.5651
   2239.2131    -999.2500      14.2480    -999.2500    -999.2500      25.6452      32.7438      11.5190      19.6970    -999.2500    -999.2500    -999.2500       0.0358    -999.2500       0.0053    -999.2500    -237.7500       1.4900       1.4883
   2239.3655    -999.2500      15.7068    -999.2500    -999.2500      25.7216      32.7132      11.6470      16.3380    -999.2500    -999.2500    -999.2500       0.0364    -999.2500       0.0056    -999.2500    -237.7500       1.7870       1.2917
   2239.5178    -999.2500      17.4956    -999.2500    -999.2500      26.0407      32.7069       9.4596      12.4958    -999.2500    -999.2500    -999.2500       0.0306    -999.2500       0.0056    -999.2500    -237.3750       2.3402       1.1534
   2239.6704    -999.2500      18.9435    -999.2500    -999.2500      27.5712      34.1127       7.7402       9.7022    -999.2500    -999.2500    -999.2500       0.0202    -999.2500       0.0065    -999.2500    -237.7500       2.2980       1.1657
   2239.8228    -999.2500      22.1490    -999.2500    -999.2500      29.8546      37.8292       6.8391       8.6475    -999.2500    -999.2500    -999.2500       0.0177    -999.2500       0.0075    -999.2500    -237.9375       2.7565       1.0953
   2239.9751    -999.2500      24.2316    -999.2500    -999.2500      30.9224      41.8115       5.7679       6.3284    -999.2500    -999.2500    -999.2500       0.0204    -999.2500       0.0086    -999.2500    -237.0000       2.7929       0.9434
   2240.1274    -999.2500      25.2403    -999.2500    -999.2500      33.0589      44.0641       5.1716       5.4959    -999.2500    -999.2500    -999.2500       0.0245    -999.2500       0.0092    -999.2500    -236.5000       2.7491       1.1214
   2240.2800    -999.2500      28.0209    -999.2500    -999.2500      36.1294      45.0914       4.5322       4.8342    -999.2500    -999.2500    -999.2500       0.0278    -999.2500       0.0104    -999.2500    -236.9375       2.9083       1.2227
   2240.4324    -999.2500      28.5733    -999.2500    -999.2500      37.8298      46.9710       4.0918       4.3722    -999.2500    -999.2500    -999.2500       0.0295    -999.2500       0.0111    -999.2500    -237.2500       2.6788       1.4096
   2240.5847    -999.2500      29.1985    -999.2500    -999.2500      38.0916      49.0601       3.2935       3.2441    -999.2500    -999.2500    -999.2500       0.0332    -999.2500       0.0113    -999.2500    -237.6875       2.8095       1.3676
   2240.7371    -999.2500      28.3238    -999.2500    -999.2500      36.6562      53.1507       2.6133       2.4268    -999.2500    -999.2500    -999.2500       0.0426    -999.2500       0.0111    -999.2500    -238.5625       2.6173       1.2165
   2240.8894    -999.2500      28.2781    -999.2500    -999.2500      36.4959      55.2505       2.2794       2.0657    -999.2500    -999.2500    -999.2500       0.0771    -999.2500       0.0114    -999.2500    -239.7500       2.4476       1.2387
   2241.0420    -999.2500      27.4275    -999.2500    -999.2500      36.3509      57.4601       2.0852       1.8951    -999.2500    -999.2500    -999.2500       0.1117    -999.2500       0.0111    -999.2500    -240.4375       2.3600       1.3781
