#------------------------------------------------------------------------------
#
#   Created by  : [OpenWorks] Log Export Utility (LEXP)
#   Created on  : 2016-05-23 11:56:05
#   Project     : CANT971
#   User        : R5K
#   Interpreter : PEP
#
#------------------------------------------------------------------------------
~VERSION INFORMATION
VERS. 2.0 : CWLS Log ASCII Standard - version 2.0
WRAP.  NO : One line per depth step
~WELL INFORMATION
#MNEMONIC   .UNIT                                           VALUE :DESCRIPTION
#------------------------------------------------------------------------------
STRT        .M                                          1100.3549 :START DEPTH
STOP        .M                                          2766.5439 :STOP DEPTH
STEP        .M                                             0.1524 :STEP
NULL        .                                           -999.2500 :NULL VALUE
COMP        .                                   PEMEX EXPL & PROD :COMPANY
WELL        .                                                  43 :WELL
FLD         .                                           CANTARELL :FIELD
LOC         .                                             UNKNOWN :LOCATION
CNTY        .                                      CD. DEL CARMEN :COUNTY
STAT        .                                            CAMPECHE :STATE
CTRY        .                                              MEXICO :COUNTRY
SRVC        .                                             UNKNOWN :SERVICE COMPANY
DATE        .                                             UNKNOWN :LOG DATE
UWI         .                                          3060000465 :UNIQUE WELL ID
XCOORD      .                                       601717.960000 :SURFACE X
YCOORD      .                                      2142346.560000 :SURFACE Y
LAT         .                                           19.373808 :LATITUDE
LON         .                                          -92.031425 :LONGITUDE
ELEV        .M                                            24.0000 :SURFACE ELEV
ELEV_TYPE   .                                                  KB :ELEV TYPE
~CURVE INFORMATION
#MNEMONIC.UNIT        API CODE       : CURVE DESCRIPTION
#------------------------------------------------------------------------------
DEPTH    .M                          : Measured Depth
CAL      .inches      UNKNOWN        : CAL:UNKNOWN:rC:NONE:v0 (auto-composite)
CALI     .in          UNKNOWN        : CALI:UNKNOWN:rC:NONE:v0 (auto-composite)
CNL      .v/v_decimal UNKNOWN        : CNL:UNKNOWN:rC:NONE:v0 (auto-composite)
DT       .us/ft       UNKNOWN        : DT:DT:rC:NONE:v0 (auto-composite)
GR       .API         UNKNOWN        : GR:UNKNOWN:rC:NONE:v0 (auto-composite)
ILD      .ohmm        UNKNOWN        : ILD:UNKNOWN:rC:NONE:v0 (auto-composite)
ILM      .ohmm        UNKNOWN        : ILM:UNKNOWN:rC:NONE:v0 (auto-composite)
LLD      .ohmm        UNKNOWN        : LLD:UNKNOWN:rC:NONE:v0 (auto-composite)
LLS      .ohmm        UNKNOWN        : LLS:UNKNOWN:rC:NONE:v0 (auto-composite)
NPHI     .v/v_decimal UNKNOWN        : NPHI:UNKNOWN:rC:NONE:v0 (auto-composite)
PEF      .b/elec      UNKNOWN        : PEF:UNKNOWN:rC:NONE:v0 (auto-composite)
RHOB     .g/cm3       UNKNOWN        : RHOB:UNKNOWN:rC:NONE:v0 (auto-composite)
~A     DEPTH          CAL         CALI          CNL           DT           GR          ILD          ILM          LLD          LLS         NPHI          PEF         RHOB
# ...
   1868.4508      10.4504      10.4502       1.8873      50.0001      26.8215    -999.2500    -999.2500     349.4407     264.4986       1.9189       3.4988       2.8095
   1868.6033      10.4917      10.4402       2.1356      50.0006      27.2661    -999.2500    -999.2500     417.5735     294.3103       2.1277       3.4639       2.8010
   1868.7556      10.5453      10.4167       2.3000      50.0071      27.7431    -999.2500    -999.2500     470.0277     322.8410       2.2983       3.4182       2.7942
   1868.9081      10.4715      10.3289       2.3000      50.0491      28.3729    -999.2500    -999.2500     448.5166     345.3283       2.2888       3.3219       2.7952
   1869.0604      10.3752      10.2438       2.2942      50.1443      28.8823    -999.2500    -999.2500     431.0232     366.0309       2.2589       3.2119       2.7988
   1869.2129      10.2448      10.1709       2.2796      50.5553      28.8454    -999.2500    -999.2500     431.7781     378.6274       2.1365       3.0395       2.8143
   1869.3652      10.1660      10.1117       2.1372      50.9240      28.7267    -999.2500    -999.2500     433.9387     388.8506       2.0060       2.9074       2.8291
   1869.5177      10.1117      10.1157       1.9556      51.0415      28.2329    -999.2500    -999.2500     442.5565     388.1714       1.8381       2.9599       2.8411
   1869.6700      10.1178      10.1429       1.7879      51.2757      27.4652    -999.2500    -999.2500     442.5240     383.4848       1.7020       3.0269       2.8505
   1869.8225      10.1561      10.2773       1.7000      52.2027      25.4319    -999.2500    -999.2500     402.5219     360.2816       1.7135       3.1613       2.8475
   1869.9749      10.2298      10.4018       1.7000      53.0938      24.0718    -999.2500    -999.2500     369.7060     337.6459       1.7476       3.2790       2.8443
   1870.1273      10.3504      10.4803       1.7148      53.7723      25.8578    -999.2500    -999.2500     370.4773     317.6620       1.8870       3.3184       2.8403
   1870.2797      10.4683      10.5537       1.7695      54.4410      27.7069    -999.2500    -999.2500     372.1767     301.1670       2.0565       3.3671       2.8343
   1870.4320      10.5366      10.6033       1.9773      55.0515      29.8544    -999.2500    -999.2500     378.2635     301.1670       2.3689       3.4594       2.8187
   1870.5845      10.5930      10.6270       2.3038      55.8217      31.8516    -999.2500    -999.2500     379.4843     300.8344       2.6817       3.5534       2.8041
   1870.7368      10.6400      10.5326       2.7256      57.5406      33.1650    -999.2500    -999.2500     358.5562     298.9879       2.9964       3.6553       2.7936
   1870.8893      10.5125      10.4286       3.1035      59.0107      34.4821    -999.2500    -999.2500     339.1881     294.5024       3.3284       3.7425       2.7839
   1871.0416      10.3565      10.2807       3.4921      59.0017      35.8166    -999.2500    -999.2500     327.0014     277.8681       3.7397       3.7620       2.7779
   1871.1941      10.1681      10.1472       3.9207      58.9147      36.8491    -999.2500    -999.2500     320.0598     260.4050       3.9675       3.7603       2.7742
   1871.3464      10.0608      10.0808       4.2292      58.3637      36.4839    -999.2500    -999.2500     337.4063     239.1042       3.3456       3.6603       2.7806
   1871.4989      10.0000      10.0418       4.4700      57.8078      35.7910    -999.2500    -999.2500     357.7754     221.7588       2.6982       3.5565       2.7865
   1871.6512      10.0157      10.1318       3.2987      57.2226      33.5630    -999.2500    -999.2500     392.3020     222.9398       1.9320       3.4340       2.7895
   1871.8037      10.0739      10.2246       2.2691      56.3477      31.4179    -999.2500    -999.2500     425.4882     225.7953       1.3000       3.3360       2.7939
   1871.9561      10.2098      10.3309       1.5169      53.7598      29.6637    -999.2500    -999.2500     452.3584     236.5413       1.3000       3.3530       2.8050
   1872.1084      10.3397      10.4298       1.3000      51.7555      28.0699    -999.2500    -999.2500     479.2818     248.6641       1.3000       3.3914       2.8156
   1872.2609      10.4629      10.4952       1.3000      53.2044      27.2073    -999.2500    -999.2500     506.4476     267.0672       1.3000       3.5268       2.8246
   1872.4132      10.5311      10.5569       1.3000      54.4436      26.2433    -999.2500    -999.2500     527.3848     285.9207       1.3000       3.6193       2.8310
   1872.5657      10.5876      10.6008       1.3000      54.4406      24.8145    -999.2500    -999.2500     519.7446     306.8408       1.3000       3.5149       2.8255
   1872.7180      10.6284      10.6071       1.3000      54.1977      23.5270    -999.2500    -999.2500     502.5577     319.9589       1.3000       3.4461       2.8217
   1872.8705      10.5291      10.4387       1.3000      52.5343      22.8953    -999.2500    -999.2500     441.0677     296.8714       1.3000       3.5426       2.8257
   1873.0228      10.3955      10.2920       1.3000      51.1113      22.3382    -999.2500    -999.2500     387.0342     275.1050       1.3000       3.6260       2.8307
   1873.1753      10.2791      10.2465       1.3000      51.1133      22.1299    -999.2500    -999.2500     367.8087     259.5060       1.3000       3.6484       2.8402
   1873.3276      10.2170      10.2033       1.3000      51.1364      21.8595    -999.2500    -999.2500     350.0637     244.7558       1.3150       3.6682       2.8474
   1873.4801      10.2073      10.1707       1.3000      51.2844      21.2960    -999.2500    -999.2500     339.3099     234.0140       1.4007       3.6752       2.8439
   1873.6324      10.1732      10.1591       1.4113      51.5407      21.3055    -999.2500    -999.2500     324.5839     224.6355       1.5732       3.6969       2.8403
   1873.7849      10.1727      10.2431       1.6974      52.4397      23.9209    -999.2500    -999.2500     291.7992     221.4546       2.1403       3.7854       2.8363
   1873.9373      10.2983      10.3405       2.5167      53.5860      25.9792    -999.2500    -999.2500     244.1273     207.6576       2.8081       3.8924       2.8284
   1874.0896      10.3963      10.4999       3.2309      56.2004      25.4764    -999.2500    -999.2500     128.0050     145.0476       3.9396       4.0848       2.8024
   1874.2421      10.4749      10.6121       3.8716      58.8784      24.7120    -999.2500    -999.2500      30.7580      87.4629       5.0717       4.2039       2.7774
   1874.3944      10.5668      10.5057       4.7249      61.9338      22.7377    -999.2500    -999.2500      20.8128      53.1210       6.2062       3.9841       2.7575
   1874.5469      10.5821      10.3817       5.7407      65.7704      21.1381    -999.2500    -999.2500      12.2288      23.6423       7.4570       3.7608       2.7303
   1874.6992      10.4230      10.1758       7.0958      74.2481      21.2920    -999.2500    -999.2500      10.0133      16.9152       9.2512       3.5209       2.6693
   1874.8517      10.1890       9.9767       9.1284      83.6122      21.5363    -999.2500    -999.2500       8.3391      11.2348      11.2399       3.2782       2.6037
   1875.0040       9.9209       9.8093      11.5367      98.2447      22.2059    -999.2500    -999.2500       9.2127      10.4805      14.1438       3.0226       2.5165
   1875.1565       9.7667       9.7577      15.3199     110.7659      22.4540    -999.2500    -999.2500      10.3870      10.0872      16.9373       2.7780       2.4389
   1875.3088       9.9453      10.2340      18.4580     110.7304      20.7817    -999.2500    -999.2500      12.9314      11.3387      19.2278       2.5836       2.4049
   1875.4613      10.6531      10.9869      20.5709     110.3800      19.9824    -999.2500    -999.2500      15.1581      12.5639      20.8428       2.4361       2.3710
   1875.6136      12.2587      13.0072      21.5808     108.1556      23.1838    -999.2500    -999.2500      15.9289      13.6684      19.3620       2.5035       2.3375
