#------------------------------------------------------------------------------
#
#   Created by  : [OpenWorks] Log Export Utility (LEXP)
#   Created on  : 2016-05-23 11:57:09
#   Project     : CANT971
#   User        : R5K
#   Interpreter : PEP
#
#------------------------------------------------------------------------------
~VERSION INFORMATION
VERS. 2.0 : CWLS Log ASCII Standard - version 2.0
WRAP.  NO : One line per depth step
~WELL INFORMATION
#MNEMONIC   .UNIT                                           VALUE :DESCRIPTION
#------------------------------------------------------------------------------
STRT        .M                                           143.0270 :START DEPTH
STOP        .M                                          2096.0330 :STOP DEPTH
STEP        .M                                             0.1524 :STEP
NULL        .                                           -999.2500 :NULL VALUE
COMP        .                                   PEMEX EXPL & PROD :COMPANY
WELL        .                                                   7 :WELL
FLD         .                                           CANTARELL :FIELD
LOC         .                                             UNKNOWN :LOCATION
CNTY        .                                      CD. DEL CARMEN :COUNTY
STAT        .                                            CAMPECHE :STATE
CTRY        .                                              MEXICO :COUNTRY
SRVC        .                                             UNKNOWN :SERVICE COMPANY
DATE        .                                             UNKNOWN :LOG DATE
UWI         .                                            W-C-0007 :UNIQUE WELL ID
XCOORD      .                                       603360.340000 :SURFACE X
YCOORD      .                                      2145093.880000 :SURFACE Y
LAT         .                                           19.398550 :LATITUDE
LON         .                                          -92.015638 :LONGITUDE
ELEV        .M                                            27.1400 :SURFACE ELEV
ELEV_TYPE   .                                                  KB :ELEV TYPE
~CURVE INFORMATION
#MNEMONIC.UNIT        API CODE       : CURVE DESCRIPTION
#------------------------------------------------------------------------------
DEPTH    .M                          : Measured Depth
CAL      .inches      UNKNOWN        : CAL:UNKNOWN:rC:NONE:v0 (auto-composite)
DRHO     .g/cm3       UNKNOWN        : DRHO:UNKNOWN:rC:NONE:v0 (auto-composite)
DT       .us/ft       UNKNOWN        : DT:UNKNOWN:rC:NONE:v0 (auto-composite)
GR       .api         UNKNOWN        : GR:UNKNOWN:rC:NONE:v0 (auto-composite)
ILD      .ohmm        UNKNOWN        : ILD:UNKNOWN:rC:NONE:v0 (auto-composite)
NPHI     .v/v_decimal UNKNOWN        : NPHI:UNKNOWN:rC:NONE:v0 (auto-composite)
RHOB     .g/cm3       UNKNOWN        : RHOB:UNKNOWN:rC:NONE:v0 (auto-composite)
~A     DEPTH          CAL         DRHO           DT           GR          ILD         NPHI         RHOB
    143.0270       0.0000       0.2500      40.0000       0.0000       3.7560      -0.1500       1.9500
    143.1794       0.0000       0.2500      40.0000       0.0000       3.5832      -0.1500       1.9500
    143.3318       0.0000       0.2500      40.0000       0.0000       3.4104      -0.1500       1.9500
    143.4842       0.0000       0.2500      40.0000       0.0000       3.3029      -0.1500       1.9500
    143.6366       0.0000       0.2500      40.0000       0.0000       3.1995      -0.1500       1.9500
    143.7890       0.0000       0.2500      40.0000       0.0000       3.1213      -0.1500       1.9500
    143.9414       0.0000       0.2500      40.0000       0.0000       3.0465      -0.1500       1.9500
    144.0938       0.0000       0.2500      40.0000       0.0000       2.9964      -0.1500       1.9500
    144.2462       0.0000       0.2500      40.0000       0.0000       2.9518      -0.1500       1.9500
    144.3986       0.0000       0.2500      40.0000       0.0000       2.9373      -0.1500       1.9500
    144.5510       0.0000       0.2500      40.0000       0.0000       2.9325      -0.1500       1.9500
    144.7034       0.0000       0.2500      40.0000       0.0000       2.9320      -0.1500       1.9500
    144.8558       0.0000       0.2500      40.0000       0.0000       2.9335      -0.1500       1.9500
    145.0082       0.0000       0.2500      40.0000       0.0000       2.9417      -0.1500       1.9500
    145.1606       0.0000       0.2500      40.0000       0.0000       2.9539      -0.1500       1.9500
    145.3130       0.0000       0.2500      40.0000       0.0000       2.9447      -0.1500       1.9500
    145.4654       0.0000       0.2500      40.0000       0.0000       2.9200      -0.1500       1.9500
    145.6178       0.0000       0.2500      40.0000       0.0000       2.8267      -0.1500       1.9500
    145.7702       0.0000       0.2500      40.0000       0.0000       2.6694      -0.1500       1.9500
    145.9226       0.0000       0.2500      40.0000       0.0000       2.5561      -0.1500       1.9500
    146.0750       0.0000       0.2500      40.0000       0.0000       2.4949      -0.1500       1.9500
    146.2274       0.0000       0.2500      40.0000       0.0000       2.4340      -0.1500       1.9500
    146.3798       0.0000       0.2500      40.0000       0.0000       2.3733      -0.1500       1.9500
    146.5322       0.0000       0.2500      40.0000       0.0000       2.3071      -0.1500       1.9500
    146.6846       0.0000       0.2500      40.0000       0.0000       2.2299      -0.1500       1.9500
    146.8370       0.0000       0.2500      40.0000       0.0000       2.1581      -0.1500       1.9500
    146.9894       0.0000       0.2500      40.0000       0.0000       2.1003      -0.1500       1.9500
    147.1418       0.0000       0.2500      40.0000       0.0000       2.0895      -0.1500       1.9500
    147.2942       0.0000       0.2500      40.0000       0.0000       2.2496      -0.1500       1.9500
    147.4466       0.0000       0.2500      40.0000       0.0000       2.4531      -0.1500       1.9500
    147.5990       0.0000       0.2500      40.0000       0.0000       2.8928      -0.1500       1.9500
    147.7514       0.0000       0.2500      40.0000       0.0000       3.3182      -0.1500       1.9500
    147.9038       0.0000       0.2500      40.0000       0.0000       3.6060      -0.1500       1.9500
    148.0562       0.0000       0.2500      40.0000       0.0000       3.8755      -0.1500       1.9500
    148.2086       0.0000       0.2500      40.0000       0.0000       3.6250      -0.1500       1.9500
    148.3610       0.0000       0.2500      40.0000       0.0000       3.3746      -0.1500       1.9500
    148.5134       0.0000       0.2500      40.0000       0.0000       3.8581      -0.1500       1.9500
    148.6658       0.0000       0.2500      40.0000       0.0000       4.3614      -0.1500       1.9500
    148.8182       0.0000       0.2500      40.0000       0.0000       4.2618      -0.1500       1.9500
    148.9706       0.0000       0.2500      40.0000       0.0000       4.1050      -0.1500       1.9500
    149.1230       0.0000       0.2500      40.0000       0.0000       3.1993      -0.1500       1.9500
    149.2754       0.0000       0.2500      40.0000       0.0000       2.1646      -0.1500       1.9500
    149.4278       0.0000       0.2500      40.0000       0.0000       1.7788      -0.1500       1.9500
    149.5802       0.0000       0.2500      40.0000       0.0000       1.5628      -0.1500       1.9500
    149.7326       0.0000       0.2500      40.0000       0.0000       1.4400      -0.1500       1.9500
    149.8850       0.0000       0.2500      40.0000       0.0000       1.3511      -0.1500       1.9500
    150.0374       0.0000       0.2500      40.0000       0.0000       1.3213      -0.1500       1.9500
    150.1898       0.0000       0.2500      40.0000       0.0000       1.3204      -0.1500       1.9500
    150.3422       0.0000       0.2500      40.0000       0.0000       1.3111      -0.1500       1.9500
    150.4946       0.0000       0.2500      40.0000       0.0000       1.2965      -0.1500       1.9500
    150.6470       0.0000       0.2500      40.0000       0.0000       1.2753      -0.1500       1.9500
    150.7994       0.0000       0.2500      40.0000       0.0000       1.2486      -0.1500       1.9500
    150.9518       0.0000       0.2500      40.0000       0.0000       1.2271      -0.1500       1.9500
    151.1042       0.0000       0.2500      40.0000       0.0000       1.2111      -0.1500       1.9500
    151.2566       0.0000       0.2500      40.0000       0.0000       1.2030      -0.1500       1.9500
    151.4090       0.0000       0.2500      40.0000       0.0000       1.2055      -0.1500       1.9500
    151.5614       0.0000       0.2500      40.0000       0.0000       1.2034      -0.1500       1.9500
    151.7138       0.0000       0.2500      40.0000       0.0000       1.1937      -0.1500       1.9500
    151.8662       0.0000       0.2500      40.0000       0.0000       1.1826      -0.1500       1.9500
    152.0186       0.0000       0.2500      40.0000       0.0000       1.1686      -0.1500       1.9500
    152.1710       0.0000       0.2500      40.0000       0.0000       1.1570      -0.1500       1.9500
    152.3234       0.0000       0.2500      40.0000       0.0000       1.1531      -0.1500       1.9500
    152.4758       0.0000       0.2500      40.0000       0.0000       1.1515      -0.1500       1.9500
    152.6282       0.0000       0.2500      40.0000       0.0000       1.1592      -0.1500       1.9500
    152.7806       0.0000       0.2500      40.0000       0.0000       1.1680      -0.1500       1.9500
    152.9330       0.0000       0.2500      40.0000       0.0000       1.1835      -0.1500       1.9500
    153.0854       0.0000       0.2500      40.0000       0.0000       1.1993      -0.1500       1.9500
    153.2378       0.0000       0.2500      40.0000       0.0000       1.2187      -0.1500       1.9500
    153.3902       0.0000       0.2500      40.0000       0.0000       1.2380      -0.1500       1.9500
    153.5426       0.0000       0.2500      40.0000       0.0000       1.2581      -0.1500       1.9500
    153.6950       0.0000       0.2500      40.0000       0.0000       1.2780      -0.1500       1.9500
    153.8474       0.0000       0.2500      40.0000       0.0000       1.2960      -0.1500       1.9500
    153.9998       0.0000       0.2500      40.0000       0.0000       1.3140      -0.1500       1.9500
    154.1522       0.0000       0.2500      40.0000       0.0000       1.3182      -0.1500       1.9500
    154.3046       0.0000       0.2500      40.0000       0.0000       1.3206      -0.1500       1.9500
    154.4570       0.0000       0.2500      40.0000       0.0000       1.3210      -0.1500       1.9500
    154.6094       0.0000       0.2500      40.0000       0.0000       1.3210      -0.1500       1.9500
