#------------------------------------------------------------------------------
#
#   Created by  : [OpenWorks] Log Export Utility (LEXP)
#   Created on  : 2016-05-11 12:45:47
#   Project     : CANT971
#   User        : R5K
#   Interpreter : PEP
#
#------------------------------------------------------------------------------
~VERSION INFORMATION
VERS. 2.0 : CWLS Log ASCII Standard - version 2.0
WRAP.  NO : One line per depth step
~WELL INFORMATION
#MNEMONIC   .UNIT                                           VALUE :DESCRIPTION
#------------------------------------------------------------------------------
STRT        .M                                           801.4664 :START DEPTH
STOP        .M                                          3402.1724 :STOP DEPTH
STEP        .M                                             0.1524 :STEP
NULL        .                                           -999.2500 :NULL VALUE
COMP        .                                   PEMEX EXPL & PROD :COMPANY
WELL        .                                        CANTARELL-85 :WELL
FLD         .                                           CANTARELL :FIELD
LOC         .                                             UNKNOWN :LOCATION
CNTY        .                                      CD. DEL CARMEN :COUNTY
STAT        .                                            CAMPECHE :STATE
CTRY        .                                              MEXICO :COUNTRY
SRVC        .                                             UNKNOWN :SERVICE COMPANY
DATE        .                                             UNKNOWN :LOG DATE
UWI         .                                          3060000185 :UNIQUE WELL ID
XCOORD      .                                       604541.690000 :SURFACE X
YCOORD      .                                      2141649.620000 :SURFACE Y
LAT         .                                           19.367365 :LATITUDE
LON         .                                          -92.004578 :LONGITUDE
ELEV        .M                                            30.0000 :SURFACE ELEV
ELEV_TYPE   .                                                  KB :ELEV TYPE
~CURVE INFORMATION
#MNEMONIC.UNIT        API CODE       : CURVE DESCRIPTION
#------------------------------------------------------------------------------
DEPTH    .M                          : Measured Depth
CALI     .inches      UNKNOWN        : CALI:Import:rC:NONE:v0 (auto-composite)
DRHO     .g/cm3       UNKNOWN        : DRHO:Import:rC:NONE:v0 (auto-composite)
DT       .us/ft       UNKNOWN        : DT:Import:rC:NONE:v0 (auto-composite)
GR       .API         UNKNOWN        : GR:Import:rC:NONE:v0 (auto-composite)
ILD      .ohm.m       UNKNOWN        : ILD:Import:rC:NONE:v0 (auto-composite)
ILM      .ohm.m       UNKNOWN        : ILM:Import:rC:NONE:v0 (auto-composite)
NPHI     .v/v_decimal UNKNOWN        : NPHI:Import:rC:NONE:v0 (auto-composite)
RHOB     .g/cm3       UNKNOWN        : RHOB:Import:rC:NONE:v0 (auto-composite)
SN       .ohm.m       UNKNOWN        : SN:Import:rC:NONE:v0 (auto-composite)
SP       .mV          UNKNOWN        : SP:Import:rC:NONE:v0 (auto-composite)
~A     DEPTH         CALI         DRHO           DT           GR          ILD          ILM         NPHI         RHOB           SN           SP
# ...
   3080.1511       6.8860      -0.0249      68.0398       8.3718    1775.8618    -999.2500      -1.2555       2.1035    -999.2500    -999.2500
   3080.3035       6.8860      -0.0269      68.0149       8.3467    1762.4503    -999.2500      -1.2695       2.1020    -999.2500    -999.2500
   3080.4561       6.8981      -0.0333      68.0320       7.8608    1736.0067    -999.2500      -1.2652       2.0933    -999.2500    -999.2500
   3080.6084       6.9106      -0.0398      68.0504       7.3610    1709.1713    -999.2500      -1.2602       2.0843    -999.2500    -999.2500
   3080.7607       6.8989      -0.0390      68.1178       7.5641    1713.0813    -999.2500      -1.2610       2.0845    -999.2500    -999.2500
   3080.9131       6.8864      -0.0380      68.1866       7.7890    1717.9437    -999.2500      -1.2620       2.0850    -999.2500    -999.2500
   3081.0657       6.8860      -0.0341      68.2253       7.7476    1732.4686    -999.2500      -1.2853       2.0889    -999.2500    -999.2500
   3081.2180       6.8860      -0.0301      68.2627       7.6976    1747.3016    -999.2500      -1.3092       2.0929    -999.2500    -999.2500
   3081.3704       6.8860      -0.0319      68.2519       8.0103    1746.8059    -999.2500      -1.3090       2.0867    -999.2500    -999.2500
   3081.5227       6.8860      -0.0339      68.2394       8.3349    1745.8071    -999.2500      -1.3080       2.0802    -999.2500    -999.2500
   3081.6750       6.8860      -0.0306      68.1301       8.2253    1738.9890    -999.2500      -1.3032       2.0815    -999.2500    -999.2500
   3081.8276       6.8860      -0.0271      68.0178       8.1004    1731.9646    -999.2500      -1.2982       2.0830    -999.2500    -999.2500
   3081.9800       6.8613      -0.0275      68.0198       7.6795    1731.7180    -999.2500      -1.2941       2.0883    -999.2500    -999.2500
   3082.1323       6.8358      -0.0280      68.0258       7.2478    1731.7180    -999.2500      -1.2901       2.0938    -999.2500    -999.2500
   3082.2847       6.8350      -0.0309      68.1049       6.7073    1733.6566    -999.2500      -1.2890       2.0887    -999.2500    -999.2500
   3082.4373       6.8350      -0.0339      68.1862       6.1635    1735.6542    -999.2500      -1.2880       2.0832    -999.2500    -999.2500
   3082.5896       6.8350      -0.0287      68.1769       6.2976    1741.5533    -999.2500      -1.2832       2.0878    -999.2500    -999.2500
   3082.7419       6.8350      -0.0232      68.1644       6.4529    1747.5750    -999.2500      -1.2782       2.0928    -999.2500    -999.2500
   3082.8943       6.8350      -0.0240      68.1640       6.9293    1743.8927    -999.2500      -1.2732       2.0886    -999.2500    -999.2500
   3083.0469       6.8350      -0.0250      68.1640       7.4166    1739.8804    -999.2500      -1.2682       2.0841    -999.2500    -999.2500
   3083.1992       6.8350      -0.0274      68.1548       7.6815    1739.7450    -999.2500      -1.2632       2.0850    -999.2500    -999.2500
   3083.3516       6.8350      -0.0299      68.1453       7.9387    1739.7450    -999.2500      -1.2582       2.0860    -999.2500    -999.2500
   3083.5039       6.8350      -0.0363      68.0816       7.9096    1739.7450    -999.2500      -1.2541       2.0889    -999.2500    -999.2500
   3083.6562       6.8350      -0.0428      68.0163       7.8721    1739.7450    -999.2500      -1.2501       2.0919    -999.2500    -999.2500
   3083.8088       6.8350      -0.0415      68.0624       7.4472    1739.7450    -999.2500      -1.2694       2.0935    -999.2500    -999.2500
   3083.9612       6.8350      -0.0400      68.1123       7.0108    1739.7450    -999.2500      -1.2893       2.0950    -999.2500    -999.2500
   3084.1135       6.8229      -0.0342      68.1019       7.5531    1740.7078    -999.2500      -1.2890       2.0969    -999.2500    -999.2500
   3084.2659       6.8104      -0.0282      68.0894       8.1274    1741.7018    -999.2500      -1.2880       2.0989    -999.2500    -999.2500
   3084.4185       6.8129      -0.0270      68.0890       8.0735    1744.6544    -999.2500      -1.2817       2.0956    -999.2500    -999.2500
   3084.5708       6.8159      -0.0260      68.0890       7.9985    1747.6726    -999.2500      -1.2752       2.0921    -999.2500    -999.2500
   3084.7231       6.8252      -0.0226      68.0769       8.0445    1747.7729    -999.2500      -1.2678       2.0930    -999.2500    -999.2500
   3084.8755       6.8347      -0.0191      68.0644       8.0946    1747.7729    -999.2500      -1.2603       2.0940    -999.2500    -999.2500
   3085.0281       6.8229      -0.0190      68.0669       7.8047    1747.7729    -999.2500      -1.2600       2.1003    -999.2500    -999.2500
   3085.1804       6.8104      -0.0190      68.0699       7.5050    1747.7729    -999.2500      -1.2600       2.1068    -999.2500    -999.2500
   3085.3328       6.8221      -0.0200      68.0914       7.5445    1747.7729    -999.2500      -1.2600       2.1065    -999.2500    -999.2500
   3085.4851       6.8346      -0.0210      68.1132       7.5944    1747.7729    -999.2500      -1.2600       2.1060    -999.2500    -999.2500
   3085.6375       6.8108      -0.0249      68.1019       7.7776    1747.7729    -999.2500      -1.2590       2.1036    -999.2500    -999.2500
   3085.7900       6.7858      -0.0289      68.0894       7.9650    1747.7729    -999.2500      -1.2580       2.1011    -999.2500    -999.2500
   3085.9424       6.7850      -0.0280      68.1737       8.8045    1747.7729    -999.2500      -1.2532       2.1010    -999.2500    -999.2500
   3086.0947       6.7850      -0.0270      68.2609       9.6654    1747.7729    -999.2500      -1.2482       2.1010    -999.2500    -999.2500
   3086.2471       6.7850      -0.0275      68.2460       8.8268    1747.7729    -999.2500      -1.2393       2.1005    -999.2500    -999.2500
   3086.3997       6.7850      -0.0280      68.2276       7.9277    1747.7729    -999.2500      -1.2303       2.1000    -999.2500    -999.2500
   3086.5520       6.7787      -0.0236      68.1117       7.9444    1743.8896    -999.2500      -1.2348       2.1053    -999.2500    -999.2500
   3086.7043       6.7722      -0.0191      67.9932       7.9945    1739.8645    -999.2500      -1.2398       2.1108    -999.2500    -999.2500
   3086.8567       6.7293      -0.0214      67.9982       7.4388    1739.7450    -999.2500      -1.2400       2.1057    -999.2500    -999.2500
   3087.0093       6.6853      -0.0239      68.0077       6.8646    1739.7450    -999.2500      -1.2400       2.1002    -999.2500    -999.2500
   3087.1616       6.6840      -0.0230      68.0409       6.8770    1740.7103    -999.2500      -1.2434       2.1029    -999.2500    -999.2500
   3087.3140       6.6840      -0.0220      68.0749       6.9080    1741.7062    -999.2500      -1.2469       2.1059    -999.2500    -999.2500
   3087.4663       6.6840      -0.0225      68.1791       7.1444    1744.6550    -999.2500      -1.2727       2.1045    -999.2500    -999.2500
   3087.6187       6.6840      -0.0230      68.2853       7.3878    1747.6708    -999.2500      -1.2991       2.1030    -999.2500    -999.2500
   3087.7712       6.6840      -0.0254      68.1921       7.0332    1743.8843    -999.2500      -1.2990       2.0972    -999.2500    -999.2500
   3087.9236       6.6840      -0.0279      68.0924       6.6576    1739.8591    -999.2500      -1.2980       2.0912    -999.2500    -999.2500
   3088.0759       6.6840      -0.0290      68.0919       6.7257    1740.7172    -999.2500      -1.2932       2.0886    -999.2500    -999.2500
   3088.2283       6.6840      -0.0300      68.0949       6.8066    1741.7178    -999.2500      -1.2882       2.0861    -999.2500    -999.2500
   3088.3809       6.6869      -0.0315      68.1100       7.1236    1744.6683    -999.2500      -1.2832       2.0821    -999.2500    -999.2500
   3088.5332       6.6899      -0.0330      68.1255       7.4477    1747.6776    -999.2500      -1.2782       2.0781    -999.2500    -999.2500
