#------------------------------------------------------------------------------
#
#   Created by  : [OpenWorks] Log Export Utility (LEXP)
#   Created on  : 2016-05-23 11:52:51
#   Project     : CANT971
#   User        : R5K
#   Interpreter : PEP
#
#------------------------------------------------------------------------------
~VERSION INFORMATION
VERS. 2.0 : CWLS Log ASCII Standard - version 2.0
WRAP.  NO : One line per depth step
~WELL INFORMATION
#MNEMONIC   .UNIT                                           VALUE :DESCRIPTION
#------------------------------------------------------------------------------
STRT        .M                                           691.4386 :START DEPTH
STOP        .M                                          2836.4685 :STOP DEPTH
STEP        .M                                             0.1524 :STEP
NULL        .                                           -999.2500 :NULL VALUE
COMP        .                                   PEMEX EXPL & PROD :COMPANY
WELL        .                                                2094 :WELL
FLD         .                                           CANTARELL :FIELD
LOC         .                                             UNKNOWN :LOCATION
CNTY        .                                      CD. DEL CARMEN :COUNTY
STAT        .                                            CAMPECHE :STATE
CTRY        .                                              MEXICO :COUNTRY
SRVC        .                                             UNKNOWN :SERVICE COMPANY
DATE        .                                             UNKNOWN :LOG DATE
UWI         .                                          3060000525 :UNIQUE WELL ID
XCOORD      .                                       601711.170000 :SURFACE X
YCOORD      .                                      2142342.970000 :SURFACE Y
LAT         .                                           19.373776 :LATITUDE
LON         .                                          -92.031490 :LONGITUDE
ELEV        .M                                            24.0000 :SURFACE ELEV
ELEV_TYPE   .                                                  KB :ELEV TYPE
~CURVE INFORMATION
#MNEMONIC.UNIT        API CODE       : CURVE DESCRIPTION
#------------------------------------------------------------------------------
DEPTH    .M                          : Measured Depth
CALI     .in          UNKNOWN        : CALI:registros:rC:NONE:v0 (auto-composite)
DRHO     .g/cm3       UNKNOWN        : DRHO:registros:rC:NONE:v0 (auto-composite)
DT       .us/ft       UNKNOWN        : DT:registros:rC:NONE:v0 (auto-composite)
GR       .API         UNKNOWN        : GR:registros:rC:NONE:v0 (auto-composite)
ILD      .ohm.m       UNKNOWN        : ILD:registros:rC:NONE:v0 (auto-composite)
ILM      .ohm.m       UNKNOWN        : ILM:registros:rC:NONE:v0 (auto-composite)
LLD      .ohm.m       UNKNOWN        : LLD:registros:rC:NONE:v0 (auto-composite)
LLS      .ohm.m       UNKNOWN        : LLS:registros:rC:NONE:v0 (auto-composite)
MSFL     .ohm.m       UNKNOWN        : MSFL:registros:rC:NONE:v0 (auto-composite)
NPHI     .v/v_decimal UNKNOWN        : NPHI:registros:rC:NONE:v0 (auto-composite)
PEF      .b/elec      UNKNOWN        : PEF:registros:rC:NONE:v0 (auto-composite)
RHOB     .g/cm3       UNKNOWN        : RHOB:registros:rC:NONE:v0 (auto-composite)
~A     DEPTH         CALI         DRHO           DT           GR          ILD          ILM          LLD          LLS         MSFL         NPHI          PEF         RHOB
# ...
   2271.5217      10.9637       0.1005      84.2850      46.4134    -999.2500    -999.2500       2.5128       2.1473       1.6395       0.2245       3.4790       2.5050
   2271.6743      11.0700       0.1028      83.4895      44.1400    -999.2500    -999.2500       1.9060       1.6510       1.0900       0.2188       3.5174       2.5168
   2271.8267      10.8639       0.1000      82.5636      40.8003    -999.2500    -999.2500       2.0175       1.5486       1.1623       0.2142       3.6024       2.5235
   2271.9790      10.6090       0.0958      81.6386      37.4840    -999.2500    -999.2500       2.1280       1.4470       1.2340       0.2094       3.6964       2.5308
   2272.1313      10.4529       0.0905      80.8231      38.0028    -999.2500    -999.2500       2.2575       1.5715       1.5676       0.2025       3.7838       2.5460
   2272.2837      10.3297       0.0833      80.0190      38.5180    -999.2500    -999.2500       2.3860       1.6950       1.8990       0.1932       3.8842       2.5595
   2272.4363      10.2526       0.0685      79.1447      41.5111    -999.2500    -999.2500       2.6541       1.9646       1.7048       0.1761       4.0471       2.5580
   2272.5886      10.1792       0.0521      78.1985      44.4840    -999.2500    -999.2500       2.9200       2.2320       1.5120       0.1582       4.2098       2.5555
   2272.7410      10.0757       0.0360      77.0011      43.5115    -999.2500    -999.2500       3.4743       2.7486       4.6709       0.1450       4.3088       2.5640
   2272.8933       9.9826       0.0219      75.9522      42.5470    -999.2500    -999.2500       4.0240       3.2610       7.8090       0.1348       4.3855       2.5732
   2273.0459       9.9640       0.0160      75.7631      43.9431    -999.2500    -999.2500       3.6816       3.2414       7.3259       0.1334       4.4305       2.5750
   2273.1982       9.9390       0.0124      75.7959      45.3280    -999.2500    -999.2500       3.3420       3.2220       6.8460       0.1350       4.4776       2.5746
   2273.3506       9.8119       0.0105      75.9132      44.2221    -999.2500    -999.2500       3.4464       3.0297       4.2683       0.1407       4.5657       2.5725
   2273.5029       9.6773       0.0095      75.9376      43.1250    -999.2500    -999.2500       3.5500       2.8390       1.7070       0.1472       4.6191       2.5714
   2273.6555       9.6151       0.0105      75.4886      42.3565    -999.2500    -999.2500       3.0375       2.4389       1.6614       0.1525       4.4829       2.5760
   2273.8079       9.5796       0.0122      74.8153      41.5940    -999.2500    -999.2500       2.5290       2.0420       1.6160       0.1554       4.3440       2.5824
   2273.9602       9.5840       0.0150      73.6625      41.6005    -999.2500    -999.2500       2.5757       1.9286       1.3592       0.1490       4.3843       2.5905
   2274.1125       9.5934       0.0178      72.6312      41.6070    -999.2500    -999.2500       2.6220       1.8160       1.1040       0.1399       4.4763       2.5983
   2274.2649       9.5840       0.0195      72.5573      42.0316    -999.2500    -999.2500       2.4895       1.7839       1.4230       0.1281       4.6037       2.6035
   2274.4175       9.5723       0.0204      72.9561      42.4530    -999.2500    -999.2500       2.3580       1.7520       1.7400       0.1179       4.7070       2.6073
   2274.5698       9.5700       0.0190      74.3533      40.4525    -999.2500    -999.2500       2.1457       1.5743       1.4632       0.1182       4.6741       2.6080
   2274.7222       9.5825       0.0169      76.0598      38.4670    -999.2500    -999.2500       1.9350       1.3980       1.1880       0.1237       4.5507       2.6018
   2274.8745       9.6464       0.0145      78.0556      35.5664    -999.2500    -999.2500       1.7393       1.2384       1.0025       0.1422       4.1916       2.5700
   2275.0271       9.7100       0.0136      80.0458      32.6870    -999.2500    -999.2500       1.5450       1.0800       0.8180       0.1620       3.8443       2.5410
   2275.1794       9.7210       0.0195      81.7606      33.8402    -999.2500    -999.2500       1.6689       1.1804       0.8561       0.1741       3.7810       2.5485
   2275.3318       9.7207       0.0285      83.1174      34.9850    -999.2500    -999.2500       1.7920       1.2800       0.8940       0.1853       3.7952       2.5622
   2275.4841       9.7275       0.0435      83.3359      36.1787    -999.2500    -999.2500       1.7910       1.3478       0.9602       0.2001       3.8389       2.5645
   2275.6367       9.7632       0.0577      83.0683      37.3640    -999.2500    -999.2500       1.7900       1.4150       1.0260       0.2140       3.8899       2.5630
   2275.7891       9.9087       0.0625      81.9839      38.9922    -999.2500    -999.2500       1.7800       1.4255       1.0707       0.2199       3.9409       2.5575
   2275.9414      10.0558       0.0635      80.5836      40.6090    -999.2500    -999.2500       1.7700       1.4360       1.1150       0.2217       3.9933       2.5515
   2276.0938      10.0995       0.0585      78.7121      40.6928    -999.2500    -999.2500       1.7680       1.4229       1.3884       0.2117       4.0514       2.5475
   2276.2461      10.0743       0.0507      76.9945      40.7760    -999.2500    -999.2500       1.7660       1.4100       1.6600       0.1983       4.1116       2.5450
   2276.3987       9.8797       0.0380      76.3146      41.6820    -999.2500    -999.2500       1.8252       1.4657       1.5366       0.1803       4.1744       2.5465
   2276.5510       9.6637       0.0268      76.0882      42.5820    -999.2500    -999.2500       1.8840       1.5210       1.4140       0.1634       4.2464       2.5532
   2276.7034       9.5358       0.0265      76.6009      44.1072    -999.2500    -999.2500       2.0939       1.6932       1.7150       0.1566       4.3522       2.5765
   2276.8557       9.4492       0.0282      77.0944      45.6200    -999.2500    -999.2500       2.3020       1.8640       2.0140       0.1545       4.4288       2.5978
   2277.0083       9.4375       0.0270      76.7846      49.4740    -999.2500    -999.2500       2.4049       1.9719       2.5793       0.1653       4.3562       2.5950
   2277.1606       9.4503       0.0244      76.1018      53.2970    -999.2500    -999.2500       2.5070       2.0790       3.1410       0.1752       4.2418       2.5861
   2277.3130       9.4840       0.0195      74.7594      54.7166    -999.2500    -999.2500       2.6425       2.2186       3.5573       0.1668       4.1137       2.5775
   2277.4653       9.5126       0.0152      73.2108      56.1250    -999.2500    -999.2500       2.7770       2.3570       3.9710       0.1538       4.0461       2.5721
   2277.6179       9.5015       0.0155      71.4975      58.7839    -999.2500    -999.2500       3.2724       2.8605       6.2917       0.1373       4.2255       2.5785
   2277.7703       9.4794       0.0174      69.7627      61.4220    -999.2500    -999.2500       3.7640       3.3600       8.5980       0.1217       4.4789       2.5919
   2277.9226       9.4550       0.0210      68.0949      61.4180    -999.2500    -999.2500       4.0822       3.4107       8.5975       0.1150       4.7675       2.6204
   2278.0750       9.4326       0.0243      66.7021      61.4140    -999.2500    -999.2500       4.3980       3.4610       8.5970       0.1095       5.0143       2.6474
   2278.2273       9.4200       0.0250      66.2737      59.0315    -999.2500    -999.2500       4.3980       3.6131       8.4776       0.1016       5.0660       2.6530
   2278.3799       9.4114       0.0243      66.0991      56.6670    -999.2500    -999.2500       4.3980       3.7640       8.3590       0.0938       5.0359       2.6515
   2278.5322       9.4080       0.0210      65.9242      54.9441    -999.2500    -999.2500       4.3488       3.8373       7.5201       0.0887       4.8917       2.6445
   2278.6846       9.4090       0.0174      65.6368      53.2340    -999.2500    -999.2500       4.3000       3.9100       6.6860       0.0839       4.7288       2.6369
