#------------------------------------------------------------------------------
#
#   Created by  : [OpenWorks] Log Export Utility (LEXP)
#   Created on  : 2016-05-23 11:57:27
#   Project     : CANT971
#   User        : R5K
#   Interpreter : PEP
#
#------------------------------------------------------------------------------
~VERSION INFORMATION
VERS. 2.0 : CWLS Log ASCII Standard - version 2.0
WRAP.  NO : One line per depth step
~WELL INFORMATION
#MNEMONIC   .UNIT                                           VALUE :DESCRIPTION
#------------------------------------------------------------------------------
STRT        .M                                           813.0000 :START DEPTH
STOP        .M                                          2589.2219 :STOP DEPTH
STEP        .M                                             0.1524 :STEP
NULL        .                                           -999.2500 :NULL VALUE
COMP        .                                   PEMEX EXPL & PROD :COMPANY
WELL        .                                                  84 :WELL
FLD         .                                           CANTARELL :FIELD
LOC         .                                             UNKNOWN :LOCATION
CNTY        .                                      CD. DEL CARMEN :COUNTY
STAT        .                                            CAMPECHE :STATE
CTRY        .                                              MEXICO :COUNTRY
SRVC        .                                             UNKNOWN :SERVICE COMPANY
DATE        .                                             UNKNOWN :LOG DATE
UWI         .                                          3060000616 :UNIQUE WELL ID
XCOORD      .                                       601709.550000 :SURFACE X
YCOORD      .                                      2142344.590000 :SURFACE Y
LAT         .                                           19.373791 :LATITUDE
LON         .                                          -92.031505 :LONGITUDE
ELEV        .M                                            24.0000 :SURFACE ELEV
ELEV_TYPE   .                                                  KB :ELEV TYPE
~CURVE INFORMATION
#MNEMONIC.UNIT        API CODE       : CURVE DESCRIPTION
#------------------------------------------------------------------------------
DEPTH    .M                          : Measured Depth
CALI     .in          UNKNOWN        : CALI:UNKNOWN:rC:NONE:v0 (auto-composite)
DRHO     .g/cm3       UNKNOWN        : DRHO:UNKNOWN:rC:NONE:v0 (auto-composite)
DT       .us/ft       UNKNOWN        : DT:DT:rC:NONE:v0 (auto-composite)
ILD      .ohmm        UNKNOWN        : ILD:UNKNOWN:rC:NONE:v0 (auto-composite)
ILM      .ohmm        UNKNOWN        : ILM:UNKNOWN:rC:NONE:v0 (auto-composite)
LLD      .ohmm        UNKNOWN        : LLD:UNKNOWN:rC:NONE:v0 (auto-composite)
LLS      .ohmm        UNKNOWN        : LLS:UNKNOWN:rC:NONE:v0 (auto-composite)
MSFL     .ohmm        UNKNOWN        : MSFL:UNKNOWN:rC:NONE:v0 (auto-composite)
NPHI     .v/v_decimal UNKNOWN        : NPHI:NPHI:rC:NONE:v0 (auto-composite)
PEF      .b/elec      UNKNOWN        : PEF:UNKNOWN:rC:NONE:v0 (auto-composite)
RG       .UNKNOWN     UNKNOWN        : RG:UNKNOWN:rC:NONE:v0 (auto-composite)
RHOB     .g/cm3       UNKNOWN        : RHOB:UNKNOWN:rC:NONE:v0 (auto-composite)
~A     DEPTH         CALI         DRHO           DT          ILD          ILM          LLD          LLS         MSFL         NPHI          PEF           RG         RHOB
# ...
   1639.6176       0.0000      -0.1000    -999.2500       4.7621       5.2144       0.0000       0.0000       0.0000    -999.2500       0.0000      11.7840       0.0000
   1639.7700       0.0000      -0.1000    -999.2500       4.8062       5.4023       0.0000       0.0000       0.0000    -999.2500       0.0000      12.4496       0.0000
   1639.9224       0.0000      -0.1000    -999.2500       4.8295       5.5224       0.0000       0.0000       0.0000    -999.2500       0.0000      13.1152       0.0000
   1640.0748       0.0000      -0.1000    -999.2500       4.7989       5.4662       0.0000       0.0000       0.0000    -999.2500       0.0000      13.7811       0.0000
   1640.2272       0.0000      -0.1000    -999.2500       4.7648       5.4388       0.0000       0.0000       0.0000    -999.2500       0.0000      14.0290       0.0000
   1640.3796       0.0000      -0.1000    -999.2500       4.7216       5.4839       0.0000       0.0000       0.0000    -999.2500       0.0000      13.2217       0.0000
   1640.5320       0.0000      -0.1000    -999.2500       4.6833       5.4134       0.0000       0.0000       0.0000    -999.2500       0.0000      12.3728       0.0000
   1640.6844       0.0000      -0.1000    -999.2500       4.6568       5.0585       0.0000       0.0000       0.0000    -999.2500       0.0000      11.4216       0.0000
   1640.8368       0.0000      -0.1000    -999.2500       4.6261       4.8376       0.0000       0.0000       0.0000    -999.2500       0.0000      10.5093       0.0000
   1640.9893       0.0000      -0.1000    -999.2500       4.5854       4.9384       0.0000       0.0000       0.0000    -999.2500       0.0000       9.6905       0.0000
   1641.1416       0.0000      -0.1000    -999.2500       4.5612       5.0198       0.0000       0.0000       0.0000    -999.2500       0.0000       9.1957       0.0000
   1641.2939       0.0000      -0.1000    -999.2500       4.5752       5.0559       0.0000       0.0000       0.0000    -999.2500       0.0000       9.4583       0.0000
   1641.4464       0.0000      -0.1000    -999.2500       4.5911       5.0725       0.0000       0.0000       0.0000    -999.2500       0.0000       9.6445       0.0000
   1641.5988       0.0000      -0.1000    -999.2500       4.6112       5.0444       0.0000       0.0000       0.0000    -999.2500       0.0000       9.6560       0.0000
   1641.7512       0.0000      -0.1000    -999.2500       4.6064       5.0457       0.0000       0.0000       0.0000    -999.2500       0.0000      10.2380       0.0000
   1641.9036       0.0000      -0.1000    -999.2500       4.5462       5.1123       0.0000       0.0000       0.0000    -999.2500       0.0000      12.0907       0.0000
   1642.0560       0.0000      -0.1000    -999.2500       4.4875       5.0586       0.0000       0.0000       0.0000    -999.2500       0.0000      13.5296       0.0000
   1642.2084       0.0000      -0.1000    -999.2500       4.4318       4.7433       0.0000       0.0000       0.0000    -999.2500       0.0000      14.0703       0.0000
   1642.3608       0.0000      -0.1000    -999.2500       4.4214       4.5550       0.0000       0.0000       0.0000    -999.2500       0.0000      14.1507       0.0000
   1642.5132       0.0000      -0.1000    -999.2500       4.5072       4.6362       0.0000       0.0000       0.0000    -999.2500       0.0000      13.2532       0.0000
   1642.6656       0.0000      -0.1000    -999.2500       4.5438       4.7860       0.0000       0.0000       0.0000    -999.2500       0.0000      11.9068       0.0000
   1642.8180       0.0000      -0.1000    -999.2500       4.4786       5.0778       0.0000       0.0000       0.0000    -999.2500       0.0000       9.6310       0.0000
   1642.9705       0.0000      -0.1000    -999.2500       4.4645       5.3421       0.0000       0.0000       0.0000    -999.2500       0.0000       7.9256       0.0000
   1643.1228       0.0000      -0.1000    -999.2500       4.5538       5.5506       0.0000       0.0000       0.0000    -999.2500       0.0000       7.3718       0.0000
   1643.2751       0.0000      -0.1000    -999.2500       4.6273       5.6752       0.0000       0.0000       0.0000    -999.2500       0.0000       7.0013       0.0000
   1643.4276       0.0000      -0.1000    -999.2500       4.6699       5.6341       0.0000       0.0000       0.0000    -999.2500       0.0000       6.9933       0.0000
   1643.5800       0.0000      -0.1000    -999.2500       4.6294       5.5175       0.0000       0.0000       0.0000    -999.2500       0.0000       7.3177       0.0000
   1643.7324       0.0000      -0.1000    -999.2500       4.4284       5.2554       0.0000       0.0000       0.0000    -999.2500       0.0000       8.2829       0.0000
   1643.8848       0.0000      -0.1000    -999.2500       4.2055       4.9748       0.0000       0.0000       0.0000    -999.2500       0.0000       9.0428       0.0000
   1644.0372       0.0000      -0.1000    -999.2500       3.9413       4.6594       0.0000       0.0000       0.0000    -999.2500       0.0000       9.4148       0.0000
   1644.1896       0.0000      -0.1000    -999.2500       3.7164       4.3670       0.0000       0.0000       0.0000    -999.2500       0.0000       9.6546       0.0000
   1644.3420       0.0000      -0.1000    -999.2500       3.5640       4.1168       0.0000       0.0000       0.0000    -999.2500       0.0000       9.6506       0.0000
   1644.4944       0.0000      -0.1000    -999.2500       3.4443       3.9173       0.0000       0.0000       0.0000    -999.2500       0.0000       9.6480       0.0000
   1644.6469       0.0000      -0.1000    -999.2500       3.3837       3.8091       0.0000       0.0000       0.0000    -999.2500       0.0000       9.6480       0.0000
   1644.7992       0.0000      -0.1000    -999.2500       3.3314       3.7329       0.0000       0.0000       0.0000    -999.2500       0.0000       9.6977       0.0000
   1644.9517       0.0000      -0.1000    -999.2500       3.2938       3.7134       0.0000       0.0000       0.0000    -999.2500       0.0000       9.8351       0.0000
   1645.1040       0.0000      -0.1000    -999.2500       3.2475       3.6835       0.0000       0.0000       0.0000    -999.2500       0.0000       9.9176       0.0000
   1645.2563       0.0000      -0.1000    -999.2500       3.1863       3.6359       0.0000       0.0000       0.0000    -999.2500       0.0000       9.9055       0.0000
   1645.4088       0.0000      -0.1000    -999.2500       3.1216       3.5787       0.0000       0.0000       0.0000    -999.2500       0.0000      10.0938       0.0000
   1645.5612       0.0000      -0.1000    -999.2500       3.0510       3.5055       0.0000       0.0000       0.0000    -999.2500       0.0000      10.6186       0.0000
   1645.7136       0.0000      -0.1000    -999.2500       2.9738       3.4094       0.0000       0.0000       0.0000    -999.2500       0.0000      10.4832       0.0000
   1645.8660       0.0000      -0.1000    -999.2500       2.8861       3.2755       0.0000       0.0000       0.0000    -999.2500       0.0000       9.2613       0.0000
   1646.0184       0.0000      -0.1000    -999.2500       2.7920       3.1447       0.0000       0.0000       0.0000    -999.2500       0.0000       8.2429       0.0000
   1646.1708       0.0000      -0.1000    -999.2500       2.6877       3.0189       0.0000       0.0000       0.0000    -999.2500       0.0000       7.5515       0.0000
   1646.3232       0.0000      -0.1000    -999.2500       2.5788       2.8874       0.0000       0.0000       0.0000    -999.2500       0.0000       7.2333       0.0000
   1646.4756       0.0000      -0.1000    -999.2500       2.4625       2.7471       0.0000       0.0000       0.0000    -999.2500       0.0000       7.5014       0.0000
   1646.6281       0.0000      -0.1000    -999.2500       2.3679       2.6235       0.0000       0.0000       0.0000    -999.2500       0.0000       7.8198       0.0000
   1646.7804       0.0000      -0.1000    -999.2500       2.3067       2.5257       0.0000       0.0000       0.0000    -999.2500       0.0000       8.2154       0.0000
