#------------------------------------------------------------------------------
#
#   Created by  : [OpenWorks] Log Export Utility (LEXP)
#   Created on  : 2016-05-11 12:45:43
#   Project     : CANT971
#   User        : R5K
#   Interpreter : PEP
#
#------------------------------------------------------------------------------
~VERSION INFORMATION
VERS. 2.0 : CWLS Log ASCII Standard - version 2.0
WRAP.  NO : One line per depth step
~WELL INFORMATION
#MNEMONIC   .UNIT                                           VALUE :DESCRIPTION
#------------------------------------------------------------------------------
STRT        .M                                            80.3144 :START DEPTH
STOP        .M                                          1350.4160 :STOP DEPTH
STEP        .M                                             0.1524 :STEP
NULL        .                                           -999.2500 :NULL VALUE
COMP        .                                   PEMEX EXPL & PROD :COMPANY
WELL        .                                         CANTARELL-3 :WELL
FLD         .                                           CANTARELL :FIELD
LOC         .                                             UNKNOWN :LOCATION
CNTY        .                                      CD. DEL CARMEN :COUNTY
STAT        .                                            CAMPECHE :STATE
CTRY        .                                              MEXICO :COUNTRY
SRVC        .                                             UNKNOWN :SERVICE COMPANY
DATE        .                                             UNKNOWN :LOG DATE
UWI         .                                          3060000139 :UNIQUE WELL ID
XCOORD      .                                       600825.370000 :SURFACE X
YCOORD      .                                      2145118.460000 :SURFACE Y
LAT         .                                           19.398901 :LATITUDE
LON         .                                          -92.039777 :LONGITUDE
ELEV        .M                                            27.7000 :SURFACE ELEV
ELEV_TYPE   .                                                  KB :ELEV TYPE
~CURVE INFORMATION
#MNEMONIC.UNIT        API CODE       : CURVE DESCRIPTION
#------------------------------------------------------------------------------
DEPTH    .M                          : Measured Depth
CALI     .inches      UNKNOWN        : CALI:Import:rC:NONE:v0 (auto-composite)
DRHO     .g/cm3       UNKNOWN        : DRHO:Import:rC:NONE:v0 (auto-composite)
DT       .us/ft       UNKNOWN        : DT:Import:rC:NONE:v0 (auto-composite)
GR       .API         UNKNOWN        : GR:Import:rC:NONE:v0 (auto-composite)
ILD      .ohm.m       UNKNOWN        : ILD:Import:rC:NONE:v0 (auto-composite)
NPHI     .v/v_decimal UNKNOWN        : NPHI:Import:rC:NONE:v0 (auto-composite)
RHOB     .g/cm3       UNKNOWN        : RHOB:Import:rC:NONE:v0 (auto-composite)
SP       .mV          UNKNOWN        : SP:Import:rC:NONE:v0 (auto-composite)
~A     DEPTH         CALI         DRHO           DT           GR          ILD         NPHI         RHOB           SP
# ...
    900.5312      13.1745       0.0110     146.2640      30.0847       0.9100       0.3569       2.1640     138.8191
    900.6836      13.2240       0.0100     148.3365      29.4060       0.8870       0.3596       2.1540     138.6070
    900.8360      13.3011       0.0085     150.4020      29.7046       0.8400       0.3649       2.1475     137.8758
    900.9884      13.3780       0.0070     149.5141      30.0030       0.7930       0.3719       2.1410     137.1440
    901.1408      13.4406      -0.0010     148.6290      29.9805       0.7930       0.3799       2.1174     137.1455
    901.2932      13.5030      -0.0090     151.1920      29.9580       0.7930       0.3877       2.0940     137.1470
    901.4456      13.7598      -0.0080     153.7460      29.7008       0.7960       0.3939       2.0965     137.2749
    901.5980      14.0160      -0.0070     153.3402      29.4440       0.7990       0.3974       2.0990     137.4030
    901.7504      13.8398      -0.0030     152.9360      29.8117       0.8060       0.3966       2.1090     137.7888
    901.9028      13.6640       0.0010     149.0018      30.1790       0.8130       0.3950       2.1190     138.1750
    902.0552      13.6845       0.0025     145.0820      31.5928       0.8210       0.3962       2.1330     138.2200
    902.2076      13.7050       0.0040     145.2773      33.0050       0.8290       0.3969       2.1470     138.2650
    902.3600      13.6860       0.0060     145.4720      32.7394       0.8435       0.3941       2.1410     138.2540
    902.5124      13.6670       0.0080     146.6761      32.4740       0.8580       0.3916       2.1350     138.2430
    902.6648      13.7456       0.0115     147.8760      30.7927       0.8515       0.3931       2.1365     137.5752
    902.8172      13.8240       0.0150     150.9110      29.1130       0.8450       0.3957       2.1380     136.9070
    902.9696      14.1794       0.0225     153.9360      29.3101       0.8205       0.3965       2.1530     136.9820
    903.1220      14.5340       0.0300     153.5905      29.5070       0.7960       0.3956       2.1680     137.0570
    903.2744      14.4659       0.0360     153.2460      30.4452       0.7745       0.3933       2.1655     137.4303
    903.4268      14.3980       0.0420     154.0344      31.3820       0.7530       0.3888       2.1630     137.8040
    903.5792      14.1037       0.0390     154.8200      32.4222       0.7270       0.3813       2.1495     138.5501
    903.7316      13.8100       0.0360     154.5876      33.4610       0.7010       0.3738       2.1360     139.2970
    903.8840      13.9481       0.0270     154.3560      33.7347       0.7025       0.3697       2.1380     139.2250
    904.0364      14.0860       0.0180     153.0517      34.0080       0.7040       0.3673       2.1400     139.1530
    904.1888      13.9399       0.0165     151.7520      34.9745       0.7125       0.3652       2.1515     138.8382
    904.3412      13.7940       0.0150     149.8237      35.9400       0.7210       0.3624       2.1630     138.5230
    904.4936      13.8140       0.0095     147.9020      36.4868       0.7385       0.3585       2.1570     137.8923
    904.6460      13.8340       0.0040     147.4953      37.0330       0.7560       0.3536       2.1510     137.2610
    904.7984      13.8320       0.0045     147.0900      37.6524       0.7795       0.3478       2.1545     137.2985
    904.9508      13.8300       0.0050     146.5977      38.2710       0.8030       0.3433       2.1580     137.3360
    905.1032      13.7064       0.0075     146.1070      39.4389       0.8245       0.3423       2.1755     137.4999
    905.2556      13.5830       0.0100     145.0446      40.6050       0.8460       0.3440       2.1930     137.6640
    905.4080      13.5855       0.0155     143.9860      40.4119       0.8590       0.3476       2.1915     137.8169
    905.5604      13.5880       0.0210     144.2550      40.2190       0.8720       0.3531       2.1900     137.9700
    905.7128      13.6000       0.0210     144.5230      39.1708       0.8785       0.3607       2.1720     137.9875
    905.8652      13.6120       0.0210     149.3803      38.1240       0.8850       0.3680       2.1540     138.0050
    906.0176      13.6320       0.0200     154.2200      36.2935       0.8795       0.3729       2.1575     138.1324
    906.1700      13.6520       0.0190     153.7777      34.4650       0.8740       0.3759       2.1610     138.2600
    906.3224      13.7251       0.0165     153.3370      32.4665       0.8525       0.3777       2.1465     138.5753
    906.4748      13.7980       0.0140     151.3627      30.4700       0.8310       0.3783       2.1320     138.8910
    906.6272      14.1068       0.0095     149.3950      30.5691       0.8115       0.3781       2.1325     138.7096
    906.7796      14.4150       0.0050     150.3801      30.6680       0.7920       0.3777       2.1330     138.5280
    906.9320      14.3494       0.0055     151.3620      31.4571       0.7640       0.3780       2.1445     137.9323
    907.0844      14.2840       0.0060     150.9583      32.2450       0.7360       0.3784       2.1560     137.3360
    907.2368      14.0167       0.0070     150.5560      33.8757       0.7405       0.3785       2.1550     137.4604
    907.3892      13.7500       0.0080     148.2962      35.5040       0.7450       0.3745       2.1540     137.5850
    907.5416      13.8001       0.0075     146.0450      36.3505       0.7970       0.3626       2.1635     138.1587
    907.6940      13.8500       0.0070     146.6852      37.1960       0.8490       0.3510       2.1730     138.7330
    907.8464      13.7619       0.0060     147.3230      37.1004       0.8480       0.3482       2.1700     138.6121
    907.9988      13.6740       0.0050     147.0535      37.0050       0.8470       0.3548       2.1670     138.4910
    908.1512      13.6890       0.0010     146.7850      36.6443       0.8405       0.3722       2.1324     137.8843
    908.3036      13.7040      -0.0030     144.5887      36.2840       0.8340       0.3892       2.0980     137.2770
    908.4560      13.9858      -0.0025     142.4000      35.6847       0.8220       0.3948       2.0995     137.2780
    908.6084      14.2670      -0.0020     143.5123      35.0860       0.8100       0.3946       2.1010     137.2790
    908.7608      14.2425       0.0005     144.6210      35.2881       0.8050       0.3941       2.1105     137.2835
    908.9132      14.2180       0.0030     148.5843      35.4900       0.8000       0.3941       2.1200     137.2880
    909.0656      14.0178       0.0060     152.5350      35.0522       0.7855       0.3955       2.1416     137.3914
    909.2180      13.8180       0.0090     152.0311      34.6150       0.7710       0.3971       2.1630     137.4950
    909.3704      13.8285       0.0095     151.5290      32.7132       0.7385       0.3975       2.1625     138.1432
    909.5228      13.8390       0.0100     148.1367      30.8140       0.7060       0.3966       2.1620     138.7920
    909.6752      13.8320       0.0105     144.7570      31.2047       0.7150       0.3944       2.1580     138.7081
    909.8276      13.8250       0.0110     144.9644      31.5950       0.7240       0.3904       2.1540     138.6240
    909.9800      13.7985       0.0120     145.1710      32.9297       0.7220       0.3841       2.1480     138.3327
    910.1324      13.7720       0.0130     145.9233      34.2630       0.7200       0.3788       2.1420     138.0410
    910.2848      13.6994       0.0180     146.6730      34.8163       0.7235       0.3780       2.1490     137.8616
    910.4372      13.6270       0.0230     147.4864      35.3690       0.7270       0.3803       2.1560     137.6820
    910.5896      13.6320       0.0230     148.2970      35.1759       0.7245       0.3846       2.1555     136.8298
    910.7420      13.6370       0.0230     150.1695      34.9830       0.7220       0.3908       2.1550     135.9770
    910.8944      13.6595       0.0165     152.0360      33.9157       0.7230       0.3987       2.1515     136.0880
