#------------------------------------------------------------------------------
#
#   Created by  : [OpenWorks] Log Export Utility (LEXP)
#   Created on  : 2016-05-23 11:56:20
#   Project     : CANT971
#   User        : R5K
#   Interpreter : PEP
#
#------------------------------------------------------------------------------
~VERSION INFORMATION
VERS. 2.0 : CWLS Log ASCII Standard - version 2.0
WRAP.  NO : One line per depth step
~WELL INFORMATION
#MNEMONIC   .UNIT                                           VALUE :DESCRIPTION
#------------------------------------------------------------------------------
STRT        .M                                          1446.1469 :START DEPTH
STOP        .M                                          3739.7668 :STOP DEPTH
STEP        .M                                             0.1524 :STEP
NULL        .                                           -999.2500 :NULL VALUE
COMP        .                                             UNKNOWN :COMPANY
WELL        .                                               468-V :WELL
FLD         .                                             UNKNOWN :FIELD
LOC         .                                             UNKNOWN :LOCATION
CNTY        .                                             UNKNOWN :COUNTY
STAT        .                                             UNKNOWN :STATE
CTRY        .                                             UNKNOWN :COUNTRY
SRVC        .                                             UNKNOWN :SERVICE COMPANY
DATE        .                                             UNKNOWN :LOG DATE
UWI         .                                               468-V :UNIQUE WELL ID
XCOORD      .                                       598699.140000 :SURFACE X
YCOORD      .                                      2143301.650000 :SURFACE Y
LAT         .                                           19.382589 :LATITUDE
LON         .                                          -92.060118 :LONGITUDE
ELEV        .M                                             0.0000 :SURFACE ELEV
ELEV_TYPE   .                                                  NA :ELEV TYPE
~CURVE INFORMATION
#MNEMONIC.UNIT        API CODE       : CURVE DESCRIPTION
#------------------------------------------------------------------------------
DEPTH    .M                          : Measured Depth
CALI     .inches      UNKNOWN        : CALI:PETROWORKS:rC:NONE:v1 
DRHO     .g/cm3       UNKNOWN        : DRHO:PETROWORKS:rC:NONE:v1 
DT       .us/ft       UNKNOWN        : DT:sonico:rC:NONE:v0 (auto-composite)
GR       .API         UNKNOWN        : GR:PETROWORKS:rC:NONE:v1 
GR-LWD   .API         UNKNOWN        : GR-LWD:PETROWORKS:rC:NONE:v3 
ILD-LWD  .ohm.m       UNKNOWN        : ILD-LWD:PETROWORKS:rC:NONE:v3 
ILM-LWD  .UNKNOWN     UNKNOWN        : ILM-LWD:PETROWORKS:rC:NONE:v3 
NPHI     .v/v_decimal UNKNOWN        : NPHI:PETROWORKS:rC:NONE:v1 
PEF      .b/elec      UNKNOWN        : PEF:PETROWORKS:rC:NONE:v1 
RHOB     .g/cm3       UNKNOWN        : RHOB:PETROWORKS:rC:NONE:v1 
~A     DEPTH         CALI         DRHO           DT           GR       GR-LWD      ILD-LWD      ILM-LWD         NPHI          PEF         RHOB
# ...
   3101.8206       6.5325       0.0985      54.7004      40.6907      30.6142      72.2616      70.0869       0.0512       3.1113       2.6782
   3101.9729       6.5298       0.0970      54.3923      39.6041      30.1434      74.0708      71.3443       0.0505       3.0976       2.6502
   3102.1252       6.5299       0.0957      54.1032      39.2957      27.7776      72.0782      69.8999       0.0486       3.0742       2.6258
   3102.2776       6.5311       0.0943      53.8117      36.7188      24.7613      76.7544      73.8566       0.0458       3.0560       2.5933
   3102.4299       6.5257       0.0936      53.7631      32.8970      22.3202      80.1323      77.0749       0.0446       3.0429       2.5783
   3102.5825       6.5006       0.0935      53.8985      26.8331      19.4513      82.4079      77.4877       0.0424       3.0064       2.5796
   3102.7349       6.4889       0.0944      53.7126      22.9833      18.1109      83.6466      77.9582       0.0413       2.9501       2.5998
   3102.8872       6.4879       0.0961      53.0871      21.9133      16.9525      85.6477      79.3362       0.0414       2.8955       2.6450
   3103.0396       6.5030       0.0975      51.1635      21.3463      16.2875      85.8671      79.7814       0.0420       2.9161       2.6833
   3103.1921       6.5288       0.0985      50.5407      23.1796      16.5765      82.7821      79.7865       0.0436       2.9928       2.7107
   3103.3445       6.5320       0.0982      49.7080      25.4456      17.5004      84.5972      81.4461       0.0463       3.0692       2.7090
   3103.4968       6.5195       0.0971      49.3704      26.9954      18.9818      83.3997      80.7047       0.0498       3.1355       2.6882
   3103.6492       6.5154       0.0960      49.3227      28.3471      19.8810      85.0083      82.7863       0.0541       3.1687       2.6651
   3103.8018       6.5150       0.0948      49.3749      30.0202      20.8179      87.6432      85.2237       0.0589       3.1920       2.6422
   3103.9541       6.5150       0.0942      49.9922      30.5729      21.0400      85.3921      84.4844       0.0612       3.1945       2.6395
   3104.1064       6.5178       0.0940      51.0105      29.5256      20.9296      88.3491      86.9662       0.0631       3.1829       2.6467
   3104.2588       6.5324       0.0945      52.6166      27.6593      20.3234      87.5630      87.2897       0.0674       3.1846       2.6455
   3104.4111       6.5441       0.0951      54.3453      25.6936      19.6586      86.3066      86.4199       0.0697       3.1926       2.6394
   3104.5637       6.5825       0.0953      56.7968      25.2076      20.1595      87.1997      85.9987       0.0697       3.1766       2.6430
   3104.7161       6.5955       0.0951      57.5722      27.4693      21.4530      87.8698      86.7549       0.0708       3.1480       2.6529
   3104.8684       6.5959       0.0942      58.3296      31.8166      24.1474      88.6224      88.8603       0.0726       3.0916       2.6570
   3105.0208       6.5795       0.0936      58.6662      35.7242      25.6709      89.6701      88.1696       0.0733       3.0255       2.6391
   3105.1733       6.5737       0.0934      58.6361      35.6369      25.9050      89.3209      85.9544       0.0730       2.9331       2.6091
   3105.3257       6.5720       0.0934      58.2642      31.7928      23.5088      87.7558      86.3511       0.0705       2.8877       2.6064
   3105.4780       6.5671       0.0938      56.9284      27.6879      21.5649      90.9331      88.6558       0.0628       2.8610       2.6284
   3105.6304       6.5727       0.0946      55.7054      26.6083      18.5028      92.7613      88.0621       0.0571       2.8630       2.6496
   3105.7830       6.5941       0.0955      53.5069      27.7252      17.1128      92.6121      91.4072       0.0519       2.8950       2.6684
   3105.9353       6.5662       0.0960      51.9429      28.1097      16.8255      98.5010      97.1820       0.0500       2.9523       2.6711
   3106.0876       6.5431       0.0962      50.9113      25.8305      18.2935     103.4206      99.7885       0.0512       3.0358       2.6596
   3106.2400       6.5509       0.0957      50.8401      27.4126      19.4770     104.4405     100.9061       0.0540       3.0453       2.6434
   3106.3923       6.5584       0.0949      50.9421      33.5715      20.6060     104.1181     101.2508       0.0579       2.9886       2.6233
   3106.5449       6.5435       0.0945      51.1374      35.7290      21.1595     106.1301     103.2834       0.0603       2.9309       2.6080
   3106.6973       6.5574       0.0945      51.2260      36.1416      21.4075     109.9460     106.4282       0.0610       2.8911       2.6025
   3106.8496       6.5515       0.0949      51.6331      37.5569      21.9794     108.4804     106.0499       0.0604       2.8716       2.6151
   3107.0020       6.5335       0.0959      52.2729      38.5218      23.6416     107.6700     106.5613       0.0588       2.8722       2.6372
   3107.1545       6.5310       0.0977      52.4098      38.4987      25.3800     107.1538     107.7433       0.0575       2.9006       2.6508
   3107.3069       6.5273       0.1003      52.5550      37.6757      26.2343     108.6473     108.9366       0.0562       2.9214       2.6651
   3107.4592       6.5164       0.1017      52.6192      36.6451      26.3900     101.7378     104.6867       0.0540       2.8917       2.6853
   3107.6116       6.5178       0.1019      52.8564      38.2765      27.2085     105.3686     107.7999       0.0537       2.8484       2.6973
   3107.7642       6.5323       0.1006      53.4824      42.2111      28.4915     106.9996     108.4397       0.0545       2.8688       2.6831
   3107.9165       6.5365       0.0992      54.1429      43.6728      29.5577     106.8471     108.6241       0.0556       2.9144       2.6690
   3108.0688       6.5359       0.0980      54.7873      45.1185      29.4939     108.9605     110.8373       0.0562       2.9425       2.6523
   3108.2212       6.5365       0.0973      54.8710      46.9139      28.5675     108.4942     109.6523       0.0565       2.9414       2.6349
   3108.3735       6.5356       0.0969      54.9194      47.7675      27.4099     108.8766     107.5300       0.0542       2.9536       2.6269
   3108.5261       6.5363       0.0970      55.9043      49.1388      28.0657     112.1249     110.5630       0.0535       2.9741       2.6292
   3108.6785       6.5314       0.0974      56.3564      51.1857      29.5936     118.0001     114.5609       0.0527       2.9864       2.6248
   3108.8308       6.5209       0.0980      56.7265      49.2852      30.7432     113.7320     111.4955       0.0521       2.9895       2.6289
   3108.9832       6.5154       0.0981      54.9013      47.3476      31.9705     113.2063     111.8078       0.0535       2.9987       2.6472
   3109.1357       6.5150       0.0970      53.4503      47.2244      32.6739     109.6404     110.2544       0.0560       2.9712       2.6484
   3109.2881       6.5150       0.0957      51.0946      47.2173      33.5828     112.5181     113.0958       0.0590       2.8760       2.6308
   3109.4404       6.5150       0.0952      49.8311      48.8637      33.3264     112.8248     114.8019       0.0608       2.7703       2.6128
   3109.5928       6.5150       0.0946      49.0896      50.4425      33.2735     120.9576     119.2679       0.0617       2.6420       2.5948
   3109.7454       6.5150       0.0944      48.8857      48.3421      32.8560     122.1943     120.0815       0.0615       2.5290       2.5885
   3109.8977       6.5150       0.0944      48.7618      43.8946      32.4069     122.9744     120.9894       0.0612       2.4311       2.5891
   3110.0500       6.5150       0.0944      48.9325      41.7192      32.8512     124.6167     121.2527       0.0610       2.4227       2.5907
   3110.2024       6.5150       0.0945      49.0301      42.7360      33.4181     121.9808     119.8784       0.0595       2.4827       2.5904
