#------------------------------------------------------------------------------
#
#   Created by  : [OpenWorks] Log Export Utility (LEXP)
#   Created on  : 2016-05-23 11:55:46
#   Project     : CANT971
#   User        : R5K
#   Interpreter : PEP
#
#------------------------------------------------------------------------------
~VERSION INFORMATION
VERS. 2.0 : CWLS Log ASCII Standard - version 2.0
WRAP.  NO : One line per depth step
~WELL INFORMATION
#MNEMONIC   .UNIT                                           VALUE :DESCRIPTION
#------------------------------------------------------------------------------
STRT        .M                                           325.5260 :START DEPTH
STOP        .M                                          2414.9299 :STOP DEPTH
STEP        .M                                             0.1524 :STEP
NULL        .                                           -999.2500 :NULL VALUE
COMP        .                                   PEMEX EXPL & PROD :COMPANY
WELL        .                                                   4 :WELL
FLD         .                                           CANTARELL :FIELD
LOC         .                                             UNKNOWN :LOCATION
CNTY        .                                      CD. DEL CARMEN :COUNTY
STAT        .                                            CAMPECHE :STATE
CTRY        .                                              MEXICO :COUNTRY
SRVC        .                                             UNKNOWN :SERVICE COMPANY
DATE        .                                             UNKNOWN :LOG DATE
UWI         .                                          3060000140 :UNIQUE WELL ID
XCOORD      .                                       598455.270000 :SURFACE X
YCOORD      .                                      2145027.190000 :SURFACE Y
LAT         .                                           19.398194 :LATITUDE
LON         .                                          -92.062351 :LONGITUDE
ELEV        .M                                            26.5400 :SURFACE ELEV
ELEV_TYPE   .                                                  KB :ELEV TYPE
~CURVE INFORMATION
#MNEMONIC.UNIT        API CODE       : CURVE DESCRIPTION
#------------------------------------------------------------------------------
DEPTH    .M                          : Measured Depth
CALI     .inches      UNKNOWN        : CALI:Import:rC:NONE:v0 (auto-composite)
CGR      .API         UNKNOWN        : CGR:Import:rC:NONE:v0 (auto-composite)
DRHO     .g/cm3       UNKNOWN        : DRHO:Import:rC:NONE:v0 (auto-composite)
DT       .us/ft       UNKNOWN        : DT:Import:rC:NONE:v0 (auto-composite)
GR       .API         UNKNOWN        : GR:Import:rC:NONE:v0 (auto-composite)
ILD      .ohm.m       UNKNOWN        : ILD:Import:rC:NONE:v0 (auto-composite)
LLD      .ohm.m       UNKNOWN        : LLD:Import:rC:NONE:v0 (auto-composite)
LLS      .ohm.m       UNKNOWN        : LLS:Import:rC:NONE:v0 (auto-composite)
MSFL     .ohm.m       UNKNOWN        : MSFL:Import:rC:NONE:v0 (auto-composite)
NPHI     .v/v_decimal UNKNOWN        : NPHI:Import:rC:NONE:v0 (auto-composite)
POTA     .wtpercent   UNKNOWN        : POTA:Import:rC:NONE:v0 (auto-composite)
RHOB     .g/cm3       UNKNOWN        : RHOB:Import:rC:NONE:v0 (auto-composite)
THOR     .ppm         UNKNOWN        : THOR:Import:rC:NONE:v0 (auto-composite)
URAN     .ppm         UNKNOWN        : URAN:Import:rC:NONE:v0 (auto-composite)
~A     DEPTH         CALI          CGR         DRHO           DT           GR          ILD          LLD          LLS         MSFL         NPHI         POTA         RHOB         THOR         URAN
# ...
   1772.1068      13.2140    -999.2500       0.0050      76.1800      48.9230    -999.2500      17.4430      12.9260       8.5870       0.2264    -999.2500       2.4520    -999.2500    -999.2500
   1772.2592      13.1930    -999.2500       0.0040      74.6861      49.4949    -999.2500      20.7681      15.2625      10.1809       0.2072    -999.2500       2.4781    -999.2500    -999.2500
   1772.4116      13.1720    -999.2500       0.0030      73.1990      50.0660    -999.2500      24.0780      17.5920      11.7700       0.1859    -999.2500       2.5040    -999.2500    -999.2500
   1772.5640      13.1535    -999.2500       0.0080      72.1998      49.0203    -999.2500      23.6360      17.3006      16.3926       0.1838    -999.2500       2.5170    -999.2500    -999.2500
   1772.7164      13.1350    -999.2500       0.0130      71.2050      47.9760    -999.2500      23.1960      17.0100      21.0020       0.1869    -999.2500       2.5300    -999.2500    -999.2500
   1772.8688      13.0684    -999.2500       0.0125      70.6368      46.8704    -999.2500      22.6538      16.5664      18.2542       0.1871    -999.2500       2.5280    -999.2500    -999.2500
   1773.0212      13.0020    -999.2500       0.0120      70.0710      45.7660    -999.2500      22.1140      16.1240      15.5140       0.1865    -999.2500       2.5260    -999.2500    -999.2500
   1773.1736      12.9494    -999.2500       0.0145      69.2693      44.8275    -999.2500      22.8731      16.6797      15.5811       0.1833    -999.2500       2.5335    -999.2500    -999.2500
   1773.3260      12.8970    -999.2500       0.0170      68.4710      43.8900    -999.2500      23.6290      17.2340      15.6480       0.1793    -999.2500       2.5410    -999.2500    -999.2500
   1773.4784      12.8469    -999.2500       0.0155      68.0231      43.1472    -999.2500      24.4442      17.8718      16.1451       0.1774    -999.2500       2.5405    -999.2500    -999.2500
   1773.6309      12.7970    -999.2500       0.0140      67.5770      42.4050    -999.2500      25.2560      18.5080      16.6410       0.1761    -999.2500       2.5400    -999.2500    -999.2500
   1773.7832      12.7549    -999.2500       0.0115      67.3851      42.2094    -999.2500      26.7860      19.4356      17.7718       0.1763    -999.2500       2.5320    -999.2500    -999.2500
   1773.9355      12.7130    -999.2500       0.0090      67.1940      42.0140    -999.2500      28.3100      20.3610      18.9000       0.1770    -999.2500       2.5240    -999.2500    -999.2500
   1774.0880      12.6839    -999.2500       0.0065      67.2191      42.0625    -999.2500      30.1696      21.3801      18.8625       0.1741    -999.2500       2.5135    -999.2500    -999.2500
   1774.2404      12.6550    -999.2500       0.0040      67.2440      42.1110    -999.2500      32.0220      22.3970      18.8250       0.1701    -999.2500       2.5030    -999.2500    -999.2500
   1774.3928      12.6264    -999.2500      -0.0000      67.5097      42.2345    -999.2500      33.2598      23.1208      18.1172       0.1710    -999.2500       2.4955    -999.2500    -999.2500
   1774.5452      12.5980    -999.2500      -0.0040      67.7740      42.3580    -999.2500      34.4930      23.8430      17.4110       0.1732    -999.2500       2.4880    -999.2500    -999.2500
   1774.6976      12.5644    -999.2500      -0.0040      68.3194      43.0974    -999.2500      34.0144      23.5256      16.3395       0.1786    -999.2500       2.4845    -999.2500    -999.2500
   1774.8500      12.5310    -999.2500      -0.0040      68.8620      43.8360    -999.2500      33.5380      23.2090      15.2710       0.1849    -999.2500       2.4810    -999.2500    -999.2500
   1775.0024      12.4809    -999.2500      -0.0045      69.1507      46.3644    -999.2500      32.4919      22.6065      13.9783       0.1862    -999.2500       2.4780    -999.2500    -999.2500
   1775.1548      12.4310    -999.2500      -0.0050      69.4380      48.8880    -999.2500      31.4510      22.0060      12.6900       0.1859    -999.2500       2.4750    -999.2500    -999.2500
   1775.3073      12.4074    -999.2500      -0.0050      69.3102      52.4871    -999.2500      29.2862      20.6698      13.1172       0.1861    -999.2500       2.4715    -999.2500    -999.2500
   1775.4596      12.3840    -999.2500      -0.0050      69.1830      56.0800    -999.2500      27.1320      19.3380      13.5430       0.1864    -999.2500       2.4680    -999.2500    -999.2500
   1775.6121      12.3790    -999.2500      -0.0020      69.5353      57.6973    -999.2500      25.1517      18.0895      12.5970       0.1895    -999.2500       2.4710    -999.2500    -999.2500
   1775.7644      12.3740    -999.2500       0.0010      69.8860      59.3120    -999.2500      23.1810      16.8450      11.6540       0.1934    -999.2500       2.4740    -999.2500    -999.2500
   1775.9167      12.3504    -999.2500      -0.0020      71.0893      58.1556    -999.2500      22.2062      16.2060      11.7622       0.1995    -999.2500       2.4630    -999.2500    -999.2500
   1776.0692      12.3270    -999.2500      -0.0050      72.2870      57.0010    -999.2500      21.2360      15.5690      11.8700       0.2061    -999.2500       2.4520    -999.2500    -999.2500
   1776.2216      12.2944    -999.2500      -0.0095      72.2244      55.8372    -999.2500      21.0090      15.3502      11.3788       0.2046    -999.2500       2.4530    -999.2500    -999.2500
   1776.3740      12.2620    -999.2500      -0.0140      72.1620      54.6750    -999.2500      20.7830      15.1320      10.8890       0.2005    -999.2500       2.4540    -999.2500    -999.2500
   1776.5264      12.2425    -999.2500      -0.0030      71.4700      57.0755    -999.2500      20.6763      15.0864      11.5254       0.1958    -999.2500       2.4730    -999.2500    -999.2500
   1776.6788      12.2230    -999.2500       0.0080      70.7810      59.4730    -999.2500      20.5700      15.0410      12.1600       0.1907    -999.2500       2.4920    -999.2500    -999.2500
   1776.8312      12.2125    -999.2500       0.0150      69.9743      57.5039    -999.2500      21.2640      15.5677      13.9204       0.1865    -999.2500       2.5020    -999.2500    -999.2500
   1776.9836      12.2020    -999.2500       0.0220      69.1710      55.5370    -999.2500      21.9550      16.0930      15.6760       0.1825    -999.2500       2.5120    -999.2500    -999.2500
   1777.1360      12.1704    -999.2500       0.0205      68.5758      55.8677    -999.2500      23.5949      17.1273      20.1203       0.1800    -999.2500       2.5060    -999.2500    -999.2500
   1777.2885      12.1390    -999.2500       0.0190      67.9830      56.1980    -999.2500      25.2280      18.1590      24.5530       0.1778    -999.2500       2.5000    -999.2500    -999.2500
   1777.4408      12.1235    -999.2500       0.0160      68.2095      56.3206    -999.2500      25.1518      18.0694      20.9486       0.1822    -999.2500       2.5005    -999.2500    -999.2500
   1777.5933      12.1080    -999.2500       0.0130      68.4350      56.4430    -999.2500      25.0760      17.9800      17.3530       0.1887    -999.2500       2.5010    -999.2500    -999.2500
   1777.7456      12.1105    -999.2500       0.0175      68.8488      57.0957    -999.2500      24.2659      17.4559      15.4272       0.1941    -999.2500       2.5120    -999.2500    -999.2500
   1777.8979      12.1130    -999.2500       0.0220      69.2610      57.7480    -999.2500      23.4590      16.9330      13.5060       0.1991    -999.2500       2.5230    -999.2500    -999.2500
   1778.0504      12.0920    -999.2500       0.0430      69.6815      57.0443    -999.2500      24.0586      17.3835      16.8652       0.1968    -999.2500       2.5440    -999.2500    -999.2500
   1778.2028      12.0710    -999.2500       0.0640      70.1000      56.3410    -999.2500      24.6560      17.8330      20.2170       0.1921    -999.2500       2.5650    -999.2500    -999.2500
   1778.3552      12.0630    -999.2500       0.0500      71.6120      55.1647    -999.2500      22.8702      16.6347      18.4161       0.1991    -999.2500       2.5540    -999.2500    -999.2500
