#------------------------------------------------------------------------------
#
#   Created by  : [OpenWorks] Log Export Utility (LEXP)
#   Created on  : 2016-05-23 11:50:37
#   Project     : CANT971
#   User        : R5K
#   Interpreter : PEP
#
#------------------------------------------------------------------------------
~VERSION INFORMATION
VERS. 2.0 : CWLS Log ASCII Standard - version 2.0
WRAP.  NO : One line per depth step
~WELL INFORMATION
#MNEMONIC   .UNIT                                           VALUE :DESCRIPTION
#------------------------------------------------------------------------------
STRT        .M                                           690.6770 :START DEPTH
STOP        .M                                          3400.6538 :STOP DEPTH
STEP        .M                                             0.1524 :STEP
NULL        .                                           -999.2500 :NULL VALUE
COMP        .                                   PEMEX EXPL & PROD :COMPANY
WELL        .                                                1024 :WELL
FLD         .                                           CANTARELL :FIELD
LOC         .                                             UNKNOWN :LOCATION
CNTY        .                                      CD. DEL CARMEN :COUNTY
STAT        .                                            CAMPECHE :STATE
CTRY        .                                              MEXICO :COUNTRY
SRVC        .                                             UNKNOWN :SERVICE COMPANY
DATE        .                                             UNKNOWN :LOG DATE
UWI         .                                          3060000490 :UNIQUE WELL ID
XCOORD      .                                       596162.640000 :SURFACE X
YCOORD      .                                      2150611.280000 :SURFACE Y
LAT         .                                           19.448767 :LATITUDE
LON         .                                          -92.083900 :LONGITUDE
ELEV        .M                                            30.0000 :SURFACE ELEV
ELEV_TYPE   .                                                  KB :ELEV TYPE
~CURVE INFORMATION
#MNEMONIC.UNIT        API CODE       : CURVE DESCRIPTION
#------------------------------------------------------------------------------
DEPTH    .M                          : Measured Depth
CALI     .inches      UNKNOWN        : CALI:registros:rC:NONE:v0 (auto-composite)
DRHO     .g/cm3       UNKNOWN        : DRHO:registros:rC:NONE:v0 (auto-composite)
DT       .us/ft       UNKNOWN        : DT:registros:rC:NONE:v0 (auto-composite)
GR       .API         UNKNOWN        : GR:registros:rC:NONE:v0 (auto-composite)
ILD      .ohm.m       UNKNOWN        : ILD:registros:rC:NONE:v0 (auto-composite)
ILM      .ohm.m       UNKNOWN        : ILM:registros:rC:NONE:v0 (auto-composite)
LLD      .ohm.m       UNKNOWN        : LLD:registros:rC:NONE:v0 (auto-composite)
LLS      .ohm.m       UNKNOWN        : LLS:registros:rC:NONE:v0 (auto-composite)
MSFL     .ohm.m       UNKNOWN        : MSFL:registros:rC:NONE:v0 (auto-composite)
NPHI     .v/v_decimal UNKNOWN        : NPHI:registros:rC:NONE:v0 (auto-composite)
PEF      .b/elec      UNKNOWN        : PEF:registros:rC:NONE:v0 (auto-composite)
RHOB     .g/cm3       UNKNOWN        : RHOB:registros:rC:NONE:v0 (auto-composite)
~A     DEPTH         CALI         DRHO           DT           GR          ILD          ILM          LLD          LLS         MSFL         NPHI          PEF         RHOB
# ...
   3280.2578       8.5790       0.0100      90.8240      47.3640    -999.2500    -999.2500     123.5960      66.9890      51.2500       0.1351       3.1550       2.5160
   3280.4102       8.6070       0.0130      86.3898      42.9631    -999.2500    -999.2500     125.1220      67.7067      51.4459       0.1480       3.1810       2.5180
   3280.5625       8.6350       0.0160      81.9440      38.5930    -999.2500    -999.2500     126.6520      68.4240      51.6420       0.1607       3.2070       2.5200
   3280.7151       8.7049       0.0155      81.7792      38.7656    -999.2500    -999.2500     153.8029      81.0910      56.1555       0.1618       3.3144       2.5475
   3280.8674       8.7750       0.0150      81.6140      38.9370    -999.2500    -999.2500     181.0280      93.7520      60.6740       0.1599       3.4220       2.5750
   3281.0198       9.0411       0.0040      77.2228      43.1657    -999.2500    -999.2500     275.7375     142.0994     108.7439       0.1504       3.4170       2.6000
   3281.1721       9.3080      -0.0070      72.8190      47.3660    -999.2500    -999.2500     370.7180     190.4300     156.8740       0.1372       3.4120       2.6250
   3281.3247       9.2875      -0.0070      74.1865      47.3625    -999.2500    -999.2500     366.9456     188.6038     155.6279       0.1074       3.3032       2.6674
   3281.4771       9.2670      -0.0070      75.5580      47.3590    -999.2500    -999.2500     363.1620     186.7780     154.3800       0.0790       3.1940       2.7100
   3281.6294       8.9665      -0.0050      75.5071      47.2637    -999.2500    -999.2500     299.4511     154.4494     137.0111       0.0755       3.2809       2.7075
   3281.7817       8.6650      -0.0030      75.4560      47.1690    -999.2500    -999.2500     235.5420     122.1240     119.6160       0.0767       3.3680       2.7050
   3281.9341       8.6690       0.0140      74.7621      46.3404    -999.2500    -999.2500     238.7278     124.2955      82.0022       0.0821       3.3645       2.6790
   3282.0867       8.6730       0.0310      74.0660      45.5170    -999.2500    -999.2500     241.9240     126.4670      44.3270       0.0879       3.3610       2.6530
   3282.2390       8.7309       0.0310      72.8066      43.5805    -999.2500    -999.2500     239.7796     117.8202      49.3531       0.0921       3.1492       2.6280
   3282.3914       8.7890       0.0310      71.5430      41.6560    -999.2500    -999.2500     237.6280     109.1720      54.3880       0.0973       2.9370       2.6030
   3282.5437       9.0218       0.0290      69.6543      39.3886    -999.2500    -999.2500     209.9511     109.2760      51.3394       0.1098       2.9390       2.5391
   3282.6963       9.2550       0.0270      67.7620      37.1350    -999.2500    -999.2500     182.2220     109.3800      48.2850       0.1217       2.9410       2.4750
   3282.8486       9.2385       0.0155      62.6681      37.4008    -999.2500    -999.2500     184.7310     112.3029      50.6207       0.1230       2.9710       2.4795
   3283.0010       9.2220       0.0040      57.5640      37.6650    -999.2500    -999.2500     187.2450     115.2270      52.9610       0.1219       3.0010       2.4840
   3283.1533       9.0297      -0.0020      57.5680      40.8127    -999.2500    -999.2500     242.4291     139.9220     103.8177       0.1165       3.1538       2.5399
   3283.3059       8.8370      -0.0080      57.5720      43.9420    -999.2500    -999.2500     297.7310     164.6300     154.7830       0.1091       3.3070       2.5960
   3283.4583       8.6542      -0.0110      57.8457      46.7681    -999.2500    -999.2500     295.5330     182.1792     258.7480       0.0932       3.3669       2.6674
   3283.6106       8.4710      -0.0140      58.1200      49.5780    -999.2500    -999.2500     293.3300     199.7400     362.9480       0.0784       3.4270       2.7390
   3283.7629       8.4765      -0.0140      61.9280      51.0217    -999.2500    -999.2500     295.0110     204.5785     317.5717       0.0776       3.4235       2.7360
   3283.9153       8.4820      -0.0140      65.7450      52.4550    -999.2500    -999.2500     296.6960     209.4130     272.0870       0.0789       3.4200       2.7330
   3284.0679       8.4795      -0.0105      65.5078      54.3753    -999.2500    -999.2500     354.4829     263.5163     272.7747       0.0788       3.3810       2.7340
   3284.2202       8.4770      -0.0070      65.2700      56.2820    -999.2500    -999.2500     412.4150     317.5820     273.4630       0.0780       3.3420       2.7350
   3284.3726       8.4311      -0.0000      60.3899      60.1755    -999.2500    -999.2500     406.2691     313.6639     307.1956       0.0747       3.3310       2.7555
   3284.5249       8.3850       0.0070      55.4970      64.0420    -999.2500    -999.2500     400.1070     309.7480     340.9630       0.0716       3.3200       2.7760
   3284.6775       8.3870       0.0070      55.5260      63.7676    -999.2500    -999.2500     313.4168     249.5397     334.3539       0.0720       3.2561       2.7745
   3284.8298       8.3890       0.0070      55.5550      63.4950    -999.2500    -999.2500     226.4870     189.3580     327.7370       0.0756       3.1920       2.7730
   3284.9822       8.4714       0.0060      57.4473      60.2035    -999.2500    -999.2500     229.2180     191.0898     271.1328       0.0940       3.1970       2.7540
   3285.1345       8.5540       0.0050      59.3450      56.9340    -999.2500    -999.2500     231.9570     192.8210     214.4560       0.1122       3.2020       2.7350
   3285.2871       8.5525       0.0055      59.3290      50.5259    -999.2500    -999.2500     266.2917     213.9635     162.1514       0.1149       3.3093       2.6486
   3285.4395       8.5510       0.0060      59.3130      44.1600    -999.2500    -999.2500     300.7300     235.1020     109.7730       0.1147       3.4170       2.5620
   3285.5918       8.4896       0.0110      57.6980      39.3289    -999.2500    -999.2500     351.4982     265.4255     113.2174       0.1137       3.4135       2.5640
   3285.7441       8.4280       0.0160      56.0780      34.5290    -999.2500    -999.2500     402.4260     295.7470     116.6670       0.1123       3.4100       2.5660
   3285.8965       8.4305       0.0160      56.1454      32.4941    -999.2500    -999.2500     435.0532     313.1690     164.1330       0.1086       3.3705       2.6095
   3286.0491       8.4330       0.0160      56.2130      30.4720    -999.2500    -999.2500     467.7870     330.5920     211.6780       0.1048       3.3310       2.6530
   3286.2014       8.4595       0.0110      57.1000      29.7412    -999.2500    -999.2500     462.7670     327.5638     273.0502       0.1028       3.2741       2.6500
   3286.3538       8.4860       0.0060      57.9900      29.0150    -999.2500    -999.2500     457.7300     324.5350     334.5320       0.1007       3.2170       2.6470
   3286.5061       8.5290       0.0060      56.6653      29.3029    -999.2500    -999.2500     410.2035     295.3435     331.4285       0.0969       3.2195       2.6480
   3286.6587       8.5720       0.0060      55.3380      29.5890    -999.2500    -999.2500     362.5860     266.1430     328.3190       0.0921       3.2220       2.6490
   3286.8110       8.8667       0.0095      55.3540      32.6055    -999.2500    -999.2500     308.5106     212.2343     302.4749       0.0837       3.2570       2.6605
   3286.9634       9.1620       0.0130      55.3700      35.6040    -999.2500    -999.2500     254.3250     158.3020     276.5780       0.0760       3.2920       2.6720
   3287.1157       9.1505       0.0185      55.6372      39.9216    -999.2500    -999.2500     220.5446     158.3695     265.6304       0.0750       3.2905       2.6875
   3287.2683       9.1390       0.0240      55.9050      44.2140    -999.2500    -999.2500     186.6910     158.4370     254.6590       0.0758       3.2890       2.7030
   3287.4207       9.0221       0.0295      58.2548      48.3277    -999.2500    -999.2500     190.7404     161.8748     212.0863       0.0789       3.2690       2.7015
