#------------------------------------------------------------------------------
#
#   Created by  : [OpenWorks] Log Export Utility (LEXP)
#   Created on  : 2016-05-12 17:01:28
#   Project     : CANT971
#   User        : R5K
#   Interpreter : PEP
#
#------------------------------------------------------------------------------
~VERSION INFORMATION
VERS. 2.0 : CWLS Log ASCII Standard - version 2.0
WRAP.  NO : One line per depth step
~WELL INFORMATION
#MNEMONIC   .UNIT                                           VALUE :DESCRIPTION
#------------------------------------------------------------------------------
STRT        .M                                           350.5962 :START DEPTH
STOP        .M                                          2218.5630 :STOP DEPTH
STEP        .M                                             0.1524 :STEP
NULL        .                                           -999.2500 :NULL VALUE
COMP        .                                   PEMEX EXPL & PROD :COMPANY
WELL        .                                                  79 :WELL
FLD         .                                           CANTARELL :FIELD
LOC         .                                             UNKNOWN :LOCATION
CNTY        .                                      CD. DEL CARMEN :COUNTY
STAT        .                                            CAMPECHE :STATE
CTRY        .                                              MEXICO :COUNTRY
SRVC        .                                             UNKNOWN :SERVICE COMPANY
DATE        .                                             UNKNOWN :LOG DATE
UWI         .                                          3060000183 :UNIQUE WELL ID
XCOORD      .                                       602154.470000 :SURFACE X
YCOORD      .                                      2147172.410000 :SURFACE Y
LAT         .                                           19.417394 :LATITUDE
LON         .                                          -92.027010 :LONGITUDE
ELEV        .M                                            28.1700 :SURFACE ELEV
ELEV_TYPE   .                                                  KB :ELEV TYPE
~CURVE INFORMATION
#MNEMONIC.UNIT        API CODE       : CURVE DESCRIPTION
#------------------------------------------------------------------------------
DEPTH    .M                          : Measured Depth
CALI     .inches      UNKNOWN        : CALI:CALI-Load:rC:NONE:v0 (auto-composite)
DT       .us/ft       UNKNOWN        : DT:DT:rC:NONE:v0 (auto-composite)
GR       .UNKNOWN     UNKNOWN        : GR:GR-Load:rC:NONE:v0 (auto-composite)
ILD      .UNKNOWN     UNKNOWN        : ILD:ILD-Load:rC:NONE:v0 (auto-composite)
LLD      .UNKNOWN     UNKNOWN        : LLD:LLD-Load:rC:NONE:v0 (auto-composite)
LLS      .UNKNOWN     UNKNOWN        : LLS:LLS-Load:rC:NONE:v0 (auto-composite)
MSFL     .UNKNOWN     UNKNOWN        : MSFL:MSFL-Load:rC:NONE:v0 (auto-composite)
NPHI     .v/v_decimal UNKNOWN        : NPHI:NPHI:rC:NONE:v0 (auto-composite)
RG       .API         UNKNOWN        : RG:UNKNOWN:rC:NONE:v0 (auto-composite)
RHOB     .UNKNOWN     UNKNOWN        : RHOB:RHOB-Load:rC:NONE:v0 (auto-composite)
SP       .UNKNOWN     UNKNOWN        : SP:SP-Load:rC:NONE:v0 (auto-composite)
~A     DEPTH         CALI           DT           GR          ILD          LLD          LLS         MSFL         NPHI           RG         RHOB           SP
# ...
   1071.7531      15.6563    -999.2500      43.8671       1.1057    -999.2500    -999.2500    -999.2500       0.3516    -999.2500       2.1918      22.2375
   1071.9054      15.7688    -999.2500      44.2791       1.1092    -999.2500    -999.2500    -999.2500       0.3573    -999.2500       2.1953      22.2685
   1072.0577      15.7687    -999.2500      44.7316       1.1122    -999.2500    -999.2500    -999.2500       0.3629    -999.2500       2.1995      22.3305
   1072.2102      15.6562    -999.2500      45.2246       1.1147    -999.2500    -999.2500    -999.2500       0.3685    -999.2500       2.2045      22.4235
   1072.3625      15.6500    -999.2500      45.6678       1.1162    -999.2500    -999.2500    -999.2500       0.3728    -999.2500       2.2158      22.5323
   1072.5150      15.7500    -999.2500      46.0613       1.1167    -999.2500    -999.2500    -999.2500       0.3758    -999.2500       2.2333      22.6568
   1072.6674      15.7812    -999.2500      46.0332       1.1150    -999.2500    -999.2500    -999.2500       0.3801    -999.2500       2.2405      22.7345
   1072.8198      15.7437    -999.2500      45.5835       1.1110    -999.2500    -999.2500    -999.2500       0.3857    -999.2500       2.2375      22.7655
   1072.9722      15.7298    -999.2500      45.5748       1.1058    -999.2500    -999.2500    -999.2500       0.3910    -999.2500       2.2337      22.8511
   1073.1246      15.7393    -999.2500      46.0058       1.0993    -999.2500    -999.2500    -999.2500       0.3960    -999.2500       2.2292      22.9911
   1073.2770      15.7455    -999.2500      46.5647       1.0980    -999.2500    -999.2500    -999.2500       0.3979    -999.2500       2.2245      23.1544
   1073.4294      15.7485    -999.2500      47.2512       1.1020    -999.2500    -999.2500    -999.2500       0.3966    -999.2500       2.2195      23.3409
   1073.5818      15.7735    -999.2500      48.0974       1.1047    -999.2500    -999.2500    -999.2500       0.3927    -999.2500       2.2205      23.5274
   1073.7341      15.8205    -999.2500      49.1029       1.1062    -999.2500    -999.2500    -999.2500       0.3864    -999.2500       2.2275      23.7139
   1073.8866      15.8705    -999.2500      49.4265       1.1097    -999.2500    -999.2500    -999.2500       0.3805    -999.2500       2.2323      23.9006
   1074.0389      15.9235    -999.2500      49.0701       1.1152    -999.2500    -999.2500    -999.2500       0.3751    -999.2500       2.2348      24.0876
   1074.1914      15.9375    -999.2500      48.2604       1.1200    -999.2500    -999.2500    -999.2500       0.3730    -999.2500       2.2365      24.2275
   1074.3438      15.9125    -999.2500      46.9984       1.1240    -999.2500    -999.2500    -999.2500       0.3743    -999.2500       2.2375      24.3205
   1074.4962      15.9048    -999.2500      45.9406       1.1272    -999.2500    -999.2500    -999.2500       0.3757    -999.2500       2.2403      24.3980
   1074.6486      15.9143    -999.2500      45.0867       1.1297    -999.2500    -999.2500    -999.2500       0.3772    -999.2500       2.2448      24.4600
   1074.8010      15.9393    -999.2500      45.2224       1.1327    -999.2500    -999.2500    -999.2500       0.3807    -999.2500       2.2495      24.4988
   1074.9534      15.9798    -999.2500      46.3464       1.1362    -999.2500    -999.2500    -999.2500       0.3864    -999.2500       2.2545      24.5143
   1075.1058      15.9562    -999.2500      46.6834       1.1370    -999.2500    -999.2500    -999.2500       0.3845    -999.2500       2.2618      24.5220
   1075.2582      15.8687    -999.2500      46.2344       1.1350    -999.2500    -999.2500    -999.2500       0.3750    -999.2500       2.2713      24.5220
   1075.4106      15.8250    -999.2500      45.8597       1.1315    -999.2500    -999.2500    -999.2500       0.3665    -999.2500       2.2700      24.5220
   1075.5630      15.8250    -999.2500      45.5592       1.1265    -999.2500    -999.2500    -999.2500       0.3588    -999.2500       2.2580      24.5220
   1075.7153      15.8375    -999.2500      45.3715       1.1215    -999.2500    -999.2500    -999.2500       0.3541    -999.2500       2.2472      24.5923
   1075.8678      15.8625    -999.2500      45.2965       1.1165    -999.2500    -999.2500    -999.2500       0.3524    -999.2500       2.2377      24.7328
   1076.0201      15.8610    -999.2500      45.6714       1.1115    -999.2500    -999.2500    -999.2500       0.3512    -999.2500       2.2315      24.8963
   1076.1726      15.8330    -999.2500      46.4958       1.1065    -999.2500    -999.2500    -999.2500       0.3504    -999.2500       2.2285      25.0828
   1076.3250      15.8002    -999.2500      46.5053       1.1023    -999.2500    -999.2500    -999.2500       0.3475    -999.2500       2.2310      25.2926
   1076.4774      15.7627    -999.2500      45.7000       1.0988    -999.2500    -999.2500    -999.2500       0.3425    -999.2500       2.2390      25.5256
   1076.6298      15.7330    -999.2500      45.1382       1.0943    -999.2500    -999.2500    -999.2500       0.3423    -999.2500       2.2443      25.6730
   1076.7822      15.7110    -999.2500      44.8193       1.0888    -999.2500    -999.2500    -999.2500       0.3470    -999.2500       2.2468      25.7350
   1076.9346      15.7188    -999.2500      44.7256       1.0860    -999.2500    -999.2500    -999.2500       0.3515    -999.2500       2.2460      25.7192
   1077.0870      15.7563    -999.2500      44.8566       1.0860    -999.2500    -999.2500    -999.2500       0.3560    -999.2500       2.2420      25.6257
   1077.2394      15.8188    -999.2500      45.2940       1.0860    -999.2500    -999.2500    -999.2500       0.3606    -999.2500       2.2405      25.5324
   1077.3918      15.9063    -999.2500      46.0370       1.0860    -999.2500    -999.2500    -999.2500       0.3654    -999.2500       2.2415      25.4394
   1077.5442      15.9062    -999.2500      46.3955       1.0850    -999.2500    -999.2500    -999.2500       0.3589    -999.2500       2.2415      25.3930
   1077.6965      15.8187    -999.2500      46.3705       1.0830    -999.2500    -999.2500    -999.2500       0.3409    -999.2500       2.2405      25.3930
   1077.8490      15.7890    -999.2500      46.5923       1.0805    -999.2500    -999.2500    -999.2500       0.3325    -999.2500       2.2372      25.4553
   1078.0013      15.8170    -999.2500      47.0602       1.0775    -999.2500    -999.2500    -999.2500       0.3336    -999.2500       2.2317      25.5798
   1078.1538      15.8545    -999.2500      47.9349       1.0760    -999.2500    -999.2500    -999.2500       0.3389    -999.2500       2.2318      25.5016
   1078.3062      15.9015    -999.2500      49.2153       1.0760    -999.2500    -999.2500    -999.2500       0.3483    -999.2500       2.2373      25.2211
   1078.4586      15.9500    -999.2500      49.1677       1.0760    -999.2500    -999.2500    -999.2500       0.3529    -999.2500       2.2408      24.9179
   1078.6110      16.0000    -999.2500      47.7942       1.0760    -999.2500    -999.2500    -999.2500       0.3526    -999.2500       2.2423      24.5919
   1078.7634      15.9922    -999.2500      47.1640       1.0777    -999.2500    -999.2500    -999.2500       0.3528    -999.2500       2.2438      24.2967
   1078.9158      15.9267    -999.2500      47.2760       1.0812    -999.2500    -999.2500    -999.2500       0.3535    -999.2500       2.2453      24.0322
   1079.0682      15.8580    -999.2500      47.6132       1.0855    -999.2500    -999.2500    -999.2500       0.3545    -999.2500       2.2473      23.7291
   1079.2206      15.7860    -999.2500      48.1752       1.0905    -999.2500    -999.2500    -999.2500       0.3556    -999.2500       2.2498      23.3877
   1079.3730      15.7548    -999.2500      48.4372       1.0957    -999.2500    -999.2500    -999.2500       0.3565    -999.2500       2.2533      23.0304
   1079.5254      15.7643    -999.2500      48.3997       1.1012    -999.2500    -999.2500    -999.2500       0.3573    -999.2500       2.2578      22.6574
