#------------------------------------------------------------------------------
#
#   Created by  : [OpenWorks] Log Export Utility (LEXP)
#   Created on  : 2016-05-23 11:56:24
#   Project     : CANT971
#   User        : R5K
#   Interpreter : PEP
#
#------------------------------------------------------------------------------
~VERSION INFORMATION
VERS. 2.0 : CWLS Log ASCII Standard - version 2.0
WRAP.  NO : One line per depth step
~WELL INFORMATION
#MNEMONIC   .UNIT                                           VALUE :DESCRIPTION
#------------------------------------------------------------------------------
STRT        .M                                           741.4294 :START DEPTH
STOP        .M                                          2768.5020 :STOP DEPTH
STEP        .M                                             0.1524 :STEP
NULL        .                                           -999.2500 :NULL VALUE
COMP        .                                             UNKNOWN :COMPANY
WELL        .                                                 470 :WELL
FLD         .                                             UNKNOWN :FIELD
LOC         .                                             UNKNOWN :LOCATION
CNTY        .                                             UNKNOWN :COUNTY
STAT        .                                             UNKNOWN :STATE
CTRY        .                                             UNKNOWN :COUNTRY
SRVC        .                                             UNKNOWN :SERVICE COMPANY
DATE        .                                             UNKNOWN :LOG DATE
UWI         .                                                 470 :UNIQUE WELL ID
XCOORD      .                                       598706.890000 :SURFACE X
YCOORD      .                                      2143306.000000 :SURFACE Y
LAT         .                                           19.382628 :LATITUDE
LON         .                                          -92.060044 :LONGITUDE
ELEV        .M                                             0.0000 :SURFACE ELEV
ELEV_TYPE   .                                                  NA :ELEV TYPE
~CURVE INFORMATION
#MNEMONIC.UNIT        API CODE       : CURVE DESCRIPTION
#------------------------------------------------------------------------------
DEPTH    .M                          : Measured Depth
CALI     .inches      UNKNOWN        : CALI:litodensidad:rC:NONE:v0 (auto-composite)
CGR      .API         UNKNOWN        : CGR:PETROWORKS:rC:NONE:v1 
DRHO     .g/cm3       UNKNOWN        : DRHO:litodensidad:rC:NONE:v0 (auto-composite)
DT       .us/ft       UNKNOWN        : DT:PETROWORKS:rC:NONE:v1 
GR       .API         UNKNOWN        : GR:PETROWORKS:rC:NONE:v8 
ILD      .ohm.m       UNKNOWN        : ILD:PETROWORKS:rC:NONE:v1 
ILM      .ohm.m       UNKNOWN        : ILM:PETROWORKS:rC:NONE:v1 
LLD      .ohm.m       UNKNOWN        : LLD:resistivos:rC:NONE:v0 (auto-composite)
LLS      .ohm.m       UNKNOWN        : LLS:resistivos:rC:NONE:v0 (auto-composite)
MSFL     .ohm.m       UNKNOWN        : MSFL:resistivos:rC:NONE:v0 (auto-composite)
NPHI     .v/v_decimal UNKNOWN        : NPHI:PETROWORKS:rC:NONE:v1 
PEF      .UNKNOWN     UNKNOWN        : PEF:litodensidad:rC:NONE:v0 (auto-composite)
POTA     .wtpercent   UNKNOWN        : POTA:PETROWORKS:rC:NONE:v1 
RHOB     .g/cm3       UNKNOWN        : RHOB:litodensidad:rC:NONE:v0 (auto-composite)
THOR     .ppm         UNKNOWN        : THOR:PETROWORKS:rC:NONE:v1 
URAN     .ppm         UNKNOWN        : URAN:PETROWORKS:rC:NONE:v1 
~A     DEPTH         CALI          CGR         DRHO           DT           GR          ILD          ILM          LLD          LLS         MSFL         NPHI          PEF         POTA         RHOB         THOR         URAN
# ...
   2089.1025    -999.2500      10.7030    -999.2500    -999.2500      26.8534    2000.0000     144.9164    -999.2500    -999.2500    -999.2500       0.0540    -999.2500       0.0029    -999.2500       0.9962       1.4467
   2089.2551    -999.2500      10.5190    -999.2500    -999.2500      32.2199     177.0526     188.6731    -999.2500    -999.2500    -999.2500       0.0505    -999.2500       0.0026    -999.2500       1.1026       1.5687
   2089.4075    -999.2500      12.0773    -999.2500    -999.2500      31.6164     227.2052     170.9471    -999.2500    -999.2500    -999.2500       0.0506    -999.2500       0.0030    -999.2500       1.2595       1.6917
   2089.5598    -999.2500      10.4228    -999.2500    -999.2500      30.2865     138.5595     124.5388    -999.2500    -999.2500    -999.2500       0.0485    -999.2500       0.0024    -999.2500       1.1749       1.6834
   2089.7122    -999.2500      10.3066    -999.2500    -999.2500      29.9668    2000.0000      99.5630    -999.2500    -999.2500    -999.2500       0.0502    -999.2500       0.0023    -999.2500       1.1957       1.6854
   2089.8647    -999.2500      10.9855    -999.2500    -999.2500      25.5510     145.9735     113.6802    -999.2500    -999.2500    -999.2500       0.0475    -999.2500       0.0024    -999.2500       1.2819       1.7006
   2090.0171    -999.2500      13.3743    -999.2500    -999.2500      24.3884     181.4548     109.5898    -999.2500    -999.2500    -999.2500       0.0550    -999.2500       0.0030    -999.2500       1.5113       1.9069
   2090.1694    -999.2500      10.9897    -999.2500    -999.2500      24.5762    2000.0000     105.1634    -999.2500    -999.2500    -999.2500       0.0566    -999.2500       0.0027    -999.2500       1.1442       1.6893
   2090.3218    -999.2500      10.4369    -999.2500    -999.2500      28.6068     129.4595     106.7107    -999.2500    -999.2500    -999.2500       0.0559    -999.2500       0.0027    -999.2500       1.0541       1.6194
   2090.4744    -999.2500      16.2631    -999.2500    -999.2500      32.4090     117.6382      95.3115    -999.2500    -999.2500    -999.2500       0.0417    -999.2500       0.0056    -999.2500       1.0613       1.5740
   2090.6267    -999.2500      16.1310    -999.2500    -999.2500      32.0881     132.6490      95.4510    -999.2500    -999.2500    -999.2500       0.0402    -999.2500       0.0056    -999.2500       1.0065       1.5275
   2090.7791    -999.2500      15.1378    -999.2500    -999.2500      26.0245     147.8453      99.8198    -999.2500    -999.2500    -999.2500       0.0416    -999.2500       0.0051    -999.2500       1.0067       1.4943
   2090.9314    -999.2500      14.8230    -999.2500    -999.2500      23.6627     116.1676     101.0699    -999.2500    -999.2500    -999.2500       0.0435    -999.2500       0.0048    -999.2500       1.0839       1.4938
   2091.0837    -999.2500      12.2974    -999.2500    -999.2500      21.0491     163.2272      93.4759    -999.2500    -999.2500    -999.2500       0.0469    -999.2500       0.0040    -999.2500       0.8727       1.3074
   2091.2363    -999.2500      11.8297    -999.2500    -999.2500      22.4244      88.0815      93.1970    -999.2500    -999.2500    -999.2500       0.0493    -999.2500       0.0040    -999.2500       0.8072       1.2388
   2091.3887    -999.2500      12.4723    -999.2500    -999.2500      25.0446      79.4603      89.9831    -999.2500    -999.2500    -999.2500       0.0501    -999.2500       0.0045    -999.2500       0.7367       1.1939
   2091.5410    -999.2500      16.0305    -999.2500    -999.2500      25.8364      74.2296      94.2828    -999.2500    -999.2500    -999.2500       0.0514    -999.2500       0.0060    -999.2500       0.8525       1.2405
   2091.6934    -999.2500      19.8017    -999.2500    -999.2500      33.3541     144.0824      77.4286    -999.2500    -999.2500    -999.2500       0.0598    -999.2500       0.0069    -999.2500       1.2320       1.2436
   2091.8459    -999.2500      20.0325    -999.2500    -999.2500      37.6304     112.6127      79.2439    -999.2500    -999.2500    -999.2500       0.0701    -999.2500       0.0075    -999.2500       1.0663       1.1892
   2091.9983    -999.2500      16.4422    -999.2500    -999.2500      38.6303      76.7726      80.4539    -999.2500    -999.2500    -999.2500       0.0684    -999.2500       0.0061    -999.2500       0.8820       0.9452
   2092.1506    -999.2500      14.8743    -999.2500    -999.2500      32.8972     110.2253      72.7761    -999.2500    -999.2500    -999.2500       0.0614    -999.2500       0.0054    -999.2500       0.8552       0.8669
   2092.3030    -999.2500      12.9782    -999.2500    -999.2500      33.1107      79.1532      83.1141    -999.2500    -999.2500    -999.2500       0.0543    -999.2500       0.0045    -999.2500       0.8163       0.7961
   2092.4553    -999.2500      13.5796    -999.2500    -999.2500      40.9427     114.4438      84.5468    -999.2500    -999.2500    -999.2500       0.0494    -999.2500       0.0044    -999.2500       1.0045       0.8725
   2092.6079    -999.2500      15.2003    -999.2500    -999.2500      52.1866      94.8203      78.9749    -999.2500    -999.2500    -999.2500       0.0450    -999.2500       0.0047    -999.2500       1.1961       0.9711
   2092.7603    -999.2500      15.8454    -999.2500    -999.2500      54.0128     143.8171      58.1805    -999.2500    -999.2500    -999.2500       0.0418    -999.2500       0.0048    -999.2500       1.3138       0.9855
   2092.9126    -999.2500      26.1509    -999.2500    -999.2500      39.5506     108.9440      49.6870    -999.2500    -999.2500    -999.2500       0.0412    -999.2500       0.0070    -999.2500       2.5061       0.7105
   2093.0649    -999.2500      29.4363    -999.2500    -999.2500      31.2522      91.4323      85.3468    -999.2500    -999.2500    -999.2500       0.0441    -999.2500       0.0089    -999.2500       2.4137       0.8083
   2093.2175    -999.2500      29.9687    -999.2500    -999.2500      25.5940      84.0627     100.2650    -999.2500    -999.2500    -999.2500       0.0540    -999.2500       0.0091    -999.2500       2.4328       0.8544
   2093.3699    -999.2500      26.2265    -999.2500    -999.2500      22.4524     101.2341     100.9053    -999.2500    -999.2500    -999.2500       0.0513    -999.2500       0.0075    -999.2500       2.3215       0.6580
   2093.5222    -999.2500      26.4657    -999.2500    -999.2500      20.8804      77.4127      90.6511    -999.2500    -999.2500    -999.2500       0.0495    -999.2500       0.0075    -999.2500       2.3720       0.6555
   2093.6746    -999.2500      35.2418    -999.2500    -999.2500      18.0345      73.2336     101.3883    -999.2500    -999.2500    -999.2500       0.0604    -999.2500       0.0107    -999.2500       2.8885       0.5623
   2093.8271    -999.2500      43.6813    -999.2500    -999.2500      18.3597      82.3405     124.9060    -999.2500    -999.2500    -999.2500       0.0926    -999.2500       0.0157    -999.2500       2.5434       0.8390
   2093.9795    -999.2500      44.8002    -999.2500    -999.2500      18.7394      87.0855     143.7583    -999.2500    -999.2500    -999.2500       0.0991    -999.2500       0.0158    -999.2500       2.7321       0.9087
   2094.1318    -999.2500      31.2525    -999.2500    -999.2500      18.9375      78.3372     136.6698    -999.2500    -999.2500    -999.2500       0.0854    -999.2500       0.0093    -999.2500       2.6211       0.8185
   2094.2842    -999.2500      25.7397    -999.2500    -999.2500      16.6226      93.3633     153.6095    -999.2500    -999.2500    -999.2500       0.0590    -999.2500       0.0085    -999.2500       1.8199       0.7464
   2094.4365    -999.2500      19.3849    -999.2500    -999.2500      19.2059      89.7987     159.1521    -999.2500    -999.2500    -999.2500       0.0513    -999.2500       0.0058    -999.2500       1.5937       0.7650
   2094.5891    -999.2500      17.7055    -999.2500    -999.2500      19.1570      79.7529     157.0884    -999.2500    -999.2500    -999.2500       0.0427    -999.2500       0.0059    -999.2500       1.2448       0.4719
