#------------------------------------------------------------------------------
#
#   Created by  : [OpenWorks] Log Export Utility (LEXP)
#   Created on  : 2016-05-23 11:57:25
#   Project     : CANT971
#   User        : R5K
#   Interpreter : PEP
#
#------------------------------------------------------------------------------
~VERSION INFORMATION
VERS. 2.0 : CWLS Log ASCII Standard - version 2.0
WRAP.  NO : One line per depth step
~WELL INFORMATION
#MNEMONIC   .UNIT                                           VALUE :DESCRIPTION
#------------------------------------------------------------------------------
STRT        .M                                           497.5860 :START DEPTH
STOP        .M                                          2904.1343 :STOP DEPTH
STEP        .M                                             0.1524 :STEP
NULL        .                                           -999.2500 :NULL VALUE
COMP        .                                   PEMEX EXPL & PROD :COMPANY
WELL        .                                                 82A :WELL
FLD         .                                           CANTARELL :FIELD
LOC         .                                             UNKNOWN :LOCATION
CNTY        .                                      CD. DEL CARMEN :COUNTY
STAT        .                                            CAMPECHE :STATE
CTRY        .                                              MEXICO :COUNTRY
SRVC        .                                             UNKNOWN :SERVICE COMPANY
DATE        .                                             UNKNOWN :LOG DATE
UWI         .                                          3060000184 :UNIQUE WELL ID
XCOORD      .                                       601716.340000 :SURFACE X
YCOORD      .                                      2142348.150000 :SURFACE Y
LAT         .                                           19.373822 :LATITUDE
LON         .                                          -92.031440 :LONGITUDE
ELEV        .M                                            24.0000 :SURFACE ELEV
ELEV_TYPE   .                                                  KB :ELEV TYPE
~CURVE INFORMATION
#MNEMONIC.UNIT        API CODE       : CURVE DESCRIPTION
#------------------------------------------------------------------------------
DEPTH    .M                          : Measured Depth
CAL      .inches      UNKNOWN        : CAL:UNKNOWN:rC:NONE:v0 (auto-composite)
DRHO     .g/cm3       UNKNOWN        : DRHO:UNKNOWN:rC:NONE:v0 (auto-composite)
DT       .us/ft       UNKNOWN        : DT:DT:rC:NONE:v0 (auto-composite)
GR       .api         UNKNOWN        : GR:GR-Load:rC:NONE:v0 (auto-composite)
ILD      .ohm.m       UNKNOWN        : ILD:PETROWORKS:rC:NONE:v1 
LLD      .ohmm        UNKNOWN        : LLD:UNKNOWN:rC:NONE:v0 (auto-composite)
LLS      .ohmm        UNKNOWN        : LLS:UNKNOWN:rC:NONE:v0 (auto-composite)
MSFL     .ohmm        UNKNOWN        : MSFL:PETROWORKS:rC:NONE:v1 
NPHI     .v/v_decimal UNKNOWN        : NPHI:NPHI:rC:NONE:v0 (auto-composite)
PEF      .b/elec      UNKNOWN        : PEF:UNKNOWN:rC:NONE:v0 (auto-composite)
RG       .API         UNKNOWN        : RG:UNKNOWN:rC:NONE:v0 (auto-composite)
RHOB     .g/cm3       UNKNOWN        : RHOB:UNKNOWN:rC:NONE:v0 (auto-composite)
~A     DEPTH          CAL         DRHO           DT           GR          ILD          LLD          LLS         MSFL         NPHI          PEF           RG         RHOB
# ...
   1967.9412       8.5763       0.0244    -999.2500      28.4329    -999.2500     271.8637     164.2500     918.8360      11.5964       3.1036      29.5981       2.6573
   1968.0936       8.6313       0.0214    -999.2500      28.8284    -999.2500     243.3775     148.8321     932.3915      11.0347       3.0101      29.2437       2.6553
   1968.2460       8.6545       0.0128    -999.2500      28.8464    -999.2500     209.2481     128.9635    1231.7256      10.1681       3.0876      30.5627       2.6597
   1968.3984       8.6724       0.0033    -999.2500      28.2680    -999.2500     174.1973     108.3682    1757.6145       9.1057       3.1930      32.1549       2.6652
   1968.5508       8.6553       0.0046    -999.2500      27.3421    -999.2500     173.5494     108.9913    2000.6870       8.6428       3.1321      32.4835       2.6690
   1968.7032       8.6323       0.0076    -999.2500      27.8749    -999.2500     178.5968     113.1270    2000.6870       8.5638       3.0436      32.6029       2.6725
   1968.8556       8.6187       0.0136    -999.2500      29.2583    -999.2500     228.2258     149.7880    2000.6870       8.6857       3.0387      30.1664       2.6867
   1969.0081       8.6067       0.0201    -999.2500      32.5452    -999.2500     285.2873     191.8715    2000.6870       8.9357       3.0477      27.3038       2.7027
   1969.1604       8.5990       0.0154    -999.2500      36.9423    -999.2500     325.6328     220.4609    2000.6870       9.1226       3.0567      27.2337       2.6853
   1969.3127       8.5920       0.0089    -999.2500      37.2963    -999.2500     363.1536     246.7701    2000.6870       9.2691       3.0657      27.6356       2.6623
   1969.4652       8.5927       0.0178    -999.2500      35.2993    -999.2500     359.0300     241.5706    2000.6870       9.4270       3.0136      26.9844       2.6599
   1969.6176       8.5947       0.0293    -999.2500      31.2538    -999.2500     347.8199     231.0094    2000.6870       9.5921       2.9512      26.1541       2.6609
   1969.7700       8.5946       0.0425    -999.2500      26.0169    -999.2500     314.3063     202.8656    1999.7860       9.6934       2.9053      25.4753       2.6823
   1969.9224       8.5941       0.0560    -999.2500      21.6618    -999.2500     276.9464     171.6895    1998.1766       9.7544       2.8624      24.8226       2.7073
   1970.0748       8.5889       0.0559    -999.2500      17.8179    -999.2500     270.9269     164.5102    1973.5038       9.6356       2.8798      15.8687       2.7165
   1970.2272       8.5829       0.0534    -999.2500      15.7095    -999.2500     270.3494     161.4977    1930.7948       9.4036       2.9078       5.4733       2.7230
   1970.3796       8.5735       0.0424    -999.2500      14.6075    -999.2500     289.3157     178.5270    1863.8317       8.6616       2.9192     -21.0663       2.7210
   1970.5320       8.5635       0.0299    -999.2500      14.1992    -999.2500     311.7206     199.0824    1779.4041       7.5992       2.9277     -50.4464       2.7175
   1970.6844       8.5590       0.0165    -999.2500      14.1932    -999.2500     319.1104     210.9597    1500.0742       6.9687       2.9897     -63.9926       2.7204
   1970.8368       8.5555       0.0031    -999.2500      14.1669    -999.2500     323.8239     221.2903    1071.4934       6.6087       3.0611     -74.7164       2.7244
   1970.9893       8.5342       0.0035    -999.2500      14.1289    -999.2500     313.4154     214.9250    1079.2605       6.5638       3.2046     -76.3480       2.7402
   1971.1416       8.5098       0.0065    -999.2500      14.5997    -999.2500     300.2933     205.5638    1442.4413       6.7163       3.3609     -76.3480       2.7582
   1971.2939       8.5047       0.0074    -999.2500      15.3646    -999.2500     298.2247     200.4096    1717.8113       6.7374       3.3554     -76.3480       2.7585
   1971.4464       8.5032       0.0079    -999.2500      15.7191    -999.2500     298.1652     196.0200    1911.9572       6.6764       3.3204     -76.3480       2.7555
   1971.5988       8.5060       0.0059    -999.2500      15.8362    -999.2500     306.0701     199.8804    2000.6870       6.8071       3.2491     -76.3480       2.7491
   1971.7512       8.5095       0.0034    -999.2500      15.4893    -999.2500     315.4323     205.2505    2000.6870       7.0572       3.1712     -76.3480       2.7421
   1971.9036       8.5070       0.0017    -999.2500      14.8748    -999.2500     327.6894     214.3505    1994.6879       7.3301       3.1885     -76.3480       2.7364
   1972.0560       8.5036       0.0002    -999.2500      14.6322    -999.2500     340.4828     224.1418    1984.0416       7.6172       3.2235     -76.3480       2.7309
   1972.2084       8.5001      -0.0004    -999.2500      14.6042    -999.2500     355.3326     234.0674    1985.1917       8.2059       3.3111     -76.3480       2.7308
   1972.3608       8.4966      -0.0009    -999.2500      15.7809    -999.2500     370.5659     244.0182    1995.8379       8.9812       3.4085     -76.3480       2.7318
   1972.5132       8.5010      -0.0014    -999.2500      17.6525    -999.2500     367.0775     248.2457    1871.0465       9.6699       3.3942     -76.3480       2.7341
   1972.6656       8.5070      -0.0019    -999.2500      20.6201    -999.2500     360.0530     251.3924    1641.4030      10.3051       3.3587     -76.3480       2.7366
   1972.8180       8.5189      -0.0012    -999.2500      24.2180    -999.2500     339.6776     248.0808    1562.2478       9.7681       3.2027     -76.3480       2.7290
   1972.9705       8.5319      -0.0002    -999.2500      26.3045    -999.2500     316.7641     243.5416    1607.0613       8.5101       3.0239     -76.3480       2.7195
   1973.1228       8.5554       0.0142    -999.2500      27.5215    -999.2500     319.7999     236.4606    1731.9597       7.7142       2.9577     -76.3480       2.7180
   1973.2751       8.5808       0.0312    -999.2500      28.4038    -999.2500     327.8297     228.8904    1916.7898       7.2015       2.9132     -76.3480       2.7180
   1973.4276       8.6072       0.0332    -999.2500      29.0936    -999.2500     314.4035     217.1540    2000.6870       6.5258       2.9909     -76.3480       2.7222
   1973.5800       8.6337       0.0322    -999.2500      31.2033    -999.2500     296.7971     204.6059    2000.6870       5.7505       3.0924     -76.3480       2.7272
   1973.7324       8.6405       0.0224    -999.2500      34.1278    -999.2500     284.2486     197.1341    1998.5828       5.7565       3.1725     -76.3480       2.7280
   1973.8848       8.6435       0.0109    -999.2500      35.9752    -999.2500     272.6917     190.6575    1994.8689       6.2385       3.2484     -76.3480       2.7280
   1974.0372       8.6794       0.0119    -999.2500      37.2046    -999.2500     271.7443     191.6080    1963.2791       6.7737       3.3194     -76.3480       2.7172
   1974.1896       8.7219       0.0154    -999.2500      37.4882    -999.2500     272.9023     194.0325    1910.5427       7.3415       3.3894     -76.3480       2.7042
   1974.3420       8.9705       0.0514    -999.2500      37.2307    -999.2500     273.8783     195.1135    1918.7303       7.0812       3.3560     -76.3480       2.7057
   1974.4944       9.2603       0.0939    -999.2500      39.1542    -999.2500     274.8180     195.9264    1975.1805       6.3179       3.3021     -76.3480       2.7102
   1974.6469       9.0487       0.0848    -999.2500      42.3256    -999.2500     255.5807     183.9672    1995.6932       5.6992       3.2681     -76.3480       2.7181
   1974.7992       8.7359       0.0653    -999.2500      44.2654    -999.2500     232.2658     169.4270    1986.9038       5.1680       3.2381     -76.3480       2.7266
   1974.9515       8.6336       0.0408    -999.2500      45.5004    -999.2500     223.6430     163.9659    1986.0345       4.5342       3.2608     -76.3480       2.7301
   1975.1040       8.5741       0.0153    -999.2500      50.1387    -999.2500     218.0076     160.3509    1991.4816       3.8384       3.2943     -76.3480       2.7326
