#------------------------------------------------------------------------------
#
#   Created by  : [OpenWorks] Log Export Utility (LEXP)
#   Created on  : 2016-05-23 11:56:14
#   Project     : CANT971
#   User        : R5K
#   Interpreter : PEP
#
#------------------------------------------------------------------------------
~VERSION INFORMATION
VERS. 2.0 : CWLS Log ASCII Standard - version 2.0
WRAP.  NO : One line per depth step
~WELL INFORMATION
#MNEMONIC   .UNIT                                           VALUE :DESCRIPTION
#------------------------------------------------------------------------------
STRT        .M                                          1862.0000 :START DEPTH
STOP        .M                                          3052.8535 :STOP DEPTH
STEP        .M                                             0.1524 :STEP
NULL        .                                           -999.2500 :NULL VALUE
COMP        .                                   PEMEX EXPL & PROD :COMPANY
WELL        .                                                446D :WELL
FLD         .                                           CANTARELL :FIELD
LOC         .                                             UNKNOWN :LOCATION
CNTY        .                                      CD. DEL CARMEN :COUNTY
STAT        .                                            CAMPECHE :STATE
CTRY        .                                              MEXICO :COUNTRY
SRVC        .                                             UNKNOWN :SERVICE COMPANY
DATE        .                                             UNKNOWN :LOG DATE
UWI         .                                            W-C-446D :UNIQUE WELL ID
XCOORD      .                                       598705.170000 :SURFACE X
YCOORD      .                                      2143305.170000 :SURFACE Y
LAT         .                                           19.382621 :LATITUDE
LON         .                                          -92.060061 :LONGITUDE
ELEV        .M                                            28.0000 :SURFACE ELEV
ELEV_TYPE   .                                                  KB :ELEV TYPE
~CURVE INFORMATION
#MNEMONIC.UNIT        API CODE       : CURVE DESCRIPTION
#------------------------------------------------------------------------------
DEPTH    .M                          : Measured Depth
CALI     .inches      UNKNOWN        : CALI:litodensidad:rC:NONE:v0 (auto-composite)
CGR      .API         UNKNOWN        : CGR:CGR-Load:rC:NONE:v0 (auto-composite)
DRHO     .g/cm3       UNKNOWN        : DRHO:litodensidad:rC:NONE:v0 (auto-composite)
DT       .us/ft       UNKNOWN        : DT:DT-Load:rC:NONE:v0 (auto-composite)
GR       .UNKNOWN     UNKNOWN        : GR:PETROWORKS:rC:NONE:v1 
LLD      .ohm.m       UNKNOWN        : LLD:PETROWORKS:rC:NONE:v1 
LLS      .UNKNOWN     UNKNOWN        : LLS:PETROWORKS:rC:NONE:v1 
MSFL     .UNKNOWN     UNKNOWN        : MSFL:PETROWORKS:rC:NONE:v1 
NPHI     .v/v_decimal UNKNOWN        : NPHI:PETROWORKS:rC:NONE:v2 
PEF      .UNKNOWN     UNKNOWN        : PEF:litodensidad:rC:NONE:v0 (auto-composite)
POTA     .UNKNOWN     UNKNOWN        : POTA:radioactividad:rC:NONE:v0 (auto-composite)
RHOB     .g/cm3       UNKNOWN        : RHOB:litodensidad:rC:NONE:v0 (auto-composite)
THOR     .ppm         UNKNOWN        : THOR:radioactividad:rC:NONE:v0 (auto-composite)
URAN     .ppm         UNKNOWN        : URAN:radioactividad:rC:NONE:v0 (auto-composite)
~A     DEPTH         CALI          CGR         DRHO           DT           GR          LLD          LLS         MSFL         NPHI          PEF         POTA         RHOB         THOR         URAN
# ...
   2553.2864       6.6203       9.6072      -1.0552    -999.2500      39.5701    1996.1885    1548.1298    1094.7603       0.1147     245.9367       0.0039       1.6412       0.3979       1.5802
   2553.4387       6.6326      10.3444      -1.0221    -999.2500      38.2030    2000.0000    1288.4611    1030.3629       0.0977     238.8250       0.0041       1.6679       0.4518       1.5871
   2553.5913       6.6228      14.7919      -0.9563    -999.2500      39.5340    2000.0000    1654.6886    1125.2018       0.0797     -25.7173       0.0044       1.8683       1.2745       1.7110
   2553.7437       6.6143      14.4456      -0.9329    -999.2500      41.2285    2000.0000    1886.3364    1547.5570       0.0689    -999.2500       0.0041       1.9371       1.3177       1.6654
   2553.8960       6.6348      12.8803      -0.9142    -999.2500      40.7133    2000.0000    1963.7830    1910.0826       0.0612    -999.2500       0.0036       2.0062       1.2047       1.5838
   2554.0483       6.6198      12.8969      -0.9020    -999.2500      38.5149    2000.0000    1994.4008    1990.7325       0.0651     202.8645       0.0035       2.1217       1.2149       1.5283
   2554.2007       6.6260      12.3365      -0.8991    -999.2500      37.0222    2000.0000    1921.4124    1932.0125       0.0766      91.1098       0.0032       2.2112       1.2557       1.4670
   2554.3533       6.6262      11.9840      -0.9055    -999.2500      35.4021    2000.0000    1569.9445    1743.8687       0.0890      50.7962       0.0026       2.2831       1.4081       1.4153
   2554.5056       6.5997      11.4126      -0.8864    -999.2500      33.0712    2000.0000    1314.3568    1615.9469       0.0956      24.0832       0.0024       2.3355       1.3521       1.1281
   2554.6580       6.6212      14.3332      -0.8796    -999.2500      32.1345    2000.0000    1592.6029    1702.9525       0.0927      16.5365       0.0034       2.3735       1.5559       1.1414
   2554.8103       6.6090      15.8648      -0.8804    -999.2500      34.0016    2000.0000    1810.7415    1867.5253       0.0875      42.9796       0.0044       2.3706       1.4715       1.0733
   2554.9629       6.6256      15.2419      -0.8768    -999.2500      36.3088    2000.0000    1503.3998    1744.9954       0.0855      86.2194       0.0046       2.3896       1.2554       0.9648
   2555.1152       6.6156      15.3936      -0.8732    -999.2500      34.9763    2000.0000    1557.3708    1854.4950       0.0879      86.7072       0.0050       2.4144       1.0987       0.9456
   2555.2676       6.6186       8.3139      -0.8757    -999.2500      30.1890    2000.0000    1798.3159    1907.1401       0.0826      82.6955       0.0035       2.4459       0.2818       1.0843
   2555.4199       6.6265       7.5783      -0.8788    -999.2500      26.1552    2000.0000    1316.1295    1418.2864       0.0729     497.5810       0.0032       2.4231       0.2368       1.1780
   2555.5725       6.6181       8.7318      -0.9001    -999.2500      26.7003    2000.0000     952.0604    1034.0914       0.0731     219.4196       0.0035       2.3645       0.3721       1.2564
   2555.7249       6.6260      10.1794      -0.9063    -999.2500      30.5917    2000.0000    1472.9752    1548.4858       0.0902     115.5141       0.0030       2.3269       0.8606       1.4940
   2555.8772       6.6154      10.6640      -0.8865    -999.2500      33.8760    1996.8939    1625.1672    1852.0089       0.1075      55.9669       0.0028       2.3753       1.0307       1.5709
   2556.0295       6.6409       8.8157      -0.8692    -999.2500      34.6164    1914.1259     999.7194    1439.0009       0.1283      82.2961       0.0025       2.4147       0.8058       1.4009
   2556.1819       6.6244       9.6595      -0.8599    -999.2500      32.6692    1668.0465     513.5541     737.2050       0.1467     151.2818       0.0028       2.4129       0.8356       1.4044
   2556.3345       6.6197      10.1352      -0.8497    -999.2500      30.2598    1767.2646     805.0525     803.7429       0.1617      70.0711       0.0031       2.3812       0.8388       1.3570
   2556.4868       6.6018      12.0638      -0.8685    -999.2500      30.7840    1974.9740    1576.9625    1549.8751       0.1592      57.3964       0.0034       2.3354       1.0639       1.4285
   2556.6392       6.5586      13.0422      -0.8822    -999.2500      33.8410    1994.0764    1517.9727    1599.2394       0.1489      85.8645       0.0038       2.3016       1.1378       1.4406
   2556.7915       6.5760      11.7012      -0.8726    -999.2500      35.8699    1939.3005     843.8132    1143.0378       0.1425    4317.4531       0.0038       2.3450       0.8442       1.3395
   2556.9441       6.5947      10.6347      -0.8808    -999.2500      35.8295    1910.4369     794.5692    1094.4482       0.1345     820.8481       0.0036       2.3701       0.6892       1.2767
   2557.0964       6.6077      11.0767      -0.8878    -999.2500      35.0422    1981.3927    1214.6732    1355.5662       0.1276      27.5192       0.0043       2.4162       0.5347       1.2056
   2557.2488       6.6316      12.3426      -0.8856    -999.2500      35.2774    1998.6726    1040.9479     937.3871       0.1244      22.4451       0.0048       2.4196       0.5718       1.1964
   2557.4011       6.6197      12.8608      -0.8938    -999.2500      36.4989    2000.0000    1260.1099    1120.2051       0.1294      57.9013       0.0052       2.3953       0.5042       1.1248
   2557.5537       6.6165      15.2432      -0.9005    -999.2500      37.8140    2000.0000    1707.0852    1732.4684       0.1279    1559.6045       0.0059       2.4086       0.7156       1.2353
   2557.7061       6.6245      17.4102      -0.9017    -999.2500      40.6996    2000.0000    1872.5446    1868.5974       0.1162     631.0475       0.0063       2.4444       1.0325       1.4491
   2557.8584       6.6028      16.8814      -0.8932    -999.2500      44.5324    2000.0000    1427.4991    1816.1128       0.0972     144.4028       0.0062       2.5052       0.9499       1.4143
   2558.0107       6.6271      11.7498      -0.8973    -999.2500      45.2332    2000.0000    1026.0742    1644.8502       0.0908     -36.6876       0.0041       2.5025       0.7471       1.2948
   2558.1631       6.6131      10.4640      -0.9054    -999.2500      41.4994    2000.0000    1217.8348    1579.0156       0.0918    -999.2500       0.0036       2.4568       0.6724       1.2605
   2558.3157       6.6188      11.6716      -0.9015    -999.2500      36.7464    2000.0000    1787.2239    1821.4034       0.0980    -999.2500       0.0040       2.4265       0.7523       1.3667
   2558.4680       6.6197      10.7582      -0.8983    -999.2500      33.5914    2000.0000    1987.3156    1592.9209       0.1057    -999.2500       0.0038       2.3905       0.6675       1.3641
   2558.6204       6.6142       9.0782      -0.8947    -999.2500      32.3733    2000.0000    1966.0607    1447.8376       0.1111    -999.2500       0.0034       2.3558       0.4869       1.3050
   2558.7727       6.6255       8.6267      -0.8988    -999.2500      32.6240    2000.0000    1649.8315    1487.0270       0.1149    -999.2500       0.0032       2.3437       0.4679       1.3496
   2558.9253       6.6208       9.0386      -0.8923    -999.2500      33.2138    2000.0000    1457.6995    1740.7700       0.1123     219.6733       0.0034       2.3600       0.4984       1.4050
   2559.0776       6.6304       7.8008      -0.8755    -999.2500      33.9273    2000.0000    1761.0531    1957.4426       0.1113      96.7814       0.0030       2.4164       0.3937       1.3558
   2559.2300       6.6037      14.2167      -0.8771    -999.2500      35.1484    2000.0000    1752.2180    1880.9365       0.1071      60.4235       0.0062       2.4146       0.4050       1.2367
   2559.3823       6.6110      14.4669      -0.8866    -999.2500      36.4768    2000.0000    1446.6154    1702.8282       0.1002      60.6855       0.0065       2.3930       0.3417       1.1402
   2559.5349       6.6267      14.2594      -0.9077    -999.2500      37.7675    1978.2814     819.7391    1259.5084       0.0927      78.6843       0.0061       2.3313       0.4208       1.1208
