#------------------------------------------------------------------------------
#
#   Created by  : [OpenWorks] Log Export Utility (LEXP)
#   Created on  : 2016-05-12 17:01:19
#   Project     : CANT971
#   User        : R5K
#   Interpreter : PEP
#
#------------------------------------------------------------------------------
~VERSION INFORMATION
VERS. 2.0 : CWLS Log ASCII Standard - version 2.0
WRAP.  NO : One line per depth step
~WELL INFORMATION
#MNEMONIC   .UNIT                                           VALUE :DESCRIPTION
#------------------------------------------------------------------------------
STRT        .M                                           335.5854 :START DEPTH
STOP        .M                                          2510.4858 :STOP DEPTH
STEP        .M                                             0.1524 :STEP
NULL        .                                           -999.2500 :NULL VALUE
COMP        .                                   PEMEX EXPL & PROD :COMPANY
WELL        .                                                  35 :WELL
FLD         .                                           CANTARELL :FIELD
LOC         .                                             UNKNOWN :LOCATION
CNTY        .                                      CD. DEL CARMEN :COUNTY
STAT        .                                            CAMPECHE :STATE
CTRY        .                                              MEXICO :COUNTRY
SRVC        .                                             UNKNOWN :SERVICE COMPANY
DATE        .                                             UNKNOWN :LOG DATE
UWI         .                                          3060000159 :UNIQUE WELL ID
XCOORD      .                                       602147.900000 :SURFACE X
YCOORD      .                                      2147168.470000 :SURFACE Y
LAT         .                                           19.417359 :LATITUDE
LON         .                                          -92.027072 :LONGITUDE
ELEV        .M                                            28.1700 :SURFACE ELEV
ELEV_TYPE   .                                                  KB :ELEV TYPE
~CURVE INFORMATION
#MNEMONIC.UNIT        API CODE       : CURVE DESCRIPTION
#------------------------------------------------------------------------------
DEPTH    .M                          : Measured Depth
CALI     .inches      UNKNOWN        : CALI:Import:rC:NONE:v0 (auto-composite)
DRHO     .g/cm3       UNKNOWN        : DRHO:Import:rC:NONE:v0 (auto-composite)
DT       .us/ft       UNKNOWN        : DT:Import:rC:NONE:v0 (auto-composite)
GR       .API         UNKNOWN        : GR:Import:rC:NONE:v0 (auto-composite)
ILD      .ohm.m       UNKNOWN        : ILD:Import:rC:NONE:v0 (auto-composite)
LLD      .ohm.m       UNKNOWN        : LLD:Import:rC:NONE:v0 (auto-composite)
LLS      .ohm.m       UNKNOWN        : LLS:Import:rC:NONE:v0 (auto-composite)
MSFL     .ohm.m       UNKNOWN        : MSFL:Import:rC:NONE:v0 (auto-composite)
NPHI     .v/v_decimal UNKNOWN        : NPHI:Import:rC:NONE:v0 (auto-composite)
RHOB     .g/cm3       UNKNOWN        : RHOB:Import:rC:NONE:v0 (auto-composite)
SP       .mV          UNKNOWN        : SP:Import:rC:NONE:v0 (auto-composite)
~A     DEPTH         CALI         DRHO           DT           GR          ILD          LLD          LLS         MSFL         NPHI         RHOB           SP
# ...
   1500.5310      18.7150   -1998.5000     132.4300      58.6590       1.1580    -999.2500    -999.2500    -999.2500       0.3683       2.3100      89.7300
   1500.6833      19.1085   -1998.5000     132.2792      60.6348       1.1335    -999.2500    -999.2500    -999.2500       0.3622       2.2910      89.7300
   1500.8358      19.5000   -1998.5000     132.1300      62.5900       1.1090    -999.2500    -999.2500    -999.2500       0.3561       2.2720      89.7300
   1500.9882      19.4078   -1998.5000     133.5650      61.0565       1.0764    -999.2500    -999.2500    -999.2500       0.3569       2.2545      89.8262
   1501.1406      19.3160   -1998.5000     134.9840      59.5400       1.0440    -999.2500    -999.2500    -999.2500       0.3577       2.2370      89.9220
   1501.2930      18.9650   -1998.5000     136.0931      59.9674       1.0014    -999.2500    -999.2500    -999.2500       0.3588       2.2285      90.0006
   1501.4454      18.6160   -1998.5000     137.1900      60.3900       0.9590    -999.2500    -999.2500    -999.2500       0.3600       2.2200      90.0790
   1501.5978      18.4375   -1998.5000     135.5918      60.0627       0.9420    -999.2500    -999.2500    -999.2500       0.3619       2.2430      90.2798
   1501.7502      18.2600   -1998.5000     134.0110      59.7390       0.9250    -999.2500    -999.2500    -999.2500       0.3636       2.2660      90.4800
   1501.9026      18.2906   -1998.5000     132.7733      59.3725       0.9430    -999.2500    -999.2500    -999.2500       0.3563       2.2845      90.3398
   1502.0549      18.3210   -1998.5000     131.5490      59.0100       0.9610    -999.2500    -999.2500    -999.2500       0.3489       2.3030      90.2000
   1502.2074      18.3506   -1998.5000     131.2730      58.7737       0.9970    -999.2500    -999.2500    -999.2500       0.3433       2.3065      89.9136
   1502.3597      18.3800   -1998.5000     131.0000      58.5400       1.0330    -999.2500    -999.2500    -999.2500       0.3377       2.3100      89.6280
   1502.5122      18.3198   -1998.5000     131.3569      59.3563       1.0826    -999.2500    -999.2500    -999.2500       0.3388       2.3100      89.4593
   1502.6646      18.2600   -1998.5000     131.7100      60.1640       1.1320    -999.2500    -999.2500    -999.2500       0.3399       2.3100      89.2910
   1502.8170      18.2791   -1998.5000     131.3300      61.8357       1.1836    -999.2500    -999.2500    -999.2500       0.3384       2.3100      89.2144
   1502.9694      18.2980   -1998.5000     130.9540      63.4900       1.2350    -999.2500    -999.2500    -999.2500       0.3367       2.3100      89.1380
   1503.1218      18.7904   -1998.5000     129.4453      62.7507       1.2646    -999.2500    -999.2500    -999.2500       0.3260       2.3050      89.0293
   1503.2742      19.2800   -1998.5000     127.9520      62.0190       1.2940    -999.2500    -999.2500    -999.2500       0.3156       2.3000      88.9210
   1503.4266      18.6984   -1998.5000     127.1017      61.4526       1.3256    -999.2500    -999.2500    -999.2500       0.3257       2.3000      88.8409
   1503.5790      18.1200   -1998.5000     126.2600      60.8920       1.3570    -999.2500    -999.2500    -999.2500       0.3360       2.3000      88.7610
   1503.7314      18.1942   -1998.5000     127.4610      60.6734       1.3876    -999.2500    -999.2500    -999.2500       0.3452       2.2850      88.6854
   1503.8838      18.2680   -1998.5000     128.6500      60.4570       1.4180    -999.2500    -999.2500    -999.2500       0.3541       2.2700      88.6100
   1504.0361      18.3743   -1998.5000     128.0319      58.8209       1.4245    -999.2500    -999.2500    -999.2500       0.3484       2.2775      88.6561
   1504.1886      18.4800   -1998.5000     127.4200      57.2010       1.4310    -999.2500    -999.2500    -999.2500       0.3425       2.2850      88.7020
   1504.3409      17.9737   -1998.5000     126.1453      54.6581       1.4310    -999.2500    -999.2500    -999.2500       0.3405       2.2925      88.8132
   1504.4934      17.4700   -1998.5000     124.8830      52.1400       1.4310    -999.2500    -999.2500    -999.2500       0.3386       2.3000      88.9240
   1504.6458      18.1391   -1998.5000     124.0270      52.8341       1.4360    -999.2500    -999.2500    -999.2500       0.3383       2.2960      89.0021
   1504.7982      18.8050   -1998.5000     123.1800      53.5210       1.4410    -999.2500    -999.2500    -999.2500       0.3380       2.2920      89.0800
   1504.9506      19.0933   -1998.5000     124.0528      54.4914       1.4460    -999.2500    -999.2500    -999.2500       0.3362       2.2870      89.2803
   1505.1030      19.3800   -1998.5000     124.9160      55.4510       1.4510    -999.2500    -999.2500    -999.2500       0.3343       2.2820      89.4800
   1505.2554      18.7230   -1998.5000     126.3856      56.0568       1.4435    -999.2500    -999.2500    -999.2500       0.3354       2.2735      89.2296
   1505.4078      18.0700   -1998.5000     127.8390      56.6560       1.4360    -999.2500    -999.2500    -999.2500       0.3366       2.2650      88.9800
   1505.5602      18.0700   -1998.5000     130.2848      57.1758       1.3989    -999.2500    -999.2500    -999.2500       0.3358       2.2525      89.2239
   1505.7126      18.0700   -1998.5000     132.7040      57.6900       1.3620    -999.2500    -999.2500    -999.2500       0.3351       2.2400      89.4670
   1505.8650      18.1543   -1998.5000     134.2855      56.6595       1.3430    -999.2500    -999.2500    -999.2500       0.3383       2.2400      89.6803
   1506.0173      18.2380   -1998.5000     135.8500      55.6400       1.3240    -999.2500    -999.2500    -999.2500       0.3416       2.2400      89.8930
   1506.1698      18.3844   -1998.5000     134.5682      57.2737       1.3185    -999.2500    -999.2500    -999.2500       0.3456       2.2440      89.9366
   1506.3221      18.5300   -1998.5000     133.3000      58.8900       1.3130    -999.2500    -999.2500    -999.2500       0.3495       2.2480      89.9800
   1506.4746      18.5902   -1998.5000     131.7469      57.7591       1.3010    -999.2500    -999.2500    -999.2500       0.3485       2.2530      89.8548
   1506.6270      18.6500   -1998.5000     130.2100      56.6400       1.2890    -999.2500    -999.2500    -999.2500       0.3475       2.2580      89.7300
   1506.7794      18.6149   -1998.5000     131.2529      57.0662       1.2720    -999.2500    -999.2500    -999.2500       0.3486       2.2590      89.7951
   1506.9318      18.5800   -1998.5000     132.2850      57.4880       1.2550    -999.2500    -999.2500    -999.2500       0.3496       2.2600      89.8600
   1507.0842      18.5991   -1998.5000     135.2075      58.0740       1.2380    -999.2500    -999.2500    -999.2500       0.3505       2.2640      89.6696
   1507.2366      18.6180   -1998.5000     138.1000      58.6540       1.2210    -999.2500    -999.2500    -999.2500       0.3514       2.2680      89.4800
   1507.3890      18.8942   -1998.5000     137.9377      59.6018       1.2025    -999.2500    -999.2500    -999.2500       0.3502       2.2690      89.5451
   1507.5414      19.1690   -1998.5000     137.7770      60.5400       1.1840    -999.2500    -999.2500    -999.2500       0.3490       2.2700      89.6100
   1507.6938      19.2748   -1998.5000     136.9564      60.0812       1.1690    -999.2500    -999.2500    -999.2500       0.3457       2.2660      89.5449
   1507.8462      19.3800   -1998.5000     136.1440      59.6270       1.1540    -999.2500    -999.2500    -999.2500       0.3425       2.2620      89.4800
   1507.9985      18.8366   -1998.5000     135.2441      58.2517       1.1430    -999.2500    -999.2500    -999.2500       0.3444       2.2495      89.5301
   1508.1510      18.2960   -1998.5000     134.3530      56.8900       1.1320    -999.2500    -999.2500    -999.2500       0.3466       2.2370      89.5800
   1508.3033      18.0870   -1998.5000     133.4216      58.0541       1.1380    -999.2500    -999.2500    -999.2500       0.3529       2.2135      89.6551
