#------------------------------------------------------------------------------
#
#   Created by  : [OpenWorks] Log Export Utility (LEXP)
#   Created on  : 2016-05-23 11:57:10
#   Project     : CANT971
#   User        : R5K
#   Interpreter : PEP
#
#------------------------------------------------------------------------------
~VERSION INFORMATION
VERS. 2.0 : CWLS Log ASCII Standard - version 2.0
WRAP.  NO : One line per depth step
~WELL INFORMATION
#MNEMONIC   .UNIT                                           VALUE :DESCRIPTION
#------------------------------------------------------------------------------
STRT        .M                                           345.0980 :START DEPTH
STOP        .M                                          2040.8528 :STOP DEPTH
STEP        .M                                             0.1524 :STEP
NULL        .                                           -999.2500 :NULL VALUE
COMP        .                                   PEMEX EXPL & PROD :COMPANY
WELL        .                                                  71 :WELL
FLD         .                                           CANTARELL :FIELD
LOC         .                                             UNKNOWN :LOCATION
CNTY        .                                      CD. DEL CARMEN :COUNTY
STAT        .                                            CAMPECHE :STATE
CTRY        .                                              MEXICO :COUNTRY
SRVC        .                                             UNKNOWN :SERVICE COMPANY
DATE        .                                             UNKNOWN :LOG DATE
UWI         .                                          3060000175 :UNIQUE WELL ID
XCOORD      .                                       599724.470000 :SURFACE X
YCOORD      .                                      2147216.900000 :SURFACE Y
LAT         .                                           19.417919 :LATITUDE
LON         .                                          -92.050150 :LONGITUDE
ELEV        .M                                            27.8000 :SURFACE ELEV
ELEV_TYPE   .                                                  KB :ELEV TYPE
~CURVE INFORMATION
#MNEMONIC.UNIT        API CODE       : CURVE DESCRIPTION
#------------------------------------------------------------------------------
DEPTH    .M                          : Measured Depth
DT       .us/ft       UNKNOWN        : DT:DT:rC:NONE:v0 (auto-composite)
GR       .UNKNOWN     UNKNOWN        : GR:GR-Load:rC:NONE:v0 (auto-composite)
ILD      .UNKNOWN     UNKNOWN        : ILD:ILD-Load:rC:NONE:v0 (auto-composite)
NPHI     .v/v_decimal UNKNOWN        : NPHI:NPHI:rC:NONE:v0 (auto-composite)
RG       .UNKNOWN     UNKNOWN        : RG:RG-Loader:rC:NONE:v0 (auto-composite)
RHOB     .UNKNOWN     UNKNOWN        : RHOB:RHOB-Load:rC:NONE:v0 (auto-composite)
~A     DEPTH           DT           GR          ILD         NPHI           RG         RHOB
# ...
    438.9764     125.9675      40.3358     354.4126    -999.2500    -999.2500    -999.2500
    439.1288     124.9870      38.7693     333.9537    -999.2500    -999.2500    -999.2500
    439.2812     125.0705      38.2996     311.4158    -999.2500    -999.2500    -999.2500
    439.4336     126.6070      39.3436     286.0226    -999.2500    -999.2500    -999.2500
    439.5860     127.2869      39.9293     265.8193    -999.2500    -999.2500    -999.2500
    439.7384     126.7968      39.8823     252.7397    -999.2500    -999.2500    -999.2500
    439.8908     126.1937      39.7058     241.3453    -999.2500    -999.2500    -999.2500
    440.0432     125.4362      39.3508     232.2645    -999.2500    -999.2500    -999.2500
    440.1956     124.5792      39.3437     222.5366    -999.2500    -999.2500    -999.2500
    440.3480     123.5863      39.8167     211.9199    -999.2500    -999.2500    -999.2500
    440.5004     122.6070      40.6962     198.2848    -999.2500    -999.2500    -999.2500
    440.6528     121.6464      42.1368     180.5069    -999.2500    -999.2500    -999.2500
    440.8052     121.4789      42.6596     164.0465    -999.2500    -999.2500    -999.2500
    440.9576     122.3938      41.9161     149.3949    -999.2500    -999.2500    -999.2500
    441.1100     123.4029      41.1388     138.3689    -999.2500    -999.2500    -999.2500
    441.2624     124.5403      40.3148     132.3214    -999.2500    -999.2500    -999.2500
    441.4148     125.0573      39.3112     127.5950    -999.2500    -999.2500    -999.2500
    441.5672     124.7268      38.0596     124.6816    -999.2500    -999.2500    -999.2500
    441.7196     123.4130      37.4918     125.4738    -999.2500    -999.2500    -999.2500
    441.8720     120.7571      37.8673     131.3531    -999.2500    -999.2500    -999.2500
    442.0244     119.9154      38.6831     149.3259    -999.2500    -999.2500    -999.2500
    442.1768     121.5509      40.1066     183.9052    -999.2500    -999.2500    -999.2500
    442.3292     122.0830      40.7148     226.9995    -999.2500    -999.2500    -999.2500
    442.4816     121.1085      40.1978     281.7798    -999.2500    -999.2500    -999.2500
    442.6340     120.7487      39.6057     308.4855    -999.2500    -999.2500    -999.2500
    442.7864     121.2282      38.9102     296.6514    -999.2500    -999.2500    -999.2500
    442.9388     121.8677      38.2801     278.2979    -999.2500    -999.2500    -999.2500
    443.0912     122.7257      37.7401     250.9925    -999.2500    -999.2500    -999.2500
    443.2436     122.8771      37.8572     225.4738    -999.2500    -999.2500    -999.2500
    443.3960     122.0635      38.8813     202.4070    -999.2500    -999.2500    -999.2500
    443.5484     120.8519      39.1142     183.2658    -999.2500    -999.2500    -999.2500
    443.7008     119.0970      38.2557     169.5133    -999.2500    -999.2500    -999.2500
    443.8532     116.5140      38.0757     157.4458    -999.2500    -999.2500    -999.2500
    444.0056     112.8006      38.8316     147.6921    -999.2500    -999.2500    -999.2500
    444.1580     111.7100      38.5553     139.5122    -999.2500    -999.2500    -999.2500
    444.3104     114.2009      36.8542     133.4938    -999.2500    -999.2500    -999.2500
    444.4628     118.8961      35.9325     129.1655    -999.2500    -999.2500    -999.2500
    444.6152     126.6022      36.0860     127.1571    -999.2500    -999.2500    -999.2500
    444.7676     129.6672      36.7307     126.8599    -999.2500    -999.2500    -999.2500
    444.9200     126.3968      38.0532     128.9124    -999.2500    -999.2500    -999.2500
    445.0724     126.3633      39.2968     129.5680    -999.2500    -999.2500    -999.2500
    445.2248     130.7497      40.4318     128.3054    -999.2500    -999.2500    -999.2500
    445.3772     132.7976      41.1858     126.1814    -999.2500    -999.2500    -999.2500
    445.5296     131.6515      41.4138     122.8750    -999.2500    -999.2500    -999.2500
    445.6820     131.0684      41.6277     119.9713    -999.2500    -999.2500    -999.2500
    445.8344     131.2539      41.8222     117.6203    -999.2500    -999.2500    -999.2500
    445.9868     132.1524      42.0783     116.8691    -999.2500    -999.2500    -999.2500
    446.1392     134.0243      42.4193     118.3147    -999.2500    -999.2500    -999.2500
    446.2916     133.9081      42.0996     121.0013    -999.2500    -999.2500    -999.2500
    446.4440     131.0764      40.8680     125.3912    -999.2500    -999.2500    -999.2500
    446.5964     128.1685      40.4538     127.7515    -999.2500    -999.2500    -999.2500
    446.7488     125.1566      41.1673     127.3255    -999.2500    -999.2500    -999.2500
    446.9012     124.4675      41.5039     125.8721    -999.2500    -999.2500    -999.2500
    447.0536     126.9499      41.3204     123.0079    -999.2500    -999.2500    -999.2500
    447.2060     130.0027      41.0947     119.4612    -999.2500    -999.2500    -999.2500
    447.3584     133.8345      40.8107     114.9779    -999.2500    -999.2500    -999.2500
    447.5108     135.7003      39.7881     110.6043    -999.2500    -999.2500    -999.2500
    447.6632     134.8829      37.7467     106.3814    -999.2500    -999.2500    -999.2500
    447.8156     135.0246      36.6538     102.4213    -999.2500    -999.2500    -999.2500
    447.9680     136.4761      36.8697      98.8221    -999.2500    -999.2500    -999.2500
    448.1204     137.0623      37.8181      96.9084    -999.2500    -999.2500    -999.2500
    448.2728     136.4667      39.7772      97.3079    -999.2500    -999.2500    -999.2500
    448.4252     134.0788      40.6875      98.5625    -999.2500    -999.2500    -999.2500
    448.5776     129.2444      40.1511     100.9909    -999.2500    -999.2500    -999.2500
    448.7300     126.7819      40.0392     104.3137    -999.2500    -999.2500    -999.2500
    448.8824     127.5574      40.5131     108.8645    -999.2500    -999.2500    -999.2500
    449.0348     127.0499      40.5342     113.6238    -999.2500    -999.2500    -999.2500
    449.1872     124.7904      39.9302     118.6691    -999.2500    -999.2500    -999.2500
    449.3396     122.0125      39.2182     123.6228    -999.2500    -999.2500    -999.2500
    449.4920     118.5262      38.3572     128.4506    -999.2500    -999.2500    -999.2500
    449.6444     117.9906      37.2004     132.4163    -999.2500    -999.2500    -999.2500
    449.7968     121.4830      35.6355     135.1982    -999.2500    -999.2500    -999.2500
    449.9492     122.9332      34.8660     136.7389    -999.2500    -999.2500    -999.2500
    450.1016     121.5947      35.1945     136.5749    -999.2500    -999.2500    -999.2500
    450.2540     121.5533      35.5438     135.8862    -999.2500    -999.2500    -999.2500
    450.4064     123.2834      35.9218     134.4772    -999.2500    -999.2500    -999.2500
    450.5588     124.0957      35.6773     132.4513    -999.2500    -999.2500    -999.2500
    450.7112     123.6553      34.5738     129.5784    -999.2500    -999.2500    -999.2500
    450.8636     121.7570      34.2905     126.1696    -999.2500    -999.2500    -999.2500
    451.0160     117.8681      35.1390     122.0248    -999.2500    -999.2500    -999.2500
    451.1684     118.1247      35.9469     118.3685    -999.2500    -999.2500    -999.2500
    451.3208     124.0431      36.6990     115.3826    -999.2500    -999.2500    -999.2500
    451.4732     127.3355      36.8715     113.1282    -999.2500    -999.2500    -999.2500
    451.6256     127.0435      36.2445     111.8783    -999.2500    -999.2500    -999.2500
    451.7780     130.9079      36.0554     109.9801    -999.2500    -999.2500    -999.2500
    451.9304     140.4471      36.4703     107.1920    -999.2500    -999.2500    -999.2500
    452.0828     145.3116      36.9093     103.5034    -999.2500    -999.2500    -999.2500
    452.2352     143.7920      37.3813      98.5790    -999.2500    -999.2500    -999.2500
