#------------------------------------------------------------------------------
#
#   Created by  : [OpenWorks] Log Export Utility (LEXP)
#   Created on  : 2016-05-23 11:51:27
#   Project     : CANT971
#   User        : R5K
#   Interpreter : PEP
#
#------------------------------------------------------------------------------
~VERSION INFORMATION
VERS. 2.0 : CWLS Log ASCII Standard - version 2.0
WRAP.  NO : One line per depth step
~WELL INFORMATION
#MNEMONIC   .UNIT                                           VALUE :DESCRIPTION
#------------------------------------------------------------------------------
STRT        .M                                           294.1315 :START DEPTH
STOP        .M                                          1758.8479 :STOP DEPTH
STEP        .M                                             0.1524 :STEP
NULL        .                                           -999.2500 :NULL VALUE
COMP        .                                   PEMEX EXPL & PROD :COMPANY
WELL        .                                                1084 :WELL
FLD         .                                           CANTARELL :FIELD
LOC         .                                             UNKNOWN :LOCATION
CNTY        .                                      CD. DEL CARMEN :COUNTY
STAT        .                                            CAMPECHE :STATE
CTRY        .                                              MEXICO :COUNTRY
SRVC        .                                             UNKNOWN :SERVICE COMPANY
DATE        .                                             UNKNOWN :LOG DATE
UWI         .                                          3060000213 :UNIQUE WELL ID
XCOORD      .                                       596992.320000 :SURFACE X
YCOORD      .                                      2148289.820000 :SURFACE Y
LAT         .                                           19.427749 :LATITUDE
LON         .                                          -92.076116 :LONGITUDE
ELEV        .M                                            27.5000 :SURFACE ELEV
ELEV_TYPE   .                                                  KB :ELEV TYPE
~CURVE INFORMATION
#MNEMONIC.UNIT        API CODE       : CURVE DESCRIPTION
#------------------------------------------------------------------------------
DEPTH    .M                          : Measured Depth
CALI     .in          UNKNOWN        : CALI:registros:rC:NONE:v0 (auto-composite)
DRHO     .g/cm3       UNKNOWN        : DRHO:registros:rC:NONE:v0 (auto-composite)
DT       .us/ft       UNKNOWN        : DT:registros:rC:NONE:v0 (auto-composite)
GR       .api         UNKNOWN        : GR:registros:rC:NONE:v0 (auto-composite)
ILD      .ohmm        UNKNOWN        : ILD:registros:rC:NONE:v0 (auto-composite)
NPHI     .v/v_decimal UNKNOWN        : NPHI:registros:rC:NONE:v0 (auto-composite)
RHOB     .g/cm3       UNKNOWN        : RHOB:registros:rC:NONE:v0 (auto-composite)
~A     DEPTH         CALI         DRHO           DT           GR          ILD         NPHI         RHOB
# ...
   1361.9983      15.4839       0.2600     127.1462      92.5425       1.5910    -999.2500       2.4300
   1362.1508      15.7140       0.2600     128.4900      93.8100       1.5700    -999.2500       2.4300
   1362.3031      16.0205       0.2600     127.6040      93.7341       1.5725    -999.2500       2.4100
   1362.4554      16.3270       0.2600     126.7200      93.6580       1.5750    -999.2500       2.3900
   1362.6079      16.6126       0.2500     126.7951      93.2745       1.5840    -999.2500       2.3915
   1362.7603      16.8980       0.2400     126.8700      92.8900       1.5930    -999.2500       2.3930
   1362.9127      17.1191       0.2440     126.7949      92.4117       1.5965    -999.2500       2.3965
   1363.0651      17.3400       0.2480     126.7200      91.9320       1.6000    -999.2500       2.4000
   1363.2175      17.2170       0.2640     126.7200      91.5396       1.5945    -999.2500       2.3950
   1363.3699      17.0940       0.2800     126.7200      91.1460       1.5890    -999.2500       2.3900
   1363.5223      16.3169       0.2750     126.9374      90.1040       1.5660    -999.2500       2.3950
   1363.6747      15.5400       0.2700     127.1540      89.0590       1.5430    -999.2500       2.4000
   1363.8271      15.6210       0.2700     128.2122      88.1863       1.5065    -999.2500       2.3985
   1363.9795      15.7020       0.2700     129.2670      87.3110       1.4700    -999.2500       2.3970
   1364.1320      16.3460       0.2650     130.6056      86.8582       1.4205    -999.2500       2.3885
   1364.2843      16.9900       0.2600     131.9400      86.4040       1.3710    -999.2500       2.3800
   1364.4366      16.9410       0.2615     131.9004      85.3338       1.3375    -999.2500       2.3800
   1364.5891      16.8920       0.2630     131.8610      84.2600       1.3040    -999.2500       2.3800
   1364.7415      16.5850       0.2765     131.7108      84.4172       1.2725    -999.2500       2.3800
   1364.8939      16.2780       0.2900     131.5610      84.5750       1.2410    -999.2500       2.3800
   1365.0463      15.5941       0.2885     131.1099      85.1492       1.1905    -999.2500       2.3800
   1365.1987      14.9100       0.2870     130.6600      85.7250       1.1400    -999.2500       2.3800
   1365.3511      14.9870       0.2785     131.8967      87.7553       1.1400    -999.2500       2.3850
   1365.5035      15.0640       0.2700     133.1300      89.7900       1.1400    -999.2500       2.3900
   1365.6559      15.4569       0.2800     137.1351      89.0508       1.1600    -999.2500       2.3850
   1365.8083      15.8500       0.2900     141.1300      88.3100       1.1800    -999.2500       2.3800
   1365.9607      15.8095       0.2885     138.2014      88.4244       1.1600    -999.2500       2.3800
   1366.1132      15.7690       0.2870     135.2800      88.5390       1.1400    -999.2500       2.3800
   1366.2655      15.5345       0.2785     136.3452      89.1163       1.1475    -999.2500       2.3825
   1366.4178      15.3000       0.2700     137.4080      89.6950       1.1550    -999.2500       2.3850
   1366.5703      15.4951       0.2715     142.0991      90.6452       1.1830    -999.2500       2.3925
   1366.7227      15.6900       0.2730     146.7800      91.5980       1.2110    -999.2500       2.4000
   1366.8751      15.6850       0.2765     146.3849      93.0021       1.2370    -999.2500       2.4000
   1367.0275      15.6800       0.2800     145.9910      94.4100       1.2630    -999.2500       2.4000
   1367.1799      15.4400       0.2750     144.5484      93.8109       1.3105    -999.2500       2.4015
   1367.3323      15.2000       0.2700     143.1110      93.2100       1.3580    -999.2500       2.4030
   1367.4847      15.2865       0.2700     141.7737      93.5859       1.4150    -999.2500       2.4065
   1367.6371      15.3730       0.2700     140.4410      93.9630       1.4720    -999.2500       2.4100
   1367.7896      15.6515       0.2715     138.5534      95.4791       1.5300    -999.2500       2.4050
   1367.9419      15.9300       0.2730     136.6720      97.0000       1.5880    -999.2500       2.4000
   1368.0944      15.8865       0.2765     134.5477      96.7339       1.6140    -999.2500       2.4000
   1368.2467      15.8430       0.2800     132.4300      96.4670       1.6400    -999.2500       2.4000
   1368.3990      15.6995       0.2700     132.5752      95.4986       1.6375    -999.2500       2.4100
   1368.5515      15.5560       0.2600     132.7200      94.5270       1.6350    -999.2500       2.4200
   1368.7039      15.1731       0.2650     132.5563      93.5657       1.6235    -999.2500       2.4185
   1368.8563      14.7900       0.2700     132.3930      92.6010       1.6120    -999.2500       2.4170
   1369.0087      14.8765       0.2675     131.8778      90.6490       1.5955    -999.2500       2.4035
   1369.1611      14.9630       0.2650     131.3640      88.6900       1.5790    -999.2500       2.3900
   1369.3135      15.4464       0.2525     130.6661      89.4139       1.5605    -999.2500       2.3940
   1369.4659      15.9300       0.2400     129.9700      90.1400       1.5420    -999.2500       2.3980
   1369.6183      15.9090       0.2440     129.9960      89.9847       1.5110    -999.2500       2.4115
   1369.7708      15.8880       0.2480     130.0220      89.8290       1.4800    -999.2500       2.4250
   1369.9231      15.7191       0.2605     132.3087      89.0529       1.4840    -999.2500       2.4350
   1370.0754      15.5500       0.2730     134.5900      88.2750       1.4880    -999.2500       2.4450
   1370.2279      15.5600       0.2780     134.2446      86.8818       1.5120    -999.2500       2.4580
   1370.3802      15.5700       0.2830     133.9000      85.4850       1.5360    -999.2500       2.4710
   1370.5327      15.5410       0.2865     147.8800      83.1476       1.5955    -999.2500       2.4885
   1370.6851      15.5120       0.2900     161.8300      80.8040       1.6550    -999.2500       2.5060
   1370.8375      15.4145       0.2925     161.3558      76.5175       1.7330    -999.2500       2.5185
   1370.9899      15.3170       0.2950     160.8830      72.2190       1.8110    -999.2500       2.5310
   1371.1423      15.1285       0.3025     157.1199      69.5134       1.8555    -999.2500       2.5555
   1371.2947      14.9400       0.3100     153.3700      66.8000       1.9000    -999.2500       2.5800
   1371.4471      14.9720       0.3075     153.8939      67.8140       1.8890    -999.2500       2.5735
   1371.5995      15.0040       0.3050     154.4160      68.8310       1.8780    -999.2500       2.5670
   1371.7520      15.1970       0.2950     164.1838      72.9460       1.8295    -999.2500       2.5445
   1371.9043      15.3900       0.2850     173.9200      77.0740       1.7810    -999.2500       2.5220
   1372.0566      15.3305       0.2760     173.8814      81.5392       1.6956    -999.2500       2.5045
   1372.2091      15.2710       0.2670     173.8430      86.0190       1.6100    -999.2500       2.4870
   1372.3615      15.0555       0.2620     172.5406      89.3089       1.6115    -999.2500       2.4645
   1372.5139      14.8400       0.2570     171.2420      92.6100       1.6130    -999.2500       2.4420
   1372.6663      14.9300       0.2485     167.1827      92.3370       1.6215    -999.2500       2.4210
   1372.8187      15.0200       0.2400     163.1350      92.0630       1.6300    -999.2500       2.4000
   1372.9711      14.9810       0.2400     158.4245      90.8597       1.6260    -999.2500       2.4015
   1373.1235      14.9420       0.2400     153.7270      89.6520       1.6220    -999.2500       2.4030
   1373.2759      14.7995       0.2415     146.2147      88.3879       1.6045    -999.2500       2.4080
   1373.4283      14.6570       0.2430     138.7220      87.1200       1.5870    -999.2500       2.4130
   1373.5807      14.3986       0.2465     135.2727      86.1511       1.5545    -999.2500       2.4165
