#------------------------------------------------------------------------------
#
#   Created by  : [OpenWorks] Log Export Utility (LEXP)
#   Created on  : 2016-05-12 17:01:20
#   Project     : CANT971
#   User        : R5K
#   Interpreter : PEP
#
#------------------------------------------------------------------------------
~VERSION INFORMATION
VERS. 2.0 : CWLS Log ASCII Standard - version 2.0
WRAP.  NO : One line per depth step
~WELL INFORMATION
#MNEMONIC   .UNIT                                           VALUE :DESCRIPTION
#------------------------------------------------------------------------------
STRT        .M                                           993.9530 :START DEPTH
STOP        .M                                          2371.9539 :STOP DEPTH
STEP        .M                                             0.1524 :STEP
NULL        .                                           -999.2500 :NULL VALUE
COMP        .                                   PEMEX EXPL & PROD :COMPANY
WELL        .                                                  55 :WELL
FLD         .                                           CANTARELL :FIELD
LOC         .                                             UNKNOWN :LOCATION
CNTY        .                                      CD. DEL CARMEN :COUNTY
STAT        .                                            CAMPECHE :STATE
CTRY        .                                              MEXICO :COUNTRY
SRVC        .                                             UNKNOWN :SERVICE COMPANY
DATE        .                                             UNKNOWN :LOG DATE
UWI         .                                          3060000168 :UNIQUE WELL ID
XCOORD      .                                       602149.520000 :SURFACE X
YCOORD      .                                      2147170.290000 :SURFACE Y
LAT         .                                           19.417375 :LATITUDE
LON         .                                          -92.027057 :LONGITUDE
ELEV        .M                                            28.1700 :SURFACE ELEV
ELEV_TYPE   .                                                  KB :ELEV TYPE
~CURVE INFORMATION
#MNEMONIC.UNIT        API CODE       : CURVE DESCRIPTION
#------------------------------------------------------------------------------
DEPTH    .M                          : Measured Depth
CALI     .inches      UNKNOWN        : CALI:CALI-Load:rC:NONE:v0 (auto-composite)
DRHO     .UNKNOWN     UNKNOWN        : DRHO:DRHO-Load:rC:NONE:v0 (auto-composite)
DT       .us/ft       UNKNOWN        : DT:DT:rC:NONE:v0 (auto-composite)
GR       .UNKNOWN     UNKNOWN        : GR:GR-Load:rC:NONE:v0 (auto-composite)
ILD      .UNKNOWN     UNKNOWN        : ILD:ILD-Load:rC:NONE:v0 (auto-composite)
LLD      .UNKNOWN     UNKNOWN        : LLD:LLD-Load:rC:NONE:v0 (auto-composite)
LLS      .UNKNOWN     UNKNOWN        : LLS:LLS-Load:rC:NONE:v0 (auto-composite)
MSFL     .UNKNOWN     UNKNOWN        : MSFL:MSFL-Load:rC:NONE:v0 (auto-composite)
NPHI     .v/v_decimal UNKNOWN        : NPHI:NPHI:rC:NONE:v0 (auto-composite)
RHOB     .UNKNOWN     UNKNOWN        : RHOB:RHOB-Load:rC:NONE:v0 (auto-composite)
SP       .UNKNOWN     UNKNOWN        : SP:SP-Load:rC:NONE:v0 (auto-composite)
~A     DEPTH         CALI         DRHO           DT           GR          ILD          LLD          LLS         MSFL         NPHI         RHOB           SP
# ...
   1152.4490    -999.2500       0.0030    -999.2500      44.0400       0.9600    -999.2500    -999.2500    -999.2500      40.5930       2.1900     109.2330
   1152.6014    -999.2500       0.0030    -999.2500      43.9185       0.9600    -999.2500    -999.2500    -999.2500      40.2384       2.1925     109.3215
   1152.7538    -999.2500       0.0030    -999.2500      43.7970       0.9600    -999.2500    -999.2500    -999.2500      39.8840       2.1950     109.4100
   1152.9062    -999.2500       0.0025    -999.2500      42.6184       0.9580    -999.2500    -999.2500    -999.2500      39.7610       2.2025     109.2900
   1153.0586    -999.2500       0.0020    -999.2500      41.4400       0.9560    -999.2500    -999.2500    -999.2500      39.6380       2.2100     109.1700
   1153.2111    -999.2500      -0.0045    -999.2500      41.4600       0.9460    -999.2500    -999.2500    -999.2500      38.7040       2.2075     109.1860
   1153.3634    -999.2500      -0.0110    -999.2500      41.4800       0.9360    -999.2500    -999.2500    -999.2500      37.7700       2.2050     109.2020
   1153.5157    -999.2500      -0.0100    -999.2500      41.8025       0.9255    -999.2500    -999.2500    -999.2500      37.8390       2.1925     109.2930
   1153.6682    -999.2500      -0.0090    -999.2500      42.1250       0.9150    -999.2500    -999.2500    -999.2500      37.9080       2.1800     109.3840
   1153.8206    -999.2500      -0.0065    -999.2500      44.1323       0.8955    -999.2500    -999.2500    -999.2500      38.1510       2.1815     109.5170
   1153.9730    -999.2500      -0.0040    -999.2500      46.1400       0.8760    -999.2500    -999.2500    -999.2500      38.3940       2.1830     109.6500
   1154.1254    -999.2500      -0.0020    -999.2500      45.8400       0.8760    -999.2500    -999.2500    -999.2500      38.5585       2.1865     109.6655
   1154.2778    -999.2500       0.0000    -999.2500      45.5400       0.8760    -999.2500    -999.2500    -999.2500      38.7230       2.1900     109.6810
   1154.4302    -999.2500       0.0020    -999.2500      45.6200       0.8775    -999.2500    -999.2500    -999.2500      39.6463       2.1915     109.7430
   1154.5826    -999.2500       0.0040    -999.2500      45.7000       0.8790    -999.2500    -999.2500    -999.2500      40.5700       2.1930     109.8050
   1154.7350    -999.2500       0.0050    -999.2500      45.9199       0.8930    -999.2500    -999.2500    -999.2500      40.4770       2.1980     109.8990
   1154.8875    -999.2500       0.0060    -999.2500      46.1400       0.9070    -999.2500    -999.2500    -999.2500      40.3840       2.2030     109.9930
   1155.0398    -999.2500       0.0105    -999.2500      46.1265       0.9480    -999.2500    -999.2500    -999.2500      39.7920       2.2105     110.1899
   1155.1923    -999.2500       0.0150    -999.2500      46.1130       0.9890    -999.2500    -999.2500    -999.2500      39.2000       2.2180     110.3870
   1155.3446    -999.2500       0.0135    -999.2500      44.8705       1.0330    -999.2500    -999.2500    -999.2500      37.5534       2.2365     110.6234
   1155.4969    -999.2500       0.0120    -999.2500      43.6270       1.0770    -999.2500    -999.2500    -999.2500      35.9080       2.2550     110.8600
   1155.6494    -999.2500       0.0070    -999.2500      38.0062       1.0900    -999.2500    -999.2500    -999.2500      30.5673       2.3425     110.8285
   1155.8018    -999.2500       0.0020    -999.2500      32.3800       1.1030    -999.2500    -999.2500    -999.2500      25.2300       2.4300     110.7970
   1155.9542    -999.2500       0.0280    -999.2500      33.2091       1.1280    -999.2500    -999.2500    -999.2500      26.1462       2.4185     110.6476
   1156.1066    -999.2500       0.0540    -999.2500      34.0390       1.1530    -999.2500    -999.2500    -999.2500      27.0620       2.4070     110.4980
   1156.2590    -999.2500       0.0500    -999.2500      36.6890       1.1420    -999.2500    -999.2500    -999.2500      30.3562       2.3605     110.1991
   1156.4114    -999.2500       0.0460    -999.2500      39.3400       1.1310    -999.2500    -999.2500    -999.2500      33.6490       2.3140     109.9000
   1156.5638    -999.2500       0.0250    -999.2500      40.2151       1.0915    -999.2500    -999.2500    -999.2500      35.5998       2.2670     109.9000
   1156.7162    -999.2500       0.0040    -999.2500      41.0900       1.0520    -999.2500    -999.2500    -999.2500      37.5500       2.2200     109.9000
   1156.8687    -999.2500       0.0040    -999.2500      42.4151       1.0150    -999.2500    -999.2500    -999.2500      37.5120       2.2300     109.8500
   1157.0210    -999.2500       0.0040    -999.2500      43.7400       0.9780    -999.2500    -999.2500    -999.2500      37.4740       2.2400     109.8000
   1157.1735    -999.2500       0.0040    -999.2500      42.8900       0.9780    -999.2500    -999.2500    -999.2500      36.9170       2.2300     109.6485
   1157.3258    -999.2500       0.0040    -999.2500      42.0400       0.9780    -999.2500    -999.2500    -999.2500      36.3600       2.2200     109.4970
   1157.4781    -999.2500       0.0100    -999.2500      42.1540       0.9780    -999.2500    -999.2500    -999.2500      38.4449       2.2250     109.4375
   1157.6306    -999.2500       0.0160    -999.2500      42.2680       0.9780    -999.2500    -999.2500    -999.2500      40.5300       2.2300     109.3780
   1157.7830    -999.2500       0.0140    -999.2500      42.6755       0.9780    -999.2500    -999.2500    -999.2500      40.2450       2.2250     109.3175
   1157.9354    -999.2500       0.0120    -999.2500      43.0830       0.9780    -999.2500    -999.2500    -999.2500      39.9600       2.2200     109.2570
   1158.0878    -999.2500       0.0125    -999.2500      43.7114       0.9790    -999.2500    -999.2500    -999.2500      40.0550       2.2200     109.1535
   1158.2402    -999.2500       0.0130    -999.2500      44.3400       0.9800    -999.2500    -999.2500    -999.2500      40.1500       2.2200     109.0500
   1158.3926    -999.2500       0.0110    -999.2500      44.2440       0.9845    -999.2500    -999.2500    -999.2500      39.9351       2.2215     109.0500
   1158.5450    -999.2500       0.0090    -999.2500      44.1480       0.9890    -999.2500    -999.2500    -999.2500      39.7200       2.2230     109.0500
   1158.6974    -999.2500       0.0145    -999.2500      43.6941       1.0020    -999.2500    -999.2500    -999.2500      40.2648       2.2315     108.9900
   1158.8499    -999.2500       0.0200    -999.2500      43.2400       1.0150    -999.2500    -999.2500    -999.2500      40.8100       2.2400     108.9300
   1159.0022    -999.2500       0.0185    -999.2500      43.3630       1.0130    -999.2500    -999.2500    -999.2500      40.7460       2.2385     109.0500
   1159.1547    -999.2500       0.0170    -999.2500      43.4860       1.0110    -999.2500    -999.2500    -999.2500      40.6820       2.2370     109.1700
   1159.3070    -999.2500       0.0070    -999.2500      43.8129       0.9990    -999.2500    -999.2500    -999.2500      40.2038       2.2185     109.1100
   1159.4594    -999.2500      -0.0030    -999.2500      44.1400       0.9870    -999.2500    -999.2500    -999.2500      39.7260       2.2000     109.0500
   1159.6118    -999.2500      -0.0030    -999.2500      43.5653       0.9915    -999.2500    -999.2500    -999.2500      38.1525       2.2000     109.0825
   1159.7642    -999.2500      -0.0030    -999.2500      42.9900       0.9960    -999.2500    -999.2500    -999.2500      36.5800       2.2000     109.1150
   1159.9166    -999.2500      -0.0020    -999.2500      44.4892       0.9950    -999.2500    -999.2500    -999.2500      36.9816       2.2015     109.2654
   1160.0690    -999.2500      -0.0010    -999.2500      45.9900       0.9940    -999.2500    -999.2500    -999.2500      37.3830       2.2030     109.4160
   1160.2214    -999.2500       0.0010    -999.2500      45.7875       0.9860    -999.2500    -999.2500    -999.2500      38.9018       2.2080     109.5930
