#------------------------------------------------------------------------------
#
#   Created by  : [OpenWorks] Log Export Utility (LEXP)
#   Created on  : 2016-05-23 11:56:14
#   Project     : CANT971
#   User        : R5K
#   Interpreter : PEP
#
#------------------------------------------------------------------------------
~VERSION INFORMATION
VERS. 2.0 : CWLS Log ASCII Standard - version 2.0
WRAP.  NO : One line per depth step
~WELL INFORMATION
#MNEMONIC   .UNIT                                           VALUE :DESCRIPTION
#------------------------------------------------------------------------------
STRT        .M                                          2395.2905 :START DEPTH
STOP        .M                                          2859.1960 :STOP DEPTH
STEP        .M                                             0.1524 :STEP
NULL        .                                           -999.2500 :NULL VALUE
COMP        .                                             UNKNOWN :COMPANY
WELL        .                                               446-V :WELL
FLD         .                                             UNKNOWN :FIELD
LOC         .                                             UNKNOWN :LOCATION
CNTY        .                                             UNKNOWN :COUNTY
STAT        .                                             UNKNOWN :STATE
CTRY        .                                             UNKNOWN :COUNTRY
SRVC        .                                             UNKNOWN :SERVICE COMPANY
DATE        .                                             UNKNOWN :LOG DATE
UWI         .                                               446-V :UNIQUE WELL ID
XCOORD      .                                       596708.730000 :SURFACE X
YCOORD      .                                      2143311.960000 :SURFACE Y
LAT         .                                           19.382780 :LATITUDE
LON         .                                          -92.079070 :LONGITUDE
ELEV        .M                                             0.0000 :SURFACE ELEV
ELEV_TYPE   .                                                  NA :ELEV TYPE
~CURVE INFORMATION
#MNEMONIC.UNIT        API CODE       : CURVE DESCRIPTION
#------------------------------------------------------------------------------
DEPTH    .M                          : Measured Depth
CALI     .inches      UNKNOWN        : CALI:litodensidad:rC:NONE:v0 (auto-composite)
CGR      .API         UNKNOWN        : CGR:Espectrometria:rC:NONE:v0 (auto-composite)
DRHO     .g/cm3       UNKNOWN        : DRHO:litodensidad:rC:NONE:v0 (auto-composite)
DT       .us/ft       UNKNOWN        : DT:sonico:rC:NONE:v0 (auto-composite)
GR       .API         UNKNOWN        : GR:GR-Load:rC:NONE:v0 (auto-composite)
GR-LWD   .API         UNKNOWN        : GR-LWD:resistivos-LWD:rC:NONE:v0 (auto-composite)
ILD-LWD  .ohm.m       UNKNOWN        : ILD-LWD:resistivos-LWD:rC:NONE:v0 (auto-composite)
ILM-LWD  .UNKNOWN     UNKNOWN        : ILM-LWD:resistivos-LWD:rC:NONE:v0 (auto-composite)
LLD      .ohm.m       UNKNOWN        : LLD:resistivos:rC:NONE:v0 (auto-composite)
LLS      .ohm.m       UNKNOWN        : LLS:resistivos:rC:NONE:v0 (auto-composite)
MSFL     .ohm.m       UNKNOWN        : MSFL:resistivos:rC:NONE:v0 (auto-composite)
NPHI     .UNKNOWN     UNKNOWN        : NPHI:porosidad:rC:NONE:v0 (auto-composite)
PEF      .UNKNOWN     UNKNOWN        : PEF:litodensidad:rC:NONE:v0 (auto-composite)
POTA     .wtpercent   UNKNOWN        : POTA:Espectrometria:rC:NONE:v0 (auto-composite)
RHOB     .g/cm3       UNKNOWN        : RHOB:litodensidad:rC:NONE:v0 (auto-composite)
THOR     .ppm         UNKNOWN        : THOR:Espectrometria:rC:NONE:v0 (auto-composite)
URAN     .ppm         UNKNOWN        : URAN:Espectrometria:rC:NONE:v0 (auto-composite)
~A     DEPTH         CALI          CGR         DRHO           DT           GR       GR-LWD      ILD-LWD      ILM-LWD          LLD          LLS         MSFL         NPHI          PEF         POTA         RHOB         THOR         URAN
# ...
   2731.3325       9.3143      15.5621       0.0573      53.0813      30.1136    -999.2500    -999.2500    -999.2500      77.3667      72.5409       1.6063       0.0505       3.4303       0.0055       2.8204       2.2400       1.6200
   2731.4849       9.3978      12.8425       0.0607      54.6590      30.0003    -999.2500    -999.2500    -999.2500      69.4213      64.9360       1.4655       0.0513       3.4130       0.0058       2.8086       1.3592       1.9103
   2731.6372       9.4855      10.9563       0.0620      58.3626      29.2439    -999.2500    -999.2500    -999.2500      62.1376      56.6189       1.0082       0.0549       3.3837       0.0056       2.7972       0.8797       2.0360
   2731.7898       9.4512       9.1690       0.0651      61.2842      28.5634    -999.2500    -999.2500    -999.2500      54.7379      46.5046       1.1291       0.0600       3.3787       0.0053       2.7881       0.4993       2.1593
   2731.9421       9.3359      11.1854       0.0714      61.8560      28.4653    -999.2500    -999.2500    -999.2500      55.5995      47.4093       1.4654       0.0659       3.4291       0.0058       2.7882       0.8841       1.9238
   2732.0945       9.1457      15.9317       0.0749      62.1976      29.7312    -999.2500    -999.2500    -999.2500      61.3558      54.0759       1.4729       0.0712       3.5252       0.0067       2.7807       1.8514       1.5363
   2732.2468       9.1999      17.7201       0.0667      62.2026      30.8457    -999.2500    -999.2500    -999.2500      64.5823      57.6716       1.3897       0.0736       3.5331       0.0074       2.7656       2.0924       1.4613
   2732.3994       9.3398      17.2092       0.0443      62.0586      31.9195    -999.2500    -999.2500    -999.2500      64.3208      58.3265       2.0080       0.0871       3.4721       0.0074       2.7414       1.9573       1.6378
   2732.5518       9.4244      16.7984       0.0292      61.8050      31.8175    -999.2500    -999.2500    -999.2500      59.6123      54.3485       2.0718       0.0919       3.4506       0.0075       2.7287       1.8017       1.6721
   2732.7041       9.4988      15.6600       0.0122      61.6223      31.8826    -999.2500    -999.2500    -999.2500      50.3268      44.6288       1.9460       0.0945       3.4444       0.0075       2.7316       1.4708       1.8061
   2732.8564       9.5524      18.8922       0.0075      62.1030      32.2972    -999.2500    -999.2500    -999.2500      47.5256      41.7865       2.0907       0.0909       3.4033       0.0087       2.7395       1.9263       1.4924
   2733.0090       9.5886      24.4491       0.0110      62.3827      34.4527    -999.2500    -999.2500    -999.2500      48.0516      41.7665       1.0874       0.0934       3.2687       0.0109       2.7415       2.5971       1.1137
   2733.1614       9.4945      27.3238       0.0182      62.4792      35.9267    -999.2500    -999.2500    -999.2500      50.9140      44.5289       0.8373       0.0887       3.2115       0.0119       2.7372       3.0096       0.9578
   2733.3137       9.2540      25.9590       0.0253      60.4933      37.7334    -999.2500    -999.2500    -999.2500      56.7979      49.2065       1.0145       0.0845       3.2227       0.0111       2.7250       2.9399       1.3109
   2733.4661       9.1310      25.7567       0.0223      59.2807      38.1548    -999.2500    -999.2500    -999.2500      60.5779      51.8314       1.0872       0.0863       3.2567       0.0104       2.7141       3.1878       1.3803
   2733.6184       9.1046      24.6307       0.0174      56.8020      37.8419    -999.2500    -999.2500    -999.2500      61.7015      51.7929       1.0971       0.0846       3.2628       0.0089       2.7082       3.4493       1.4708
   2733.7710       9.1341      23.7620       0.0173      57.6444      36.6184    -999.2500    -999.2500    -999.2500      60.8639      50.3527       1.2355       0.0760       3.2407       0.0078       2.7175       3.6595       1.4314
   2733.9233       9.1450      18.4413       0.0271      58.3243      34.5255    -999.2500    -999.2500    -999.2500      64.1983      53.3999       1.1906       0.0740       3.2567       0.0064       2.7389       2.6854       1.7907
   2734.0757       9.1351      11.2986       0.0427      58.9337      31.8395    -999.2500    -999.2500    -999.2500      77.3648      67.0188       1.3729       0.0698       3.3207       0.0048       2.7685       1.2816       2.2869
   2734.2280       9.1287       6.8784       0.0488      59.0261      30.4313    -999.2500    -999.2500    -999.2500      93.5096      81.5355       1.6560       0.0645       3.3659       0.0035       2.7776       0.5665       2.6223
   2734.3806       9.1283       4.8926       0.0574      58.5305      28.6705    -999.2500    -999.2500    -999.2500     116.0656     100.8430       1.4513       0.0628       3.4042       0.0032       2.7781       0.1378       2.6473
   2734.5330       9.1870       5.8174       0.0690      57.9418      26.1586    -999.2500    -999.2500    -999.2500     119.5234     104.9810       0.9608       0.0621       3.4281       0.0037       2.7709       0.1699       2.2646
   2734.6853       9.3038       5.2836       0.0797      57.0228      24.1452    -999.2500    -999.2500    -999.2500     106.8322      95.1773       0.8032       0.0604       3.4442       0.0035       2.7570       0.1273       2.0999
   2734.8376       9.3928       4.8254       0.0774      55.6492      23.0668    -999.2500    -999.2500    -999.2500      90.8400      81.8923       0.8604       0.0644       3.4421       0.0028       2.7404       0.2632       2.0309
   2734.9902       9.3542       6.2196       0.0688      55.2878      22.6591    -999.2500    -999.2500    -999.2500      74.9992      67.5040       0.7519       0.0718       3.4314       0.0028       2.7288       0.6340       1.8303
   2735.1426       9.3031       7.7804       0.0601      54.8958      23.3678    -999.2500    -999.2500    -999.2500      67.5597      60.7550       0.6262       0.0725       3.4030       0.0035       2.7347       0.8214       1.7354
   2735.2949       9.3221       9.4808       0.0460      55.2475      25.6019    -999.2500    -999.2500    -999.2500      63.0064      57.9143       0.5195       0.0715       3.3194       0.0040       2.7579       1.0866       1.7948
   2735.4473       9.3762       8.0319       0.0387      55.6817      27.9091    -999.2500    -999.2500    -999.2500      62.1160      58.0117       0.5263       0.0681       3.2728       0.0038       2.7587       0.7856       2.2130
   2735.5996       9.3277       6.3285       0.0322      56.8760      32.0841    -999.2500    -999.2500    -999.2500      59.8978      56.4606       0.7310       0.0661       3.2960       0.0042       2.7366       0.1216       2.8675
   2735.7522       9.1697       7.3322       0.0273      57.7513      35.1576    -999.2500    -999.2500    -999.2500      58.7137      55.1659       0.8774       0.0756       3.3800       0.0050       2.7177       0.1009       3.0979
   2735.9045       8.9113      10.3182       0.0244      58.1967      31.8616    -999.2500    -999.2500    -999.2500      63.2225      59.7454       0.8351       0.0918       3.5082       0.0060       2.7130       0.5590       2.3985
   2736.0569       8.8728       9.3718       0.0262      57.9486      30.3785    -999.2500      55.2440      72.0910      70.3543      67.3348       0.9015       0.0901       3.5227       0.0053       2.7151       0.5726       2.3387
   2736.2092       8.8931       7.4245       0.0357      57.4723      28.0138    -999.2500      54.8510      73.2980      85.6955      83.2115       0.8435       0.0798       3.4727       0.0039       2.7149       0.5643       2.2923
   2736.3618       8.9325       7.3133       0.0424      56.1172      27.1769    -999.2500      55.1728      74.2807      94.0727      91.6778       0.8932       0.0766       3.4496       0.0031       2.7145       0.8569       2.2115
   2736.5142       9.0686       8.1411       0.0483      55.4156      26.7506    -999.2500      55.7964      77.3352      98.2883      96.3384       0.9104       0.0700       3.4883       0.0034       2.7276       0.9604       2.0719
