#------------------------------------------------------------------------------
#
#   Created by  : [OpenWorks] Log Export Utility (LEXP)
#   Created on  : 2016-05-12 17:01:16
#   Project     : CANT971
#   User        : R5K
#   Interpreter : PEP
#
#------------------------------------------------------------------------------
~VERSION INFORMATION
VERS. 2.0 : CWLS Log ASCII Standard - version 2.0
WRAP.  NO : One line per depth step
~WELL INFORMATION
#MNEMONIC   .UNIT                                           VALUE :DESCRIPTION
#------------------------------------------------------------------------------
STRT        .M                                          4907.2798 :START DEPTH
STOP        .M                                          5813.7549 :STOP DEPTH
STEP        .M                                             0.1524 :STEP
NULL        .                                           -999.2500 :NULL VALUE
COMP        .                                   PEMEX EXPL & PROD :COMPANY
WELL        .                                            3026D_ST :WELL
FLD         .                                           CANTARELL :FIELD
LOC         .                                             UNKNOWN :LOCATION
CNTY        .                                      CD. DEL CARMEN :COUNTY
STAT        .                                            CAMPECHE :STATE
CTRY        .                                              MEXICO :COUNTRY
SRVC        .                                             UNKNOWN :SERVICE COMPANY
DATE        .                                             UNKNOWN :LOG DATE
UWI         .                                      3060000820D_ST :UNIQUE WELL ID
XCOORD      .                                       601717.200000 :SURFACE X
YCOORD      .                                      2148573.570000 :SURFACE Y
LAT         .                                           19.430078 :LATITUDE
LON         .                                          -92.031099 :LONGITUDE
ELEV        .M                                            30.0000 :SURFACE ELEV
ELEV_TYPE   .                                                  KB :ELEV TYPE
~CURVE INFORMATION
#MNEMONIC.UNIT        API CODE       : CURVE DESCRIPTION
#------------------------------------------------------------------------------
DEPTH    .M                          : Measured Depth
CALI     .inches      UNKNOWN        : CALI:registros:rC:NONE:v0 (auto-composite)
CGR      .API         UNKNOWN        : CGR:registros:rC:NONE:v0 (auto-composite)
DRHO     .g/cm3       UNKNOWN        : DRHO:registros:rC:NONE:v0 (auto-composite)
DT       .us/ft       UNKNOWN        : DT:registros:rC:NONE:v0 (auto-composite)
GR       .API         UNKNOWN        : GR:registros:rC:NONE:v0 (auto-composite)
ILD      .ohm.m       UNKNOWN        : ILD:registros:rC:NONE:v0 (auto-composite)
ILM      .ohm.m       UNKNOWN        : ILM:registros:rC:NONE:v0 (auto-composite)
NPHI     .UNKNOWN     UNKNOWN        : NPHI:registros:rC:NONE:v0 (auto-composite)
PEF      .b/elec      UNKNOWN        : PEF:registros:rC:NONE:v0 (auto-composite)
POTA     .UNKNOWN     UNKNOWN        : POTA:registros:rC:NONE:v0 (auto-composite)
RHOB     .g/cm3       UNKNOWN        : RHOB:registros:rC:NONE:v0 (auto-composite)
THOR     .ppm         UNKNOWN        : THOR:registros:rC:NONE:v0 (auto-composite)
URAN     .ppm         UNKNOWN        : URAN:registros:rC:NONE:v0 (auto-composite)
~A     DEPTH         CALI          CGR         DRHO           DT           GR          ILD          ILM         NPHI          PEF         POTA         RHOB         THOR         URAN
# ...
   5584.5454       8.0745    -999.2500      -0.1538      67.7953     110.5316       3.6668       3.5328       0.2562      65.3708    -999.2500       2.4473    -999.2500    -999.2500
   5584.6978       7.9796    -999.2500      -0.1573      64.2221     108.0958       3.6643       3.5364       0.2493      59.6712    -999.2500       2.4565    -999.2500    -999.2500
   5584.8501       8.0499    -999.2500      -0.1664      61.9353     106.7815       3.6901       3.5620       0.2493      61.0322    -999.2500       2.4469    -999.2500    -999.2500
   5585.0024       8.1694    -999.2500      -0.1595      65.1578     104.6150       3.6885       3.5501       0.2508      51.7094    -999.2500       2.4518    -999.2500    -999.2500
   5585.1548       8.2042    -999.2500      -0.1607      64.1686     108.6195       3.7026       3.5686       0.2582      54.6028    -999.2500       2.4509    -999.2500    -999.2500
   5585.3076       8.1999    -999.2500      -0.1606      68.6672     110.8134       3.7543       3.6128       0.2522      55.7390    -999.2500       2.4569    -999.2500    -999.2500
   5585.4600       8.3515    -999.2500      -0.1480      73.7514     112.2014       3.6752       3.5352       0.2472      56.1520    -999.2500       2.4731    -999.2500    -999.2500
   5585.6123       8.4647    -999.2500      -0.1166      67.1473     111.5300       3.6093       3.4734       0.2423      51.3841    -999.2500       2.5120    -999.2500    -999.2500
   5585.7646       8.1848    -999.2500      -0.1179      66.7445     111.4637       3.6385       3.4955       0.2480      53.1446    -999.2500       2.5129    -999.2500    -999.2500
   5585.9170       8.1693    -999.2500      -0.1176      65.1416     111.9516       3.5739       3.4406       0.2595      51.1311    -999.2500       2.5099    -999.2500    -999.2500
   5586.0693       8.2275    -999.2500      -0.1123      66.6554     109.2727       3.5260       3.3881       0.2550      55.2769    -999.2500       2.5061    -999.2500    -999.2500
   5586.2217       8.1060    -999.2500      -0.1194      66.3022     106.0335       3.5224       3.3842       0.2605      52.7435    -999.2500       2.5003    -999.2500    -999.2500
   5586.3740       7.9859    -999.2500      -0.1396      63.3166     103.2526       3.5054       3.3679       0.2493      59.5892    -999.2500       2.4846    -999.2500    -999.2500
   5586.5264       8.0884    -999.2500      -0.1316      62.3484     104.6552       3.3779       3.2467       0.2554      50.7807    -999.2500       2.5014    -999.2500    -999.2500
   5586.6792       8.0731    -999.2500      -0.1119      63.0163     107.3440       3.3553       3.2191       0.2565      13.3684    -999.2500       2.5437    -999.2500    -999.2500
   5586.8315       8.0708    -999.2500      -0.1027      70.2716     103.9754       3.3834       3.2557       0.2655      27.2700    -999.2500       2.5686    -999.2500    -999.2500
   5586.9839       8.0406    -999.2500      -0.0840      62.3720     102.9188       3.3892       3.2601       0.2443      15.5929    -999.2500       2.6052    -999.2500    -999.2500
   5587.1362       8.2110    -999.2500      -0.0775      64.4528      95.6854       3.2990       3.1787       0.2200      52.8640    -999.2500       2.5985    -999.2500    -999.2500
   5587.2886       8.1667    -999.2500      -0.0675      67.8213      94.9358       3.2924       3.1776       0.1961      57.6332    -999.2500       2.6105    -999.2500    -999.2500
   5587.4409       7.6695    -999.2500      -0.0703      70.0130      94.3999       3.3285       3.2121       0.2007      50.6540    -999.2500       2.6037    -999.2500    -999.2500
   5587.5933       7.6309    -999.2500      -0.0664      70.1279      98.5229       3.3831       3.2644       0.2071      50.6807    -999.2500       2.6163    -999.2500    -999.2500
   5587.7456       7.5053    -999.2500      -0.0691      69.9891      98.7359       3.5756       3.4432       0.2107      61.3186    -999.2500       2.6208    -999.2500    -999.2500
   5587.8979       7.4609    -999.2500      -0.0623      63.5811      95.9654       3.7093       3.5677       0.2092      66.8724    -999.2500       2.6293    -999.2500    -999.2500
   5588.0508       7.3997    -999.2500      -0.0664      64.5120      93.0402       3.7704       3.6244       0.2077      65.0609    -999.2500       2.6300    -999.2500    -999.2500
   5588.2031       7.4114    -999.2500      -0.0607      64.0675      93.1388       3.8642       3.7129       0.2112      59.1887    -999.2500       2.6386    -999.2500    -999.2500
   5588.3555       7.5123    -999.2500      -0.0592      66.7707      98.0600       3.8838       3.7282       0.2120      61.5043    -999.2500       2.6375    -999.2500    -999.2500
   5588.5078       7.5765    -999.2500      -0.0462      68.4777      99.4518       3.9065       3.7471       0.2135      59.9549    -999.2500       2.6464    -999.2500    -999.2500
   5588.6602       7.6207    -999.2500      -0.0364      65.6436     102.1680       4.0985       3.9273       0.2083      55.3951    -999.2500       2.6552    -999.2500    -999.2500
   5588.8125       7.8502    -999.2500      -0.0252      61.4075      95.9789       4.2621       4.0802       0.2113      50.8778    -999.2500       2.6669    -999.2500    -999.2500
   5588.9648       7.8192    -999.2500      -0.0119      61.7423      98.7827       4.6413       4.4302       0.2119      27.1019    -999.2500       2.6868    -999.2500    -999.2500
   5589.1172       7.9365    -999.2500      -0.0030      59.0914      95.3846       5.1006       4.8558       0.2139      23.9821    -999.2500       2.7066    -999.2500    -999.2500
   5589.2700       8.1360    -999.2500      -0.0004      62.0381      95.8028       5.7029       5.4107       0.2103      25.0591    -999.2500       2.7168    -999.2500    -999.2500
   5589.4224       8.1127    -999.2500      -0.0026      62.5578      92.2888       6.2123       5.8926       0.2057      24.7990    -999.2500       2.7071    -999.2500    -999.2500
   5589.5747       8.0391    -999.2500      -0.0091      61.5282      89.3199       6.0355       5.7564       0.2036      27.4866    -999.2500       2.6798    -999.2500    -999.2500
   5589.7271       8.0028    -999.2500      -0.0169      59.8784      91.1878       5.3285       5.1274       0.1991      51.0834    -999.2500       2.6607    -999.2500    -999.2500
   5589.8794       8.1009    -999.2500      -0.0281      60.3138      91.0546       4.8086       4.6607       0.1941      54.8502    -999.2500       2.6302    -999.2500    -999.2500
   5590.0317       8.1399    -999.2500      -0.0399      61.0064      95.6610       4.5639       4.4453       0.1988      55.4278    -999.2500       2.6097    -999.2500    -999.2500
   5590.1841       7.9755    -999.2500      -0.0452      63.6288      96.3238       4.8508       4.7371       0.2122      50.7781    -999.2500       2.6021    -999.2500    -999.2500
   5590.3364       7.9926    -999.2500      -0.0473      61.2451      99.3713       5.4098       5.2903       0.2222      56.8073    -999.2500       2.6094    -999.2500    -999.2500
   5590.4888       7.8883    -999.2500      -0.0529      63.3403     103.2586       5.7427       5.6316       0.2241      51.6538    -999.2500       2.6113    -999.2500    -999.2500
   5590.6416       7.7670    -999.2500      -0.0533      63.3549     101.7985       5.8092       5.7156       0.2282      53.9482    -999.2500       2.6125    -999.2500    -999.2500
   5590.7939       7.6953    -999.2500      -0.0552      67.4073      99.3965       5.5847       5.5072       0.2311      60.8729    -999.2500       2.6131    -999.2500    -999.2500
   5590.9463       7.6385    -999.2500      -0.0616      71.3371      94.2420       5.3616       5.2932       0.2353      52.4958    -999.2500       2.6091    -999.2500    -999.2500
   5591.0986       7.6670    -999.2500      -0.0620      69.3990      93.7031       5.4271       5.3630       0.2276      52.1650    -999.2500       2.6147    -999.2500    -999.2500
