#------------------------------------------------------------------------------
#
#   Created by  : [OpenWorks] Log Export Utility (LEXP)
#   Created on  : 2016-05-23 11:53:36
#   Project     : CANT971
#   User        : R5K
#   Interpreter : PEP
#
#------------------------------------------------------------------------------
~VERSION INFORMATION
VERS. 2.0 : CWLS Log ASCII Standard - version 2.0
WRAP.  NO : One line per depth step
~WELL INFORMATION
#MNEMONIC   .UNIT                                           VALUE :DESCRIPTION
#------------------------------------------------------------------------------
STRT        .M                                           940.3716 :START DEPTH
STOP        .M                                          3167.2405 :STOP DEPTH
STEP        .M                                             0.1524 :STEP
NULL        .                                           -999.2500 :NULL VALUE
COMP        .                                   PEMEX EXPL & PROD :COMPANY
WELL        .                                                  24 :WELL
FLD         .                                           CANTARELL :FIELD
LOC         .                                             UNKNOWN :LOCATION
CNTY        .                                      CD. DEL CARMEN :COUNTY
STAT        .                                            CAMPECHE :STATE
CTRY        .                                              MEXICO :COUNTRY
SRVC        .                                             UNKNOWN :SERVICE COMPANY
DATE        .                                             UNKNOWN :LOG DATE
UWI         .                                          3060000153 :UNIQUE WELL ID
XCOORD      .                                       598455.290000 :SURFACE X
YCOORD      .                                      2145024.750000 :SURFACE Y
LAT         .                                           19.398172 :LATITUDE
LON         .                                          -92.062351 :LONGITUDE
ELEV        .M                                            26.5400 :SURFACE ELEV
ELEV_TYPE   .                                                  KB :ELEV TYPE
~CURVE INFORMATION
#MNEMONIC.UNIT        API CODE       : CURVE DESCRIPTION
#------------------------------------------------------------------------------
DEPTH    .M                          : Measured Depth
CALI     .inches      UNKNOWN        : CALI:Import:rC:NONE:v0 (auto-composite)
DRHO     .g/cm3       UNKNOWN        : DRHO:Import:rC:NONE:v0 (auto-composite)
DT       .us/ft       UNKNOWN        : DT:Import:rC:NONE:v0 (auto-composite)
GR       .API         UNKNOWN        : GR:Import:rC:NONE:v0 (auto-composite)
ILD      .ohm.m       UNKNOWN        : ILD:Import:rC:NONE:v0 (auto-composite)
LLD      .ohm.m       UNKNOWN        : LLD:Import:rC:NONE:v0 (auto-composite)
LLS      .ohm.m       UNKNOWN        : LLS:Import:rC:NONE:v0 (auto-composite)
MSFL     .ohm.m       UNKNOWN        : MSFL:Import:rC:NONE:v0 (auto-composite)
NPHI     .v/v_decimal UNKNOWN        : NPHI:Import:rC:NONE:v0 (auto-composite)
RHOB     .g/cm3       UNKNOWN        : RHOB:Import:rC:NONE:v0 (auto-composite)
~A     DEPTH         CALI         DRHO           DT           GR          ILD          LLD          LLS         MSFL         NPHI         RHOB
# ...
   2689.9236    -999.2500    -999.2500    -999.2500      22.0879    -999.2500      49.7010      45.5610      42.1686       0.0438    -999.2500
   2690.0759    -999.2500    -999.2500    -999.2500      23.2138    -999.2500      49.3088      49.1964      48.6172       0.0440    -999.2500
   2690.2283    -999.2500    -999.2500    -999.2500      23.3652    -999.2500      52.8153      52.2295      53.7050       0.0445    -999.2500
   2690.3809    -999.2500    -999.2500    -999.2500      23.3764    -999.2500      56.0308      55.1050      58.4539       0.0461    -999.2500
   2690.5332    -999.2500    -999.2500    -999.2500      22.2534    -999.2500      56.8924      56.7048      60.4615       0.0495    -999.2500
   2690.6855    -999.2500    -999.2500    -999.2500      21.1716    -999.2500      57.7156      57.9047      61.9816       0.0530    -999.2500
   2690.8379    -999.2500    -999.2500    -999.2500      20.4260    -999.2500      58.2250      55.8413      59.5232       0.0552    -999.2500
   2690.9905    -999.2500    -999.2500    -999.2500      19.8406    -999.2500      58.8140      53.9432      57.2221       0.0570    -999.2500
   2691.1428    -999.2500    -999.2500    -999.2500      20.5963    -999.2500      60.0700      53.4294      56.2390       0.0593    -999.2500
   2691.2952    -999.2500    -999.2500    -999.2500      21.3980    -999.2500      61.3469      53.3364      55.6438       0.0620    -999.2500
   2691.4475    -999.2500    -999.2500    -999.2500      22.5883    -999.2500      62.8015      56.7985      58.3252       0.0645    -999.2500
   2691.6001    -999.2500    -999.2500    -999.2500      23.6924    -999.2500      64.5413      60.5711      61.6689       0.0656    -999.2500
   2691.7524    -999.2500    -999.2500    -999.2500      24.1092    -999.2500      68.5576      66.8209      70.2962       0.0640    -999.2500
   2691.9048    -999.2500    -999.2500    -999.2500      24.2622    -999.2500      71.8401      71.9139      77.1113       0.0612    -999.2500
   2692.0571    -999.2500    -999.2500    -999.2500      22.2917    -999.2500      69.2168      67.6961      69.3414       0.0584    -999.2500
   2692.2095    -999.2500    -999.2500    -999.2500      20.5143    -999.2500      66.6126      63.4800      61.8104       0.0565    -999.2500
   2692.3621    -999.2500    -999.2500    -999.2500      20.3324    -999.2500      64.1651      59.2783      56.2518       0.0559    -999.2500
   2692.5144    -999.2500    -999.2500    -999.2500      20.2092    -999.2500      62.1084      55.4392      51.2697       0.0553    -999.2500
   2692.6667    -999.2500    -999.2500    -999.2500      20.5752    -999.2500      63.3068      54.6205      51.0897       0.0534    -999.2500
   2692.8191    -999.2500    -999.2500    -999.2500      20.8044    -999.2500      64.3253      53.6723      50.7885       0.0525    -999.2500
   2692.9717    -999.2500    -999.2500    -999.2500      19.9568    -999.2500      63.9284      51.7057      49.5330       0.0544    -999.2500
   2693.1240    -999.2500    -999.2500    -999.2500      19.1261    -999.2500      63.4796      49.7540      48.1869       0.0583    -999.2500
   2693.2764    -999.2500    -999.2500    -999.2500      18.4300    -999.2500      62.6176      47.9218      46.1215       0.0636    -999.2500
   2693.4287    -999.2500    -999.2500    -999.2500      17.8287    -999.2500      61.8068      46.2944      44.0731       0.0694    -999.2500
   2693.5813    -999.2500    -999.2500    -999.2500      17.9996    -999.2500      61.4120      46.3344      42.1634       0.0746    -999.2500
   2693.7336    -999.2500    -999.2500    -999.2500      18.1736    -999.2500      61.0925      46.5420      40.4143       0.0798    -999.2500
   2693.8860    -999.2500    -999.2500    -999.2500      18.3725    -999.2500      61.3924      48.1268      39.9840       0.0854    -999.2500
   2694.0383    -999.2500    -999.2500    -999.2500      18.4692    -999.2500      61.6805      49.7515      39.6664       0.0934    -999.2500
   2694.1907    -999.2500    -999.2500    -999.2500      17.7192    -999.2500      61.8710      51.7064      40.2831       0.1047    -999.2500
   2694.3433    -999.2500    -999.2500    -999.2500      16.9333    -999.2500      62.0208      53.2823      40.6738       0.1115    -999.2500
   2694.4956    -999.2500    -999.2500    -999.2500      15.8677    -999.2500      61.8510      51.8890      39.2940       0.1070    -999.2500
   2694.6479    -999.2500    -999.2500    -999.2500      14.9353    -999.2500      61.4898      50.4273      37.8626       0.0965    -999.2500
   2694.8003    -999.2500    -999.2500    -999.2500      15.0738    -999.2500      59.5921      48.4161      36.0174       0.0845    -999.2500
   2694.9529    -999.2500    -999.2500    -999.2500      15.2870    -999.2500      57.5388      46.3161      34.1075       0.0740    -999.2500
   2695.1052    -999.2500    -999.2500    -999.2500      16.1062    -999.2500      54.2242      43.4964      31.6730       0.0675    -999.2500
   2695.2576    -999.2500    -999.2500    -999.2500      16.9343    -999.2500      51.0372      40.8100      29.3441       0.0636    -999.2500
   2695.4099    -999.2500    -999.2500    -999.2500      17.8359    -999.2500      48.8926      39.2137      27.8778       0.0608    -999.2500
   2695.5625    -999.2500    -999.2500    -999.2500      18.7132    -999.2500      47.2517      38.1905      26.8516       0.0572    -999.2500
   2695.7148    -999.2500    -999.2500    -999.2500      19.3904    -999.2500      49.7636      41.8934      29.4549       0.0512    -999.2500
   2695.8672    -999.2500    -999.2500    -999.2500      20.0550    -999.2500      52.0260      45.4840      32.1552       0.0440    -999.2500
   2696.0195    -999.2500    -999.2500    -999.2500      20.6136    -999.2500      52.1774      48.1233      35.6770       0.0365    -999.2500
   2696.1719    -999.2500    -999.2500    -999.2500      21.0796    -999.2500      52.6644      51.8932      40.8159       0.0305    -999.2500
   2696.3245    -999.2500    -999.2500    -999.2500      20.8062    -999.2500      55.8326      64.6967      58.8756       0.0275    -999.2500
   2696.4768    -999.2500    -999.2500    -999.2500      20.4466    -999.2500      59.2915      80.1306      80.4896       0.0263    -999.2500
   2696.6292    -999.2500    -999.2500    -999.2500      19.3921    -999.2500      65.0945     116.7658     130.7509       0.0256    -999.2500
   2696.7815    -999.2500    -999.2500    -999.2500      18.4353    -999.2500      70.7984     152.2766     179.4063       0.0256    -999.2500
   2696.9341    -999.2500    -999.2500    -999.2500      18.2740    -999.2500      75.6969     178.6446     215.0034       0.0265    -999.2500
   2697.0864    -999.2500    -999.2500    -999.2500      18.0835    -999.2500      80.3141     199.3971     242.8987       0.0287    -999.2500
   2697.2388    -999.2500    -999.2500    -999.2500      17.6486    -999.2500      82.5851     173.3058     206.5469       0.0322    -999.2500
   2697.3911    -999.2500    -999.2500    -999.2500      17.3715    -999.2500      84.7446     148.7855     172.7756       0.0353    -999.2500
   2697.5437    -999.2500    -999.2500    -999.2500      18.4219    -999.2500      85.9655     137.4892     160.7267       0.0368    -999.2500
   2697.6960    -999.2500    -999.2500    -999.2500      19.6986    -999.2500      86.5140     125.7763     147.5108       0.0366    -999.2500
   2697.8484    -999.2500    -999.2500    -999.2500      22.7743    -999.2500      81.7160     110.7513     125.0160       0.0349    -999.2500
   2698.0007    -999.2500    -999.2500    -999.2500      25.7316    -999.2500      77.3382      96.9612     104.5043       0.0333    -999.2500
   2698.1531    -999.2500    -999.2500    -999.2500      27.7396    -999.2500      76.3294      93.0750      99.8975       0.0330    -999.2500
   2698.3057    -999.2500    -999.2500    -999.2500      29.4986    -999.2500      76.0126      90.1668      96.7918       0.0339    -999.2500
