#------------------------------------------------------------------------------
#
#   Created by  : [OpenWorks] Log Export Utility (LEXP)
#   Created on  : 2016-05-23 11:55:46
#   Project     : CANT971
#   User        : R5K
#   Interpreter : PEP
#
#------------------------------------------------------------------------------
~VERSION INFORMATION
VERS. 2.0 : CWLS Log ASCII Standard - version 2.0
WRAP.  NO : One line per depth step
~WELL INFORMATION
#MNEMONIC   .UNIT                                           VALUE :DESCRIPTION
#------------------------------------------------------------------------------
STRT        .M                                           292.5192 :START DEPTH
STOP        .M                                          2727.7188 :STOP DEPTH
STEP        .M                                             0.1524 :STEP
NULL        .                                           -999.2500 :NULL VALUE
COMP        .                                   PEMEX EXPL & PROD :COMPANY
WELL        .                                                  39 :WELL
FLD         .                                           CANTARELL :FIELD
LOC         .                                             UNKNOWN :LOCATION
CNTY        .                                      CD. DEL CARMEN :COUNTY
STAT        .                                            CAMPECHE :STATE
CTRY        .                                              MEXICO :COUNTRY
SRVC        .                                             UNKNOWN :SERVICE COMPANY
DATE        .                                             UNKNOWN :LOG DATE
UWI         .                                          3060000161 :UNIQUE WELL ID
XCOORD      .                                       603360.280000 :SURFACE X
YCOORD      .                                      2145098.760000 :SURFACE Y
LAT         .                                           19.398594 :LATITUDE
LON         .                                          -92.015639 :LONGITUDE
ELEV        .M                                            27.1400 :SURFACE ELEV
ELEV_TYPE   .                                                  KB :ELEV TYPE
~CURVE INFORMATION
#MNEMONIC.UNIT        API CODE       : CURVE DESCRIPTION
#------------------------------------------------------------------------------
DEPTH    .M                          : Measured Depth
CALI     .inches      UNKNOWN        : CALI:Import:rC:NONE:v0 (auto-composite)
DRHO     .g/cm3       UNKNOWN        : DRHO:Import:rC:NONE:v0 (auto-composite)
DT       .us/ft       UNKNOWN        : DT:Import:rC:NONE:v0 (auto-composite)
GR       .API         UNKNOWN        : GR:Import:rC:NONE:v0 (auto-composite)
ILD      .ohm.m       UNKNOWN        : ILD:Import:rC:NONE:v0 (auto-composite)
LLD      .ohm.m       UNKNOWN        : LLD:Import:rC:NONE:v0 (auto-composite)
LLS      .ohm.m       UNKNOWN        : LLS:Import:rC:NONE:v0 (auto-composite)
MSFL     .ohm.m       UNKNOWN        : MSFL:Import:rC:NONE:v0 (auto-composite)
NPHI     .v/v_decimal UNKNOWN        : NPHI:Import:rC:NONE:v0 (auto-composite)
RHOB     .g/cm3       UNKNOWN        : RHOB:Import:rC:NONE:v0 (auto-composite)
~A     DEPTH         CALI         DRHO           DT           GR          ILD          LLD          LLS         MSFL         NPHI         RHOB
# ...
   1427.5944       0.0000       0.0000      40.0000      47.8852       0.2000       0.2000       0.2000       0.2000      -0.1500       2.0000
   1427.7468       0.0000       0.0000      40.0000      51.5734       0.2000       0.2000       0.2000       0.2000      -0.1500       2.0000
   1427.8992       0.0000       0.0000      40.0000      54.1939       0.2000       0.2000       0.2000       0.2000      -0.1500       2.0000
   1428.0516       0.0000       0.0000      40.0000      56.4939       0.2000       0.2000       0.2000       0.2000      -0.1500       2.0000
   1428.2040       0.0000       0.0000      40.0000      56.1817       0.2000       0.2000       0.2000       0.2000      -0.1500       2.0000
   1428.3564       0.0000       0.0000      40.0000      55.1062       0.2000       0.2000       0.2000       0.2000      -0.1500       2.0000
   1428.5088       0.0000       0.0000      40.0000      55.4131       0.2000       0.2000       0.2000       0.2000      -0.1500       2.0000
   1428.6613       0.0000       0.0000      40.0000      56.1261       0.2000       0.2000       0.2000       0.2000      -0.1500       2.0000
   1428.8136       0.0000       0.0000      40.0000      61.3520       0.2000       0.2000       0.2000       0.2000      -0.1500       2.0000
   1428.9659       0.0000       0.0000      40.0000      67.8615       0.2000       0.2000       0.2000       0.2000      -0.1500       2.0000
   1429.1184       0.0000       0.0000      40.0000      64.2888       0.2000       0.2000       0.2000       0.2000      -0.1500       2.0000
   1429.2708       0.0000       0.0000      40.0000      57.8204       0.2000       0.2000       0.2000       0.2000      -0.1500       2.0000
   1429.4232       0.0000       0.0000      40.0000      58.2333       0.2000       0.2000       0.2000       0.2000      -0.1500       2.0000
   1429.5756       0.0000       0.0000      40.0000      60.5598       0.2000       0.2000       0.2000       0.2000      -0.1500       2.0000
   1429.7280       0.0000       0.0000      40.0000      59.8370       0.2000       0.2000       0.2000       0.2000      -0.1500       2.0000
   1429.8804       0.0000       0.0000      40.0000      58.2897       0.2000       0.2000       0.2000       0.2000      -0.1500       2.0000
   1430.0328       0.0000       0.0000      40.0000      53.1102       0.2000       0.2000       0.2000       0.2000      -0.1500       2.0000
   1430.1852       0.0000       0.0000      40.0000      46.9436       0.2000       0.2000       0.2000       0.2000      -0.1500       2.0000
   1430.3376       0.0000       0.0000      40.0000      49.4183       0.2000       0.2000       0.2000       0.2000      -0.1500       2.0000
   1430.4900       0.0000       0.0000      40.0000      54.1758       0.2000       0.2000       0.2000       0.2000      -0.1500       2.0000
   1430.6425       0.0000       0.0000      40.0000      56.7466       0.2000       0.2000       0.2000       0.2000      -0.1500       2.0000
   1430.7948       0.0000       0.0000      40.0000      58.7368       0.2000       0.2000       0.2000       0.2000      -0.1500       2.0000
   1430.9471       0.0000       0.0000      40.0000      60.2865       0.2000       0.2000       0.2000       0.2000      -0.1500       2.0000
   1431.0996       0.0000       0.0000      40.0000      61.7225       0.2000       0.2000       0.2000       0.2000      -0.1500       2.0000
   1431.2520       0.0000       0.0000      40.0000      56.4460       0.2000       0.2000       0.2000       0.2000      -0.1500       2.0000
   1431.4044       0.0000       0.0000      40.0000      49.4963       0.2000       0.2000       0.2000       0.2000      -0.1500       2.0000
   1431.5568       0.0000       0.0000      40.0000      44.6148       0.2000       0.2000       0.2000       0.2000      -0.1500       2.0000
   1431.7092       0.0000       0.0000      40.0000      40.2542       0.2000       0.2000       0.2000       0.2000      -0.1500       2.0000
   1431.8616       0.0000       0.0000      40.0000      41.2065       0.2000       0.2000       0.2000       0.2000      -0.1500       2.0000
   1432.0140       0.0000       0.0000      40.0000      43.4512       0.2000       0.2000       0.2000       0.2000      -0.1500       2.0000
   1432.1664       0.0000       0.0000      40.0000      48.9101       0.2000       0.2000       0.2000       0.2000      -0.1500       2.0000
   1432.3188       0.0000       0.0000      40.0000      55.1234       0.2000       0.2000       0.2000       0.2000      -0.1500       2.0000
   1432.4712       0.0000       0.0000      40.0000      54.3452       0.2000       0.2000       0.2000       0.2000      -0.1500       2.0000
   1432.6235       0.0000       0.0000      40.0000      51.9079       0.2000       0.2000       0.2000       0.2000      -0.1500       2.0000
   1432.7760       0.0000       0.0000      40.0000      51.4983       0.2000       0.2000       0.2000       0.2000      -0.1500       2.0000
   1432.9283       0.0000       0.0000      40.0000      51.5528       0.2000       0.2000       0.2000       0.2000      -0.1500       2.0000
   1433.0808       0.0000       0.0000      40.0000      54.8555       0.2000       0.2000       0.2000       0.2000      -0.1500       2.0000
   1433.2332       0.0000       0.0000      40.0000      58.9097       0.2000       0.2000       0.2000       0.2000      -0.1500       2.0000
   1433.3856       0.0000       0.0000      40.0000      55.3820       0.2000       0.2000       0.2000       0.2000      -0.1500       2.0000
   1433.5380       0.0000       0.0000      40.0000      50.1633       0.2000       0.2000       0.2000       0.2000      -0.1500       2.0000
   1433.6904       0.0000       0.0000      40.0000      49.5757       0.2000       0.2000       0.2000       0.2000      -0.1500       2.0000
   1433.8428       0.0000       0.0000      40.0000      50.0325       0.2000       0.2000       0.2000       0.2000      -0.1500       2.0000
   1433.9952       0.0000       0.0000      40.0000      48.4293       0.2000       0.2000       0.2000       0.2000      -0.1500       2.0000
   1434.1476       0.0000       0.0000      40.0000      46.3786       0.2000       0.2000       0.2000       0.2000      -0.1500       2.0000
   1434.3000       0.0000       0.0000      40.0000      49.3746       0.2000       0.2000       0.2000       0.2000      -0.1500       2.0000
   1434.4524       0.0000       0.0000      40.0000      53.4257       0.2000       0.2000       0.2000       0.2000      -0.1500       2.0000
   1434.6047       0.0000       0.0000      40.0000      52.4197       0.2000       0.2000       0.2000       0.2000      -0.1500       2.0000
   1434.7572       0.0000       0.0000      40.0000      50.3439       0.2000       0.2000       0.2000       0.2000      -0.1500       2.0000
   1434.9095       0.0000       0.0000      40.0000      49.9635       0.2000       0.2000       0.2000       0.2000      -0.1500       2.0000
   1435.0620       0.0000       0.0000      40.0000      49.9281       0.2000       0.2000       0.2000       0.2000      -0.1500       2.0000
   1435.2144       0.0000       0.0000      40.0000      49.2463       0.2000       0.2000       0.2000       0.2000      -0.1500       2.0000
   1435.3668       0.0000       0.0000      40.0000      48.4316       0.2000       0.2000       0.2000       0.2000      -0.1500       2.0000
   1435.5192       0.0000       0.0000      40.0000      50.5660       0.2000       0.2000       0.2000       0.2000      -0.1500       2.0000
   1435.6716       0.0000       0.0000      40.0000      53.2840       0.2000       0.2000       0.2000       0.2000      -0.1500       2.0000
   1435.8240       0.0000       0.0000      40.0000      51.0446       0.2000       0.2000       0.2000       0.2000      -0.1500       2.0000
   1435.9764       0.0000       0.0000      40.0000      47.8580       0.2000       0.2000       0.2000       0.2000      -0.1500       2.0000
