#------------------------------------------------------------------------------
#
#   Created by  : [OpenWorks] Log Export Utility (LEXP)
#   Created on  : 2016-05-23 11:50:15
#   Project     : CANT971
#   User        : R5K
#   Interpreter : PEP
#
#------------------------------------------------------------------------------
~VERSION INFORMATION
VERS. 2.0 : CWLS Log ASCII Standard - version 2.0
WRAP.  NO : One line per depth step
~WELL INFORMATION
#MNEMONIC   .UNIT                                           VALUE :DESCRIPTION
#------------------------------------------------------------------------------
STRT        .M                                          2144.1199 :START DEPTH
STOP        .M                                          3100.2776 :STOP DEPTH
STEP        .M                                             0.1524 :STEP
NULL        .                                           -999.2500 :NULL VALUE
COMP        .                                   PEMEX EXPL & PROD :COMPANY
WELL        .                                               1004D :WELL
FLD         .                                           CANTARELL :FIELD
LOC         .                                             UNKNOWN :LOCATION
CNTY        .                                      CD. DEL CARMEN :COUNTY
STAT        .                                            CAMPECHE :STATE
CTRY        .                                              MEXICO :COUNTRY
SRVC        .                                             UNKNOWN :SERVICE COMPANY
DATE        .                                             UNKNOWN :LOG DATE
UWI         .                                               1004D :UNIQUE WELL ID
XCOORD      .                                       594534.600000 :SURFACE X
YCOORD      .                                      2142053.350000 :SURFACE Y
LAT         .                                           19.371510 :LATITUDE
LON         .                                          -92.099834 :LONGITUDE
ELEV        .M                                            30.0000 :SURFACE ELEV
ELEV_TYPE   .                                                  KB :ELEV TYPE
~CURVE INFORMATION
#MNEMONIC.UNIT        API CODE       : CURVE DESCRIPTION
#------------------------------------------------------------------------------
DEPTH    .M                          : Measured Depth
CALI     .in          UNKNOWN        : CALI:litodensidad:rC:NONE:v0 (auto-composite)
DRHO     .g/cm3       UNKNOWN        : DRHO:litodensidad:rC:NONE:v0 (auto-composite)
DT       .us/ft       UNKNOWN        : DT:DT-Load:rC:NONE:v0 (auto-composite)
GR       .API         UNKNOWN        : GR:TMDL:rC:NONE:v0 (auto-composite)
GR-LWD   .API         UNKNOWN        : GR-LWD:PETROWORKS:rC:NONE:v1 
ILD-LWD  .ohm.m       UNKNOWN        : ILD-LWD:resistivos-LWD:rC:NONE:v0 (auto-composite)
ILM-LWD  .ohm.m       UNKNOWN        : ILM-LWD:resistivos-LWD:rC:NONE:v0 (auto-composite)
LLD-LWD  .ohm.m       UNKNOWN        : LLD-LWD:resistivos-LWD:rC:NONE:v0 (auto-composite)
LLS      .ohm.m       UNKNOWN        : LLS:resistivos:rC:NONE:v0 (auto-composite)
LLS-LWD  .ohm.m       UNKNOWN        : LLS-LWD:resistivos-LWD:rC:NONE:v0 (auto-composite)
MSFL     .ohm.m       UNKNOWN        : MSFL:resistivos:rC:NONE:v0 (auto-composite)
MSFL-LWD .ohm.m       UNKNOWN        : MSFL-LWD:resistivos-LWD:rC:NONE:v0 (auto-composite)
NPHI     .v/v_decimal UNKNOWN        : NPHI:PETROWORKS:rC:NONE:v2 
PEF      .b/elec      UNKNOWN        : PEF:litodensidad:rC:NONE:v0 (auto-composite)
RHOB     .g/cm3       UNKNOWN        : RHOB:litodensidad:rC:NONE:v0 (auto-composite)
~A     DEPTH         CALI         DRHO           DT           GR       GR-LWD      ILD-LWD      ILM-LWD      LLD-LWD          LLS      LLS-LWD         MSFL     MSFL-LWD         NPHI          PEF         RHOB
# ...
   2744.4236       8.5365       1.4594      58.1506    -999.2500      29.2450    -999.2500    -999.2500    1083.4447       0.1165     173.5894       0.0300     478.9777       0.0863      10.0000       4.6288
   2744.5759       8.5291       1.4509      58.1506    -999.2500      29.9915    -999.2500    -999.2500    1814.6233       0.1228     266.2828       0.0300     276.2007       0.0821      10.0000       4.6288
   2744.7283       8.5085       1.4437      58.1506    -999.2500      29.4428    -999.2500    -999.2500    1798.6328       0.1250     721.4979       0.0300     166.0102       0.0962      10.0000       4.6288
   2744.8806       8.5140       1.4798      58.1506    -999.2500      30.2537    -999.2500    -999.2500    1861.9109       0.1299    1129.0765       0.0304     282.0572       0.1074      10.0000       4.6288
   2745.0330       8.5439       1.4968      58.1506    -999.2500      29.8124    -999.2500    -999.2500    4145.8267       0.1267    1883.0913       0.0310     377.9696       0.1099      10.0000       4.6288
   2745.1855       8.4563       1.4639      58.1506    -999.2500      31.1455    -999.2500    -999.2500    4691.2969       0.1306    1980.6007       0.0320     542.8420       0.1060      10.0000       4.6288
   2745.3379       8.3999       1.4013      58.1506    -999.2500      31.8640    -999.2500    -999.2500    3361.5200       0.1277    1636.2106       0.0316     645.0099       0.1048      10.0000       4.6288
   2745.4902       8.4297       1.3759      58.1506    -999.2500      34.3043    -999.2500    -999.2500    3057.5879       0.1295    1940.5757       0.0317     762.9429       0.1124      10.0000       4.6288
   2745.6426       8.5120       1.4152      58.1506    -999.2500      37.2988    -999.2500    -999.2500    2785.6440       0.1277    1695.6787       0.0307    1561.1797       0.1062      10.0000       4.6288
   2745.7952       8.5272       1.4831      58.1506    -999.2500      37.2590    -999.2500    -999.2500    2495.0774       0.1333    2364.2979       0.0307    1538.9161       0.1104      10.0000       4.6288
   2745.9475       8.5458       1.5412      58.1506    -999.2500      37.0616    -999.2500    -999.2500    2860.3816       0.1298    5561.7266       0.0300    1285.1688       0.1070      10.0000       4.6288
   2746.0999       8.5496       1.5417      58.1506    -999.2500      33.1801    -999.2500    -999.2500    1368.4709       0.1282    2989.9482       0.0304     987.3738       0.1016      10.0000       4.6288
   2746.2522       8.5310       1.5057      58.1506    -999.2500      33.2160    -999.2500    -999.2500     874.1942       0.1276    2558.3877       0.0304    1991.0918       0.0760      10.0000       4.6288
   2746.4048       8.5272       1.4474      58.1506    -999.2500      30.9254    -999.2500    -999.2500     640.2903       0.1275    1913.1991       0.0304      62.2037       0.0496      10.0000       4.6288
   2746.5571       8.5272       1.4042      58.1506    -999.2500      29.5332    -999.2500    -999.2500     531.7980       0.1304     274.0070       0.0300      63.1078       0.0448      10.0000       4.6288
   2746.7095       8.5458       1.3847      58.1506    -999.2500      27.3718    -999.2500    -999.2500     182.6929       0.1344     104.2737       0.0300      73.3892       0.0431      10.0000       4.6288
   2746.8618       8.5310       1.3944      58.1506    -999.2500      26.4710    -999.2500    -999.2500     163.6866       0.1340     125.2329       0.0300      90.5367       0.0496      10.0000       4.6288
   2747.0142       8.5458       1.3960      58.1506    -999.2500      25.1483    -999.2500    -999.2500      98.2271       0.1408      99.8725       0.0300     106.1370       0.0489      10.0000       4.6288
   2747.1667       8.5590       1.3914      58.1506    -999.2500      23.5341    -999.2500    -999.2500     114.6339       0.1399      60.4848       0.0300      40.0433       0.0577      10.0000       4.6288
   2747.3191       8.5702       1.3803      58.1506    -999.2500      22.0117    -999.2500    -999.2500     140.9609       0.1421      99.0062       0.0300      27.7031       0.0569      10.0000       4.6288
   2747.4714       8.5534       1.4187      58.1506    -999.2500      22.2261    -999.2500    -999.2500     158.9754       0.1440     104.9496       0.0300      51.3188       0.0548      10.0000       4.6288
   2747.6238       8.5403       1.4417      58.1506    -999.2500      21.7662    -999.2500    -999.2500     234.0323       0.1408     193.2601       0.0300      83.9363       0.0502      10.0000       4.6288
   2747.7764       8.5477       1.4469      58.1506    -999.2500      20.3780    -999.2500    -999.2500     189.9497       0.1452     142.2659       0.0300      26.4698       0.0472      10.0000       4.6288
   2747.9287       8.5310       1.4330      58.1506    -999.2500      19.7540    -999.2500    -999.2500     244.2451       0.1410     182.8806       0.0301      10.3381       0.0400      10.0000       4.6288
   2748.0811       8.5272       1.4270      58.1506    -999.2500      19.9229    -999.2500    -999.2500     187.7171       0.1424     123.1054       0.0301      10.7625       0.0385      10.0000       4.6288
   2748.2334       8.5272       1.4267      58.1506    -999.2500      21.0021    -999.2500    -999.2500     383.7494       0.1358     202.6267       0.0301      23.6739       0.0430      10.0000       4.6288
   2748.3860       8.5458       1.4270      58.1506    -999.2500      21.1761    -999.2500    -999.2500     271.3151       0.1374     233.3390       0.0305      83.3798       0.0599      10.0000       4.6288
   2748.5383       8.5496       1.4293      58.1506    -999.2500      20.6938    -999.2500    -999.2500     173.6550       0.1345     136.3425       0.0305      69.7319       0.0619      10.0000       4.6288
   2748.6907       8.5310       1.4278      58.1506    -999.2500      20.4281    -999.2500    -999.2500     127.1267       0.1338     140.0428       0.0305      52.8063       0.0698      10.0000       4.6288
   2748.8430       8.5458       1.4125      58.1506    -999.2500      19.9133    -999.2500    -999.2500     108.1125       0.1284     102.3512       0.0300      39.7776       0.0648      10.0000       4.6288
   2748.9954       8.5496       1.4041      58.1506    -999.2500      21.1408    -999.2500    -999.2500     118.7202       0.1313      77.4124       0.0300      47.6479       0.0614      10.0000       4.6288
   2749.1479       8.5496       1.4027      58.1506    -999.2500      20.8299    -999.2500    -999.2500     107.6032       0.1312      80.7254       0.0300      50.5447       0.0539      10.0000       4.6288
   2749.3003       8.5496       1.4152      58.1506    -999.2500      20.6807    -999.2500    -999.2500      96.1822       0.1336      83.8240       0.0300      60.9386       0.0569      10.0000       4.6288
   2749.4526       8.5403       1.4477      58.1506    -999.2500      19.4670    -999.2500    -999.2500      99.2492       0.1258      87.6943       0.0300      58.1081       0.0677      10.0000       4.6288
   2749.6050       8.5477       1.4781      58.1506    -999.2500      19.3950    -999.2500    -999.2500      97.5482       0.1285      90.9205       0.0300      64.0221       0.0685      10.0000       4.6288
   2749.7576       8.5496       1.5035      58.1506    -999.2500      19.4837    -999.2500    -999.2500      96.4238       0.1251     678.0329       0.0300      21.3480       0.0709      10.0000       4.6288
   2749.9099       8.5496       1.4718      58.1506    -999.2500      19.5117    -999.2500    -999.2500     221.8606       0.1202     329.4077       0.0300      37.0152       0.0691      10.0000       4.6288
   2750.0623       8.5310       1.4322      58.1506    -999.2500      19.2340    -999.2500    -999.2500    2317.9185       0.1144     136.9523       0.0300      21.8528       0.0737      10.0000       4.6288
   2750.2146       8.5458       1.3921      58.1506    -999.2500      19.5595    -999.2500    -999.2500      89.8680       0.1127    1000.0549       0.0300     471.2622       0.0769      10.0000       4.6288
