#------------------------------------------------------------------------------
#
#   Created by  : [OpenWorks] Log Export Utility (LEXP)
#   Created on  : 2015-10-01 09:50:16
#   Project     : CANT971
#   User        : R5K
#   Interpreter : PEP
#
#------------------------------------------------------------------------------
~VERSION INFORMATION
VERS. 2.0 : CWLS Log ASCII Standard - version 2.0
WRAP.  NO : One line per depth step
~WELL INFORMATION
#MNEMONIC   .UNIT                                           VALUE :DESCRIPTION
#------------------------------------------------------------------------------
STRT        .M                                           352.7300 :START DEPTH
STOP        .M                                          2346.8840 :STOP DEPTH
STEP        .M                                             0.1524 :STEP
NULL        .                                           -999.2500 :NULL VALUE
COMP        .                                   PEMEX EXPL & PROD :COMPANY
WELL        .                                        CANTARELL-64 :WELL
FLD         .                                           CANTARELL :FIELD
LOC         .                                             UNKNOWN :LOCATION
CNTY        .                                      CD. DEL CARMEN :COUNTY
STAT        .                                            CAMPECHE :STATE
CTRY        .                                              MEXICO :COUNTRY
SRVC        .                                             UNKNOWN :SERVICE COMPANY
DATE        .                                             UNKNOWN :LOG DATE
UWI         .                                          3060000172 :UNIQUE WELL ID
XCOORD      .                                       599695.280000 :SURFACE X
YCOORD      .                                      2143036.290000 :SURFACE Y
LAT         .                                           19.380142 :LATITUDE
LON         .                                          -92.050647 :LONGITUDE
ELEV        .M                                            26.7400 :SURFACE ELEV
ELEV_TYPE   .                                                  KB :ELEV TYPE
~CURVE INFORMATION
#MNEMONIC.UNIT        API CODE       : CURVE DESCRIPTION
#------------------------------------------------------------------------------
DEPTH    .M                          : Measured Depth
CALI     .inches      UNKNOWN        : CALI:UNKNOWN:rC:NONE:v0 (auto-composite)
DRHO     .g/cm3       UNKNOWN        : DRHO:UNKNOWN:rC:NONE:v0 (auto-composite)
DT       .us/ft       UNKNOWN        : DT:DT:rC:NONE:v0 (auto-composite)
GR       .API         UNKNOWN        : GR:GR-Load:rC:NONE:v0 (auto-composite)
ILD      .ohm.m       UNKNOWN        : ILD:ILD-Load:rC:NONE:v0 (auto-composite)
LLD      .ohm.m       UNKNOWN        : LLD:UNKNOWN:rC:NONE:v0 (auto-composite)
LLS      .ohm.m       UNKNOWN        : LLS:UNKNOWN:rC:NONE:v0 (auto-composite)
MSFL     .ohm.m       UNKNOWN        : MSFL:UNKNOWN:rC:NONE:v0 (auto-composite)
NPHI     .v/v_decimal UNKNOWN        : NPHI:NPHI:rC:NONE:v0 (auto-composite)
PEF      .b/elec      UNKNOWN        : PEF:UNKNOWN:rC:NONE:v0 (auto-composite)
RHOB     .g/cm3       UNKNOWN        : RHOB:RHOB-Load:rC:NONE:v0 (auto-composite)
~A     DEPTH        CALI         DRHO           DT           GR          ILD          LLD          LLS         MSFL         NPHI          PEF         RHOB
# ...
   1795.0437      9.0000       0.0000    -999.2500      54.7708    -999.2500       1.8931       2.1505       2.8938      24.7618       0.0000       2.4620 
   1795.1960      9.0000       0.0000    -999.2500      57.9307    -999.2500       1.5521       2.0603       2.7183      26.6642       0.0000       2.4660 
   1795.3484      8.9695       0.0000    -999.2500      58.9566    -999.2500       1.4639       1.9339       2.5872      28.3872       0.0000       2.4730 
   1795.5009      8.9143       0.0000    -999.2500      57.8772    -999.2500       1.5792       1.7785       2.4920      29.9341       0.0000       2.4830 
   1795.6532      8.8900       0.0000    -999.2500      56.2257    -999.2500       1.7562       1.6876       2.4360      30.4205       0.0000       2.4933 
   1795.8057      8.8900       0.0000    -999.2500      54.0098    -999.2500       1.9817       1.6475       2.4109      29.8671       0.0000       2.5038 
   1795.9580      8.9041       0.0000    -999.2500      52.3069    -999.2500       2.0998       1.6526       2.3349      28.7098       0.0000       2.5150 
   1796.1105      8.9292       0.0000    -999.2500      51.1104    -999.2500       2.1349       1.6927       2.2196      26.9604       0.0000       2.5270 
   1796.2628      8.9771       0.0000    -999.2500      50.2249    -999.2500       2.2500       1.7928       2.2928      25.0040       0.0000       2.5383 
   1796.4153      9.0423       0.0000    -999.2500      49.6464    -999.2500       2.4255       1.9382       2.5084      22.8445       0.0000       2.5488 
   1796.5676      9.1104       0.0000    -999.2500      48.9595    -999.2500       2.8056       2.0288       2.6750      20.9665       0.0000       2.5580 
   1796.7201      9.1805       0.0000    -999.2500      48.1656    -999.2500       3.3368       2.0789       2.8053      19.3645       0.0000       2.5660 
   1796.8724      9.1548       0.0000    -999.2500      47.2247    -999.2500       3.5048       2.3268       3.5695      17.0644       0.0000       2.5690 
   1797.0249      9.0595       0.0000    -999.2500      46.1388    -999.2500       3.4095       2.7179       4.7929      14.0790       0.0000       2.5670 
   1797.1772      9.0787       0.0000    -999.2500      45.6000    -999.2500       2.9062       2.8242       6.7091      13.3412       0.0000       2.5622 
   1797.3296      9.1790       0.0000    -999.2500      45.6000    -999.2500       2.1140       2.7290       9.1158      14.8102       0.0000       2.5547 
   1797.4821      9.2200       0.0000    -999.2500      45.7856    -999.2500       1.6419       2.4264       9.0780      17.0261       0.0000       2.5450 
   1797.6344      9.2200       0.0000    -999.2500      46.1541    -999.2500       1.3913       1.9803       7.3489      19.9755       0.0000       2.5330 
   1797.7869      9.2200       0.0000    -999.2500      47.1151    -999.2500       1.3647       1.6984       5.6642      22.3387       0.0000       2.5195 
   1797.9392      9.2200       0.0000    -999.2500      48.6601    -999.2500       1.4900       1.5280       4.0096      24.1261       0.0000       2.5045 
   1798.0917      9.2200       0.0000    -999.2500      51.2331    -999.2500       1.5912       1.4419       3.2053      25.3228       0.0000       2.4902 
   1798.2440      9.2200       0.0000    -999.2500      54.8195    -999.2500       1.6764       1.4118       2.9648      25.9391       0.0000       2.4767 
   1798.3965      9.2534       0.0000    -999.2500      55.8195    -999.2500       1.7525       1.4699       2.8244      26.3905       0.0000       2.4700 
   1798.5488      9.3086       0.0000    -999.2500      54.2696    -999.2500       1.8227       1.5852       2.7492      26.6805       0.0000       2.4700 
   1798.7013      9.3300       0.0000    -999.2500      53.5551    -999.2500       1.8163       1.6208       2.5452      27.1500       0.0000       2.4690 
   1798.8536      9.3300       0.0000    -999.2500      53.6646    -999.2500       1.7611       1.6058       2.2594      27.7955       0.0000       2.4670 
   1799.0060      9.3517       0.0000    -999.2500      53.7897    -999.2500       1.6936       1.5412       2.1933      28.5687       0.0000       2.4557 
   1799.1584      9.3867       0.0000    -999.2500      53.9302    -999.2500       1.6184       1.4460       2.2635      29.4672       0.0000       2.4352 
   1799.3108      9.3844       0.0000    -999.2500      53.9446    -999.2500       1.4933       1.3663       2.2152      30.5379       0.0000       2.3785 
   1799.4633      9.3593       0.0000    -999.2500      53.8346    -999.2500       1.3379       1.2962       2.0948      31.7773       0.0000       2.2860 
   1799.6156      9.3060       0.0000    -999.2500      53.1056    -999.2500       1.2926       1.1945       2.0060      32.7719       0.0000       2.2634 
   1799.7681      9.2358       0.0000    -999.2500      51.7657    -999.2500       1.3126       1.0742       1.9358      33.5264       0.0000       2.3099 
   1799.9204      9.1339       0.0000    -999.2500      51.1669    -999.2500       1.3327       1.0554       1.9671      34.1272       0.0000       2.3669 
   1800.0729      9.0136       0.0000    -999.2500      51.2999    -999.2500       1.3527       1.0955       2.0573      34.5772       0.0000       2.4344 
   1800.2252      8.9444       0.0000    -999.2500      51.8525    -999.2500       1.5550       1.2283       2.1667      33.7208       0.0000       2.4758 
   1800.3777      8.9043       0.0000    -999.2500      52.8195    -999.2500       1.8609       1.4138       2.2871      31.5829       0.0000       2.4913 
   1800.5300      8.9158       0.0000    -999.2500      53.2102    -999.2500       2.1763       1.6122       2.3042      28.0450       0.0000       2.5118 
   1800.6825      8.9559       0.0000    -999.2500      53.0316    -999.2500       2.4971       1.8177       2.2641      23.1331       0.0000       2.5373 
   1800.8348      8.9797       0.0000    -999.2500      52.6848    -999.2500       2.5645       1.9582       2.3507      20.9031       0.0000       2.5467 
   1800.9872      8.9948       0.0000    -999.2500      52.1723    -999.2500       2.4943       2.0635       2.5062      21.3056       0.0000       2.5402 
   1801.1396      9.0000       0.0000    -999.2500      51.5676    -999.2500       2.3619       2.0967       2.6190      22.6390       0.0000       2.5252 
   1801.2920      9.0000       0.0000    -999.2500      50.8722    -999.2500       2.1964       2.0917       2.7092      24.8864       0.0000       2.5017 
   1801.4445      8.9868       0.0000    -999.2500      50.0132    -999.2500       2.0871       2.0074       2.4823      25.8300       0.0000       2.4923 
   1801.5968      8.9667       0.0000    -999.2500      48.9933    -999.2500       2.0070       1.8821       2.0914      25.4930       0.0000       2.4968 
   1801.7493      8.9367       0.0000    -999.2500      47.6573    -999.2500       2.4959       1.8500       2.0698      23.7380       0.0000       2.5093 
   1801.9016      8.9016       0.0000    -999.2500      46.0098    -999.2500       3.2731       1.8650       2.2353      20.5901       0.0000       2.5298 
   1802.0541      8.8900       0.0000    -999.2500      44.0240    -999.2500       3.6273       2.3231       2.7364      16.4491       0.0000       2.5387 
   1802.2064      8.8900       0.0000    -999.2500      41.7045    -999.2500       3.7727       3.0000       3.4032      11.3322       0.0000       2.5362 
   1802.3589      8.8900       0.0000    -999.2500      39.3312    -999.2500       3.4005       3.5143       3.3697      10.0499       0.0000       2.5287 
   1802.5112      8.8900       0.0000    -999.2500      36.9048    -999.2500       2.7791       3.9503       2.9988      12.5243       0.0000       2.5162 
   1802.6637      8.9173       0.0000    -999.2500      36.9146    -999.2500       2.3517       3.8685       3.6536      15.7346       0.0000       2.5100 
   1802.8160      8.9574       0.0000    -999.2500      39.3270    -999.2500       2.0157       3.5426       4.7917      19.6660       0.0000       2.5100 
