#------------------------------------------------------------------------------
#
#   Created by  : [OpenWorks] Log Export Utility (LEXP)
#   Created on  : 2016-05-23 11:50:37
#   Project     : CANT971
#   User        : R5K
#   Interpreter : PEP
#
#------------------------------------------------------------------------------
~VERSION INFORMATION
VERS. 2.0 : CWLS Log ASCII Standard - version 2.0
WRAP.  NO : One line per depth step
~WELL INFORMATION
#MNEMONIC   .UNIT                                           VALUE :DESCRIPTION
#------------------------------------------------------------------------------
STRT        .M                                           690.6770 :START DEPTH
STOP        .M                                          3400.6538 :STOP DEPTH
STEP        .M                                             0.1524 :STEP
NULL        .                                           -999.2500 :NULL VALUE
COMP        .                                   PEMEX EXPL & PROD :COMPANY
WELL        .                                                1024 :WELL
FLD         .                                           CANTARELL :FIELD
LOC         .                                             UNKNOWN :LOCATION
CNTY        .                                      CD. DEL CARMEN :COUNTY
STAT        .                                            CAMPECHE :STATE
CTRY        .                                              MEXICO :COUNTRY
SRVC        .                                             UNKNOWN :SERVICE COMPANY
DATE        .                                             UNKNOWN :LOG DATE
UWI         .                                          3060000490 :UNIQUE WELL ID
XCOORD      .                                       596162.640000 :SURFACE X
YCOORD      .                                      2150611.280000 :SURFACE Y
LAT         .                                           19.448767 :LATITUDE
LON         .                                          -92.083900 :LONGITUDE
ELEV        .M                                            30.0000 :SURFACE ELEV
ELEV_TYPE   .                                                  KB :ELEV TYPE
~CURVE INFORMATION
#MNEMONIC.UNIT        API CODE       : CURVE DESCRIPTION
#------------------------------------------------------------------------------
DEPTH    .M                          : Measured Depth
CALI     .inches      UNKNOWN        : CALI:registros:rC:NONE:v0 (auto-composite)
DRHO     .g/cm3       UNKNOWN        : DRHO:registros:rC:NONE:v0 (auto-composite)
DT       .us/ft       UNKNOWN        : DT:registros:rC:NONE:v0 (auto-composite)
GR       .API         UNKNOWN        : GR:registros:rC:NONE:v0 (auto-composite)
ILD      .ohm.m       UNKNOWN        : ILD:registros:rC:NONE:v0 (auto-composite)
ILM      .ohm.m       UNKNOWN        : ILM:registros:rC:NONE:v0 (auto-composite)
LLD      .ohm.m       UNKNOWN        : LLD:registros:rC:NONE:v0 (auto-composite)
LLS      .ohm.m       UNKNOWN        : LLS:registros:rC:NONE:v0 (auto-composite)
MSFL     .ohm.m       UNKNOWN        : MSFL:registros:rC:NONE:v0 (auto-composite)
NPHI     .v/v_decimal UNKNOWN        : NPHI:registros:rC:NONE:v0 (auto-composite)
PEF      .b/elec      UNKNOWN        : PEF:registros:rC:NONE:v0 (auto-composite)
RHOB     .g/cm3       UNKNOWN        : RHOB:registros:rC:NONE:v0 (auto-composite)
~A     DEPTH         CALI         DRHO           DT           GR          ILD          ILM          LLD          LLS         MSFL         NPHI          PEF         RHOB
# ...
   3177.8450       9.7240      -0.3200      91.0000      41.6360    -999.2500    -999.2500       0.6700       1.3560       1.5730       0.2293       6.9670       2.1460
   3177.9973      10.2135      -0.1921      89.2268      42.4640    -999.2500    -999.2500       1.0931       2.3449       2.1494       0.2525       5.8027       2.0906
   3178.1499      10.7040      -0.0640      87.4500      43.2870    -999.2500    -999.2500       1.5170       3.3310       2.7260       0.2728       4.6360       2.0350
   3178.3022      11.1114       0.0220      82.3606      43.5894    -999.2500    -999.2500       1.8471       3.7115       2.7115       0.2883       4.2396       2.0570
   3178.4546      11.5190       0.1080      77.2600      43.8900    -999.2500    -999.2500       2.1780       4.0910       2.6970       0.3057       3.8430       2.0790
   3178.6069      11.3751       0.1470      77.5577      44.0911    -999.2500    -999.2500       2.4667       4.2532       2.8380       0.3327       3.8545       2.1365
   3178.7595      11.2310       0.1860      77.8560      44.2910    -999.2500    -999.2500       2.7560       4.4150       2.9790       0.3550       3.8660       2.1940
   3178.9119      10.9586       0.2000      74.8042      43.7405    -999.2500    -999.2500       3.3418       4.9501       3.1524       0.3550       4.0909       2.2935
   3179.0642      10.6860       0.2140      71.7450      43.1930    -999.2500    -999.2500       3.9290       5.4840       3.3260       0.3438       4.3160       2.3930
   3179.2166      10.7270       0.2230      73.1422      43.3615    -999.2500    -999.2500       3.9095       5.4099       3.4110       0.3242       4.2220       2.3925
   3179.3689      10.7680       0.2320      74.5430      43.5290    -999.2500    -999.2500       3.8900       5.3360       3.4960       0.3030       4.1280       2.3920
   3179.5215      11.1223       0.2370      74.0052      44.9167    -999.2500    -999.2500       3.6743       5.0249       3.3511       0.2860       3.8536       2.3905
   3179.6738      11.4770       0.2420      73.4660      46.2970    -999.2500    -999.2500       3.4580       4.7150       3.2060       0.2749       3.5790       2.3890
   3179.8262      12.2041       0.2280      75.8966      48.6179    -999.2500    -999.2500       3.2987       4.4450       3.0780       0.2762       3.5815       2.3815
   3179.9785      12.9320       0.2140      78.3340      50.9230    -999.2500    -999.2500       3.1390       4.1760       2.9500       0.2822       3.5840       2.3740
   3180.1311      13.7320       0.1925      80.4434      52.5705    -999.2500    -999.2500       3.2868       4.3483       2.9975       0.2889       3.6100       2.3515
   3180.2834      14.5330       0.1710      82.5590      54.2070    -999.2500    -999.2500       3.4350       4.5200       3.0450       0.2920       3.6360       2.3290
   3180.4358      14.4116       0.1610      80.0613      55.2474    -999.2500    -999.2500       3.7041       4.8170       3.0965       0.2850       3.7054       2.3020
   3180.5881      14.2900       0.1510      77.5560      56.2810    -999.2500    -999.2500       3.9740       5.1130       3.1480       0.2725       3.7750       2.2750
   3180.7407      13.7804       0.1560      74.3106      57.5616    -999.2500    -999.2500       4.1838       5.3469       3.1845       0.2550       3.9379       2.2885
   3180.8931      13.2700       0.1610      71.0600      58.8340    -999.2500    -999.2500       4.3940       5.5800       3.2210       0.2367       4.1010       2.3020
   3181.0454      12.6895       0.1685      71.1854      59.9375    -999.2500    -999.2500       4.6468       5.5560       3.1745       0.2213       4.2429       2.3330
   3181.1978      12.1080       0.1760      71.3110      61.0340    -999.2500    -999.2500       4.9000       5.5320       3.1280       0.2101       4.3850       2.3640
   3181.3501      11.8308       0.1855      71.1387      61.3901    -999.2500    -999.2500       5.9211       5.5020       3.1415       0.2076       4.3281       2.3945
   3181.5027      11.5530       0.1950      70.9660      61.7440    -999.2500    -999.2500       6.9440       5.4720       3.1550       0.2081       4.2710       2.4250
   3181.6550      11.3612       0.1925      70.6933      61.3227    -999.2500    -999.2500       7.7237       5.4475       3.2455       0.2077       4.2001       2.4185
   3181.8074      11.1690       0.1900      70.4200      60.9040    -999.2500    -999.2500       8.5050       5.4230       3.3360       0.2068       4.1290       2.4120
   3181.9597      11.1850       0.1830      70.0344      59.8043    -999.2500    -999.2500       7.6774       5.4395       3.4500       0.2054       4.0591       2.4075
   3182.1123      11.2010       0.1760      69.6480      58.7110    -999.2500    -999.2500       6.8480       5.4560       3.5640       0.2035       3.9890       2.4030
   3182.2646      11.3025       0.1805      69.0841      56.9163    -999.2500    -999.2500       6.1458       5.5341       3.7279       0.2003       3.9500       2.4115
   3182.4170      11.4040       0.1850      68.5190      55.1320    -999.2500    -999.2500       5.4420       5.6120       3.8920       0.1961       3.9110       2.4200
   3182.5693      11.3860       0.1950      68.0301      55.2528    -999.2500    -999.2500       5.5214       5.7286       4.0080       0.1898       3.8930       2.4410
   3182.7219      11.3680       0.2050      67.5400      55.3730    -999.2500    -999.2500       5.6010       5.8450       4.1240       0.1823       3.8750       2.4620
   3182.8743      11.2600       0.2105      67.1240      55.8152    -999.2500    -999.2500       5.6864       5.9266       4.0595       0.1733       3.8590       2.4580
   3183.0266      11.1520       0.2160      66.7070      56.2550    -999.2500    -999.2500       5.7720       6.0080       3.9950       0.1645       3.8430       2.4540
   3183.1790      11.1795       0.2230      66.7200      56.0399    -999.2500    -999.2500       5.8199       6.0486       4.1114       0.1576       3.8660       2.4635
   3183.3313      11.2070       0.2300      66.7330      55.8260    -999.2500    -999.2500       5.8680       6.0890       4.2280       0.1530       3.8890       2.4730
   3183.4839      11.3179       0.2480      66.6546      55.9293    -999.2500    -999.2500       5.9000       6.1045       4.6003       0.1532       4.0609       2.5010
   3183.6362      11.4290       0.2660      66.5760      56.0320    -999.2500    -999.2500       5.9320       6.1200       4.9730       0.1548       4.2330       2.5290
   3183.7886      11.3446       0.2660      66.4427      56.3561    -999.2500    -999.2500       5.8376       6.0328       4.9520       0.1561       4.5908       2.5475
   3183.9409      11.2600       0.2660      66.3090      56.6780    -999.2500    -999.2500       5.7430       5.9460       4.9310       0.1567       4.9490       2.5660
   3184.0935      11.0252       0.2545      66.4338      57.3768    -999.2500    -999.2500       5.5718       5.7687       4.7190       0.1554       4.8276       2.5395
   3184.2458      10.7900       0.2430      66.5590      58.0710    -999.2500    -999.2500       5.4000       5.5920       4.5070       0.1540       4.7060       2.5130
   3184.3982      10.9354       0.2350      67.6478      58.8445    -999.2500    -999.2500       5.2882       5.4668       4.2635       0.1537       4.4862       2.4725
   3184.5505      11.0810       0.2270      68.7400      59.6130    -999.2500    -999.2500       5.1760       5.3420       4.0200       0.1546       4.2660       2.4320
   3184.7029      11.3168       0.2255      68.2249      59.5628    -999.2500    -999.2500       5.2110       5.3851       4.1680       0.1577       4.0911       2.4150
   3184.8555      11.5530       0.2240      67.7090      59.5130    -999.2500    -999.2500       5.2460       5.4280       4.3160       0.1616       3.9160       2.3980
   3185.0078      11.4561       0.2160      67.8724      59.5807    -999.2500    -999.2500       5.1781       5.3629       4.5420       0.1658       3.9250       2.3920
