#------------------------------------------------------------------------------
#
#   Created by  : [OpenWorks] Log Export Utility (LEXP)
#   Created on  : 2016-05-23 11:55:51
#   Project     : CANT971
#   User        : R5K
#   Interpreter : PEP
#
#------------------------------------------------------------------------------
~VERSION INFORMATION
VERS. 2.0 : CWLS Log ASCII Standard - version 2.0
WRAP.  NO : One line per depth step
~WELL INFORMATION
#MNEMONIC   .UNIT                                           VALUE :DESCRIPTION
#------------------------------------------------------------------------------
STRT        .M                                           490.1183 :START DEPTH
STOP        .M                                          2794.5586 :STOP DEPTH
STEP        .M                                             0.1524 :STEP
NULL        .                                           -999.2500 :NULL VALUE
COMP        .                                   PEMEX EXPL & PROD :COMPANY
WELL        .                                                  41 :WELL
FLD         .                                           CANTARELL :FIELD
LOC         .                                             UNKNOWN :LOCATION
CNTY        .                                      CD. DEL CARMEN :COUNTY
STAT        .                                            CAMPECHE :STATE
CTRY        .                                              MEXICO :COUNTRY
SRVC        .                                             UNKNOWN :SERVICE COMPANY
DATE        .                                             UNKNOWN :LOG DATE
UWI         .                                          3060000463 :UNIQUE WELL ID
XCOORD      .                                       601713.000000 :SURFACE X
YCOORD      .                                      2142348.040000 :SURFACE Y
LAT         .                                           19.373822 :LATITUDE
LON         .                                          -92.031472 :LONGITUDE
ELEV        .M                                            24.0000 :SURFACE ELEV
ELEV_TYPE   .                                                  KB :ELEV TYPE
~CURVE INFORMATION
#MNEMONIC.UNIT        API CODE       : CURVE DESCRIPTION
#------------------------------------------------------------------------------
DEPTH    .M                          : Measured Depth
CALI     .inches      UNKNOWN        : CALI:Import:rC:NONE:v0 (auto-composite)
DRHO     .g/cm3       UNKNOWN        : DRHO:Import:rC:NONE:v0 (auto-composite)
DT       .us/ft       UNKNOWN        : DT:Import:rC:NONE:v0 (auto-composite)
GR       .API         UNKNOWN        : GR:Import:rC:NONE:v0 (auto-composite)
ILD      .ohm.m       UNKNOWN        : ILD:Import:rC:NONE:v0 (auto-composite)
LLD      .ohm.m       UNKNOWN        : LLD:Import:rC:NONE:v0 (auto-composite)
LLS      .ohm.m       UNKNOWN        : LLS:Import:rC:NONE:v0 (auto-composite)
NPHI     .v/v_decimal UNKNOWN        : NPHI:Import:rC:NONE:v0 (auto-composite)
PEF      .b/elec      UNKNOWN        : PEF:Import:rC:NONE:v0 (auto-composite)
RHOB     .g/cm3       UNKNOWN        : RHOB:Import:rC:NONE:v0 (auto-composite)
~A     DEPTH         CALI         DRHO           DT           GR          ILD          LLD          LLS         NPHI          PEF         RHOB
# ...
   2495.7024       8.7780       0.0840      52.3130      54.7630    -999.2500     778.7290     388.3050       0.0328       3.2250       2.7590
   2495.8547       8.7780       0.0730      52.3130      50.4607    -999.2500     730.8706     378.2930       0.0337       3.4415       2.7685
   2496.0071       8.7780       0.0620      52.3130      46.1640    -999.2500     682.9980     368.2780       0.0364       3.6580       2.7780
   2496.1594       8.7780       0.0520      53.0059      48.8531    -999.2500     619.4689     345.6873       0.0395       3.7380       2.7825
   2496.3118       8.7780       0.0420      53.6990      51.5390    -999.2500     555.9130     323.0870       0.0442       3.8180       2.7870
   2496.4644       8.7510       0.0350      54.4788      70.3084    -999.2500     471.1474     284.9550       0.0524       3.4673       2.7700
   2496.6167       8.7240       0.0280      55.2590      89.0580    -999.2500     386.4710     246.8020       0.0614       3.1170       2.7530
   2496.7690       8.6960       0.0315      58.1400      97.9751    -999.2500     287.3396     192.8852       0.0692       3.0455       2.7370
   2496.9214       8.6680       0.0350      61.0230     106.8840    -999.2500     188.3000     138.9320       0.0774       2.9740       2.7210
   2497.0740       8.7660       0.0340      61.3864     106.8365    -999.2500     121.2926     101.6584       0.0883       2.9870       2.7110
   2497.2263       8.8640       0.0330      61.7500     106.7890    -999.2500      54.3390      64.3550       0.0988       3.0000       2.7010
   2497.3787       8.8760       0.0350      59.2252      98.7143    -999.2500      49.4028      49.9007       0.1058       2.8915       2.7070
   2497.5310       8.8880       0.0370      56.6980      90.6450    -999.2500      44.4700      35.4330       0.1068       2.7830       2.7130
   2497.6836       8.8885       0.0385      56.3959      77.0553    -999.2500      94.1742      49.4619       0.0971       2.8020       2.7275
   2497.8359       8.8890       0.0400      56.0940      63.4730    -999.2500     143.8510      63.4830       0.0835       2.8210       2.7420
   2497.9883       8.8890       0.0450      56.2190      56.8688    -999.2500     224.0851      88.5183       0.0713       2.9180       2.7290
   2498.1406       8.8890       0.0500      56.3440      50.2780    -999.2500     304.2850     113.5430       0.0605       3.0150       2.7160
   2498.2930       8.8890       0.0455      55.3253      48.6394    -999.2500     397.3980     145.0657       0.0514       3.0605       2.7310
   2498.4456       8.8890       0.0410      54.3070      47.0040    -999.2500     490.4830     176.5790       0.0443       3.1060       2.7460
   2498.5979       8.8890       0.0370      54.1380      42.0246    -999.2500     568.3223     189.1596       0.0400       3.1605       2.7635
   2498.7502       8.8890       0.0330      53.9690      37.0540    -999.2500     646.1480     201.7380       0.0379       3.2150       2.7810
   2498.9026       8.8890       0.0360      59.0106      35.1249    -999.2500     709.2626     229.7612       0.0378       3.2185       2.7835
   2499.0552       8.8890       0.0390      64.0520      33.1990    -999.2500     772.3740     257.7830       0.0391       3.2220       2.7860
   2499.2075       8.8890       0.0525      79.3689      31.9345    -999.2500     784.3470     279.3047       0.0417       3.2220       2.7885
   2499.3599       8.8890       0.0660      94.6870      30.6720    -999.2500     796.3210     300.8280       0.0445       3.2220       2.7910
   2499.5122       8.8890       0.0795      92.8032      30.1877    -999.2500     740.2632     277.4469       0.0469       3.2220       2.7840
   2499.6648       8.8890       0.0930      90.9190      29.7040    -999.2500     684.1940     254.0610       0.0479       3.2220       2.7770
   2499.8171       8.8890       0.0965      88.3524      30.3529    -999.2500     667.5312     232.9820       0.0464       3.2220       2.7750
   2499.9695       8.8890       0.1000      85.7850      31.0010    -999.2500     650.8630     211.8960       0.0438       3.2220       2.7730
   2500.1218       8.8890       0.0870      84.5428      29.8994    -999.2500     715.5668     216.5085       0.0417       3.2220       2.7885
   2500.2742       8.8890       0.0740      83.3000      28.7990    -999.2500     780.3000     221.1230       0.0398       3.2220       2.8040
   2500.4268       8.8890       0.0590      68.8002      28.1071    -999.2500     880.9044     257.5074       0.0383       3.2220       2.8240
   2500.5791       8.8890       0.0440      54.2920      27.4160    -999.2500     981.4060     293.9130       0.0373       3.2220       2.8440
   2500.7314       8.8890       0.0455      52.6296      28.6626    -999.2500    1103.6608     355.4958       0.0370       3.2220       2.8605
   2500.8838       8.8890       0.0470      50.9660      29.9080    -999.2500    1225.8060     417.1220       0.0370       3.2220       2.8770
   2501.0364       8.8890       0.0560      50.8660      31.0249    -999.2500    1398.2756     503.3552       0.0371       3.2160       2.8555
   2501.1887       8.8890       0.0650      50.7660      32.1410    -999.2500    1570.6121     589.6600       0.0379       3.2100       2.8340
   2501.3411       8.8890       0.0630      50.9379      31.0376    -999.2500    1782.9666     584.7908       0.0401       3.0620       2.8120
   2501.4934       8.8890       0.0610      51.1100      29.9350    -999.2500    1995.1840     579.9170       0.0423       2.9140       2.7900
   2501.6460       8.8890       0.0585      51.9047      29.0793    -999.2500    2057.9482     536.0651       0.0430       3.0515       2.7880
   2501.7983       8.8890       0.0560      52.6990      28.2240    -999.2500    2120.6799     492.2360       0.0426       3.1890       2.7860
   2501.9507       8.8905       0.0530      53.2871      30.8421    -999.2500    1927.5698     479.5080       0.0415       3.1295       2.7970
   2502.1030       8.8920       0.0500      53.8750      33.4550    -999.2500    1734.5360     466.7850       0.0401       3.0700       2.8080
   2502.2554       8.9280       0.0435      53.5470      40.2063    -999.2500    1567.9276     489.7426       0.0386       3.1960       2.8060
   2502.4080       8.9640       0.0370      53.2190      46.9450    -999.2500    1401.3640     512.6940       0.0374       3.3220       2.8040
   2502.5603       8.9785       0.0330      53.8910      52.4308    -999.2500    1433.4468     536.5962       0.0370       3.5815       2.8050
   2502.7126       8.9930       0.0290      54.5630      57.9070    -999.2500    1465.5250     560.4950       0.0370       3.8410       2.8060
   2502.8650       8.9430       0.0310      53.6140      56.1451    -999.2500    1587.6141     633.6127       0.0370       3.9330       2.8075
   2503.0176       8.8930       0.0330      52.6650      54.3860    -999.2500    1709.7010     706.7290       0.0365       4.0250       2.8090
   2503.1699       8.8895       0.0330      51.3386      50.2044    -999.2500    1944.0869     796.0132       0.0351       3.7685       2.8045
   2503.3223       8.8860       0.0330      50.0120      46.0290    -999.2500    2178.4980     885.3070       0.0330       3.5120       2.8000
   2503.4746       8.8560       0.0365      49.1701      42.3465    -999.2500    2282.0564     864.1454       0.0303       3.3670       2.8030
   2503.6272       8.8260       0.0400      48.3280      38.6690    -999.2500    2385.6389     842.9790       0.0286       3.2220       2.8060
   2503.7795       8.8025       0.0490      48.9259      39.5510    -999.2500    2267.7356     755.2217       0.0296       3.2220       2.8060
   2503.9319       8.7790       0.0580      49.5240      40.4320    -999.2500    2149.7900     667.4330       0.0319       3.2220       2.8060
   2504.0842       8.7730       0.0640      50.9452      47.9382    -999.2500    1869.5719     596.9756       0.0343       3.2110       2.8015
