#------------------------------------------------------------------------------
#
#   Created by  : [OpenWorks] Log Export Utility (LEXP)
#   Created on  : 2016-05-23 11:52:56
#   Project     : CANT971
#   User        : R5K
#   Interpreter : PEP
#
#------------------------------------------------------------------------------
~VERSION INFORMATION
VERS. 2.0 : CWLS Log ASCII Standard - version 2.0
WRAP.  NO : One line per depth step
~WELL INFORMATION
#MNEMONIC   .UNIT                                           VALUE :DESCRIPTION
#------------------------------------------------------------------------------
STRT        .M                                           340.6189 :START DEPTH
STOP        .M                                          3243.0769 :STOP DEPTH
STEP        .M                                             0.1524 :STEP
NULL        .                                           -999.2500 :NULL VALUE
COMP        .                                   PEMEX EXPL & PROD :COMPANY
WELL        .                                                2098 :WELL
FLD         .                                           CANTARELL :FIELD
LOC         .                                             UNKNOWN :LOCATION
CNTY        .                                      CD. DEL CARMEN :COUNTY
STAT        .                                            CAMPECHE :STATE
CTRY        .                                              MEXICO :COUNTRY
SRVC        .                                             UNKNOWN :SERVICE COMPANY
DATE        .                                             UNKNOWN :LOG DATE
UWI         .                                          3060000229 :UNIQUE WELL ID
XCOORD      .                                       599692.800000 :SURFACE X
YCOORD      .                                      2143031.510000 :SURFACE Y
LAT         .                                           19.380099 :LATITUDE
LON         .                                          -92.050671 :LONGITUDE
ELEV        .M                                            26.7400 :SURFACE ELEV
ELEV_TYPE   .                                                  KB :ELEV TYPE
~CURVE INFORMATION
#MNEMONIC.UNIT        API CODE       : CURVE DESCRIPTION
#------------------------------------------------------------------------------
DEPTH    .M                          : Measured Depth
CALI     .inches      UNKNOWN        : CALI:litodensidad:rC:NONE:v0 (auto-composite)
CGR      .API         UNKNOWN        : CGR:Espectrometria:rC:NONE:v0 (auto-composite)
DRHO     .g/cm3       UNKNOWN        : DRHO:litodensidad:rC:NONE:v0 (auto-composite)
DT       .us/ft       UNKNOWN        : DT:DT-Load:rC:NONE:v0 (auto-composite)
GR       .API         UNKNOWN        : GR:GR-load:rC:NONE:v0 (auto-composite)
ILD      .UNKNOWN     UNKNOWN        : ILD:resistivos:rC:NONE:v0 (auto-composite)
LLD      .ohm.m       UNKNOWN        : LLD:resistivos:rC:NONE:v0 (auto-composite)
LLS      .UNKNOWN     UNKNOWN        : LLS:resistivos:rC:NONE:v0 (auto-composite)
MSFL     .UNKNOWN     UNKNOWN        : MSFL:resistivos:rC:NONE:v0 (auto-composite)
NPHI     .v/v_decimal UNKNOWN        : NPHI:porosidad:rC:NONE:v0 (auto-composite)
PEF      .UNKNOWN     UNKNOWN        : PEF:litodensidad:rC:NONE:v0 (auto-composite)
POTA     .UNKNOWN     UNKNOWN        : POTA:Espectrometria:rC:NONE:v0 (auto-composite)
RHOB     .UNKNOWN     UNKNOWN        : RHOB:litodensidad:rC:NONE:v0 (auto-composite)
THOR     .ppm         UNKNOWN        : THOR:Espectrometria:rC:NONE:v0 (auto-composite)
URAN     .ppm         UNKNOWN        : URAN:Espectrometria:rC:NONE:v0 (auto-composite)
~A     DEPTH         CALI          CGR         DRHO           DT           GR          ILD          LLD          LLS         MSFL         NPHI          PEF         POTA         RHOB         THOR         URAN
# ...
   3050.9004       6.4669       4.5795       0.0132      54.0731       4.5454    -999.2500     658.2776     477.7215     143.5068       0.0186       4.9747       0.0020       2.6323       0.1198      -0.0034
   3051.0530       6.4781       3.2529       0.0112      54.5469       4.8071    -999.2500     692.1970     502.4315     210.5137       0.0175       5.2233       0.0011       2.6273       0.2300       0.1541
   3051.2053       6.4758       1.9256       0.0133      54.2767       3.3701    -999.2500     747.8291     544.1032     210.9574       0.0167       5.3731       0.0007       2.6358       0.1165       0.1432
   3051.3577       6.4774       2.7122       0.0146      54.1105       3.2060    -999.2500     816.2558     591.3861     112.5289       0.0171       5.4748       0.0016       2.6405      -0.1041       0.0490
   3051.5100       6.4883       1.7875       0.0146      54.2636       3.0655    -999.2500     843.8835     614.8961     137.0235       0.0169       5.6821       0.0011       2.6499      -0.0630       0.1267
   3051.6624       6.4893       1.2261       0.0145      54.3202       3.8531    -999.2500     854.0734     624.7758      85.0409       0.0162       5.7664       0.0006       2.6511       0.0265       0.2605
   3051.8149       6.4878       0.5397       0.0133      54.1973       3.4596    -999.2500     803.6560     592.8636      71.6781       0.0155       5.4667       0.0003       2.6473      -0.0131       0.2895
   3051.9673       6.4691       0.6885       0.0111      54.0526       3.9558    -999.2500     716.4921     540.1584     262.3900       0.0156       5.3078       0.0003       2.6334       0.0345       0.3239
   3052.1196       6.4380       0.1865       0.0126      53.9771       2.8632    -999.2500     668.4750     507.4439     127.8151       0.0170       5.2366       0.0003       2.6369      -0.0737       0.2654
   3052.2720       6.4378       1.4704       0.0130      53.8725       4.7073    -999.2500     647.5167     492.4645     106.8241       0.0183       5.1755       0.0007       2.6270       0.0348       0.3209
   3052.4246       6.4468       0.6310       0.0116      53.8015       3.8331    -999.2500     649.8515     496.3191      71.8238       0.0189       5.0606       0.0001       2.6205       0.0685       0.3175
   3052.5769       6.4609       1.5496       0.0121      54.3952       3.3714    -999.2500     695.3769     535.0236    1695.4254       0.0196       5.0626       0.0009       2.6118      -0.0497       0.1806
   3052.7292       6.4574       4.5331       0.0122      54.1422       5.1410    -999.2500     703.5248     546.0716     430.5805       0.0199       5.3160       0.0010       2.6174       0.5343       0.0603
   3052.8816       6.4600       4.5588       0.0093      54.2122       5.4497    -999.2500     782.7477     609.6360     934.7451       0.0194       5.5152       0.0007       2.6256       0.6327       0.0883
   3053.0342       6.4626       2.5549       0.0085      54.2123       3.0548    -999.2500     834.1402     647.9385     140.4433       0.0185       5.4759       0.0010       2.6305       0.1216       0.0496
   3053.1865       6.4864       3.2148       0.0098      55.2126       3.5947    -999.2500     843.5033     655.8546      79.6858       0.0176       5.4677       0.0013       2.6320       0.1472       0.0377
   3053.3389       6.4813       3.1048       0.0096      52.9861       3.7369    -999.2500     843.6316     655.9360     133.1056       0.0178       5.4135       0.0006       2.6315       0.3753       0.0627
   3053.4912       6.4651       2.6501       0.0083      52.7071       3.5373    -999.2500     748.5565     582.3882      87.2779       0.0179       5.6712       0.0008       2.6239       0.2080       0.0880
   3053.6436       6.4622       4.0902       0.0099      52.8577       5.1243    -999.2500     583.5532     460.4594      22.6959       0.0192       5.4073       0.0021       2.6192      -0.0260       0.1025
   3053.7961       6.4614       2.5545       0.0084      52.6676       3.8585    -999.2500     583.0455     464.2531      28.7119       0.0203       5.3464       0.0013       2.6094      -0.0119       0.1293
   3053.9485       6.4605       2.7770       0.0076      52.5384       4.1915    -999.2500     600.8334     477.7614     452.9911       0.0199       5.2245       0.0015       2.6124      -0.0398       0.1402
   3054.1008       6.4603       1.8732       0.0087      51.6762       3.1274    -999.2500     635.3134     506.5057     438.2794       0.0185       5.5592       0.0012       2.6199      -0.1008       0.1244
   3054.2532       6.4718       2.0246       0.0108      52.0292       3.9709    -999.2500     788.4791     625.2204     441.9890       0.0162       5.5439       0.0011       2.6260      -0.0277       0.1930
   3054.4058       6.4896       1.3726       0.0122      52.5728       4.2272    -999.2500    1009.3287     798.4990    2000.0000       0.0159       5.3889       0.0007       2.6273      -0.0216       0.2830
   3054.5581       6.4916       1.6242       0.0166      52.5830       3.9560    -999.2500    1060.0830     844.4880     578.7117       0.0157       5.2809       0.0012       2.6288      -0.1388       0.2312
   3054.7104       6.4888       0.4953       0.0184      52.1590       2.8348    -999.2500    1036.9301     826.9265     347.5899       0.0164       5.0860       0.0006       2.6359      -0.1301       0.2319
   3054.8628       6.4960       1.0369       0.0140      51.8149       3.4909    -999.2500    1031.6458     821.4412     190.8609       0.0155       5.0500       0.0009       2.6320      -0.1488       0.2433
   3055.0154       6.4995       1.1883       0.0138      52.0986       3.8810    -999.2500     976.3606     769.9455      47.0844       0.0151       4.8479       0.0006       2.6427      -0.0101       0.2670
   3055.1677       6.5014       1.9305       0.0112      52.2952       4.6401    -999.2500     813.2873     623.2234     312.5813       0.0154       4.9167       0.0007       2.6409       0.1076       0.2686
   3055.3201       6.4906       1.5903       0.0075      52.3024       3.8548    -999.2500     750.0020     565.0383     770.2032       0.0171       5.0251       0.0001       2.6406       0.2928       0.2245
   3055.4724       6.4889       1.4683       0.0075      52.7486       3.4214    -999.2500     726.8376     549.4507     340.4949       0.0187       5.1141       0.0005       2.6372       0.0958       0.1936
   3055.6248       6.4889       1.7347       0.0104      52.7662       3.2865    -999.2500     731.3878     554.7410     117.4408       0.0194       5.3638       0.0007       2.6447       0.0525       0.1539
   3055.7773       6.4780       3.3967       0.0105      52.5036       4.4297    -999.2500     761.2072     583.6594     214.5753       0.0195       5.1583       0.0016       2.6501       0.0321       0.1024
   3055.9297       6.4774       2.4051       0.0115      52.3950       3.3550    -999.2500     773.1968     599.2255     320.0784       0.0191       5.2047       0.0005       2.6513       0.2990       0.0942
   3056.0820       6.4726       1.9084       0.0110      52.1112       3.9854    -999.2500     818.3253     640.9551     575.6604       0.0192       5.0812       0.0004       2.6505       0.2102       0.2059
   3056.2344       6.4884       2.0307       0.0105      54.4938       4.3926    -999.2500     800.1631     629.7697     175.8153       0.0190       5.2056       0.0008       2.6495       0.0735       0.2342
   3056.3870       6.4736       2.8070       0.0094      54.6006       5.5281    -999.2500     756.9094     599.5117     148.1808       0.0200       5.1198       0.0011       2.6399       0.1217       0.2698
   3056.5393       6.4613       3.5787       0.0090      54.8527       5.7533    -999.2500     739.9909     584.2358     554.6589       0.0208       5.0934       0.0018       2.6335       0.0111       0.2156
   3056.6917       6.4612       2.1007       0.0087      55.3695       4.4859    -999.2500     705.5955     557.9470     579.5493       0.0214       4.9375       0.0007       2.6278       0.1267       0.2365
