#------------------------------------------------------------------------------
#
#   Created by  : [OpenWorks] Log Export Utility (LEXP)
#   Created on  : 2015-10-01 09:49:56
#   Project     : CANT971
#   User        : R5K
#   Interpreter : PEP
#
#------------------------------------------------------------------------------
~VERSION INFORMATION
VERS. 2.0 : CWLS Log ASCII Standard - version 2.0
WRAP.  NO : One line per depth step
~WELL INFORMATION
#MNEMONIC   .UNIT                                           VALUE :DESCRIPTION
#------------------------------------------------------------------------------
STRT        .M                                           799.8710 :START DEPTH
STOP        .M                                          1367.5610 :STOP DEPTH
STEP        .M                                             0.1524 :STEP
NULL        .                                           -999.2500 :NULL VALUE
COMP        .                                   PEMEX EXPL & PROD :COMPANY
WELL        .                                        CANTARELL-1A :WELL
FLD         .                                           CANTARELL :FIELD
LOC         .                                             UNKNOWN :LOCATION
CNTY        .                                      CD. DEL CARMEN :COUNTY
STAT        .                                            CAMPECHE :STATE
CTRY        .                                              MEXICO :COUNTRY
SRVC        .                                             UNKNOWN :SERVICE COMPANY
DATE        .                                             UNKNOWN :LOG DATE
UWI         .                                          3060000138 :UNIQUE WELL ID
XCOORD      .                                       600823.080000 :SURFACE X
YCOORD      .                                      2145118.550000 :SURFACE Y
LAT         .                                           19.398902 :LATITUDE
LON         .                                          -92.039798 :LONGITUDE
ELEV        .M                                            27.7000 :SURFACE ELEV
ELEV_TYPE   .                                                  KB :ELEV TYPE
~CURVE INFORMATION
#MNEMONIC.UNIT        API CODE       : CURVE DESCRIPTION
#------------------------------------------------------------------------------
DEPTH    .M                          : Measured Depth
CALI     .inches      UNKNOWN        : CALI:UNKNOWN:rC:NONE:v0 (auto-composite)
DRHO     .g/cm3       UNKNOWN        : DRHO:UNKNOWN:rC:NONE:v0 (auto-composite)
DT       .us/ft       UNKNOWN        : DT:DT:rC:NONE:v0 (auto-composite)
ILD      .ohm.m       UNKNOWN        : ILD:UNKNOWN:rC:NONE:v0 (auto-composite)
LLD      .ohm.m       UNKNOWN        : LLD:UNKNOWN:rC:NONE:v0 (auto-composite)
LLS      .ohm.m       UNKNOWN        : LLS:UNKNOWN:rC:NONE:v0 (auto-composite)
MSFL     .ohm.m       UNKNOWN        : MSFL:UNKNOWN:rC:NONE:v0 (auto-composite)
NPHI     .v/v_decimal UNKNOWN        : NPHI:NPHI:rC:NONE:v0 (auto-composite)
GR       .API         UNKNOWN        : RG:UNKNOWN:rC:NONE:v0 (auto-composite)
RHOB     .g/cm3       UNKNOWN        : RHOB:UNKNOWN:rC:NONE:v0 (auto-composite)
~A     DEPTH         CALI         DRHO           DT          ILD          LLD          LLS         MSFL         NPHI           GR         RHOB
# ...
   1243.6598      16.2621      -0.0116      95.8486       1.5663       0.2000       0.2000       0.2000      19.2714      28.7251       2.3438
   1243.8123      16.2557      -0.0110      95.5091       1.5087       0.2000       0.2000       0.2000      19.5289      29.0240       2.3298
   1243.9646      16.3645      -0.0015      95.7581       1.4626       0.2000       0.2000       0.2000      19.4375      29.7342       2.3228
   1244.1171      16.4548       0.0036      96.6051       1.4089       0.2000       0.2000       0.2000      18.9950      30.2568       2.3213
   1244.2694      16.5049      -0.0009      98.4549       1.3387       0.2000       0.2000       0.2000      17.9968      30.3706       2.3318
   1244.4219      16.5361      -0.0032     101.3238       1.2780       0.2000       0.2000       0.2000      16.4394      30.3564       2.3379
   1244.5742      16.5271      -0.0007     101.4698       1.2374       0.2000       0.2000       0.2000      15.8220      30.0701       2.3344
   1244.7267      16.5181       0.0026      98.8479       1.2090       0.2000       0.2000       0.2000      16.1511      29.7876       2.3289
   1244.8790      16.5090       0.0076     101.6341       1.2060       0.2000       0.2000       0.2000      17.2656      29.5129       2.3194
   1245.0314      16.4967       0.0127     109.9194       1.2047       0.2000       0.2000       0.2000      19.1686      29.3338       2.3188
   1245.1838      16.4777       0.0177     115.0940       1.2067       0.2000       0.2000       0.2000      20.4693      29.3483       2.3363
   1245.3362      16.4520       0.0212     117.1049       1.2252       0.2000       0.2000       0.2000      21.1653      29.4631       2.3524
   1245.4886      16.4134       0.0217     117.4684       1.2763       0.2000       0.2000       0.2000      20.9934      29.7760       2.3654
   1245.6410      16.4084       0.0222     116.1559       1.3453       0.2000       0.2000       0.2000      19.9499      29.9861       2.3653
   1245.7935      16.4680       0.0227     110.9007       1.4485       0.2000       0.2000       0.2000      18.1899      29.9981       2.3397
   1245.9458      16.5072       0.0190     101.6335       1.5302       0.2000       0.2000       0.2000      15.7100      29.9432       2.3220
   1246.0983      16.5077       0.0075      96.2506       1.5713       0.2000       0.2000       0.2000      14.2029      29.7617       2.3189
   1246.2506      16.5084       0.0009      94.8211       1.5950       0.2000       0.2000       0.2000      13.6734      29.5433       2.3181
   1246.4031      16.5094       0.0034      93.6399       1.5865       0.2000       0.2000       0.2000      12.8400      29.2571       2.3211
   1246.5554      16.5102       0.0061      92.7114       1.5731       0.2000       0.2000       0.2000      11.7010      29.1147       2.3185
   1246.7079      16.5107       0.0091      92.8385       1.5511       0.2000       0.2000       0.2000      10.2172      29.2315       2.3060
   1246.8602      16.5077       0.0097      94.0405       1.5294       0.2000       0.2000       0.2000       8.3868      29.5983       2.2891
   1247.0126      16.4987       0.0062      95.3104       1.5083       0.2000       0.2000       0.2000       7.1100      30.4055       2.2645
   1247.1650      16.4897       0.0047      96.6493       1.4921       0.2000       0.2000       0.2000       6.3900      31.0321       2.2580
   1247.3174      16.4807       0.0067      94.7196       1.4840       0.2000       0.2000       0.2000       6.0893      31.3478       2.2826
   1247.4698      16.4754       0.0125      89.4703       1.4850       0.2000       0.2000       0.2000       6.2103      31.6614       2.3092
   1247.6222      16.4764       0.0245      89.5213       1.5010       0.2000       0.2000       0.2000       6.3201      31.9712       2.3393
   1247.7747      16.4772       0.0307      94.9567       1.5144       0.2000       0.2000       0.2000       6.4186      32.6214       2.3595
   1247.9270      16.4777       0.0272      89.0850       1.5234       0.2000       0.2000       0.2000       6.3977      33.8317       2.3635
   1248.0795      16.4782       0.0262      71.7245       1.5302       0.2000       0.2000       0.2000       6.2567      34.7731       2.3681
   1248.2318      16.4787       0.0292      68.3695       1.5332       0.2000       0.2000       0.2000       5.9849      35.2818       2.3736
   1248.3843      16.4794       0.0267      79.2487       1.5229       0.2000       0.2000       0.2000       5.5814      35.2526       2.3698
   1248.5366      16.4804       0.0157      93.6304       1.4918       0.2000       0.2000       0.2000       5.3583      34.3757       2.3512
   1248.6891      16.4814       0.0074     111.5729       1.4647       0.2000       0.2000       0.2000       5.3168      33.8485       2.3372
   1248.8414      16.4824       0.0034     123.0063       1.4437       0.2000       0.2000       0.2000       5.6955      33.8601       2.3302
   1248.9938      16.4852       0.0006     127.8212       1.4526       0.2000       0.2000       0.2000       6.4959      33.6340       2.3260
   1249.1462      16.4907      -0.0004     123.6127       1.5067       0.2000       0.2000       0.2000       7.3962      33.0494       2.3260
   1249.2986      16.5001      -0.0016     110.2266       1.5736       0.2000       0.2000       0.2000       8.3967      31.9450       2.3173
   1249.4510      16.5151      -0.0031     104.4537       1.6594       0.2000       0.2000       0.2000       9.3308      30.0738       2.2957
   1249.6034      16.5244      -0.0044     106.4262       1.7357       0.2000       0.2000       0.2000      10.1983      28.9331       2.2920
   1249.7559      16.5254      -0.0054     104.0996       1.7983       0.2000       0.2000       0.2000      10.9722      28.8454       2.3141
   1249.9082      16.5202       0.0025      97.3983       1.8537       0.2000       0.2000       0.2000      11.6522      28.7589       2.3411
   1250.0607      16.5061       0.0231      98.2314       1.8988       0.2000       0.2000       0.2000      12.0738      28.6742       2.3752
   1250.2130      16.4300       0.0352     106.7336       1.9151       0.2000       0.2000       0.2000      12.2358      28.4642       2.3904
   1250.3655      16.2681       0.0357     106.6883       1.8915       0.2000       0.2000       0.2000      12.3158      28.0811       2.3793
   1250.5178      16.1880       0.0315      97.9686       1.8403       0.2000       0.2000       0.2000      12.3133      28.1209       2.3666
   1250.6703      16.2186       0.0210      88.9799       1.7516       0.2000       0.2000       0.2000      12.1268      28.7318       2.3516
   1250.8226      16.1853       0.0169      79.7182       1.6760       0.2000       0.2000       0.2000      11.7553      29.1292       2.3454
   1250.9750      16.0675       0.0215      70.3885       1.6178       0.2000       0.2000       0.2000      11.4960      29.2435       2.3509
   1251.1274      16.0058       0.0275      60.9898       1.5833       0.2000       0.2000       0.2000      11.3495      29.0098       2.3669
   1251.2798      16.0168       0.0355      58.0782       1.5792       0.2000       0.2000       0.2000      12.0432      28.3254       2.3965
   1251.4323      15.9755       0.0365      61.7551       1.5936       0.2000       0.2000       0.2000      13.5822      28.0823       2.4196
   1251.5846      15.8677       0.0284      63.6028       1.6312       0.2000       0.2000       0.2000      15.7165      28.3981       2.4347
   1251.7371      15.8655       0.0218      63.5923       1.6659       0.2000       0.2000       0.2000      18.4499      28.7561       2.4441
   1251.8894      15.9943       0.0168      62.8758       1.6969       0.2000       0.2000       0.2000      20.9434      29.1668       2.4466
   1252.0419      16.0519       0.0131      61.4418       1.7219       0.2000       0.2000       0.2000      23.1953      29.4004       2.4487
