#------------------------------------------------------------------------------
#
#   Created by  : [OpenWorks] Log Export Utility (LEXP)
#   Created on  : 2016-05-23 11:52:48
#   Project     : CANT971
#   User        : R5K
#   Interpreter : PEP
#
#------------------------------------------------------------------------------
~VERSION INFORMATION
VERS. 2.0 : CWLS Log ASCII Standard - version 2.0
WRAP.  NO : One line per depth step
~WELL INFORMATION
#MNEMONIC   .UNIT                                           VALUE :DESCRIPTION
#------------------------------------------------------------------------------
STRT        .M                                           688.5826 :START DEPTH
STOP        .M                                          3180.0178 :STOP DEPTH
STEP        .M                                             0.1524 :STEP
NULL        .                                           -999.2500 :NULL VALUE
COMP        .                                   PEMEX EXPL & PROD :COMPANY
WELL        .                                               2092D :WELL
FLD         .                                           CANTARELL :FIELD
LOC         .                                             UNKNOWN :LOCATION
CNTY        .                                      CD. DEL CARMEN :COUNTY
STAT        .                                            CAMPECHE :STATE
CTRY        .                                              MEXICO :COUNTRY
SRVC        .                                             UNKNOWN :SERVICE COMPANY
DATE        .                                             UNKNOWN :LOG DATE
UWI         .                                          3060000657 :UNIQUE WELL ID
XCOORD      .                                       601715.500000 :SURFACE X
YCOORD      .                                      2142373.650000 :SURFACE Y
LAT         .                                           19.374053 :LATITUDE
LON         .                                          -92.031447 :LONGITUDE
ELEV        .M                                            30.0000 :SURFACE ELEV
ELEV_TYPEF  .b/elec                                            KB :ELEV TYPE
~CURVE INFORMATION
#MNEMONIC.UNIT        API CODE       : CURVE DESCRIPTION
#------------------------------------------------------------------------------
DEPTH    .M                          : Measured Depth
CALI     .in          UNKNOWN        : CALI:UNKNOWN:rC:NONE:v0 (auto-composite)
CGR      .API         UNKNOWN        : CGR:UNKNOWN:rC:NONE:v0 (auto-composite)
DRHO     .g/cm3       UNKNOWN        : DRHO:UNKNOWN:rC:NONE:v0 (auto-composite)
DT       .us/ft       UNKNOWN        : DT:DT:rC:NONE:v0 (auto-composite)
GR       .API         UNKNOWN        : GR:UNKNOWN:rC:NONE:v0 (auto-composite)
ILD      .ohmm        UNKNOWN        : ILD:UNKNOWN:rC:NONE:v0 (auto-composite)
ILM      .ohmm        UNKNOWN        : ILM:UNKNOWN:rC:NONE:v0 (auto-composite)
LLD      .ohmm        UNKNOWN        : LLD:UNKNOWN:rC:NONE:v0 (auto-composite)
LLS      .ohmm        UNKNOWN        : LLS:UNKNOWN:rC:NONE:v0 (auto-composite)
MSFL     .ohmm        UNKNOWN        : MSFL:UNKNOWN:rC:NONE:v0 (auto-composite)
NPHI     .v/v_decimal UNKNOWN        : NPHI:PETROWORKS:rC:NONE:v1 
PEF      .b/elec      UNKNOWN        : PEF:UNKNOWN:rC:NONE:v0 (auto-composite)
POTA     .wtpercent   UNKNOWN        : POTA:UNKNOWN:rC:NONE:v0 (auto-composite)
RHOB     .g/cm3       UNKNOWN        : RHOB:UNKNOWN:rC:NONE:v0 (auto-composite)
SFLU     .ohmm       UNKNOWN        : SFLU:induccion:rC:NONE:v0 (auto-composite)
THOR     .ppm         UNKNOWN        : THOR:UNKNOWN:rC:NONE:v0 (auto-composite)
URAN     .ppm         UNKNOWN        : URAN:UNKNOWN:rC:NONE:v0 (auto-composite)
~A     DEPTH         CALI          CGR         DRHO           DT           GR          ILD          ILM          LLD          LLS         MSFL         NPHI          PEF         POTA         RHOB         SFLU         THOR         URAN
# ...
   3094.2166       8.3889    -999.2500       0.0649      48.9359      31.1522    -999.2500    -999.2500    1097.4734     823.5878     199.8649       0.0295       3.4113    -999.2500       2.7599    -999.2500    -999.2500    -999.2500
   3094.3689       8.3829    -999.2500       0.0583      48.5858      29.1797    -999.2500    -999.2500    1134.3690     855.9269     223.2171       0.0290       3.4243    -999.2500       2.7539    -999.2500    -999.2500    -999.2500
   3094.5215       8.3776    -999.2500       0.0529      48.3130      27.6544    -999.2500    -999.2500    1166.1268     883.7913     239.9332       0.0286       3.4276    -999.2500       2.7503    -999.2500    -999.2500    -999.2500
   3094.6738       8.3756    -999.2500       0.0524      47.9195      28.1613    -999.2500    -999.2500    1174.5325     891.3175     226.4878       0.0301       3.3867    -999.2500       2.7573    -999.2500    -999.2500    -999.2500
   3094.8262       8.3756    -999.2500       0.0540      47.9508      28.7008    -999.2500    -999.2500    1180.1310     898.9927     214.7911       0.0310       3.3638    -999.2500       2.7643    -999.2500    -999.2500    -999.2500
   3094.9785       8.3846    -999.2500       0.0655      48.7805      29.3910    -999.2500    -999.2500    1172.7546     907.3566     211.1766       0.0309       3.4242    -999.2500       2.7718    -999.2500    -999.2500    -999.2500
   3095.1309       8.3906    -999.2500       0.0759      49.5675      29.7410    -999.2500    -999.2500    1177.5260     921.5242     219.5159       0.0307       3.4713    -999.2500       2.7794    -999.2500    -999.2500    -999.2500
   3095.2834       8.3826    -999.2500       0.0809      49.3386      28.5095    -999.2500    -999.2500    1238.7766     962.6749     283.4318       0.0310       3.4558    -999.2500       2.7874    -999.2500    -999.2500    -999.2500
   3095.4358       8.3763    -999.2500       0.0834      48.6861      27.5305    -999.2500    -999.2500    1297.7274    1004.0042     339.5647       0.0312       3.4463    -999.2500       2.7916    -999.2500    -999.2500    -999.2500
   3095.5881       8.3778    -999.2500       0.0744      47.1659      27.7323    -999.2500    -999.2500    1345.9220    1046.1687     359.2964       0.0311       3.4647    -999.2500       2.7781    -999.2500    -999.2500    -999.2500
   3095.7405       8.3802    -999.2500       0.0667      46.0353      28.0126    -999.2500    -999.2500    1378.3678    1076.3442     360.6055       0.0310       3.4783    -999.2500       2.7667    -999.2500    -999.2500    -999.2500
   3095.8931       8.3872    -999.2500       0.0652      46.7906      28.6670    -999.2500    -999.2500    1335.8871    1049.4802     274.2672       0.0311       3.4682    -999.2500       2.7646    -999.2500    -999.2500    -999.2500
   3096.0454       8.3919    -999.2500       0.0624      47.7559      29.2826    -999.2500    -999.2500    1290.8141    1021.4789     204.9552       0.0309       3.4623    -999.2500       2.7617    -999.2500    -999.2500    -999.2500
   3096.1978       8.3859    -999.2500       0.0534      48.9770      29.7215    -999.2500    -999.2500    1233.8702     988.2687     213.6154       0.0298       3.4753    -999.2500       2.7542    -999.2500    -999.2500    -999.2500
   3096.3501       8.3803    -999.2500       0.0467      49.7140      30.2591    -999.2500    -999.2500    1174.2842     953.0942     223.6100       0.0296       3.4834    -999.2500       2.7496    -999.2500    -999.2500    -999.2500
   3096.5027       8.3763    -999.2500       0.0507      49.2667      31.2522    -999.2500    -999.2500    1102.5266     908.8708     239.7510       0.0318       3.4689    -999.2500       2.7586    -999.2500    -999.2500    -999.2500
   3096.6550       8.3746    -999.2500       0.0543      48.6234      31.9626    -999.2500    -999.2500    1036.0792     865.7292     247.0836       0.0336       3.4592    -999.2500       2.7683    -999.2500    -999.2500    -999.2500
   3096.8074       8.3836    -999.2500       0.0558      47.9076      31.3634    -999.2500    -999.2500     994.2377     827.6007     213.5993       0.0329       3.4717    -999.2500       2.7813    -999.2500    -999.2500    -999.2500
   3096.9597       8.3902    -999.2500       0.0573      47.6403      31.1577    -999.2500    -999.2500     963.5462     799.6088     195.0074       0.0319       3.4858    -999.2500       2.7934    -999.2500    -999.2500    -999.2500
   3097.1121       8.3857    -999.2500       0.0593      48.2485      32.8070    -999.2500    -999.2500     985.4062     819.3922     246.6056       0.0306       3.5073    -999.2500       2.8014    -999.2500    -999.2500    -999.2500
   3097.2646       8.3815    -999.2500       0.0608      48.8077      34.3959    -999.2500    -999.2500    1011.5048     843.6845     285.8217       0.0296       3.5212    -999.2500       2.8064    -999.2500    -999.2500    -999.2500
   3097.4170       8.3785    -999.2500       0.0598      48.2547      35.6985    -999.2500    -999.2500    1057.6998     889.3556     266.3271       0.0311       3.4991    -999.2500       2.7974    -999.2500    -999.2500    -999.2500
   3097.5693       8.3775    -999.2500       0.0596      47.7288      36.7025    -999.2500    -999.2500    1084.0431     917.7476     240.1391       0.0324       3.4826    -999.2500       2.7905    -999.2500    -999.2500    -999.2500
   3097.7217       8.3860    -999.2500       0.0631      47.2545      36.3437    -999.2500    -999.2500    1019.7743     867.2709     183.3996       0.0334       3.4916    -999.2500       2.7935    -999.2500    -999.2500    -999.2500
   3097.8743       8.3921    -999.2500       0.0667      46.7388      36.1096    -999.2500    -999.2500     951.3871     812.7668     140.0804       0.0339       3.4957    -999.2500       2.7980    -999.2500    -999.2500    -999.2500
   3098.0266       8.3871    -999.2500       0.0707      46.0086      36.4487    -999.2500    -999.2500     864.0912     739.7712     158.3773       0.0324       3.4772    -999.2500       2.8090    -999.2500    -999.2500    -999.2500
   3098.1790       8.3823    -999.2500       0.0725      45.5412      36.2603    -999.2500    -999.2500     786.1593     674.8503     176.7825       0.0312       3.4570    -999.2500       2.8164    -999.2500    -999.2500    -999.2500
   3098.3313       8.3783    -999.2500       0.0640      45.6715      33.6090    -999.2500    -999.2500     751.9515     647.6331     195.6928       0.0304       3.4285    -999.2500       2.8074    -999.2500    -999.2500    -999.2500
   3098.4839       8.3764    -999.2500       0.0595      46.2390      31.0384    -999.2500    -999.2500     727.7848     628.3111     207.9636       0.0301       3.4089    -999.2500       2.8012    -999.2500    -999.2500    -999.2500
   3098.6362       8.3844    -999.2500       0.0740      47.7555      28.8474    -999.2500    -999.2500     750.7839     646.0759     189.0463       0.0307       3.4314    -999.2500       2.8082    -999.2500    -999.2500    -999.2500
   3098.7886       8.3904    -999.2500       0.0880      49.3049      26.9798    -999.2500    -999.2500     776.3245     665.1725     178.2982       0.0311       3.4602    -999.2500       2.8153    -999.2500    -999.2500    -999.2500
   3098.9409       8.3869    -999.2500       0.0995      50.6542      26.6409    -999.2500    -999.2500     813.8751     690.5624     206.1539       0.0306       3.5189    -999.2500       2.8228    -999.2500    -999.2500    -999.2500
   3099.0933       8.3832    -999.2500       0.1094      51.1557      26.4668    -999.2500    -999.2500     845.8723     710.7964     236.3648       0.0309       3.5702    -999.2500       2.8274    -999.2500    -999.2500    -999.2500
   3099.2458       8.3787    -999.2500       0.1114      49.9292      27.0431    -999.2500    -999.2500     852.6049     707.5743     277.2903       0.0330       3.5882    -999.2500       2.8184    -999.2500    -999.2500    -999.2500
   3099.3982       8.3765    -999.2500       0.1108      48.5510      27.3365    -999.2500    -999.2500     860.2180     706.1002     294.0967       0.0352       3.5960    -999.2500       2.8080    -999.2500    -999.2500    -999.2500
