#------------------------------------------------------------------------------
#
#   Created by  : [OpenWorks] Log Export Utility (LEXP)
#   Created on  : 2015-10-01 09:50:16
#   Project     : CANT971
#   User        : R5K
#   Interpreter : PEP
#
#------------------------------------------------------------------------------
~VERSION INFORMATION
VERS. 2.0 : CWLS Log ASCII Standard - version 2.0
WRAP.  NO : One line per depth step
~WELL INFORMATION
#MNEMONIC   .UNIT                                           VALUE :DESCRIPTION
#------------------------------------------------------------------------------
STRT        .M                                           352.7300 :START DEPTH
STOP        .M                                          2346.8840 :STOP DEPTH
STEP        .M                                             0.1524 :STEP
NULL        .                                           -999.2500 :NULL VALUE
COMP        .                                   PEMEX EXPL & PROD :COMPANY
WELL        .                                        CANTARELL-64 :WELL
FLD         .                                           CANTARELL :FIELD
LOC         .                                             UNKNOWN :LOCATION
CNTY        .                                      CD. DEL CARMEN :COUNTY
STAT        .                                            CAMPECHE :STATE
CTRY        .                                              MEXICO :COUNTRY
SRVC        .                                             UNKNOWN :SERVICE COMPANY
DATE        .                                             UNKNOWN :LOG DATE
UWI         .                                          3060000172 :UNIQUE WELL ID
XCOORD      .                                       599695.280000 :SURFACE X
YCOORD      .                                      2143036.290000 :SURFACE Y
LAT         .                                           19.380142 :LATITUDE
LON         .                                          -92.050647 :LONGITUDE
ELEV        .M                                            26.7400 :SURFACE ELEV
ELEV_TYPE   .                                                  KB :ELEV TYPE
~CURVE INFORMATION
#MNEMONIC.UNIT        API CODE       : CURVE DESCRIPTION
#------------------------------------------------------------------------------
DEPTH    .M                          : Measured Depth
CALI     .inches      UNKNOWN        : CALI:UNKNOWN:rC:NONE:v0 (auto-composite)
DRHO     .g/cm3       UNKNOWN        : DRHO:UNKNOWN:rC:NONE:v0 (auto-composite)
DT       .us/ft       UNKNOWN        : DT:DT:rC:NONE:v0 (auto-composite)
GR       .API         UNKNOWN        : GR:GR-Load:rC:NONE:v0 (auto-composite)
ILD      .ohm.m       UNKNOWN        : ILD:ILD-Load:rC:NONE:v0 (auto-composite)
LLD      .ohm.m       UNKNOWN        : LLD:UNKNOWN:rC:NONE:v0 (auto-composite)
LLS      .ohm.m       UNKNOWN        : LLS:UNKNOWN:rC:NONE:v0 (auto-composite)
MSFL     .ohm.m       UNKNOWN        : MSFL:UNKNOWN:rC:NONE:v0 (auto-composite)
NPHI     .v/v_decimal UNKNOWN        : NPHI:NPHI:rC:NONE:v0 (auto-composite)
PEF      .b/elec      UNKNOWN        : PEF:UNKNOWN:rC:NONE:v0 (auto-composite)
RHOB     .g/cm3       UNKNOWN        : RHOB:RHOB-Load:rC:NONE:v0 (auto-composite)
~A     DEPTH        CALI         DRHO           DT           GR          ILD          LLD          LLS         MSFL         NPHI          PEF         RHOB
# ...
   2088.2612      6.1990       0.0227      51.3344      54.5120    -999.2500    3046.0251     523.8879     294.4334       4.6787       3.3984       2.7220 
   2088.4136      6.2211       0.0285      50.7827      61.6061    -999.2500    3280.3018     558.2708     212.8431       4.6642       3.4841       2.7340 
   2088.5662      6.2652       0.0325      50.2872      65.0457    -999.2500    3362.1292     579.9919     115.7239       4.3736       3.6796       2.7518 
   2088.7185      6.2963       0.0346      49.8468      64.8862    -999.2500    3327.6780     626.8253      88.7732       3.8128       5.1602       2.7753 
   2088.8708      6.3194       0.0356      49.5538      62.8797    -999.2500    3221.8206     689.0798     104.9130       3.5411       7.4300       2.7867 
   2089.0232      6.3296       0.0344      49.4062      59.0478    -999.2500    2932.9434     696.1956     121.0797       3.5531       8.3669       2.7862 
   2089.1755      6.3321       0.0319      49.3458      57.2683    -999.2500    2534.2942     670.2402     137.2625       3.8593       8.5043       2.7832 
   2089.3281      6.3349       0.0256      49.3713      57.5112    -999.2500    2255.6958     646.7881     137.5307       4.4535       7.5800       2.7777 
   2089.4805      6.3379       0.0171      49.5945      57.6094    -999.2500    2047.4133     624.8022     128.4774       4.7155       6.0340       2.7735 
   2089.6328      6.4316       0.0095      50.0132      57.5643    -999.2500    1984.6243     613.4695     186.2002       4.6509       4.9113       2.7705 
   2089.7852      6.5775       0.0025      50.5869      57.1577    -999.2500    2005.6200     608.2717     282.3773       4.6266       4.0323       2.7630 
   2089.9377      6.7407       0.0010      51.3136      56.3945    -999.2500    1873.6127     563.4720     342.4556       4.6416       3.7138       2.7510 
   2090.0901      6.9137       0.0025      52.1266      54.7804    -999.2500    1655.5842     496.4076     382.2383       5.0513       3.7102       2.7179 
   2090.2424      6.8824       0.0033      53.0249      52.3245    -999.2500    1447.1580     442.4451     299.4360       5.8491       3.5902       2.6639 
   2090.3948      6.7390       0.0038      53.4544      51.1312    -999.2500    1244.0012     395.6730     149.3585       6.2291       3.4062       2.6378 
   2090.5474      6.5437       0.0027      53.4214      51.1831    -999.2500    1255.3660     390.6751      95.8203       6.1996       3.2904       2.6393 
   2090.6997      6.3206       0.0007      53.1410      51.6630    -999.2500    1381.6320     408.0522      93.9902       5.9593       3.2112       2.6503 
   2090.8521      6.2529       0.0003      52.6158      52.5663    -999.2500    1634.9302     460.3783     110.5192       5.5116       3.2357       2.6708 
   2091.0044      6.2664       0.0008      51.5612      54.4486    -999.2500    1954.6223     530.9705     136.6436       4.9417       3.3144       2.6981 
   2091.1567      6.2418       0.0037      49.9841      57.2969    -999.2500    2216.2908     609.2288     125.4425       4.2520       3.3798       2.7321 
   2091.3093      6.1977       0.0077      49.2237      60.7357    -999.2500    2448.3721     691.3963      95.2089       3.9378       3.4384       2.7487 
   2091.4617      6.1893       0.0073      49.2666      64.7591    -999.2500    2299.6829     663.4918      85.9574       3.9908       3.3812       2.7482 
   2091.6140      6.1989       0.0048      49.5795      65.3232    -999.2500    1960.2374     580.4440      87.2174       4.3735       3.2659       2.7432 
   2091.7664      6.1852       0.0043      50.1587      62.4720    -999.2500    1760.7300     525.1209      98.4494       5.0798       3.2469       2.7337 
   2091.9189      6.1601       0.0048      50.6989      61.0924    -999.2500    1629.5945     483.3436     114.5536       5.8762       3.2749       2.7240 
   2092.0713      6.1517       0.0094      51.2007      61.1710    -999.2500    1585.4128     445.8276     132.2922       6.7608       3.3095       2.7140 
   2092.2236      6.1512       0.0159      51.5824      61.8358    -999.2500    1582.6562     410.3418     150.8095       7.1813       3.3471       2.7093 
   2092.3760      6.1582       0.0218      51.8455      63.0798    -999.2500    1609.4841     407.4089     150.9060       7.1463       3.3672       2.7098 
   2092.5283      6.1687       0.0273      51.9662      66.0878    -999.2500    1650.0516     419.5942     142.4476       6.8991       3.3793       2.7145 
   2092.6809      6.1565       0.0283      51.9467      70.8333    -999.2500    1778.6514     448.5669     123.1527       6.4443       3.4513       2.7235 
   2092.8333      6.1339       0.0273      51.8057      73.0672    -999.2500    1947.0963     485.1380      98.9530       5.9343       3.5505       2.7420 
   2092.9856      6.1489       0.0221      51.5446      72.8191    -999.2500    2115.2031     522.6699      91.9273       5.3701       3.5841       2.7701 
   2093.1379      6.1805       0.0151      50.9770      71.0356    -999.2500    2283.1597     560.6285      92.5330       4.8978       3.5886       2.7835 
   2093.2905      6.1945       0.0144      50.1074      67.7390    -999.2500    2326.6465     579.1927      95.0664       4.5155       3.6404       2.7825 
   2093.4429      6.2011       0.0164      49.7009      63.3123    -999.2500    2316.2532     589.3614      98.4342       4.3434       3.7126       2.7702 
   2093.5952      6.2376       0.0188      49.7524      57.7683    -999.2500    2230.5676     561.2486      94.7647       4.3779       3.9058       2.7467 
   2093.7476      6.2867       0.0213      50.4900      52.3832    -999.2500    2113.1401     516.9969      88.1283       4.8320       4.1499       2.7350 
   2093.9001      6.2964       0.0195      51.9039      47.1550    -999.2500    1935.1975     482.4171      71.7116       5.6972       4.0536       2.7350 
   2094.0525      6.2899       0.0160      52.5927      43.7577    -999.2500    1732.4154     451.8072      51.2805       6.1126       3.8174       2.7363 
   2094.2048      6.2708       0.0118      52.5642      42.1716    -999.2500    1599.9410     424.9792      41.4061       6.0861       3.6586       2.7388 
   2094.3572      6.2467       0.0073      52.3809      40.9215    -999.2500    1495.5562     399.6620      35.7495       5.9039       3.5308       2.7362 
   2094.5095      6.2530       0.0042      52.0451      40.0029    -999.2500    1519.9114     391.9801      40.5722       5.5690       3.5246       2.7287 
   2094.6621      6.2710       0.0017      51.6518      37.6695    -999.2500    1594.3141     391.1540      49.4687       5.0643       3.5657       2.7250 
   2094.8145      6.2931       0.0010      51.2016      33.9356    -999.2500    1766.9519     412.1645      57.0951       4.3926       3.5454       2.7250 
   2094.9668      6.3166       0.0010      50.7315      30.5916    -999.2500    1977.0358     441.4988      64.2374       3.7577       3.5018       2.7255 
   2095.1191      6.3139       0.0036      50.2419      27.6324    -999.2500    2096.4836     459.6874      64.9220       3.1590       3.4746       2.7265 
   2095.2717      6.3013       0.0071      49.7443      26.2683    -999.2500    2182.3335     473.7444      63.2128       2.8650       3.4536       2.7358 
   2095.4241      6.2335       0.0091      49.2390      26.4839    -999.2500    1907.6469     443.9507      84.8420       2.8690       3.4896       2.7533 
   2095.5764      6.1458       0.0106      48.9953      31.5774    -999.2500    1503.0398     398.3553     114.8812       2.8980       3.5463       2.7617 
   2095.7288      6.1048       0.0117      49.0098      41.4872    -999.2500    1655.2739     432.9618     218.7296       2.9515       3.5008       2.7612 
   2095.8813      6.0802       0.0127      49.0900      46.2539    -999.2500    2002.4969     495.6526     348.4236       3.1051       3.4196       2.7567 
   2096.0337      6.0733       0.0126      49.2350      45.9253    -999.2500    2232.3350     610.5172     347.8658       3.3565       3.3870       2.7482 
