#------------------------------------------------------------------------------
#
#   Created by  : [OpenWorks] Log Export Utility (LEXP)
#   Created on  : 2016-05-23 11:57:10
#   Project     : CANT971
#   User        : R5K
#   Interpreter : PEP
#
#------------------------------------------------------------------------------
~VERSION INFORMATION
VERS. 2.0 : CWLS Log ASCII Standard - version 2.0
WRAP.  NO : One line per depth step
~WELL INFORMATION
#MNEMONIC   .UNIT                                           VALUE :DESCRIPTION
#------------------------------------------------------------------------------
STRT        .M                                           345.0980 :START DEPTH
STOP        .M                                          2040.8528 :STOP DEPTH
STEP        .M                                             0.1524 :STEP
NULL        .                                           -999.2500 :NULL VALUE
COMP        .                                   PEMEX EXPL & PROD :COMPANY
WELL        .                                                  71 :WELL
FLD         .                                           CANTARELL :FIELD
LOC         .                                             UNKNOWN :LOCATION
CNTY        .                                      CD. DEL CARMEN :COUNTY
STAT        .                                            CAMPECHE :STATE
CTRY        .                                              MEXICO :COUNTRY
SRVC        .                                             UNKNOWN :SERVICE COMPANY
DATE        .                                             UNKNOWN :LOG DATE
UWI         .                                          3060000175 :UNIQUE WELL ID
XCOORD      .                                       599724.470000 :SURFACE X
YCOORD      .                                      2147216.900000 :SURFACE Y
LAT         .                                           19.417919 :LATITUDE
LON         .                                          -92.050150 :LONGITUDE
ELEV        .M                                            27.8000 :SURFACE ELEV
ELEV_TYPE   .                                                  KB :ELEV TYPE
~CURVE INFORMATION
#MNEMONIC.UNIT        API CODE       : CURVE DESCRIPTION
#------------------------------------------------------------------------------
DEPTH    .M                          : Measured Depth
DT       .us/ft       UNKNOWN        : DT:DT:rC:NONE:v0 (auto-composite)
GR       .UNKNOWN     UNKNOWN        : GR:GR-Load:rC:NONE:v0 (auto-composite)
ILD      .UNKNOWN     UNKNOWN        : ILD:ILD-Load:rC:NONE:v0 (auto-composite)
NPHI     .v/v_decimal UNKNOWN        : NPHI:NPHI:rC:NONE:v0 (auto-composite)
RG       .UNKNOWN     UNKNOWN        : RG:RG-Loader:rC:NONE:v0 (auto-composite)
RHOB     .UNKNOWN     UNKNOWN        : RHOB:RHOB-Load:rC:NONE:v0 (auto-composite)
~A     DEPTH           DT           GR          ILD         NPHI           RG         RHOB
# ...
   1726.4517    -999.2500      38.3968      17.1854       7.9011    -999.2500       2.5786
   1726.6040    -999.2500      36.3443      18.0034       7.6111    -999.2500       2.5801
   1726.7565    -999.2500      35.4252      18.8551       6.9495    -999.2500       2.5852
   1726.9088    -999.2500      36.0647      19.7530       5.7750    -999.2500       2.5952
   1727.0613    -999.2500      37.4484      20.2709       5.1904    -999.2500       2.6080
   1727.2136    -999.2500      39.8558      20.2659       5.4199    -999.2500       2.6245
   1727.3660    -999.2500      41.1185      20.2364       5.9617    -999.2500       2.6340
   1727.5184    -999.2500      40.8060      20.1734       6.9347    -999.2500       2.6340
   1727.6708    -999.2500      41.2101      20.0731       7.3640    -999.2500       2.6329
   1727.8232    -999.2500      42.6006      19.9216       7.0425    -999.2500       2.6304
   1727.9756    -999.2500      42.7843      19.7575       7.1697    -999.2500       2.6256
   1728.1281    -999.2500      41.3069      19.5760       7.9167    -999.2500       2.6176
   1728.2804    -999.2500      38.8575      19.3570       8.2666    -999.2500       2.6081
   1728.4329    -999.2500      35.0696      19.0865       8.0680    -999.2500       2.5966
   1728.5852    -999.2500      34.3472      18.5979       7.9824    -999.2500       2.5837
   1728.7377    -999.2500      37.8471      17.8099       8.0524    -999.2500       2.5687
   1728.8900    -999.2500      38.4556      17.0643       8.5211    -999.2500       2.5513
   1729.0425    -999.2500      35.0807      16.3768       9.5391    -999.2500       2.5308
   1729.1948    -999.2500      33.2039      16.0213       9.8572    -999.2500       2.5194
   1729.3472    -999.2500      33.3914      16.1218       9.2107    -999.2500       2.5204
   1729.4996    -999.2500      33.7374      16.5357       8.2484    -999.2500       2.5231
   1729.6520    -999.2500      34.3008      17.3802       6.8510    -999.2500       2.5281
   1729.8044    -999.2500      35.1653      17.8376       6.1459    -999.2500       2.5392
   1729.9568    -999.2500      36.4432      17.7631       6.3954    -999.2500       2.5587
   1730.1093    -999.2500      37.6807      17.5598       7.0246    -999.2500       2.5696
   1730.2616    -999.2500      38.8627      17.1793       8.1776    -999.2500       2.5686
   1730.4141    -999.2500      39.7733      16.5323       9.3494    -999.2500       2.5657
   1730.5664    -999.2500      40.3108      15.5188      10.5474    -999.2500       2.5602
   1730.7189    -999.2500      40.8201      14.5445      11.3767    -999.2500       2.5532
   1730.8712    -999.2500      41.2906      13.6240      11.6972    -999.2500       2.5442
   1731.0237    -999.2500      41.5373      12.9042      11.6629    -999.2500       2.5344
   1731.1760    -999.2500      41.4763      12.4606      11.1389    -999.2500       2.5234
   1731.3284    -999.2500      39.7765      12.0431      10.9995    -999.2500       2.5185
   1731.4808    -999.2500      35.8216      11.6617      11.3909    -999.2500       2.5220
   1731.6332    -999.2500      33.9812      11.2795      11.2994    -999.2500       2.5305
   1731.7856    -999.2500      35.0512      10.8965      10.5410    -999.2500       2.5460
   1731.9380    -999.2500      37.9884      10.5877      10.2110    -999.2500       2.5535
   1732.0905    -999.2500      43.4962      10.3807      10.4730    -999.2500       2.5500
   1732.2428    -999.2500      48.8825      10.2448      10.9950    -999.2500       2.5440
   1732.3953    -999.2500      54.1013      10.2063      11.8764    -999.2500       2.5345
   1732.5476    -999.2500      56.3574      10.0881      13.4532    -999.2500       2.5250
   1732.7001    -999.2500      54.5325       9.8606      15.9882    -999.2500       2.5155
   1732.8524    -999.2500      52.3538       9.4665      17.2001    -999.2500       2.5075
   1733.0049    -999.2500      49.6878       8.8435      16.5891    -999.2500       2.5015
   1733.1572    -999.2500      46.8770       8.1350      15.7697    -999.2500       2.4961
   1733.3096    -999.2500      43.8670       7.3090      14.6633    -999.2500       2.4916
   1733.4620    -999.2500      43.2505       6.8797      12.7942    -999.2500       2.4875
   1733.6144    -999.2500      45.9224       6.9951       9.8738    -999.2500       2.4840
   1733.7668    -999.2500      47.2138       7.2088       8.4189    -999.2500       2.4858
   1733.9192    -999.2500      46.6078       7.5573       8.9849    -999.2500       2.4948
   1734.0717    -999.2500      44.9529       8.0666       9.2836    -999.2500       2.5089
   1734.2240    -999.2500      41.8560       8.7971       9.2136    -999.2500       2.5299
   1734.3765    -999.2500      41.1812       9.6374       9.0060    -999.2500       2.5475
   1734.5288    -999.2500      43.8372      10.6289       8.6085    -999.2500       2.5605
   1734.6813    -999.2500      45.2037      11.5073       8.4782    -999.2500       2.5695
   1734.8336    -999.2500      44.7967      12.2300       8.7167    -999.2500       2.5730
   1734.9860    -999.2500      44.1140      12.7785       9.0653    -999.2500       2.5748
   1735.1384    -999.2500      43.0520      13.0880       9.5657    -999.2500       2.5743
   1735.2908    -999.2500      42.6819      13.2160       9.9686    -999.2500       2.5706
   1735.4432    -999.2500      43.2639      13.0950      10.2366    -999.2500       2.5626
   1735.5956    -999.2500      45.0830      13.1228      10.0839    -999.2500       2.5542
   1735.7480    -999.2500      48.6049      13.3548       9.3505    -999.2500       2.5452
   1735.9004    -999.2500      54.2299      13.4378       9.2474    -999.2500       2.5400
   1736.0529    -999.2500      62.7506      13.3163      10.0152    -999.2500       2.5400
   1736.2052    -999.2500      65.4918      13.0612      11.2925    -999.2500       2.5408
   1736.3577    -999.2500      60.2735      12.6227      13.2714    -999.2500       2.5428
   1736.5100    -999.2500      57.4269      12.1547      13.6456    -999.2500       2.5362
   1736.6625    -999.2500      57.8473      11.6462      11.8091    -999.2500       2.5177
   1736.8148    -999.2500      58.9198      11.1734      10.8634    -999.2500       2.5097
   1736.9672    -999.2500      60.8905      10.7494      11.1449    -999.2500       2.5162
   1737.1196    -999.2500      59.6877      10.3801      11.2393    -999.2500       2.5230
   1737.2720    -999.2500      54.1254      10.0862      11.0758    -999.2500       2.5300
   1737.4244    -999.2500      53.1700       9.9371      10.4769    -999.2500       2.5342
   1737.5768    -999.2500      58.5448       9.9871       9.2780    -999.2500       2.5347
   1737.7292    -999.2500      61.1692      10.1973       8.7064    -999.2500       2.5352
   1737.8816    -999.2500      60.0132      10.6278       8.9999    -999.2500       2.5357
   1738.0341    -999.2500      60.4295      11.1351       9.7092    -999.2500       2.5362
   1738.1864    -999.2500      63.0075      11.7481      10.9922    -999.2500       2.5367
   1738.3389    -999.2500      63.8620      12.3906      11.6259    -999.2500       2.5370
   1738.4912    -999.2500      62.3465      13.0735      11.3639    -999.2500       2.5370
   1738.6437    -999.2500      62.6740      13.3972      10.7725    -999.2500       2.5271
   1738.7960    -999.2500      65.5364      13.2266       9.7266    -999.2500       2.5036
   1738.9484    -999.2500      68.6639      12.8777       9.7012    -999.2500       2.4961
   1739.1008    -999.2500      72.1563      12.2842      11.0846    -999.2500       2.5106
   1739.2532    -999.2500      74.6148      12.1936      11.7872    -999.2500       2.5184
   1739.4056    -999.2500      75.6502      12.7925      11.5498    -999.2500       2.5169
   1739.5580    -999.2500      75.6189      12.9240      11.3144    -999.2500       2.5046
   1739.7104    -999.2500      74.1189      12.4140      11.0819    -999.2500       2.4776
