#------------------------------------------------------------------------------
#
#   Created by  : [OpenWorks] Log Export Utility (LEXP)
#   Created on  : 2016-05-23 11:51:18
#   Project     : CANT971
#   User        : R5K
#   Interpreter : PEP
#
#------------------------------------------------------------------------------
~VERSION INFORMATION
VERS. 2.0 : CWLS Log ASCII Standard - version 2.0
WRAP.  NO : One line per depth step
~WELL INFORMATION
#MNEMONIC   .UNIT                                           VALUE :DESCRIPTION
#------------------------------------------------------------------------------
STRT        .M                                           690.7880 :START DEPTH
STOP        .M                                          2950.1179 :STOP DEPTH
STEP        .M                                             0.1524 :STEP
NULL        .                                           -999.2500 :NULL VALUE
COMP        .                                   PEMEX EXPL & PROD :COMPANY
WELL        .                                                1066 :WELL
FLD         .                                           CANTARELL :FIELD
LOC         .                                             UNKNOWN :LOCATION
CNTY        .                                      CD. DEL CARMEN :COUNTY
STAT        .                                            CAMPECHE :STATE
CTRY        .                                              MEXICO :COUNTRY
SRVC        .                                             UNKNOWN :SERVICE COMPANY
DATE        .                                             UNKNOWN :LOG DATE
UWI         .                                          3060000505 :UNIQUE WELL ID
XCOORD      .                                       596157.670000 :SURFACE X
YCOORD      .                                      2150605.920000 :SURFACE Y
LAT         .                                           19.448718 :LATITUDE
LON         .                                          -92.083948 :LONGITUDE
ELEV        .M                                            30.0000 :SURFACE ELEV
ELEV_TYPE   .                                                  KB :ELEV TYPE
~CURVE INFORMATION
#MNEMONIC.UNIT        API CODE       : CURVE DESCRIPTION
#------------------------------------------------------------------------------
DEPTH    .M                          : Measured Depth
CALI     .inches      UNKNOWN        : CALI:litodensidad:rC:NONE:v0 (auto-composite)
DRHO     .g/cm3       UNKNOWN        : DRHO:litodensidad:rC:NONE:v0 (auto-composite)
DT       .us/ft       UNKNOWN        : DT:DT:rC:NONE:v0 (auto-composite)
GR       .API         UNKNOWN        : GR:UNKNOWN:rC:NONE:v0 (auto-composite)
ILD      .ohmm        UNKNOWN        : ILD:UNKNOWN:rC:NONE:v0 (auto-composite)
ILM      .ohmm        UNKNOWN        : ILM:UNKNOWN:rC:NONE:v0 (auto-composite)
LLD      .ohmm        UNKNOWN        : LLD:UNKNOWN:rC:NONE:v0 (auto-composite)
LLS      .ohmm        UNKNOWN        : LLS:UNKNOWN:rC:NONE:v0 (auto-composite)
MSFL     .ohmm        UNKNOWN        : MSFL:UNKNOWN:rC:NONE:v0 (auto-composite)
NPHI     .v/v_decimal UNKNOWN        : NPHI:PETROWORKS:rC:NONE:v2 
PEF      .b/elec      UNKNOWN        : PEF:litodensidad:rC:NONE:v0 (auto-composite)
RHOB     .g/cm3       UNKNOWN        : RHOB:litodensidad:rC:NONE:v0 (auto-composite)
~A     DEPTH         CALI         DRHO           DT           GR          ILD          ILM          LLD          LLS         MSFL         NPHI          PEF         RHOB
# ...
   1890.4808    -999.2500    -999.2500    -999.2500      44.4947       1.1044       1.0882       0.2000       0.2000       0.2000      -0.1500    -999.2500    -999.2500
   1890.6332    -999.2500    -999.2500    -999.2500      46.3681       1.1029       1.0862       0.2000       0.2000       0.2000      -0.1500    -999.2500    -999.2500
   1890.7856    -999.2500    -999.2500    -999.2500      47.2537       1.1010       1.0840       0.2000       0.2000       0.2000      -0.1500    -999.2500    -999.2500
   1890.9380    -999.2500    -999.2500    -999.2500      46.6841       1.0985       1.0815       0.2000       0.2000       0.2000      -0.1500    -999.2500    -999.2500
   1891.0905    -999.2500    -999.2500    -999.2500      45.9911       1.0956       1.0792       0.2000       0.2000       0.2000      -0.1500    -999.2500    -999.2500
   1891.2428    -999.2500    -999.2500    -999.2500      45.1203       1.0921       1.0772       0.2000       0.2000       0.2000      -0.1500    -999.2500    -999.2500
   1891.3953    -999.2500    -999.2500    -999.2500      45.2123       1.0886       1.0754       0.2000       0.2000       0.2000      -0.1500    -999.2500    -999.2500
   1891.5476    -999.2500    -999.2500    -999.2500      46.6999       1.0851       1.0739       0.2000       0.2000       0.2000      -0.1500    -999.2500    -999.2500
   1891.7001    -999.2500    -999.2500    -999.2500      47.4994       1.0824       1.0728       0.2000       0.2000       0.2000      -0.1500    -999.2500    -999.2500
   1891.8524    -999.2500    -999.2500    -999.2500      47.3240       1.0809       1.0723       0.2000       0.2000       0.2000      -0.1500    -999.2500    -999.2500
   1892.0049    -999.2500    -999.2500    -999.2500      46.3175       1.0796       1.0718       0.2000       0.2000       0.2000      -0.1500    -999.2500    -999.2500
   1892.1572    -999.2500    -999.2500    -999.2500      44.1564       1.0786       1.0713       0.2000       0.2000       0.2000      -0.1500    -999.2500    -999.2500
   1892.3096    -999.2500    -999.2500    -999.2500      43.4492       1.0767       1.0695       0.2000       0.2000       0.2000      -0.1500    -999.2500    -999.2500
   1892.4620    -999.2500    -999.2500    -999.2500      44.7688       1.0737       1.0660       0.2000       0.2000       0.2000      -0.1500    -999.2500    -999.2500
   1892.6144    -999.2500    -999.2500    -999.2500      46.7624       1.0695       1.0612       0.2000       0.2000       0.2000      -0.1500    -999.2500    -999.2500
   1892.7668    -999.2500    -999.2500    -999.2500      49.6775       1.0634       1.0547       0.2000       0.2000       0.2000      -0.1500    -999.2500    -999.2500
   1892.9192    -999.2500    -999.2500    -999.2500      51.1254       1.0564       1.0482       0.2000       0.2000       0.2000      -0.1500    -999.2500    -999.2500
   1893.0717    -999.2500    -999.2500    -999.2500      50.6124       1.0479       1.0417       0.2000       0.2000       0.2000      -0.1500    -999.2500    -999.2500
   1893.2240    -999.2500    -999.2500    -999.2500      49.3265       1.0394       1.0348       0.2000       0.2000       0.2000      -0.1500    -999.2500    -999.2500
   1893.3765    -999.2500    -999.2500    -999.2500      47.0005       1.0308       1.0273       0.2000       0.2000       0.2000      -0.1500    -999.2500    -999.2500
   1893.5288    -999.2500    -999.2500    -999.2500      45.1809       1.0232       1.0198       0.2000       0.2000       0.2000      -0.1500    -999.2500    -999.2500
   1893.6813    -999.2500    -999.2500    -999.2500      44.0274       1.0167       1.0123       0.2000       0.2000       0.2000      -0.1500    -999.2500    -999.2500
   1893.8336    -999.2500    -999.2500    -999.2500      43.1904       1.0108       1.0058       0.2000       0.2000       0.2000      -0.1500    -999.2500    -999.2500
   1893.9861    -999.2500    -999.2500    -999.2500      42.7714       1.0058       1.0008       0.2000       0.2000       0.2000      -0.1500    -999.2500    -999.2500
   1894.1384    -999.2500    -999.2500    -999.2500      43.2826       1.0015       0.9965       0.2000       0.2000       0.2000      -0.1500    -999.2500    -999.2500
   1894.2908    -999.2500    -999.2500    -999.2500      44.9983       0.9980       0.9930       0.2000       0.2000       0.2000      -0.1500    -999.2500    -999.2500
   1894.4432    -999.2500    -999.2500    -999.2500      46.3260       0.9956       0.9908       0.2000       0.2000       0.2000      -0.1500    -999.2500    -999.2500
   1894.5956    -999.2500    -999.2500    -999.2500      47.1623       0.9946       0.9903       0.2000       0.2000       0.2000      -0.1500    -999.2500    -999.2500
   1894.7480    -999.2500    -999.2500    -999.2500      47.1587       0.9949       0.9909       0.2000       0.2000       0.2000      -0.1500    -999.2500    -999.2500
   1894.9004    -999.2500    -999.2500    -999.2500      46.0842       0.9969       0.9929       0.2000       0.2000       0.2000      -0.1500    -999.2500    -999.2500
   1895.0529    -999.2500    -999.2500    -999.2500      45.7604       0.9989       0.9947       0.2000       0.2000       0.2000      -0.1500    -999.2500    -999.2500
   1895.2052    -999.2500    -999.2500    -999.2500      46.3724       1.0009       0.9962       0.2000       0.2000       0.2000      -0.1500    -999.2500    -999.2500
   1895.3577    -999.2500    -999.2500    -999.2500      46.9340       1.0027       0.9970       0.2000       0.2000       0.2000      -0.1500    -999.2500    -999.2500
   1895.5100    -999.2500    -999.2500    -999.2500      47.4324       1.0042       0.9970       0.2000       0.2000       0.2000      -0.1500    -999.2500    -999.2500
   1895.6625    -999.2500    -999.2500    -999.2500      47.9828       1.0045       0.9968       0.2000       0.2000       0.2000      -0.1500    -999.2500    -999.2500
   1895.8148    -999.2500    -999.2500    -999.2500      48.5970       1.0035       0.9963       0.2000       0.2000       0.2000      -0.1500    -999.2500    -999.2500
   1895.9673    -999.2500    -999.2500    -999.2500      49.4991       1.0021       0.9958       0.2000       0.2000       0.2000      -0.1500    -999.2500    -999.2500
   1896.1196    -999.2500    -999.2500    -999.2500      50.7465       1.0001       0.9953       0.2000       0.2000       0.2000      -0.1500    -999.2500    -999.2500
   1896.2720    -999.2500    -999.2500    -999.2500      51.0484       0.9995       0.9955       0.2000       0.2000       0.2000      -0.1500    -999.2500    -999.2500
   1896.4244    -999.2500    -999.2500    -999.2500      50.2081       1.0005       0.9965       0.2000       0.2000       0.2000      -0.1500    -999.2500    -999.2500
   1896.5768    -999.2500    -999.2500    -999.2500      49.5089       1.0021       0.9984       0.2000       0.2000       0.2000      -0.1500    -999.2500    -999.2500
   1896.7292    -999.2500    -999.2500    -999.2500      48.9763       1.0046       1.0014       0.2000       0.2000       0.2000      -0.1500    -999.2500    -999.2500
   1896.8816    -999.2500    -999.2500    -999.2500      47.9615       1.0083       1.0048       0.2000       0.2000       0.2000      -0.1500    -999.2500    -999.2500
   1897.0341    -999.2500    -999.2500    -999.2500      46.3730       1.0133       1.0088       0.2000       0.2000       0.2000      -0.1500    -999.2500    -999.2500
   1897.1864    -999.2500    -999.2500    -999.2500      45.4242       1.0192       1.0140       0.2000       0.2000       0.2000      -0.1500    -999.2500    -999.2500
   1897.3389    -999.2500    -999.2500    -999.2500      45.2192       1.0263       1.0205       0.2000       0.2000       0.2000      -0.1500    -999.2500    -999.2500
   1897.4912    -999.2500    -999.2500    -999.2500      45.7736       1.0328       1.0273       0.2000       0.2000       0.2000      -0.1500    -999.2500    -999.2500
   1897.6437    -999.2500    -999.2500    -999.2500      47.1945       1.0388       1.0343       0.2000       0.2000       0.2000      -0.1500    -999.2500    -999.2500
