#------------------------------------------------------------------------------
#
#   Created by  : [OpenWorks] Log Export Utility (LEXP)
#   Created on  : 2016-05-12 17:18:19
#   Project     : CANT971
#   User        : R5K
#   Interpreter : PEP
#
#------------------------------------------------------------------------------
~VERSION INFORMATION
VERS. 2.0 : CWLS Log ASCII Standard - version 2.0
WRAP.  NO : One line per depth step
~WELL INFORMATION
#MNEMONIC   .UNIT                                           VALUE :DESCRIPTION
#------------------------------------------------------------------------------
STRT        .M                                           134.7982 :START DEPTH
STOP        .M                                          2692.2227 :STOP DEPTH
STEP        .M                                             0.1524 :STEP
NULL        .                                           -999.2500 :NULL VALUE
COMP        .                                   PEMEX EXPL & PROD :COMPANY
WELL        .                                                 57A :WELL
FLD         .                                           CANTARELL :FIELD
LOC         .                                             UNKNOWN :LOCATION
CNTY        .                                      CD. DEL CARMEN :COUNTY
STAT        .                                            CAMPECHE :STATE
CTRY        .                                              MEXICO :COUNTRY
SRVC        .                                             UNKNOWN :SERVICE COMPANY
DATE        .                                             UNKNOWN :LOG DATE
UWI         .                                          3060000169 :UNIQUE WELL ID
XCOORD      .                                       602151.210000 :SURFACE X
YCOORD      .                                      2147168.830000 :SURFACE Y
LAT         .                                           19.417362 :LATITUDE
LON         .                                          -92.027041 :LONGITUDE
ELEV        .M                                            28.1700 :SURFACE ELEV
ELEV_TYPE   .                                                  KB :ELEV TYPE
~CURVE INFORMATION
#MNEMONIC.UNIT        API CODE       : CURVE DESCRIPTION
#------------------------------------------------------------------------------
DEPTH    .M                          : Measured Depth
CALI     .inches      UNKNOWN        : CALI:UNKNOWN:r1:MAIN:v1 
DRHO     .UNKNOWN     UNKNOWN        : DRHO:UNKNOWN:r1:MAIN:v1 
DT       .us/ft       UNKNOWN        : DT:UNKNOWN:r1:MAIN:v1 
GR       .API         UNKNOWN        : GR:GR:r1:MAIN:v1 
ILD      .UNKNOWN     UNKNOWN        : ILD:UNKNOWN:r1:MAIN:v1 
LLD      .UNKNOWN     UNKNOWN        : LLD:UNKNOWN:r1:MAIN:v1 
LLS      .UNKNOWN     UNKNOWN        : LLS:UNKNOWN:r1:MAIN:v1 
MSFL     .UNKNOWN     UNKNOWN        : MSFL:UNKNOWN:r1:MAIN:v1 
NORM     .UNKNOWN     UNKNOWN        : NORM:NORM-Load:r1:MAIN:v1 
NPHI     .v/v_decimal UNKNOWN        : NPHI:UNKNOWN:r1:MAIN:v1 
RHOB     .UNKNOWN     UNKNOWN        : RHOB:UNKNOWN:r1:MAIN:v1 
SP       .mV          UNKNOWN        : SP:PETROWORKS:rC:NONE:v1 
~A     DEPTH         CALI         DRHO           DT           GR          ILD          LLD          LLS         MSFL         NORM         NPHI         RHOB           SP
# ...
   2212.3149       8.0473       0.0571      63.5310      26.2984       0.2000      37.7461      30.6084      16.9791    -999.2500       0.1661       2.5619     150.5669
   2212.4675       8.1265       0.0661      62.8416      26.5869       0.2000      43.2218      30.8927      15.0723    -999.2500       0.1626       2.5785     151.3425
   2212.6199       8.1765       0.0734      62.1341      26.8576       0.2000      49.3046      32.2272      13.1187    -999.2500       0.1589       2.5928     151.9846
   2212.7722       8.0181       0.0684      61.2978      27.0010       0.2000      59.7170      41.0507      10.8313    -999.2500       0.1541       2.5913     152.4086
   2212.9246       7.8520       0.0655      60.5121      27.2708       0.2000      70.9438      50.2350       8.6467    -999.2500       0.1497       2.5926     152.8661
   2213.0769       7.6339       0.0770      60.0694      28.3974       0.2000      87.6927      61.8662       7.1586    -999.2500       0.1469       2.6126     153.3772
   2213.2295       7.4477       0.0885      59.5937      29.4313       0.2000     104.0138      75.3177       5.8699    -999.2500       0.1438       2.6335     153.9629
   2213.3818       7.4677       0.0995      58.9053      29.8660       0.2000     117.5713     100.5246       5.8694    -999.2500       0.1383       2.6596     154.6649
   2213.5342       7.4850       0.1077      58.2993      30.3057       0.2000     126.8125     123.0705       6.0805    -999.2500       0.1328       2.6812     155.3214
   2213.6865       7.4850       0.0987      58.2016      30.7765       0.2000     109.4549     129.2190       7.5952    -999.2500       0.1270       2.6757     155.9087
   2213.8391       7.4836       0.0886      57.8966      31.2632       0.2000      91.1021     130.3761       9.3985    -999.2500       0.1218       2.6716     156.6056
   2213.9915       7.4741       0.0721      56.3716      31.8434       0.2000      66.8888     102.1399      12.9014    -999.2500       0.1190       2.6756     157.4661
   2214.1438       7.4527       0.0593      55.2063      32.0594       0.2000      44.9694      75.3334      16.1656    -999.2500       0.1164       2.6825     158.4796
   2214.2961       7.3634       0.0684      56.0932      30.1978       0.2000      36.1394      56.6852      18.0679    -999.2500       0.1149       2.7061     159.7175
   2214.4487       7.3462       0.0771      57.1860      28.3925       0.2000      29.9918      43.0500      19.9140    -999.2500       0.1137       2.7265     160.9321
   2214.6011       7.7228       0.0841      59.4036      26.8959       0.2000      38.5064      56.8161      21.4527    -999.2500       0.1144       2.7301     162.1131
   2214.7534       8.0676       0.0892      61.5501      25.6153       0.2000      61.5464      77.8500      22.4154    -999.2500       0.1158       2.7333     162.7565
   2214.9058       8.2461       0.0842      63.3235      25.4674       0.2000     160.7339     136.9839      20.3577    -999.2500       0.1199       2.7353     162.6467
   2215.0581       8.4131       0.0812      64.7542      25.5550       0.2000     241.5006     190.3946      18.0173    -999.2500       0.1240       2.7360     162.1976
   2215.2107       8.5224       0.0888      64.4599      26.8280       0.2000     229.5460     214.9968      14.2544    -999.2500       0.1281       2.7300     161.2839
   2215.3630       8.5909       0.0931      64.4015      28.1629       0.2000     215.4711     233.8137      11.0448    -999.2500       0.1309       2.7253     160.5164
   2215.5154       8.4622       0.0821      65.4847      29.7971       0.2000     191.1376     224.6401      10.5122    -999.2500       0.1274       2.7273     159.9447
   2215.6677       8.3473       0.0713      66.3953      30.9274       0.2000     172.3286     214.5003      10.2921    -999.2500       0.1242       2.7298     159.4382
   2215.8203       8.2977       0.0618      66.4941      29.6854       0.2000     179.5225     199.8126      11.5426    -999.2500       0.1228       2.7343     159.0175
   2215.9727       8.2535       0.0540      66.4593      28.3580       0.2000     190.2253     192.1086      12.9275    -999.2500       0.1214       2.7372     158.6019
   2216.1250       8.2339       0.0540      65.8196      26.6433       0.2000     216.8295     216.0540      14.9215    -999.2500       0.1194       2.7327     158.1929
   2216.2773       8.1977       0.0537      65.4551      25.1321       0.2000     239.6974     237.3765      16.7192    -999.2500       0.1170       2.7289     157.7887
   2216.4299       8.0889       0.0522      66.2929      24.5098       0.2000     246.2475     247.2444      17.6593    -999.2500       0.1129       2.7284     157.3904
   2216.5823       8.0010       0.0520      66.6773      24.0066       0.2000     247.4140     249.3163      18.3008    -999.2500       0.1090       2.7290     157.0659
   2216.7346       8.0010       0.0570      65.1515      24.0046       0.2000     225.9034     218.5505      17.6846    -999.2500       0.1063       2.7340     156.8323
   2216.8870       8.0186       0.0621      63.2270      24.0456       0.2000     200.1822     189.6548      17.1303    -999.2500       0.1041       2.7403     156.6821
   2217.0393       8.1079       0.0676      59.6812      24.2616       0.2000     157.3420     168.3623      16.8280    -999.2500       0.1041       2.7518     156.6325
   2217.1919       8.1911       0.0762      56.6854      24.4409       0.2000     119.1633     148.2670      16.4133    -999.2500       0.1042       2.7658     156.5993
   2217.3442       8.2507       0.0967      55.8498      24.4750       0.2000      99.2926     132.8736      15.5577    -999.2500       0.1048       2.7893     156.5855
   2217.4966       8.2488       0.1137      55.5234      24.5087       0.2000      88.0842     122.7050      14.8506    -999.2500       0.1040       2.8099     156.5668
   2217.6489       8.0112       0.1172      57.1494      24.5413       0.2000     110.0827     132.5653      14.7132    -999.2500       0.0981       2.8189     156.5426
   2217.8015       7.7798       0.1171      58.3359      24.6208       0.2000     140.8884     150.1191      14.9404    -999.2500       0.0929       2.8243     156.4122
   2217.9539       7.5717       0.1036      57.8932      24.8740       0.2000     204.3459     196.1953      16.5193    -999.2500       0.0903       2.8163     156.1615
   2218.1062       7.4241       0.0919      57.1070      25.1906       0.2000     273.8132     248.9306      18.3186    -999.2500       0.0882       2.8080     155.7567
   2218.2585       7.4933       0.0869      55.0884      25.7346       0.2000     364.8420     325.5560      20.9088    -999.2500       0.0876       2.7990     155.1809
   2218.4111       7.5737       0.0811      53.7412      26.2787       0.2000     467.1178     390.6346      23.0544    -999.2500       0.0871       2.7908     154.7414
   2218.5635       7.6930       0.0726      54.7265      26.8233       0.2000     608.4636     415.6013      23.6555    -999.2500       0.0867       2.7853     154.4495
   2218.7158       7.8349       0.0667      54.8097      27.1441       0.2000     726.7182     443.7090      23.5749    -999.2500       0.0861       2.7796     154.3056
   2218.8682       8.0528       0.0697      51.8574      26.7051       0.2000     767.2576     482.3877      21.1997    -999.2500       0.0852       2.7736     154.3184
   2219.0205       8.2246       0.0705      48.9736      26.1635       0.2000     788.7835     517.0526      19.4871    -999.2500       0.0840       2.7672     154.2696
   2219.1731       8.2441       0.0640      46.3152      25.2878       0.2000     747.7227     538.5051      19.9554    -999.2500       0.0822       2.7597     154.1564
   2219.3254       8.2638       0.0597      45.5483      24.4118       0.2000     707.0293     540.0227      20.5125    -999.2500       0.0804       2.7512     154.0269
   2219.4778       8.2838       0.0627      50.8189      23.5349       0.2000     667.5087     477.9090      21.3528    -999.2500       0.0782       2.7397     153.8808
