#------------------------------------------------------------------------------
#
#   Created by  : [OpenWorks] Log Export Utility (LEXP)
#   Created on  : 2016-05-12 17:01:19
#   Project     : CANT971
#   User        : R5K
#   Interpreter : PEP
#
#------------------------------------------------------------------------------
~VERSION INFORMATION
VERS. 2.0 : CWLS Log ASCII Standard - version 2.0
WRAP.  NO : One line per depth step
~WELL INFORMATION
#MNEMONIC   .UNIT                                           VALUE :DESCRIPTION
#------------------------------------------------------------------------------
STRT        .M                                           335.5854 :START DEPTH
STOP        .M                                          2510.4858 :STOP DEPTH
STEP        .M                                             0.1524 :STEP
NULL        .                                           -999.2500 :NULL VALUE
COMP        .                                   PEMEX EXPL & PROD :COMPANY
WELL        .                                                  35 :WELL
FLD         .                                           CANTARELL :FIELD
LOC         .                                             UNKNOWN :LOCATION
CNTY        .                                      CD. DEL CARMEN :COUNTY
STAT        .                                            CAMPECHE :STATE
CTRY        .                                              MEXICO :COUNTRY
SRVC        .                                             UNKNOWN :SERVICE COMPANY
DATE        .                                             UNKNOWN :LOG DATE
UWI         .                                          3060000159 :UNIQUE WELL ID
XCOORD      .                                       602147.900000 :SURFACE X
YCOORD      .                                      2147168.470000 :SURFACE Y
LAT         .                                           19.417359 :LATITUDE
LON         .                                          -92.027072 :LONGITUDE
ELEV        .M                                            28.1700 :SURFACE ELEV
ELEV_TYPE   .                                                  KB :ELEV TYPE
~CURVE INFORMATION
#MNEMONIC.UNIT        API CODE       : CURVE DESCRIPTION
#------------------------------------------------------------------------------
DEPTH    .M                          : Measured Depth
CALI     .inches      UNKNOWN        : CALI:Import:rC:NONE:v0 (auto-composite)
DRHO     .g/cm3       UNKNOWN        : DRHO:Import:rC:NONE:v0 (auto-composite)
DT       .us/ft       UNKNOWN        : DT:Import:rC:NONE:v0 (auto-composite)
GR       .API         UNKNOWN        : GR:Import:rC:NONE:v0 (auto-composite)
ILD      .ohm.m       UNKNOWN        : ILD:Import:rC:NONE:v0 (auto-composite)
LLD      .ohm.m       UNKNOWN        : LLD:Import:rC:NONE:v0 (auto-composite)
LLS      .ohm.m       UNKNOWN        : LLS:Import:rC:NONE:v0 (auto-composite)
MSFL     .ohm.m       UNKNOWN        : MSFL:Import:rC:NONE:v0 (auto-composite)
NPHI     .v/v_decimal UNKNOWN        : NPHI:Import:rC:NONE:v0 (auto-composite)
RHOB     .g/cm3       UNKNOWN        : RHOB:Import:rC:NONE:v0 (auto-composite)
SP       .mV          UNKNOWN        : SP:Import:rC:NONE:v0 (auto-composite)
~A     DEPTH         CALI         DRHO           DT           GR          ILD          LLD          LLS         MSFL         NPHI         RHOB           SP
# ...
   1199.3885      20.4400   -1998.5000     137.9300      75.3900       0.8370    -999.2500    -999.2500    -999.2500       0.3675       2.2250      86.9800
   1199.5410      20.1747   -1998.5000     137.6026      74.2851       0.8345    -999.2500    -999.2500    -999.2500       0.3688       2.2185      86.9294
   1199.6934      19.9100   -1998.5000     137.2780      73.1900       0.8320    -999.2500    -999.2500    -999.2500       0.3679       2.2120      86.8790
   1199.8458      20.1713   -1998.5000     136.2320      73.7484       0.8380    -999.2500    -999.2500    -999.2500       0.3652       2.2060      86.6140
   1199.9982      20.4320   -1998.5000     135.1950      74.3020       0.8440    -999.2500    -999.2500    -999.2500       0.3620       2.2000      86.3500
   1200.1506      20.6237   -1998.5000     134.4468      74.7479       0.8505    -999.2500    -999.2500    -999.2500       0.3592       2.2115      86.3500
   1200.3030      20.8150   -1998.5000     133.7050      75.1900       0.8570    -999.2500    -999.2500    -999.2500       0.3575       2.2230      86.3500
   1200.4554      20.9927   -1998.5000     133.1851      74.3632       0.8640    -999.2500    -999.2500    -999.2500       0.3586       2.2305      86.2082
   1200.6078      21.1700   -1998.5000     132.6700      73.5440       0.8710    -999.2500    -999.2500    -999.2500       0.3610       2.2380      86.0670
   1200.7601      20.5772   -1998.5000     133.2931      71.3310       0.8790    -999.2500    -999.2500    -999.2500       0.3645       2.2440      85.7730
   1200.9126      19.9860   -1998.5000     133.9100      69.1400       0.8870    -999.2500    -999.2500    -999.2500       0.3692       2.2500      85.4800
   1201.0649      19.2958   -1998.5000     133.6643      69.9691       0.8925    -999.2500    -999.2500    -999.2500       0.3759       2.2450      85.6052
   1201.2174      18.6080   -1998.5000     133.4210      70.7900       0.8980    -999.2500    -999.2500    -999.2500       0.3824       2.2400      85.7300
   1201.3698      18.4337   -1998.5000     132.9934      70.6734       0.9020    -999.2500    -999.2500    -999.2500       0.3859       2.2400      85.5367
   1201.5222      18.2600   -1998.5000     132.5700      70.5580       0.9060    -999.2500    -999.2500    -999.2500       0.3869       2.2400      85.3440
   1201.6746      18.7458   -1998.5000     132.7710      70.1596       0.9135    -999.2500    -999.2500    -999.2500       0.3833       2.2400      85.0966
   1201.8270      19.2300   -1998.5000     132.9700      69.7650       0.9210    -999.2500    -999.2500    -999.2500       0.3772       2.2400      84.8500
   1201.9794      18.9210   -1998.5000     132.5400      68.3709       0.9330    -999.2500    -999.2500    -999.2500       0.3682       2.2350      85.3329
   1202.1318      18.6130   -1998.5000     132.1140      66.9900       0.9450    -999.2500    -999.2500    -999.2500       0.3593       2.2300      85.8140
   1202.2842      18.3061   -1998.5000     131.1827      67.7184       0.9530    -999.2500    -999.2500    -999.2500       0.3536       2.2450      85.9573
   1202.4366      18.0000   -1998.5000     130.2600      68.4400       0.9610    -999.2500    -999.2500    -999.2500       0.3493       2.2600      86.1000
   1202.5890      18.0345   -1998.5000     129.8230      66.6614       0.9625    -999.2500    -999.2500    -999.2500       0.3464       2.2650      86.1651
   1202.7413      18.0690   -1998.5000     129.3900      64.8990       0.9640    -999.2500    -999.2500    -999.2500       0.3453       2.2700      86.2300
   1202.8938      18.1101   -1998.5000     129.4854      63.6031       0.9640    -999.2500    -999.2500    -999.2500       0.3478       2.2650      86.1348
   1203.0461      18.1510   -1998.5000     129.5800      62.3190       0.9640    -999.2500    -999.2500    -999.2500       0.3519       2.2600      86.0400
   1203.1986      18.3257   -1998.5000     129.7357      61.1242       0.9595    -999.2500    -999.2500    -999.2500       0.3578       2.2650      85.8847
   1203.3510      18.5000   -1998.5000     129.8900      59.9400       0.9550    -999.2500    -999.2500    -999.2500       0.3633       2.2700      85.7300
   1203.5034      18.9836   -1998.5000     129.2572      60.8550       0.9550    -999.2500    -999.2500    -999.2500       0.3665       2.2625      85.7300
   1203.6558      19.4660   -1998.5000     128.6300      61.7620       0.9550    -999.2500    -999.2500    -999.2500       0.3676       2.2550      85.7300
   1203.8082      19.8910   -1998.5000     128.7264      62.3410       0.9570    -999.2500    -999.2500    -999.2500       0.3644       2.2475      85.6338
   1203.9606      20.3150   -1998.5000     128.8220      62.9150       0.9590    -999.2500    -999.2500    -999.2500       0.3603       2.2400      85.5380
   1204.1130      20.4877   -1998.5000     129.1328      63.2695       0.9560    -999.2500    -999.2500    -999.2500       0.3578       2.2440      85.4138
   1204.2654      20.6600   -1998.5000     129.4410      63.6210       0.9530    -999.2500    -999.2500    -999.2500       0.3569       2.2480      85.2900
   1204.4178      20.5103   -1998.5000     129.7851      65.6649       0.9450    -999.2500    -999.2500    -999.2500       0.3595       2.2490      85.0696
   1204.5702      20.3610   -1998.5000     130.1260      67.6900       0.9370    -999.2500    -999.2500    -999.2500       0.3622       2.2500      84.8500
   1204.7225      20.2554   -1998.5000     131.0074      67.5895       0.9270    -999.2500    -999.2500    -999.2500       0.3620       2.2550      84.8500
   1204.8750      20.1500   -1998.5000     131.8800      67.4900       0.9170    -999.2500    -999.2500    -999.2500       0.3622       2.2600      84.8500
   1205.0273      20.2001   -1998.5000     131.8448      68.5703       0.9105    -999.2500    -999.2500    -999.2500       0.3663       2.2500      85.1655
   1205.1798      20.2500   -1998.5000     131.8100      69.6400       0.9040    -999.2500    -999.2500    -999.2500       0.3686       2.2400      85.4800
   1205.3322      20.1213   -1998.5000     132.2169      68.1604       0.9170    -999.2500    -999.2500    -999.2500       0.3618       2.2400      85.1044
   1205.4846      19.9930   -1998.5000     132.6200      66.6950       0.9300    -999.2500    -999.2500    -999.2500       0.3524       2.2400      84.7300
   1205.6370      19.9014   -1998.5000     131.6579      64.9090       0.9440    -999.2500    -999.2500    -999.2500       0.3432       2.2515      84.9669
   1205.7894      19.8100   -1998.5000     130.7050      63.1400       0.9580    -999.2500    -999.2500    -999.2500       0.3362       2.2630      85.2030
   1205.9418      19.8400   -1998.5000     129.2909      64.1814       0.9725    -999.2500    -999.2500    -999.2500       0.3358       2.2705      85.5597
   1206.0942      19.8700   -1998.5000     127.8900      65.2130       0.9870    -999.2500    -999.2500    -999.2500       0.3365       2.2780      85.9150
   1206.2466      19.9601   -1998.5000     128.2115      65.9549       0.9980    -999.2500    -999.2500    -999.2500       0.3349       2.2790      86.1986
   1206.3990      20.0500   -1998.5000     128.5300      66.6900       1.0090    -999.2500    -999.2500    -999.2500       0.3324       2.2800      86.4810
   1206.5514      20.1501   -1998.5000     127.8660      65.4343       1.0140    -999.2500    -999.2500    -999.2500       0.3292       2.2800      86.6058
   1206.7037      20.2500   -1998.5000     127.2080      64.1900       1.0190    -999.2500    -999.2500    -999.2500       0.3274       2.2800      86.7300
   1206.8562      19.8395   -1998.5000     126.6314      65.4251       1.0150    -999.2500    -999.2500    -999.2500       0.3306       2.2760      86.4414
   1207.0085      19.4300   -1998.5000     126.0600      66.6490       1.0110    -999.2500    -999.2500    -999.2500       0.3354       2.2720      86.1540
   1207.1610      19.4846   -1998.5000     126.4266      67.3978       1.0045    -999.2500    -999.2500    -999.2500       0.3396       2.2630      86.0017
