#------------------------------------------------------------------------------
#
#   Created by  : [OpenWorks] Log Export Utility (LEXP)
#   Created on  : 2016-05-23 11:55:56
#   Project     : CANT971
#   User        : R5K
#   Interpreter : PEP
#
#------------------------------------------------------------------------------
~VERSION INFORMATION
VERS. 2.0 : CWLS Log ASCII Standard - version 2.0
WRAP.  NO : One line per depth step
~WELL INFORMATION
#MNEMONIC   .UNIT                                           VALUE :DESCRIPTION
#------------------------------------------------------------------------------
STRT        .M                                          3767.4790 :START DEPTH
STOP        .M                                          5548.2729 :STOP DEPTH
STEP        .M                                             0.1524 :STEP
NULL        .                                           -999.2500 :NULL VALUE
COMP        .                                             UNKNOWN :COMPANY
WELL        .                                            418D-ST2 :WELL
FLD         .                                             UNKNOWN :FIELD
LOC         .                                             UNKNOWN :LOCATION
CNTY        .                                             UNKNOWN :COUNTY
STAT        .                                             UNKNOWN :STATE
CTRY        .                                             UNKNOWN :COUNTRY
SRVC        .                                             UNKNOWN :SERVICE COMPANY
DATE        .                                             UNKNOWN :LOG DATE
UWI         .                                            418D-ST2 :UNIQUE WELL ID
XCOORD      .                                       597130.010000 :SURFACE X
YCOORD      .                                      2144879.410000 :SURFACE Y
LAT         .                                           19.396924 :LATITUDE
LON         .                                          -92.074978 :LONGITUDE
ELEV        .M                                             0.0000 :SURFACE ELEV
ELEV_TYPE   .                                                  NA :ELEV TYPE
~CURVE INFORMATION
#MNEMONIC.UNIT        API CODE       : CURVE DESCRIPTION
#------------------------------------------------------------------------------
DEPTH    .M                          : Measured Depth
CALI     .inches      UNKNOWN        : CALI:PETROWORKS:rC:NONE:v1 
CGR      .API         UNKNOWN        : CGR:PETROWORKS:rC:NONE:v2 
DRHO     .g/cm3       UNKNOWN        : DRHO:PETROWORKS:rC:NONE:v1 
DT       .us/ft       UNKNOWN        : DT:PETROWORKS:rC:NONE:v2 
GR       .API         UNKNOWN        : GR:PETROWORKS:rC:NONE:v2 
ILD      .ohm.m       UNKNOWN        : ILD:PETROWORKS:rC:NONE:v2 
ILM      .ohm.m       UNKNOWN        : ILM:PETROWORKS:rC:NONE:v2 
NPHI     .v/v_decimal UNKNOWN        : NPHI:PETROWORKS:rC:NONE:v3 
PEF      .b/elec      UNKNOWN        : PEF:PETROWORKS:rC:NONE:v1 
POTA     .wtpercent   UNKNOWN        : POTA:PETROWORKS:rC:NONE:v2 
RHOB     .UNKNOWN     UNKNOWN        : RHOB:PETROWORKS:rC:NONE:v1 
THOR     .ppm         UNKNOWN        : THOR:PETROWORKS:rC:NONE:v2 
URAN     .ppm         UNKNOWN        : URAN:PETROWORKS:rC:NONE:v2 
~A     DEPTH         CALI          CGR         DRHO           DT           GR          ILD          ILM         NPHI          PEF         POTA         RHOB         THOR         URAN
# ...
   4954.3701       6.5380       6.3442       0.0047      48.9975      13.0580   20000.0000   20000.0000       0.0535       5.0149       0.0022       2.6836       0.8867       0.9147
   4954.5225       6.5425       6.1754       0.0096      49.6669      13.2919   20000.0000   20000.0000       0.0515       4.9503       0.0021       2.7040       0.8698       0.9696
   4954.6748       6.5676       5.9005       0.0150      50.3216      13.4610   20000.0000   20000.0000       0.0507       4.9104       0.0020       2.7192       0.8445       1.0300
   4954.8276       6.5893       5.7034       0.0144      51.0600      13.4732   20000.0000   20000.0000       0.0531       4.9703       0.0019       2.7099       0.8440       1.0586
   4954.9800       6.5870       5.7214       0.0106      52.2553      13.4893   20000.0000   20000.0000       0.0564       5.0536       0.0019       2.6907       0.8546       1.0583
   4955.1323       6.6072       5.8727       0.0079      56.2683      13.4251   20000.0000   20000.0000       0.0584       5.1340       0.0020       2.6788       0.8351       1.0289
   4955.2847       6.6766       6.0168       0.0123      59.2468      13.2451   20000.0000   20000.0000       0.0581       5.2562       0.0021       2.6881       0.8129       0.9848
   4955.4370       6.6811       6.1685       0.0198      58.2588      13.0836   20000.0000   20000.0000       0.0571       5.3389       0.0022       2.7026       0.8219       0.9421
   4955.5894       6.6302       6.1300       0.0228      55.4013      12.8212   20000.0000   20000.0000       0.0577       5.3072       0.0022       2.7079       0.8234       0.9116
   4955.7417       6.6155       6.0263       0.0182      51.8092      12.6476   20000.0000   20000.0000       0.0586       5.2946       0.0021       2.7028       0.8132       0.9021
   4955.8940       6.6520       5.6961      -0.0013      50.3908      12.6263   20000.0000   20000.0000       0.0579       5.6087       0.0019       2.6758       0.8185       0.9442
   4956.0464       6.6947       5.3263      -0.0192      50.3308      12.6134   20000.0000   20000.0000       0.0576       6.0138       0.0017       2.6493       0.8281       0.9928
   4956.1992       6.6740       4.8008      -0.0227      50.1263      12.6017   20000.0000   20000.0000       0.0610       6.1641       0.0014       2.6387       0.8126       1.0628
   4956.3516       6.6444       4.3364      -0.0180      49.5713      12.5772   20000.0000   20000.0000       0.0653       6.0197       0.0011       2.6387       0.7970       1.1227
   4956.5039       6.6768       4.1262      -0.0070      49.3152      12.5034   20000.0000   20000.0000       0.0677       5.5678       0.0010       2.6417       0.8188       1.1413
   4956.6562       6.7280       4.1263       0.0009      49.4182      12.4506   20000.0000   20000.0000       0.0675       5.2306       0.0009       2.6416       0.8510       1.1341
   4956.8086       6.7225       4.4930       0.0047      49.7611      12.5022   20000.0000   20000.0000       0.0642       5.1244       0.0010       2.6439       0.8959       1.0912
   4956.9609       6.6561       4.9933       0.0084      49.9229      12.6286   20000.0000   20000.0000       0.0613       5.0835       0.0013       2.6512       0.9379       1.0402
   4957.1133       6.6247       5.2942       0.0111      49.4284      12.8417   20000.0000   20000.0000       0.0593       5.0285       0.0014       2.6646       0.9446       1.0283
   4957.2656       6.6683       5.2591       0.0121      48.6550      12.9980   20000.0000   20000.0000       0.0573       4.9497       0.0015       2.6751       0.9242       1.0543
   4957.4180       6.7151       4.9213       0.0075      47.3388      13.1252   20000.0000   20000.0000       0.0541       4.8450       0.0013       2.6785       0.8782       1.1177
   4957.5708       6.6969       4.6853       0.0014      46.5146      13.2501   20000.0000   20000.0000       0.0508       4.7614       0.0013       2.6789       0.8516       1.1669
   4957.7231       6.6491       4.7145      -0.0035      46.5328      13.4903   20000.0000   20000.0000       0.0493       4.7761       0.0012       2.6816       0.8789       1.1956
   4957.8755       6.6306       4.7320      -0.0051      46.9810      13.7467   20000.0000   20000.0000       0.0485       4.8575       0.0011       2.6890       0.9106       1.2281
   4958.0278       6.6594       4.4238      -0.0029      47.8874      13.9178   20000.0000   20000.0000       0.0486       4.9795       0.0008       2.7009       0.9025       1.2934
   4958.1802       6.6664       3.9256      -0.0009      48.2575      13.9793   20000.0000   20000.0000       0.0487       5.0298       0.0006       2.7072       0.8752       1.3697
   4958.3325       6.6530       3.4576       0.0020      47.9273      13.9826   20000.0000   20000.0000       0.0480       4.9597       0.0005       2.7042       0.8390       1.4339
   4958.4849       6.6564       3.4350       0.0048      47.8699      13.9701   20000.0000   20000.0000       0.0472       4.8898       0.0006       2.7044       0.8368       1.4353
   4958.6372       6.6624       3.8514       0.0052      49.5352      13.9048   20000.0000   20000.0000       0.0468       4.8702       0.0008       2.7092       0.8909       1.3697
   4958.7900       6.6592       4.2676       0.0045      51.6446      13.4131   20000.0000   20000.0000       0.0474       4.8611       0.0009       2.7192       0.9329       1.2460
   4958.9424       6.6486       4.4153       0.0034      54.3772      12.7749   20000.0000   20000.0000       0.0482       4.8498       0.0009       2.7270       0.9272       1.1389
   4959.0947       6.6523       4.3041       0.0014      55.3078      12.1851   20000.0000   20000.0000       0.0491       4.8674       0.0010       2.7198       0.8762       1.0737
   4959.2471       6.6647       4.3934      -0.0001      52.9371      11.8482   20000.0000   20000.0000       0.0505       4.9081       0.0011       2.7057       0.8576       1.0157
   4959.3994       6.6696       4.6518       0.0045      50.6632      11.7732   20000.0000   20000.0000       0.0529       4.9645       0.0012       2.6946       0.8845       0.9703
   4959.5518       6.6680       4.6772       0.0128      50.0139      11.7410   20000.0000   20000.0000       0.0552       4.9982       0.0012       2.6965       0.8834       0.9624
   4959.7041       6.6683       4.4348       0.0256      51.9146      11.6419   20000.0000   20000.0000       0.0572       5.0233       0.0011       2.7180       0.8247       0.9819
   4959.8564       6.6755       4.1368       0.0349      53.6696      11.4894   20000.0000   20000.0000       0.0584       5.0629       0.0010       2.7302       0.7572       1.0017
   4960.0088       6.6727       3.8913       0.0309      55.1035      11.4118   20000.0000   20000.0000       0.0618       5.1175       0.0010       2.7069       0.7100       1.0246
   4960.1616       6.6818       3.7899       0.0217      55.8926      11.4431   20000.0000   20000.0000       0.0662       5.1391       0.0010       2.6771       0.6959       1.0427
   4960.3140       6.7082       4.0074       0.0125      56.2932      11.7034   20000.0000   20000.0000       0.0680       5.0318       0.0011       2.6596       0.7360       1.0485
   4960.4663       6.7062       4.1997       0.0091      56.2765      11.9211   20000.0000   20000.0000       0.0678       4.9368       0.0012       2.6552       0.7750       1.0520
   4960.6187       6.6789       4.6594       0.0131      55.5136      12.1406   20000.0000   20000.0000       0.0674       4.9311       0.0014       2.6650       0.8240       1.0192
   4960.7710       6.6619       5.0898       0.0152      54.7840      12.3079   20000.0000   20000.0000       0.0679       4.9195       0.0016       2.6744       0.8484       0.9834
   4960.9233       6.6954       5.3457       0.0121      53.8353      12.3716   20000.0000   20000.0000       0.0690       4.8515       0.0018       2.6777       0.8314       0.9572
