#------------------------------------------------------------------------------
#
#   Created by  : [OpenWorks] Log Export Utility (LEXP)
#   Created on  : 2016-05-23 11:56:14
#   Project     : CANT971
#   User        : R5K
#   Interpreter : PEP
#
#------------------------------------------------------------------------------
~VERSION INFORMATION
VERS. 2.0 : CWLS Log ASCII Standard - version 2.0
WRAP.  NO : One line per depth step
~WELL INFORMATION
#MNEMONIC   .UNIT                                           VALUE :DESCRIPTION
#------------------------------------------------------------------------------
STRT        .M                                          2395.2905 :START DEPTH
STOP        .M                                          2859.1960 :STOP DEPTH
STEP        .M                                             0.1524 :STEP
NULL        .                                           -999.2500 :NULL VALUE
COMP        .                                             UNKNOWN :COMPANY
WELL        .                                               446-V :WELL
FLD         .                                             UNKNOWN :FIELD
LOC         .                                             UNKNOWN :LOCATION
CNTY        .                                             UNKNOWN :COUNTY
STAT        .                                             UNKNOWN :STATE
CTRY        .                                             UNKNOWN :COUNTRY
SRVC        .                                             UNKNOWN :SERVICE COMPANY
DATE        .                                             UNKNOWN :LOG DATE
UWI         .                                               446-V :UNIQUE WELL ID
XCOORD      .                                       596708.730000 :SURFACE X
YCOORD      .                                      2143311.960000 :SURFACE Y
LAT         .                                           19.382780 :LATITUDE
LON         .                                          -92.079070 :LONGITUDE
ELEV        .M                                             0.0000 :SURFACE ELEV
ELEV_TYPE   .                                                  NA :ELEV TYPE
~CURVE INFORMATION
#MNEMONIC.UNIT        API CODE       : CURVE DESCRIPTION
#------------------------------------------------------------------------------
DEPTH    .M                          : Measured Depth
CALI     .inches      UNKNOWN        : CALI:litodensidad:rC:NONE:v0 (auto-composite)
CGR      .API         UNKNOWN        : CGR:Espectrometria:rC:NONE:v0 (auto-composite)
DRHO     .g/cm3       UNKNOWN        : DRHO:litodensidad:rC:NONE:v0 (auto-composite)
DT       .us/ft       UNKNOWN        : DT:sonico:rC:NONE:v0 (auto-composite)
GR       .API         UNKNOWN        : GR:GR-Load:rC:NONE:v0 (auto-composite)
GR-LWD   .API         UNKNOWN        : GR-LWD:resistivos-LWD:rC:NONE:v0 (auto-composite)
ILD-LWD  .ohm.m       UNKNOWN        : ILD-LWD:resistivos-LWD:rC:NONE:v0 (auto-composite)
ILM-LWD  .UNKNOWN     UNKNOWN        : ILM-LWD:resistivos-LWD:rC:NONE:v0 (auto-composite)
LLD      .ohm.m       UNKNOWN        : LLD:resistivos:rC:NONE:v0 (auto-composite)
LLS      .ohm.m       UNKNOWN        : LLS:resistivos:rC:NONE:v0 (auto-composite)
MSFL     .ohm.m       UNKNOWN        : MSFL:resistivos:rC:NONE:v0 (auto-composite)
NPHI     .UNKNOWN     UNKNOWN        : NPHI:porosidad:rC:NONE:v0 (auto-composite)
PEF      .UNKNOWN     UNKNOWN        : PEF:litodensidad:rC:NONE:v0 (auto-composite)
POTA     .wtpercent   UNKNOWN        : POTA:Espectrometria:rC:NONE:v0 (auto-composite)
RHOB     .g/cm3       UNKNOWN        : RHOB:litodensidad:rC:NONE:v0 (auto-composite)
THOR     .ppm         UNKNOWN        : THOR:Espectrometria:rC:NONE:v0 (auto-composite)
URAN     .ppm         UNKNOWN        : URAN:Espectrometria:rC:NONE:v0 (auto-composite)
~A     DEPTH         CALI          CGR         DRHO           DT           GR       GR-LWD      ILD-LWD      ILM-LWD          LLD          LLS         MSFL         NPHI          PEF         POTA         RHOB         THOR         URAN
# ...
   2672.6584       8.9885      10.2473       0.0615      47.7321      29.2471    -999.2500    -999.2500    -999.2500     149.7970     157.5092       1.7586       0.0333       3.2275       0.0058       2.8584       0.6173       2.1153
   2672.8110       9.1432      11.2081       0.0544      47.4934      31.6908    -999.2500    -999.2500    -999.2500     124.0754     132.7353       1.2299       0.0368       3.2192       0.0061       2.8498       0.7469       2.2804
   2672.9634       9.1883      12.2604       0.0491      47.4620      31.9596    -999.2500    -999.2500    -999.2500     113.9518     121.3826       0.7554       0.0414       3.2122       0.0061       2.8384       1.0488       2.1932
   2673.1157       9.0845      11.9332       0.0529      47.4038      30.6714    -999.2500    -999.2500    -999.2500     109.9610     115.6296       0.5246       0.0425       3.2193       0.0052       2.8356       1.3270       2.0862
   2673.2681       8.9969      10.0214       0.0595      47.3627      29.4799    -999.2500    -999.2500    -999.2500     114.9803     120.8735       0.8208       0.0404       3.2486       0.0042       2.8436       1.1653       2.1664
   2673.4204       8.9460       9.2088       0.0634      47.3705      27.7398    -999.2500    -999.2500    -999.2500     122.6319     128.3144       1.1894       0.0375       3.2810       0.0037       2.8570       1.1342       2.0631
   2673.5730       8.9317       9.0634       0.0610      47.5513      24.2323    -999.2500    -999.2500    -999.2500     106.6286     114.5962       1.3804       0.0369       3.2941       0.0047       2.8734       0.6983       1.6888
   2673.7253       8.9195      11.2625       0.0565      48.0119      22.9053    -999.2500    -999.2500    -999.2500      85.9518      91.8382       1.2560       0.0372       3.2821       0.0063       2.8686       0.6801       1.2962
   2673.8777       8.9564      15.5106       0.0522      49.1773      24.1305    -999.2500    -999.2500    -999.2500      63.9430      63.7001       1.5382       0.0411       3.2778       0.0080       2.8467       1.2168       0.9597
   2674.0300       8.9879      20.4578       0.0466      49.9490      26.5723    -999.2500    -999.2500    -999.2500      55.2661      49.8662       2.1127       0.0450       3.2859       0.0090       2.8195       2.2461       0.6807
   2674.1826       9.0199      23.2792       0.0392      50.9149      27.7661    -999.2500    -999.2500    -999.2500      54.2581      47.7374       2.6993       0.0474       3.2713       0.0093       2.7962       2.8972       0.4995
   2674.3350       9.0064      21.5694       0.0376      51.6245      24.9397    -999.2500    -999.2500    -999.2500      65.0893      61.8811       2.4235       0.0440       3.2232       0.0087       2.8035       2.6675       0.3752
   2674.4873       9.0054      12.7782       0.0400      51.7080      19.4358    -999.2500    -999.2500    -999.2500      87.4493      88.3940       1.4183       0.0354       3.1761       0.0063       2.8294       1.1095       0.7412
   2674.6396       8.9994       6.9634       0.0423      51.7521      17.7407    -999.2500    -999.2500    -999.2500     111.6510     106.4861       1.0777       0.0271       3.1902       0.0045       2.8484       0.1781       1.1999
   2674.7922       9.0031       5.5443       0.0450      51.7373      18.7248    -999.2500    -999.2500    -999.2500     132.8421     117.7323       1.0418       0.0264       3.2442       0.0038       2.8584       0.0610       1.4674
   2674.9446       9.0024       6.2535       0.0477      51.6897      20.2234    -999.2500    -999.2500    -999.2500     117.2803      99.9139       1.3361       0.0311       3.2910       0.0043       2.8585       0.0630       1.5553
   2675.0969       8.9890       6.5901       0.0488      51.4593      21.5046    -999.2500    -999.2500    -999.2500     103.1830      84.9497       2.0006       0.0366       3.3353       0.0045       2.8531       0.0654       1.6605
   2675.2493       9.0245       6.1549       0.0446      51.0152      18.9581    -999.2500    -999.2500    -999.2500     101.8899      85.0872       1.8782       0.0371       3.3192       0.0041       2.8440       0.1033       1.4255
   2675.4016       9.1669       6.9691       0.0353      50.4899      17.2236    -999.2500    -999.2500    -999.2500     107.1248      92.5478       1.4127       0.0339       3.2369       0.0038       2.8330       0.4492       1.1417
   2675.5542       9.2207       7.8368       0.0313      50.0769      17.1115    -999.2500    -999.2500    -999.2500     113.9205     101.4734       1.3180       0.0321       3.1809       0.0042       2.8338       0.5457       1.0326
   2675.7065       9.2285       7.2337       0.0293      49.7518      17.3904    -999.2500    -999.2500    -999.2500     125.8704     116.3710       1.6745       0.0317       3.1573       0.0042       2.8354       0.3661       1.1307
   2675.8589       9.2268       5.9007       0.0356      49.5581      17.9915    -999.2500    -999.2500    -999.2500     121.0305     113.6216       1.6491       0.0311       3.1989       0.0036       2.8380       0.2436       1.3461
   2676.0112       9.2524       4.2157       0.0552      49.5288      20.8155    -999.2500    -999.2500    -999.2500     108.1608     101.5232       1.7590       0.0325       3.3154       0.0029       2.8449       0.0397       1.8481
   2676.1638       9.2845       5.1099       0.0673      49.5205      23.6275    -999.2500    -999.2500    -999.2500     104.3573      97.8826       1.9312       0.0322       3.3814       0.0032       2.8533       0.1611       2.0616
   2676.3162       9.2219      10.7855       0.0752      49.9157      28.8062    -999.2500    -999.2500    -999.2500      95.0939     102.8524       2.2152       0.0441       3.4235       0.0056       2.8584       0.8199       2.0063
   2676.4685       9.1682      14.4035       0.0733      50.4069      30.5105    -999.2500    -999.2500    -999.2500      84.7526     110.1076       2.1212       0.0532       3.4051       0.0071       2.8492       1.2512       1.7933
   2676.6208       9.1103      17.3533       0.0708      52.5682      30.9414    -999.2500    -999.2500    -999.2500      70.4782     109.2854       1.9269       0.0570       3.3487       0.0084       2.8111       1.5848       1.5128
   2676.7734       9.0962      18.2812       0.0717      56.1839      29.4097    -999.2500    -999.2500    -999.2500      45.2062      76.3225       1.2841       0.0690       3.2602       0.0085       2.6956       1.8083       1.2390
   2676.9258       9.1108      18.3565       0.0711      57.9974      28.2792    -999.2500    -999.2500    -999.2500      35.1541      52.1937       0.9542       0.0842       3.2303       0.0079       2.5853       2.0551       1.1047
   2677.0781       9.1386      17.0815       0.0639      59.3363      27.6910    -999.2500    -999.2500    -999.2500      31.4565      38.0774       1.0491       0.0891       3.2490       0.0069       2.5409       2.1042       1.1812
   2677.2305       9.1782      16.5923       0.0570      59.7522      28.7464    -999.2500    -999.2500    -999.2500      40.8486      45.8815       1.7964       0.0842       3.2859       0.0074       2.6366       1.7822       1.3532
   2677.3828       9.2168      14.4558       0.0596      59.3982      29.9792    -999.2500    -999.2500    -999.2500      62.2063      67.1070       3.0116       0.0644       3.3123       0.0077       2.7800       1.0407       1.7283
   2677.5354       9.1740      12.1079       0.0669      58.5111      29.3592    -999.2500    -999.2500    -999.2500      88.2173      85.5086       3.9995       0.0621       3.3145       0.0075       2.8421       0.4626       1.9207
   2677.6877       9.0850      10.8610       0.0680      56.8018      26.8658    -999.2500    -999.2500    -999.2500     104.1523      95.0259       4.1858       0.0504       3.3002       0.0065       2.8707       0.5089       1.7819
   2677.8401       9.0479      13.6988       0.0594      53.3348      24.3832    -999.2500    -999.2500    -999.2500      88.7496      94.1446       2.3808       0.0429       3.2860       0.0064       2.8663       1.3489       1.1896
