#------------------------------------------------------------------------------
#
#   Created by  : [OpenWorks] Log Export Utility (LEXP)
#   Created on  : 2016-05-23 11:55:49
#   Project     : CANT971
#   User        : R5K
#   Interpreter : PEP
#
#------------------------------------------------------------------------------
~VERSION INFORMATION
VERS. 2.0 : CWLS Log ASCII Standard - version 2.0
WRAP.  NO : One line per depth step
~WELL INFORMATION
#MNEMONIC   .UNIT                                           VALUE :DESCRIPTION
#------------------------------------------------------------------------------
STRT        .M                                           773.4315 :START DEPTH
STOP        .M                                          2865.1216 :STOP DEPTH
STEP        .M                                             0.1524 :STEP
NULL        .                                           -999.2500 :NULL VALUE
COMP        .                                             UNKNOWN :COMPANY
WELL        .                                                408D :WELL
FLD         .                                             UNKNOWN :FIELD
LOC         .                                             UNKNOWN :LOCATION
CNTY        .                                             UNKNOWN :COUNTY
STAT        .                                             UNKNOWN :STATE
CTRY        .                                             UNKNOWN :COUNTRY
SRVC        .                                             UNKNOWN :SERVICE COMPANY
DATE        .                                             UNKNOWN :LOG DATE
UWI         .                                                408D :UNIQUE WELL ID
XCOORD      .                                       597130.770000 :SURFACE X
YCOORD      .                                      2144867.260000 :SURFACE Y
LAT         .                                           19.396814 :LATITUDE
LON         .                                          -92.074972 :LONGITUDE
ELEV        .M                                             0.0000 :SURFACE ELEV
ELEV_TYPE   .                                                  KB :ELEV TYPE
~CURVE INFORMATION
#MNEMONIC.UNIT        API CODE       : CURVE DESCRIPTION
#------------------------------------------------------------------------------
DEPTH    .M                          : Measured Depth
CALI     .inches      UNKNOWN        : CALI:litodensidad:rC:NONE:v0 (auto-composite)
CGR      .API         UNKNOWN        : CGR:PETROWORKS:rC:NONE:v1 
DRHO     .g/cm3       UNKNOWN        : DRHO:litodensidad:rC:NONE:v0 (auto-composite)
DT       .us/ft       UNKNOWN        : DT:PETROWORKS:rC:NONE:v1 
GR       .API         UNKNOWN        : GR:PETROWORKS:rC:NONE:v3 
GR-LWD   .UNKNOWN     UNKNOWN        : GR-LWD:resistivos-LWD:rC:NONE:v0 (auto-composite)
LLD      .ohm.m       UNKNOWN        : LLD:PETROWORKS:rC:NONE:v1 
LLD-LWD  .UNKNOWN     UNKNOWN        : LLD-LWD:resistivos-LWD:rC:NONE:v0 (auto-composite)
LLS      .UNKNOWN     UNKNOWN        : LLS:PETROWORKS:rC:NONE:v1 
LLS-LWD  .UNKNOWN     UNKNOWN        : LLS-LWD:resistivos-LWD:rC:NONE:v0 (auto-composite)
MSFL     .UNKNOWN     UNKNOWN        : MSFL:PETROWORKS:rC:NONE:v1 
MSFL-LWD .UNKNOWN     UNKNOWN        : MSFL-LWD:resistivos-LWD:rC:NONE:v0 (auto-composite)
NPHI     .v/v_decimal UNKNOWN        : NPHI:PETROWORKS:rC:NONE:v3 
PEF      .UNKNOWN     UNKNOWN        : PEF:litodensidad:rC:NONE:v0 (auto-composite)
POTA     .wtpercent   UNKNOWN        : POTA:PETROWORKS:rC:NONE:v1 
RHOB     .g/cm3       UNKNOWN        : RHOB:litodensidad:rC:NONE:v0 (auto-composite)
THOR     .ppm         UNKNOWN        : THOR:PETROWORKS:rC:NONE:v1 
URAN     .ppm         UNKNOWN        : URAN:PETROWORKS:rC:NONE:v1 
~A     DEPTH         CALI          CGR         DRHO           DT           GR       GR-LWD          LLD      LLD-LWD          LLS      LLS-LWD         MSFL     MSFL-LWD         NPHI          PEF         POTA         RHOB         THOR         URAN
# ...
   1935.1768    -999.2500      19.7355    -999.2500     110.6851      60.1889      60.2870       1.2407       1.2420       1.2311       1.2320       1.3956       1.3970       0.4652    -999.2500       0.0055    -999.2500       3.1558       1.3312
   1935.3291    -999.2500      20.5961    -999.2500     113.3577      60.3848      60.3860       1.1615       1.1610       1.0767       1.0780       1.2185       1.2200       0.4509    -999.2500       0.0055    -999.2500       3.4272       1.1343
   1935.4816    -999.2500      19.4826    -999.2500     107.0010      59.6403      59.7200       1.2587       1.2570       1.0261       1.0260       1.1661       1.1660       0.4485    -999.2500       0.0051    -999.2500       3.2986       1.1867
   1935.6339    -999.2500      19.9546    -999.2500     106.2106      57.7187      57.7420       1.5025       1.5010       1.1558       1.1540       1.3126       1.3100       0.4506    -999.2500       0.0050    -999.2500       3.4697       1.0395
   1935.7864    -999.2500      19.7368    -999.2500     107.5782      55.4513      55.3650       1.6468       1.6460       1.3565       1.3540       1.5682       1.5650       0.5004    -999.2500       0.0052    -999.2500       3.3209       1.1019
   1935.9387    -999.2500      19.2495    -999.2500     100.3128      54.6396      54.6460       1.6326       1.6330       1.5028       1.5020       1.7627       1.7620       0.5460    -999.2500       0.0048    -999.2500       3.3620       0.9632
   1936.0911    -999.2500      17.9564    -999.2500     103.0569      54.7507      54.7070       1.5458       1.5470       1.5304       1.5310       1.7820       1.7820       0.5304    -999.2500       0.0044    -999.2500       3.1976       0.8032
   1936.2435    -999.2500      15.5238    -999.2500     100.8351      55.1570      55.0810       1.4363       1.4370       1.4502       1.4510       1.6557       1.6570       0.4781    -999.2500       0.0037    -999.2500       2.8426       0.8457
   1936.3959    -999.2500      14.5813    -999.2500      99.1254      58.0066      57.8610       1.3038       1.3050       1.2995       1.3010       1.4823       1.4840       0.4267    -999.2500       0.0034    -999.2500       2.7280       0.7793
   1936.5483    -999.2500      14.7496    -999.2500     105.4018      62.0850      62.1260       1.1713       1.1720       1.1488       1.1500       1.3425       1.3440       0.4349    -999.2500       0.0033    -999.2500       2.8229       0.8340
   1936.7007    -999.2500      15.9036    -999.2500     105.0075      64.0906      64.2800       1.0800       1.0800       1.0600       1.0600       1.2600       1.2600       0.4236    -999.2500       0.0036    -999.2500       3.0233       0.7059
   1936.8531    -999.2500      15.5599    -999.2500     107.7569      63.8535      63.9080       1.0434       1.0440       1.0438       1.0440       1.2556       1.2550       0.4553    -999.2500       0.0036    -999.2500       2.8882       0.9836
   1937.0055    -999.2500      17.0489    -999.2500     106.7166      62.0288      62.1420       1.0435       1.0430       1.0672       1.0670       1.3236       1.3230       0.4704    -999.2500       0.0039    -999.2500       3.1815       1.0486
   1937.1580    -999.2500      17.1624    -999.2500     105.5186      59.7669      59.7090       1.0730       1.0730       1.1340       1.1330       1.4169       1.4160       0.4905    -999.2500       0.0039    -999.2500       3.2371       1.0869
   1937.3103    -999.2500      16.3287    -999.2500     100.8711      59.0350      58.9380       1.1022       1.1020       1.1998       1.1990       1.4805       1.4800       0.4687    -999.2500       0.0039    -999.2500       2.9603       1.1214
   1937.4628    -999.2500      15.9239    -999.2500     100.4062      59.4495      59.4840       1.0828       1.0830       1.2153       1.2150       1.4631       1.4640       0.4412    -999.2500       0.0037    -999.2500       2.9587       1.1331
   1937.6151    -999.2500      15.4505    -999.2500     102.0742      59.4387      59.5110       1.0527       1.0520       1.1860       1.1860       1.4048       1.4050       0.4133    -999.2500       0.0037    -999.2500       2.8040       1.3036
   1937.7676    -999.2500      16.8371    -999.2500     102.6906      58.1880      58.1520       1.1148       1.1140       1.1927       1.1920       1.4001       1.4000       0.4033    -999.2500       0.0042    -999.2500       2.9805       1.3362
   1937.9199    -999.2500      17.3828    -999.2500     105.2604      57.1073      57.0060       1.2310       1.2300       1.2570       1.2560       1.4480       1.4470       0.4036    -999.2500       0.0043    -999.2500       3.0736       1.2457
   1938.0723    -999.2500      16.5501    -999.2500     105.8906      57.9360      58.0120       1.2541       1.2540       1.3149       1.3140       1.5071       1.5070       0.4097    -999.2500       0.0042    -999.2500       2.8604       1.2748
   1938.2247    -999.2500      16.2358    -999.2500     107.9679      58.2508      58.3210       1.1914       1.1920       1.3244       1.3250       1.5562       1.5560       0.4087    -999.2500       0.0041    -999.2500       2.8325       1.0163
   1938.3771    -999.2500      14.1332    -999.2500     104.2568      56.6937      56.6340       1.1421       1.1420       1.3034       1.3040       1.5885       1.5880       0.4194    -999.2500       0.0033    -999.2500       2.6173       0.9889
   1938.5295    -999.2500      14.4609    -999.2500     102.5261      55.6248      55.6220       1.1516       1.1510       1.3102       1.3100       1.6057       1.6060       0.4280    -999.2500       0.0033    -999.2500       2.7344       0.9016
   1938.6819    -999.2500      14.9041    -999.2500     103.0910      56.6474      56.5160       1.1818       1.1820       1.3245       1.3250       1.5952       1.5950       0.4341    -999.2500       0.0037    -999.2500       2.6023       0.9971
   1938.8344    -999.2500      17.9838    -999.2500      96.7002      59.1977      59.1750       1.1959       1.1960       1.3133       1.3130       1.5505       1.5510       0.4400    -999.2500       0.0045    -999.2500       3.1486       0.8599
   1938.9867    -999.2500      19.5008    -999.2500      96.5015      61.3254      61.5750       1.2155       1.2150       1.3078       1.3080       1.5015       1.5020       0.4452    -999.2500       0.0044    -999.2500       3.6917       0.6888
   1939.1392    -999.2500      18.8120    -999.2500      99.6504      60.7729      60.7910       1.2349       1.2350       1.3035       1.3030       1.4825       1.4830       0.4482    -999.2500       0.0042    -999.2500       3.5807       0.5045
   1939.2915    -999.2500      18.4934    -999.2500      96.0560      58.7702      58.6240       1.2608       1.2600       1.3187       1.3180       1.4939       1.4940       0.4222    -999.2500       0.0040    -999.2500       3.6221       0.2507
   1939.4440    -999.2500      17.8220    -999.2500      95.6062      57.9170      57.9210       1.3010       1.3010       1.3441       1.3440       1.5437       1.5430       0.4216    -999.2500       0.0040    -999.2500       3.4151       0.2933
   1939.5963    -999.2500      18.3330    -999.2500      97.9636      57.5304      57.5580       1.3222       1.3220       1.3645       1.3640       1.5988       1.5980       0.4193    -999.2500       0.0041    -999.2500       3.4823       0.1969
   1939.7488    -999.2500      17.9225    -999.2500      97.5078      57.3697      57.3610       1.2645       1.2650       1.3491       1.3500       1.5940       1.5940       0.4077    -999.2500       0.0041    -999.2500       3.3951       0.0247
   1939.9011    -999.2500      16.8347    -999.2500      99.6664      57.8501      57.9790       1.1650       1.1650       1.2900       1.2900       1.5400       1.5400       0.4204    -999.2500       0.0039    -999.2500       3.1497       0.0834
   1940.0535    -999.2500      17.5693    -999.2500     101.9640      57.3742      57.3640       1.1212       1.1210       1.2330       1.2330       1.4920       1.4920       0.4165    -999.2500       0.0041    -999.2500       3.2472       0.1036
