#------------------------------------------------------------------------------
#
#   Created by  : [OpenWorks] Log Export Utility (LEXP)
#   Created on  : 2016-05-23 11:51:27
#   Project     : CANT971
#   User        : R5K
#   Interpreter : PEP
#
#------------------------------------------------------------------------------
~VERSION INFORMATION
VERS. 2.0 : CWLS Log ASCII Standard - version 2.0
WRAP.  NO : One line per depth step
~WELL INFORMATION
#MNEMONIC   .UNIT                                           VALUE :DESCRIPTION
#------------------------------------------------------------------------------
STRT        .M                                           294.1315 :START DEPTH
STOP        .M                                          1758.8479 :STOP DEPTH
STEP        .M                                             0.1524 :STEP
NULL        .                                           -999.2500 :NULL VALUE
COMP        .                                   PEMEX EXPL & PROD :COMPANY
WELL        .                                                1084 :WELL
FLD         .                                           CANTARELL :FIELD
LOC         .                                             UNKNOWN :LOCATION
CNTY        .                                      CD. DEL CARMEN :COUNTY
STAT        .                                            CAMPECHE :STATE
CTRY        .                                              MEXICO :COUNTRY
SRVC        .                                             UNKNOWN :SERVICE COMPANY
DATE        .                                             UNKNOWN :LOG DATE
UWI         .                                          3060000213 :UNIQUE WELL ID
XCOORD      .                                       596992.320000 :SURFACE X
YCOORD      .                                      2148289.820000 :SURFACE Y
LAT         .                                           19.427749 :LATITUDE
LON         .                                          -92.076116 :LONGITUDE
ELEV        .M                                            27.5000 :SURFACE ELEV
ELEV_TYPE   .                                                  KB :ELEV TYPE
~CURVE INFORMATION
#MNEMONIC.UNIT        API CODE       : CURVE DESCRIPTION
#------------------------------------------------------------------------------
DEPTH    .M                          : Measured Depth
CALI     .in          UNKNOWN        : CALI:registros:rC:NONE:v0 (auto-composite)
DRHO     .g/cm3       UNKNOWN        : DRHO:registros:rC:NONE:v0 (auto-composite)
DT       .us/ft       UNKNOWN        : DT:registros:rC:NONE:v0 (auto-composite)
GR       .api         UNKNOWN        : GR:registros:rC:NONE:v0 (auto-composite)
ILD      .ohmm        UNKNOWN        : ILD:registros:rC:NONE:v0 (auto-composite)
NPHI     .v/v_decimal UNKNOWN        : NPHI:registros:rC:NONE:v0 (auto-composite)
RHOB     .g/cm3       UNKNOWN        : RHOB:registros:rC:NONE:v0 (auto-composite)
~A     DEPTH         CALI         DRHO           DT           GR          ILD         NPHI         RHOB
# ...
   1232.9155      15.7300       0.3000     144.6710      74.0260       1.4650    -999.2500       2.2950
   1233.0679      15.7300       0.2900     144.3576      73.5376       1.4965    -999.2500       2.3075
   1233.2203      15.7300       0.2800     144.0450      73.0490       1.5280    -999.2500       2.3200
   1233.3727      15.6150       0.2800     143.4457      71.9733       1.5565    -999.2500       2.3150
   1233.5251      15.5000       0.2800     142.8480      70.8970       1.5850    -999.2500       2.3100
   1233.6775      15.5185       0.2815     140.4436      69.7339       1.5925    -999.2500       2.3115
   1233.8300      15.5370       0.2830     138.0470      68.5700       1.6000    -999.2500       2.3130
   1233.9823      15.6310       0.2865     130.3032      68.7099       1.6000    -999.2500       2.3190
   1234.1346      15.7250       0.2900     122.5900      68.8500       1.6000    -999.2500       2.3250
   1234.2871      15.8424       0.2850     122.8926      68.5452       1.6000    -999.2500       2.3325
   1234.4395      15.9600       0.2800     123.1940      68.2400       1.6000    -999.2500       2.3400
   1234.5919      15.9380       0.2815     124.7409      68.2770       1.6025    -999.2500       2.3400
   1234.7443      15.9160       0.2830     126.2820      68.3140       1.6050    -999.2500       2.3400
   1234.8967      15.8116       0.2865     129.0159      68.5470       1.6215    -999.2500       2.3415
   1235.0491      15.7070       0.2900     131.7400      68.7800       1.6380    -999.2500       2.3430
   1235.2015      15.4886       0.2885     131.4856      68.7380       1.6735    -999.2500       2.3480
   1235.3539      15.2700       0.2870     131.2320      68.6960       1.7090    -999.2500       2.3530
   1235.5063      15.2845       0.2785     130.0185      68.2780       1.7425    -999.2500       2.3590
   1235.6587      15.2990       0.2700     128.8090      67.8600       1.7760    -999.2500       2.3650
   1235.8112      15.3894       0.2715     125.8949      67.9775       1.8060    -999.2500       2.3750
   1235.9635      15.4800       0.2730     122.9900      68.0950       1.8360    -999.2500       2.3850
   1236.1158      15.4300       0.2765     123.2855      68.6975       1.8645    -999.2500       2.3975
   1236.2683      15.3800       0.2800     123.5800      69.3000       1.8930    -999.2500       2.4100
   1236.4207      15.4000       0.2815     123.4348      69.2975       1.9155    -999.2500       2.4075
   1236.5731      15.4200       0.2830     123.2900      69.2950       1.9380    -999.2500       2.4050
   1236.7255      15.4000       0.2865     122.4443      69.2835       1.9490    -999.2500       2.3960
   1236.8779      15.3800       0.2900     121.6010      69.2720       1.9600    -999.2500       2.3870
   1237.0303      15.3815       0.2900     115.4022      69.0226       1.9560    -999.2500       2.3785
   1237.1827      15.3830       0.2900     109.2200      68.7730       1.9520    -999.2500       2.3700
   1237.3351      15.4735       0.2850     109.4498      67.5219       1.9370    -999.2500       2.3715
   1237.4875      15.5640       0.2800     109.6790      66.2700       1.9220    -999.2500       2.3730
   1237.6399      15.9169       0.2800     110.7693      66.7378       1.9085    -999.2500       2.3765
   1237.7924      16.2700       0.2800     111.8560      67.2060       1.8950    -999.2500       2.3800
   1237.9447      16.0651       0.2800     113.3038      69.5120       1.8725    -999.2500       2.3850
   1238.0970      15.8600       0.2800     114.7460      71.8200       1.8500    -999.2500       2.3900
   1238.2495      15.8810       0.2750     115.8411      71.2203       1.8515    -999.2500       2.3885
   1238.4019      15.9020       0.2700     116.9320      70.6200       1.8530    -999.2500       2.3870
   1238.5543      15.9715       0.2700     118.8345      70.6560       1.8580    -999.2500       2.3785
   1238.7067      16.0410       0.2700     120.7300      70.6920       1.8630    -999.2500       2.3700
   1238.8591      16.1804       0.2750     120.6904      70.9475       1.8665    -999.2500       2.3725
   1239.0115      16.3200       0.2800     120.6510      71.2030       1.8700    -999.2500       2.3750
   1239.1639      16.2151       0.2775     120.0495      72.3566       1.8715    -999.2500       2.3825
   1239.3163      16.1100       0.2750     119.4500      73.5100       1.8730    -999.2500       2.3900
   1239.4688      16.2004       0.2625     120.1081      73.3500       1.8915    -999.2500       2.3885
   1239.6211      16.2910       0.2500     120.7640      73.1900       1.9100    -999.2500       2.3870
   1239.7736      16.7203       0.2525     122.8603      73.3300       1.9050    -999.2500       2.3785
   1239.9259      17.1500       0.2550     124.9500      73.4700       1.9000    -999.2500       2.3700
   1240.0782      17.1355       0.2640     124.4362      73.4600       1.9025    -999.2500       2.3725
   1240.2307      17.1210       0.2730     123.9240      73.4500       1.9050    -999.2500       2.3750
   1240.3831      17.0340       0.2765     118.1887      73.5600       1.9325    -999.2500       2.3825
   1240.5355      16.9470       0.2800     112.4700      73.6700       1.9600    -999.2500       2.3900
   1240.6879      16.6736       0.2800     113.4744      75.1597       1.9585    -999.2500       2.4050
   1240.8403      16.4000       0.2800     114.4760      76.6500       1.9570    -999.2500       2.4200
   1240.9927      16.4165       0.2800     117.9025      76.6075       1.9435    -999.2500       2.4170
   1241.1451      16.4330       0.2800     121.3200      76.5650       1.9300    -999.2500       2.4140
   1241.2975      16.4820       0.2800     120.6216      76.0572       1.9010    -999.2500       2.4020
   1241.4500      16.5310       0.2800     119.9250      75.5490       1.8720    -999.2500       2.3900
   1241.6023      16.5645       0.2850     116.3367      74.3415       1.8580    -999.2500       2.3900
   1241.7548      16.5980       0.2900     112.7600      73.1330       1.8440    -999.2500       2.3900
   1241.9071      16.8039       0.2885     113.0746      72.7967       1.8345    -999.2500       2.3900
   1242.0594      17.0100       0.2870     113.3880      72.4600       1.8250    -999.2500       2.3900
   1242.2119      16.9750       0.2820     114.3558      72.6184       1.8105    -999.2500       2.3875
   1242.3643      16.9400       0.2770     115.3200      72.7770       1.7960    -999.2500       2.3850
   1242.5167      16.9495       0.2685     115.2699      73.7779       1.7700    -999.2500       2.3760
   1242.6691      16.9590       0.2600     115.2200      74.7800       1.7440    -999.2500       2.3670
   1242.8215      16.9900       0.2615     115.7154      74.5371       1.7135    -999.2500       2.3585
   1242.9739      17.0210       0.2630     116.2090      74.2940       1.6830    -999.2500       2.3500
   1243.1263      17.0555       0.2680     118.5184      73.1919       1.6520    -999.2500       2.3500
   1243.2787      17.0900       0.2730     120.8200      72.0900       1.6210    -999.2500       2.3500
   1243.4312      17.0790       0.2765     120.3292      73.1100       1.5875    -999.2500       2.3515
   1243.5835      17.0680       0.2800     119.8400      74.1300       1.5540    -999.2500       2.3530
   1243.7358      17.0365       0.2800     120.5872      74.1285       1.5265    -999.2500       2.3565
   1243.8883      17.0050       0.2800     121.3320      74.1270       1.4990    -999.2500       2.3600
   1244.0406      16.9325       0.2800     123.9294      73.8185       1.4695    -999.2500       2.3600
   1244.1931      16.8600       0.2800     126.5190      73.5100       1.4400    -999.2500       2.3600
   1244.3455      16.8665       0.2800     128.2360      73.9399       1.4450    -999.2500       2.3600
   1244.4979      16.8730       0.2800     129.9480      74.3700       1.4500    -999.2500       2.3600
