#------------------------------------------------------------------------------
#
#   Created by  : [OpenWorks] Log Export Utility (LEXP)
#   Created on  : 2016-05-23 11:50:56
#   Project     : CANT971
#   User        : R5K
#   Interpreter : PEP
#
#------------------------------------------------------------------------------
~VERSION INFORMATION
VERS. 2.0 : CWLS Log ASCII Standard - version 2.0
WRAP.  NO : One line per depth step
~WELL INFORMATION
#MNEMONIC   .UNIT                                           VALUE :DESCRIPTION
#------------------------------------------------------------------------------
STRT        .M                                           679.7040 :START DEPTH
STOP        .M                                          2836.1641 :STOP DEPTH
STEP        .M                                             0.1524 :STEP
NULL        .                                           -999.2500 :NULL VALUE
COMP        .                                   PEMEX EXPL & PROD :COMPANY
WELL        .                                                1044 :WELL
FLD         .                                           CANTARELL :FIELD
LOC         .                                             UNKNOWN :LOCATION
CNTY        .                                      CD. DEL CARMEN :COUNTY
STAT        .                                            CAMPECHE :STATE
CTRY        .                                              MEXICO :COUNTRY
SRVC        .                                             UNKNOWN :SERVICE COMPANY
DATE        .                                             UNKNOWN :LOG DATE
UWI         .                                          3060000497 :UNIQUE WELL ID
XCOORD      .                                       596164.320000 :SURFACE X
YCOORD      .                                      2150609.730000 :SURFACE Y
LAT         .                                           19.448753 :LATITUDE
LON         .                                          -92.083884 :LONGITUDE
ELEV        .M                                            30.0000 :SURFACE ELEV
ELEV_TYPE   .                                                  KB :ELEV TYPE
~CURVE INFORMATION
#MNEMONIC.UNIT        API CODE       : CURVE DESCRIPTION
#------------------------------------------------------------------------------
DEPTH    .M                          : Measured Depth
CALI     .inches      UNKNOWN        : CALI:litodensidad:rC:NONE:v0 (auto-composite)
DRHO     .g/cm3       UNKNOWN        : DRHO:litodensidad:rC:NONE:v0 (auto-composite)
DT       .us/ft       UNKNOWN        : DT:DT:rC:NONE:v0 (auto-composite)
GR       .API         UNKNOWN        : GR:UNKNOWN:rC:NONE:v0 (auto-composite)
ILD      .ohm.m       UNKNOWN        : ILD:UNKNOWN:rC:NONE:v0 (auto-composite)
ILM      .ohm.m       UNKNOWN        : ILM:UNKNOWN:rC:NONE:v0 (auto-composite)
LLD      .ohm.m       UNKNOWN        : LLD:UNKNOWN:rC:NONE:v0 (auto-composite)
LLS      .ohm.m       UNKNOWN        : LLS:UNKNOWN:rC:NONE:v0 (auto-composite)
MSFL     .ohm.m       UNKNOWN        : MSFL:UNKNOWN:rC:NONE:v0 (auto-composite)
NPHI     .v/v_decimal UNKNOWN        : NPHI:NPHI:rC:NONE:v0 (auto-composite)
PEF      .b/elec      UNKNOWN        : PEF:UNKNOWN:rC:NONE:v0 (auto-composite)
RHOB     .g/cm3       UNKNOWN        : RHOB:UNKNOWN:rC:NONE:v0 (auto-composite)
~A     DEPTH         CALI         DRHO           DT           GR          ILD          ILM          LLD          LLS         MSFL         NPHI          PEF         RHOB
# ...
   2771.8511       9.5330       0.1460      85.7590     128.7980    -999.2500    -999.2500       3.4805       3.5703       5.2487       0.3140       3.1410       2.4430
   2772.0037       9.4495       0.1230      85.2788     130.8297    -999.2500    -999.2500       3.4518       3.5398       5.2087       0.2930       3.3309       2.4720
   2772.1560       9.3660       0.1000      84.7980     132.8570    -999.2500    -999.2500       3.4230       3.5092       5.1686       0.2719       3.5210       2.5010
   2772.3083       9.4290       0.1015      85.9368     134.1288    -999.2500    -999.2500       3.3507       3.4362       5.0130       0.2678       3.3621       2.4515
   2772.4607       9.4920       0.1030      87.0770     135.3980    -999.2500    -999.2500       3.2783       3.3631       4.8572       0.2637       3.2030       2.4020
   2772.6133       9.6969       0.1070      86.8462     134.7929    -999.2500    -999.2500       3.2188       3.3049       4.7671       0.2803       2.9861       2.3241
   2772.7656       9.9020       0.1110      86.6150     134.1890    -999.2500    -999.2500       3.1593       3.2466       4.6769       0.2969       2.7690       2.2460
   2772.9180      10.0764       0.1190      87.1216     131.2579    -999.2500    -999.2500       3.1817       3.2799       4.7520       0.3094       2.9129       2.2945
   2773.0703      10.2510       0.1270      87.6290     128.3320    -999.2500    -999.2500       3.2041       3.3133       4.8273       0.3220       3.0570       2.3430
   2773.2229      10.3744       0.1510      87.8888     122.5283    -999.2500    -999.2500       3.3516       3.4823       5.1011       0.3309       3.1749       2.3845
   2773.3752      10.4980       0.1750      88.1490     116.7340    -999.2500    -999.2500       3.4994       3.6516       5.3753       0.3399       3.2930       2.4260
   2773.5276      10.3796       0.1985      86.8661     112.2230    -999.2500    -999.2500       3.7157       3.8937       5.7615       0.3438       3.3145       2.4315
   2773.6799      10.2610       0.2220      85.5810     107.7260    -999.2500    -999.2500       3.9324       4.1362       6.1484       0.3477       3.3360       2.4370
   2773.8323      10.0617       0.2370      82.9584     107.8958    -999.2500    -999.2500       4.0912       4.3195       6.2758       0.3301       3.4209       2.4695
   2773.9849       9.8620       0.2520      80.3310     108.0650    -999.2500    -999.2500       4.2503       4.5031       6.4034       0.3124       3.5060       2.5020
   2774.1372       9.9030       0.2590      78.0842     112.1463    -999.2500    -999.2500       4.2740       4.5457       6.1290       0.2823       3.5734       2.5360
   2774.2896       9.9440       0.2660      75.8330     116.2160    -999.2500    -999.2500       4.2978       4.5883       5.8540       0.2521       3.6410       2.5700
   2774.4419      10.1463       0.2645      76.0318     123.1234    -999.2500    -999.2500       4.2115       4.5133       5.4328       0.2478       3.4667       2.5440
   2774.5945      10.3490       0.2630      76.2310     130.0120    -999.2500    -999.2500       4.1251       4.4382       5.0108       0.2434       3.2920       2.5180
   2774.7468      10.6479       0.2470      77.5691     135.5897    -999.2500    -999.2500       4.0375       4.3589       4.6859       0.2659       3.1242       2.5170
   2774.8992      10.9470       0.2310      78.9080     141.1530    -999.2500    -999.2500       3.9498       4.2795       4.3604       0.2885       2.9560       2.5160
   2775.0515      10.8450       0.1720      80.0686     139.3948    -999.2500    -999.2500       3.9097       4.2463       4.4250       0.3018       3.1228       2.5150
   2775.2041      10.7430       0.1130      81.2300     137.6410    -999.2500    -999.2500       3.8695       4.2131       4.4897       0.3151       3.2900       2.5140
   2775.3564      10.6825       0.0930      82.5869     135.7658    -999.2500    -999.2500       3.8411       4.1924       4.6439       0.3148       3.2635       2.4995
   2775.5088      10.6220       0.0730      83.9450     133.8950    -999.2500    -999.2500       3.8127       4.1718       4.7982       0.3146       3.2370       2.4850
   2775.6611      10.4761       0.0865      84.2444     134.9091    -999.2500    -999.2500       3.7607       4.1257       4.8723       0.3121       3.1615       2.4805
   2775.8135      10.3300       0.1000      84.5440     135.9210    -999.2500    -999.2500       3.7087       4.0797       4.9466       0.3097       3.0860       2.4760
   2775.9661      10.2006       0.1325      84.5690     137.5242    -999.2500    -999.2500       3.6456       4.0211       4.8746       0.3040       3.0965       2.4815
   2776.1184      10.0710       0.1650      84.5940     139.1240    -999.2500    -999.2500       3.5825       3.9625       4.8026       0.2982       3.1070       2.4870
   2776.2708      10.1040       0.1995      85.6688     137.3578    -999.2500    -999.2500       3.5562       3.9480       4.6505       0.2989       3.1200       2.4915
   2776.4231      10.1370       0.2340      86.7450     135.5950    -999.2500    -999.2500       3.5299       3.9335       4.4982       0.2996       3.1330       2.4960
   2776.5757      10.1025       0.2500      87.3651     131.3081    -999.2500    -999.2500       3.5535       3.9771       4.5197       0.3159       3.0501       2.4800
   2776.7280      10.0680       0.2660      87.9860     127.0290    -999.2500    -999.2500       3.5771       4.0206       4.5411       0.3322       2.9670       2.4640
   2776.8804      10.0310       0.2480      87.5278     126.0567    -999.2500    -999.2500       3.6016       4.0639       4.6833       0.3369       2.8916       2.4095
   2777.0327       9.9940       0.2300      87.0690     125.0860    -999.2500    -999.2500       3.6261       4.1073       4.8258       0.3415       2.8160       2.3550
   2777.1851       9.9870       0.1915      85.2280     127.7031    -999.2500    -999.2500       3.6159       4.1089       4.8666       0.3017       2.7940       2.3155
   2777.3376       9.9800       0.1530      83.3840     130.3160    -999.2500    -999.2500       3.6058       4.1105       4.9075       0.2618       2.7720       2.2760
   2777.4900       9.9885       0.1575      82.3064     133.2925    -999.2500    -999.2500       3.5465       4.0499       4.8391       0.2362       2.7490       2.3065
   2777.6423       9.9970       0.1620      81.2270     136.2600    -999.2500    -999.2500       3.4871       3.9892       4.7705       0.2107       2.7260       2.3370
   2777.7947      10.0110       0.1780      82.4608     139.0691    -999.2500    -999.2500       3.4024       3.9003       4.5388       0.2278       2.7884       2.3924
   2777.9473      10.0250       0.1940      83.6970     141.8700    -999.2500    -999.2500       3.3174       3.8112       4.3066       0.2449       2.8510       2.4480
   2778.0996      10.0570       0.1930      84.8464     143.2334    -999.2500    -999.2500       3.2279       3.7215       4.1308       0.2635       2.9294       2.5009
   2778.2520      10.0890       0.1920      85.9980     144.5930    -999.2500    -999.2500       3.1383       3.6317       3.9547       0.2821       3.0080       2.5540
   2778.4043      10.1070       0.1705      85.8402     144.2936    -999.2500    -999.2500       3.0464       3.5401       3.8705       0.2957       3.0629       2.5500
   2778.5569      10.1250       0.1490      85.6820     143.9950    -999.2500    -999.2500       2.9543       3.4483       3.7860       0.3092       3.1180       2.5460
   2778.7092      10.1240       0.1350      85.7510     144.5727    -999.2500    -999.2500       2.8752       3.3634       3.7273       0.3177       3.1719       2.5285
   2778.8616      10.1230       0.1210      85.8200     145.1490    -999.2500    -999.2500       2.7959       3.2783       3.6684       0.3263       3.2260       2.5110
   2779.0139      10.2320       0.1210      87.4744     146.7329    -999.2500    -999.2500       2.7607       3.2288       3.6289       0.3283       3.3034       2.4995
