#------------------------------------------------------------------------------
#
#   Created by  : [OpenWorks] Log Export Utility (LEXP)
#   Created on  : 2016-05-12 17:18:19
#   Project     : CANT971
#   User        : R5K
#   Interpreter : PEP
#
#------------------------------------------------------------------------------
~VERSION INFORMATION
VERS. 2.0 : CWLS Log ASCII Standard - version 2.0
WRAP.  NO : One line per depth step
~WELL INFORMATION
#MNEMONIC   .UNIT                                           VALUE :DESCRIPTION
#------------------------------------------------------------------------------
STRT        .M                                           134.7982 :START DEPTH
STOP        .M                                          2692.2227 :STOP DEPTH
STEP        .M                                             0.1524 :STEP
NULL        .                                           -999.2500 :NULL VALUE
COMP        .                                   PEMEX EXPL & PROD :COMPANY
WELL        .                                                 57A :WELL
FLD         .                                           CANTARELL :FIELD
LOC         .                                             UNKNOWN :LOCATION
CNTY        .                                      CD. DEL CARMEN :COUNTY
STAT        .                                            CAMPECHE :STATE
CTRY        .                                              MEXICO :COUNTRY
SRVC        .                                             UNKNOWN :SERVICE COMPANY
DATE        .                                             UNKNOWN :LOG DATE
UWI         .                                          3060000169 :UNIQUE WELL ID
XCOORD      .                                       602151.210000 :SURFACE X
YCOORD      .                                      2147168.830000 :SURFACE Y
LAT         .                                           19.417362 :LATITUDE
LON         .                                          -92.027041 :LONGITUDE
ELEV        .M                                            28.1700 :SURFACE ELEV
ELEV_TYPE   .                                                  KB :ELEV TYPE
~CURVE INFORMATION
#MNEMONIC.UNIT        API CODE       : CURVE DESCRIPTION
#------------------------------------------------------------------------------
DEPTH    .M                          : Measured Depth
CALI     .inches      UNKNOWN        : CALI:UNKNOWN:r1:MAIN:v1 
DRHO     .UNKNOWN     UNKNOWN        : DRHO:UNKNOWN:r1:MAIN:v1 
DT       .us/ft       UNKNOWN        : DT:UNKNOWN:r1:MAIN:v1 
GR       .API         UNKNOWN        : GR:GR:r1:MAIN:v1 
ILD      .UNKNOWN     UNKNOWN        : ILD:UNKNOWN:r1:MAIN:v1 
LLD      .UNKNOWN     UNKNOWN        : LLD:UNKNOWN:r1:MAIN:v1 
LLS      .UNKNOWN     UNKNOWN        : LLS:UNKNOWN:r1:MAIN:v1 
MSFL     .UNKNOWN     UNKNOWN        : MSFL:UNKNOWN:r1:MAIN:v1 
NORM     .UNKNOWN     UNKNOWN        : NORM:NORM-Load:r1:MAIN:v1 
NPHI     .v/v_decimal UNKNOWN        : NPHI:UNKNOWN:r1:MAIN:v1 
RHOB     .UNKNOWN     UNKNOWN        : RHOB:UNKNOWN:r1:MAIN:v1 
SP       .mV          UNKNOWN        : SP:PETROWORKS:rC:NONE:v1 
~A     DEPTH         CALI         DRHO           DT           GR          ILD          LLD          LLS         MSFL         NORM         NPHI         RHOB           SP
# ...
   1817.2942       9.1066       0.0673     113.2685      47.6679       0.2000    1673.0300     840.7557     478.9493    -999.2500       0.1223       2.7059     148.1275
   1817.4467       9.1281       0.0759     108.4215      48.1639       0.2000    1547.9857     788.5484      54.8712    -999.2500       0.1158       2.7137     147.9168
   1817.5990       9.1086       0.0789      78.3988      48.3137       0.2000    1461.0084     739.8865      40.7868    -999.2500       0.1027       2.6926     147.8022
   1817.7515       9.1369       0.0790      57.5048      48.1446       0.2000    1582.6091     718.7004      49.0617    -999.2500       0.0928       2.6716     147.7626
   1817.9038       9.2748       0.0725      57.5043      47.2457       0.2000    2181.5945     760.4000     108.5115    -999.2500       0.0899       2.6505     147.7818
   1818.0563       9.3487       0.0629      58.8910      46.7402       0.2000    2722.3940     825.8567     172.9974    -999.2500       0.0881       2.6348     147.9081
   1818.2086       9.2800       0.0463      63.3709      47.1122       0.2000    3133.4470     944.2885     248.7133    -999.2500       0.0886       2.6307     148.1167
   1818.3610       9.1618       0.0293      67.0125      47.4284       0.2000    3368.2214    1032.4746     419.6341    -999.2500       0.0917       2.6277     148.4029
   1818.5134       8.9357       0.0113      68.8323      47.6234       0.2000    3219.9333    1054.9354     797.4401    -999.2500       0.1004       2.6267     148.7474
   1818.6658       8.7129      -0.0000      70.1643      47.6752       0.2000    3114.2598    1067.1859    1235.1711    -999.2500       0.1114       2.6242     149.0030
   1818.8182       8.4968       0.0030      70.4591      47.4225       0.2000    3099.1855    1057.7291    1800.3033    -999.2500       0.1274       2.6187     149.1932
   1818.9706       8.3510       0.0127      71.2187      47.1696       0.2000    3146.0972    1065.6755    2140.1265    -999.2500       0.1386       2.6152     149.2975
   1819.1230       8.3510       0.0362      72.9414      46.9164       0.2000    3321.4897    1109.6947    2012.9403    -999.2500       0.1398       2.6157     149.3401
   1819.2754       8.3706       0.0505      75.8691      46.8729       0.2000    3068.8870    1063.4066    1749.4631    -999.2500       0.1421       2.6165     149.3634
   1819.4279       8.4297       0.0460      81.2324      47.2533       0.2000    1951.1853     834.5823    1210.5034    -999.2500       0.1466       2.6180     149.3731
   1819.5802       8.4559       0.0428      87.6048      48.2191       0.2000    1155.8499     646.5550     737.9714    -999.2500       0.1511       2.6158     149.3818
   1819.7327       8.4168       0.0423      95.9740      50.3429       0.2000     998.3473     539.2480     396.8729    -999.2500       0.1554       2.6063     149.3897
   1819.8850       8.3617       0.0415     100.8987      52.1470       0.2000    1009.6683     484.0073     145.4759    -999.2500       0.1571       2.5950     149.3977
   1820.0375       8.2760       0.0400      99.1749      53.3338       0.2000    1346.8540     529.2653      67.2215    -999.2500       0.1535       2.5805     149.4057
   1820.1898       8.2301       0.0369      96.6320      53.5962       0.2000    1614.7384     578.5932     223.3805    -999.2500       0.1498       2.5660     149.3988
   1820.3422       8.2592       0.0309      92.5463      52.1177       0.2000    1752.1031     635.5864     821.0258    -999.2500       0.1459       2.5514     149.3819
   1820.4946       8.2882       0.0293      86.0194      50.6739       0.2000    1855.8484     687.3513    1589.5603    -999.2500       0.1412       2.5388     149.2871
   1820.6470       8.3173       0.0358      74.9899      49.2941       0.2000    1897.5836     729.4731    2673.2939    -999.2500       0.1353       2.5298     149.1420
   1820.7994       8.3534       0.0421      67.5999      48.9715       0.2000    2039.6277     760.2526    3381.1338    -999.2500       0.1249       2.5340     148.9417
   1820.9518       8.4020       0.0482      66.7624      50.5522       0.2000    2362.2583     770.6127    3412.2500    -999.2500       0.1063       2.5621     148.7066
   1821.1042       8.4294       0.0545      65.5152      52.3027       0.2000    2758.9023     787.7934    3432.2185    -999.2500       0.0912       2.6012     148.5072
   1821.2566       8.4193       0.0616      63.5452      54.3524       0.2000    3286.0762     817.0029    3432.5269    -999.2500       0.0821       2.6599     148.3297
   1821.4091       8.4023       0.0643      61.7193      55.3104       0.2000    3668.8032     864.3900    3383.7390    -999.2500       0.0746       2.7042     148.3217
   1821.5614       8.3732       0.0598      60.1414      54.3889       0.2000    3802.8081     943.0771    3250.4124    -999.2500       0.0699       2.7237     148.4160
   1821.7139       8.3548       0.0508      59.0047      53.4533       0.2000    3886.6331     989.1743    3092.7676    -999.2500       0.0674       2.7353     148.6271
   1821.8662       8.3543       0.0343      58.6098      52.4940       0.2000    3886.0837     980.4736    2894.2332    -999.2500       0.0686       2.7332     148.9071
   1822.0187       8.4388       0.0268      59.0529      51.0081       0.2000    3642.9309     903.9725    2478.0625    -999.2500       0.0739       2.7305     149.1669
   1822.1710       8.6635       0.0344      60.8770      48.6546       0.2000    3000.0269     715.7527    1703.2808    -999.2500       0.0862       2.7265     149.4150
   1822.3234       8.8093       0.0432      62.7200      46.5893       0.2000    2312.6533     555.3981    1181.8307    -999.2500       0.0979       2.7207     149.5734
   1822.4758       8.8284       0.0543      64.5937      44.9879       0.2000    1553.7091     439.8908    1068.1050    -999.2500       0.1088       2.7122     149.6812
   1822.6282       8.8780       0.0624      65.3567      43.9044       0.2000    1069.0214     364.8029    1160.7874    -999.2500       0.1180       2.7029     149.6946
   1822.7806       8.9757       0.0659      64.3734      43.6352       0.2000    1015.5300     353.2635    1577.9923    -999.2500       0.1248       2.6924     149.6561
   1822.9330       9.0119       0.0686      63.9135      43.4436       0.2000     988.2869     345.0398    2012.0197    -999.2500       0.1296       2.6761     149.6192
   1823.0854       8.9533       0.0701      64.2605      43.3714       0.2000    1001.4985     341.9261    2471.9741    -999.2500       0.1313       2.6511     149.5829
   1823.2378       8.8712       0.0690      65.5110      43.2948       0.2000    1032.5110     334.7260    2476.1267    -999.2500       0.1321       2.6386     149.5193
   1823.3903       8.7539       0.0640      68.1222      43.2116       0.2000    1090.3301     321.3718    1793.8746    -999.2500       0.1315       2.6451     149.4412
   1823.5426       8.6524       0.0584      70.9326      43.2123       0.2000    1127.2577     311.6508    1108.9918    -999.2500       0.1276       2.6597     149.2525
   1823.6951       8.5742       0.0518      74.0372      43.3366       0.2000    1133.3390     307.2943     420.2245    -999.2500       0.1187       2.6863     149.0071
   1823.8474       8.5600       0.0484      74.9645      43.3854       0.2000    1068.6442     288.9742      21.1950    -999.2500       0.1106       2.7100     148.7196
   1823.9999       8.6382       0.0494      72.7498      43.3252       0.2000     901.8227     250.5056      40.2429    -999.2500       0.1036       2.7296     148.4110
   1824.1522       8.6838       0.0571      69.2491      43.1987       0.2000     776.4890     212.7568      45.6456    -999.2500       0.0992       2.7408     148.2965
   1824.3046       8.6833       0.0741      63.9344      42.9787       0.2000     709.6655     176.0231      31.8048    -999.2500       0.0985       2.7403     148.2771
   1824.4570       8.6830       0.0888      59.6934      43.3177       0.2000     676.1025     156.5633      26.6302    -999.2500       0.0973       2.7465     148.4492
