#------------------------------------------------------------------------------
#
#   Created by  : [OpenWorks] Log Export Utility (LEXP)
#   Created on  : 2016-05-23 11:52:48
#   Project     : CANT971
#   User        : R5K
#   Interpreter : PEP
#
#------------------------------------------------------------------------------
~VERSION INFORMATION
VERS. 2.0 : CWLS Log ASCII Standard - version 2.0
WRAP.  NO : One line per depth step
~WELL INFORMATION
#MNEMONIC   .UNIT                                           VALUE :DESCRIPTION
#------------------------------------------------------------------------------
STRT        .M                                           688.5826 :START DEPTH
STOP        .M                                          3180.0178 :STOP DEPTH
STEP        .M                                             0.1524 :STEP
NULL        .                                           -999.2500 :NULL VALUE
COMP        .                                   PEMEX EXPL & PROD :COMPANY
WELL        .                                               2092D :WELL
FLD         .                                           CANTARELL :FIELD
LOC         .                                             UNKNOWN :LOCATION
CNTY        .                                      CD. DEL CARMEN :COUNTY
STAT        .                                            CAMPECHE :STATE
CTRY        .                                              MEXICO :COUNTRY
SRVC        .                                             UNKNOWN :SERVICE COMPANY
DATE        .                                             UNKNOWN :LOG DATE
UWI         .                                          3060000657 :UNIQUE WELL ID
XCOORD      .                                       601715.500000 :SURFACE X
YCOORD      .                                      2142373.650000 :SURFACE Y
LAT         .                                           19.374053 :LATITUDE
LON         .                                          -92.031447 :LONGITUDE
ELEV        .M                                            30.0000 :SURFACE ELEV
ELEV_TYPEF  .b/elec                                            KB :ELEV TYPE
~CURVE INFORMATION
#MNEMONIC.UNIT        API CODE       : CURVE DESCRIPTION
#------------------------------------------------------------------------------
DEPTH    .M                          : Measured Depth
CALI     .in          UNKNOWN        : CALI:UNKNOWN:rC:NONE:v0 (auto-composite)
CGR      .API         UNKNOWN        : CGR:UNKNOWN:rC:NONE:v0 (auto-composite)
DRHO     .g/cm3       UNKNOWN        : DRHO:UNKNOWN:rC:NONE:v0 (auto-composite)
DT       .us/ft       UNKNOWN        : DT:DT:rC:NONE:v0 (auto-composite)
GR       .API         UNKNOWN        : GR:UNKNOWN:rC:NONE:v0 (auto-composite)
ILD      .ohmm        UNKNOWN        : ILD:UNKNOWN:rC:NONE:v0 (auto-composite)
ILM      .ohmm        UNKNOWN        : ILM:UNKNOWN:rC:NONE:v0 (auto-composite)
LLD      .ohmm        UNKNOWN        : LLD:UNKNOWN:rC:NONE:v0 (auto-composite)
LLS      .ohmm        UNKNOWN        : LLS:UNKNOWN:rC:NONE:v0 (auto-composite)
MSFL     .ohmm        UNKNOWN        : MSFL:UNKNOWN:rC:NONE:v0 (auto-composite)
NPHI     .v/v_decimal UNKNOWN        : NPHI:PETROWORKS:rC:NONE:v1 
PEF      .b/elec      UNKNOWN        : PEF:UNKNOWN:rC:NONE:v0 (auto-composite)
POTA     .wtpercent   UNKNOWN        : POTA:UNKNOWN:rC:NONE:v0 (auto-composite)
RHOB     .g/cm3       UNKNOWN        : RHOB:UNKNOWN:rC:NONE:v0 (auto-composite)
SFLU     .ohmm       UNKNOWN        : SFLU:induccion:rC:NONE:v0 (auto-composite)
THOR     .ppm         UNKNOWN        : THOR:UNKNOWN:rC:NONE:v0 (auto-composite)
URAN     .ppm         UNKNOWN        : URAN:UNKNOWN:rC:NONE:v0 (auto-composite)
~A     DEPTH         CALI          CGR         DRHO           DT           GR          ILD          ILM          LLD          LLS         MSFL         NPHI          PEF         POTA         RHOB         SFLU         THOR         URAN
# ...
   2624.8245      10.2013      10.8008       0.0241      51.4462      22.5624    -999.2500    -999.2500     700.2117     289.2710     120.3673       0.0266       3.8463       0.0046       2.7816    -999.2500       1.0075       1.2498
   2624.9771      10.2158      12.2659       0.0256      50.1782      22.1633    -999.2500    -999.2500     666.9946     273.1042     107.3582       0.0201       3.7972       0.0051       2.7951    -999.2500       1.2647       1.0893
   2625.1294      10.2417      12.7764       0.0324      49.2924      22.1443    -999.2500    -999.2500     581.3954     233.5821      91.0721       0.0176       3.6710       0.0046       2.7890    -999.2500       1.5938       1.0526
   2625.2817      10.2722      12.8994       0.0414      48.6868      22.2798    -999.2500    -999.2500     474.5236     184.5753      73.4553       0.0172       3.5136       0.0037       2.7751    -999.2500       1.9522       1.0661
   2625.4341      10.2225      13.4295       0.0451      48.9172      22.4999    -999.2500    -999.2500     418.6947     160.0374      62.2770       0.0211       3.5428       0.0035       2.7816    -999.2500       2.3011       1.0186
   2625.5867      10.1401      14.1256       0.0466      49.7157      22.7546    -999.2500    -999.2500     383.6818     145.4784      53.7246       0.0279       3.6482       0.0035       2.7966    -999.2500       2.6462       0.9462
   2625.7390      10.0934      14.5943       0.0424      49.5398      23.5295    -999.2500    -999.2500     410.0694     181.7743      70.4207       0.0284       3.6631       0.0033       2.8067    -999.2500       2.9448       0.9798
   2625.8914      10.0614      14.9692       0.0359      48.9768      24.5190    -999.2500    -999.2500     461.7980     239.0590      97.5375       0.0264       3.6406       0.0030       2.8147    -999.2500       3.2241       1.0573
   2626.0437      10.0626      14.7988       0.0407      48.4456      26.4436    -999.2500    -999.2500     392.7099     229.5645     100.4705       0.0248       3.5552       0.0041       2.8121    -999.2500       2.7078       1.2825
   2626.1963      10.0776      14.4025       0.0502      47.9691      28.7556    -999.2500    -999.2500     273.5499     192.3935      93.3805       0.0239       3.4438       0.0056       2.8051    -999.2500       1.8617       1.5688
   2626.3486      10.1053      14.9629       0.0491      48.1231      32.8762    -999.2500    -999.2500     196.5126     149.5037      73.6084       0.0319       3.3824       0.0062       2.7875    -999.2500       1.7019       1.9731
   2626.5010      10.1383      15.9215       0.0436      48.5973      37.7496    -999.2500    -999.2500     137.0058     104.2337      48.5582       0.0445       3.3419       0.0063       2.7655    -999.2500       1.8279       2.4264
   2626.6533      10.1346      19.9468       0.0657      50.2593      41.7907    -999.2500    -999.2500     109.9286      85.6621      35.6359       0.0553       3.4099       0.0079       2.7463    -999.2500       2.3098       2.4289
   2626.8057      10.1155      25.2538       0.0992      52.3673      45.4840    -999.2500    -999.2500      96.4039      78.2480      27.7819       0.0646       3.5231       0.0100       2.7282    -999.2500       2.9406       2.2430
   2626.9583      10.0962      25.6521       0.1179      54.1297      46.7441    -999.2500    -999.2500      83.9025      70.9585      32.9822       0.0689       3.6599       0.0105       2.6893    -999.2500       2.7295       2.3170
   2627.1106      10.0767      24.0378       0.1304      55.6691      47.0065    -999.2500    -999.2500      71.8207      63.7201      43.5351       0.0701       3.8063       0.0103       2.6418    -999.2500       2.1732       2.4974
   2627.2629      10.0802      21.9937       0.1312      57.4127      46.1580    -999.2500    -999.2500      62.5906      56.1589      37.0191       0.0675       3.9432       0.0094       2.6524    -999.2500       1.9876       2.6413
   2627.4153      10.0932      19.7727       0.1272      58.8801      44.8520    -999.2500    -999.2500      54.5346      48.4647      23.4750       0.0633       4.0761       0.0083       2.6869    -999.2500       1.9546       2.7703
   2627.5679      10.0956      16.5386       0.1005      58.0647      43.1748    -999.2500    -999.2500      58.2834      51.8576      24.0746       0.0584       4.1875       0.0067       2.7324    -999.2500       1.7877       2.9600
   2627.7202      10.0936      12.8857       0.0646      55.6472      41.3441    -999.2500    -999.2500      66.9131      59.8346      30.5223       0.0529       4.2899       0.0049       2.7823    -999.2500       1.5653       3.1749
   2627.8726      10.0870      12.4008       0.0388      53.2991      38.7187    -999.2500    -999.2500     112.2568     101.9101      35.9741       0.0497       4.1397       0.0047       2.7843    -999.2500       1.4485       2.9645
   2628.0249      10.0785      13.2313       0.0174      51.2050      35.7633    -999.2500    -999.2500     172.8441     158.1433      41.0124       0.0472       3.8845       0.0051       2.7663    -999.2500       1.3756       2.5775
   2628.1775      10.0700      12.2808       0.0106      50.8663      33.1062    -999.2500    -999.2500     379.1455     271.5653      66.0652       0.0421       3.7347       0.0045       2.7540    -999.2500       1.5300       2.3402
   2628.3298      10.0615      10.5821       0.0101      51.6804      30.5743    -999.2500    -999.2500     646.6695     409.0154      99.5273       0.0354       3.6293       0.0035       2.7440    -999.2500       1.7799       2.1658
   2628.4822      10.0668      11.5512       0.0220      51.9287      30.6756    -999.2500    -999.2500     854.5779     468.1233     148.4371       0.0294       3.5433       0.0042       2.7551    -999.2500       1.7003       2.0586
   2628.6345      10.0778      13.6461       0.0390      51.8809      31.8880    -999.2500    -999.2500    1037.3345     494.1785     203.8642       0.0237       3.4656       0.0056       2.7752    -999.2500       1.4817       1.9799
   2628.7869      10.0874      14.8501       0.0458      50.8105      33.0229    -999.2500    -999.2500    1137.0267     489.7793     204.3829       0.0212       3.4813       0.0065       2.7853    -999.2500       1.3684       2.0009
   2628.9395      10.0964      15.6882       0.0483      49.3362      34.1259    -999.2500    -999.2500    1202.5979     472.8701     182.3464       0.0205       3.5352       0.0071       2.7912    -999.2500       1.2984       2.0629
   2629.0918      10.0933      15.7629       0.0458      49.1863      37.8314    -999.2500    -999.2500    1290.3145     484.3815     194.9410       0.0232       3.5627       0.0069       2.7782    -999.2500       1.5456       2.4349
   2629.2441      10.0854      15.5227       0.0413      49.8025      42.6105    -999.2500    -999.2500    1387.1661     507.6163     221.8209       0.0277       3.5791       0.0063       2.7572    -999.2500       1.9237       2.9348
   2629.3965      10.0749      17.3663       0.0386      50.5757      50.6648    -999.2500    -999.2500    1466.0452     530.4937     206.6140       0.0274       3.5882       0.0072       2.7485    -999.2500       1.9648       3.6352
   2629.5491      10.0634      20.0796       0.0366      51.2986      60.0862    -999.2500    -999.2500    1537.4219     553.2219     173.8387       0.0249       3.5942       0.0086       2.7450    -999.2500       1.8654       4.4194
   2629.7014      10.0748      21.7982       0.0392      51.2306      64.8916    -999.2500    -999.2500    1570.1705     570.3929     198.9097       0.0215       3.5744       0.0104       2.7627    -999.2500       1.5378       4.7736
   2629.8538      10.0959      23.0998       0.0437      50.6184      67.7621    -999.2500    -999.2500    1586.7274     585.2346     248.2284       0.0176       3.5439       0.0123       2.7893    -999.2500       1.1146       4.9476
   2630.0061      10.1201      21.9919       0.0471      49.4259      61.2688    -999.2500    -999.2500    1632.8789     604.7496     296.2040       0.0176       3.5758       0.0119       2.8027    -999.2500       0.7570       4.3510
