#------------------------------------------------------------------------------
#
#   Created by  : [OpenWorks] Log Export Utility (LEXP)
#   Created on  : 2016-05-23 11:50:23
#   Project     : CANT971
#   User        : R5K
#   Interpreter : PEP
#
#------------------------------------------------------------------------------
~VERSION INFORMATION
VERS. 2.0 : CWLS Log ASCII Standard - version 2.0
WRAP.  NO : One line per depth step
~WELL INFORMATION
#MNEMONIC   .UNIT                                           VALUE :DESCRIPTION
#------------------------------------------------------------------------------
STRT        .M                                           790.6004 :START DEPTH
STOP        .M                                          2649.8804 :STOP DEPTH
STEP        .M                                             0.1524 :STEP
NULL        .                                           -999.2500 :NULL VALUE
COMP        .                                             UNKNOWN :COMPANY
WELL        .                                               1012D :WELL
FLD         .                                             UNKNOWN :FIELD
LOC         .                                             UNKNOWN :LOCATION
CNTY        .                                             UNKNOWN :COUNTY
STAT        .                                             UNKNOWN :STATE
CTRY        .                                             UNKNOWN :COUNTRY
SRVC        .                                             UNKNOWN :SERVICE COMPANY
DATE        .                                             UNKNOWN :LOG DATE
UWI         .                                               1012D :UNIQUE WELL ID
XCOORD      .                                       594334.990000 :SURFACE X
YCOORD      .                                      2152041.060000 :SURFACE Y
LAT         .                                           19.461774 :LATITUDE
LON         .                                          -92.101239 :LONGITUDE
ELEV        .M                                             0.0000 :SURFACE ELEV
ELEV_TYPE   .                                                  KB :ELEV TYPE
~CURVE INFORMATION
#MNEMONIC.UNIT        API CODE       : CURVE DESCRIPTION
#------------------------------------------------------------------------------
DEPTH    .M                          : Measured Depth
DT       .us/ft       UNKNOWN        : DT:UNKNOWN:rC:NONE:v0 (auto-composite)
GR       .API         UNKNOWN        : GR:PETROWORKS:rC:NONE:v1 
GR-LWD   .API         UNKNOWN        : GR-LWD:PETROWORKS:rC:NONE:v1 
ILD      .ohm.m       UNKNOWN        : ILD:resistivos:rC:NONE:v0 (auto-composite)
ILD-LWD  .ohm.m       UNKNOWN        : ILD-LWD:PETROWORKS:rC:NONE:v1 
ILM      .ohm.m       UNKNOWN        : ILM:resistivos:rC:NONE:v0 (auto-composite)
ILM-LWD  .ohm.m       UNKNOWN        : ILM-LWD:PETROWORKS:rC:NONE:v1 
~A     DEPTH           DT           GR       GR-LWD          ILD      ILD-LWD          ILM      ILM-LWD
# ...
   2339.5940      72.5796      21.0996      37.7412    -999.2500       5.2952    -999.2500       4.8060
   2339.7463      72.0673      19.2980      36.3288    -999.2500       5.3328    -999.2500       5.2006
   2339.8987      72.8788      20.7005      33.5047    -999.2500       5.3475    -999.2500       5.3663
   2340.0513      73.6890      19.2884      32.7941    -999.2500       5.5339    -999.2500       5.6123
   2340.2036      74.5009      20.6627      31.6812    -999.2500       5.2983    -999.2500       5.4219
   2340.3560      75.1771      19.8984      32.4525    -999.2500       4.9631    -999.2500       4.8762
   2340.5083      76.1237      18.5810      34.0371    -999.2500       4.6355    -999.2500       4.3374
   2340.6609      76.9347      19.0789      35.4647    -999.2500       4.5009    -999.2500       4.1903
   2340.8132      73.4615      17.5846      37.2357    -999.2500       4.1756    -999.2500       3.9015
   2340.9656      70.5506      15.6303      39.7790    -999.2500       3.2745    -999.2500       3.0546
   2341.1179      70.6372      13.9465      41.2852    -999.2500       2.6943    -999.2500       2.6190
   2341.2705      69.0080      15.8314      40.5058    -999.2500       2.6813    -999.2500       2.6089
   2341.4229      72.0694      19.6897      41.2059    -999.2500       1.9046    -999.2500       1.8682
   2341.5752      76.1858      22.0087      38.2482    -999.2500       1.7208    -999.2500       1.6745
   2341.7275      80.3014      22.3360      39.2571    -999.2500       1.5760    -999.2500       1.5132
   2341.8799      83.7579      19.9846      39.5871    -999.2500       1.4992    -999.2500       1.4151
   2342.0325      89.7817      18.2131      39.4057    -999.2500       1.4626    -999.2500       1.3848
   2342.1848      94.2119      17.7887      40.0847    -999.2500       1.3801    -999.2500       1.3492
   2342.3372      96.2027      18.0451      39.1019    -999.2500       1.1887    -999.2500       1.2017
   2342.4895      97.9139      18.5157      38.4403    -999.2500       1.1207    -999.2500       1.1135
   2342.6421      99.9706      19.7186      40.7575    -999.2500       1.0641    -999.2500       1.0341
   2342.7944     160.3085      20.1286      43.1726    -999.2500       1.0064    -999.2500       0.9906
   2342.9468     173.0566      22.5072      45.7618    -999.2500       1.0144    -999.2500       1.0010
   2343.0991     174.0127      23.1286      47.3538    -999.2500       1.0652    -999.2500       1.0431
   2343.2517     174.8947      24.3598      48.2391    -999.2500       1.1686    -999.2500       1.1231
   2343.4041     163.5888      22.8268      48.8969    -999.2500       1.3560    -999.2500       1.2600
   2343.5564     149.8187      23.2794      47.7381    -999.2500       1.5075    -999.2500       1.3762
   2343.7087     136.0486      24.7081      46.4239    -999.2500       1.6837    -999.2500       1.5611
   2343.8611     109.7575      24.6370      46.1814    -999.2500       1.7620    -999.2500       1.6331
   2344.0137      99.7526      26.1974      46.2099    -999.2500       1.9485    -999.2500       1.8662
   2344.1660      93.5000      27.0494      45.5698    -999.2500       2.1384    -999.2500       2.0736
   2344.3184      88.6850      28.4271      44.4756    -999.2500       2.8122    -999.2500       2.6538
   2344.4707      76.1680      25.4843      43.7598    -999.2500       3.6104    -999.2500       3.2984
   2344.6233      74.1314      21.8412      43.1777    -999.2500       3.8984    -999.2500       3.4884
   2344.7756      74.2415      20.7084      40.1351    -999.2500       3.4797    -999.2500       3.2040
   2344.9280      74.3424      20.8920      36.5288    -999.2500       2.9697    -999.2500       2.9572
   2345.0803      74.4625      20.6643      32.8131    -999.2500       2.9380    -999.2500       2.9655
   2345.2329    -999.2500      18.6130      31.6154    -999.2500       2.9397    -999.2500       2.9872
   2345.3853    -999.2500      19.0241      32.8902    -999.2500       2.9835    -999.2500       3.0185
   2345.5376    -999.2500      20.4892      34.6533    -999.2500       3.0892    -999.2500       3.0330
   2345.6899    -999.2500      22.6674      35.4437    -999.2500       3.1644    -999.2500       3.0157
   2345.8423      75.1430      22.6004      35.1837    -999.2500       3.0405    -999.2500       3.0490
   2345.9949      75.1430      21.2092      35.5701    -999.2500       2.9660    -999.2500       3.0256
   2346.1472      67.6343      19.3206      37.5386    -999.2500       2.6986    -999.2500       2.7486
   2346.2996      69.8709      17.4026      36.5915    -999.2500       2.7033    -999.2500       2.7488
   2346.4519      75.2034      16.4425      33.6733    -999.2500       2.7702    -999.2500       2.8047
   2346.6045      75.3158      16.0846      29.1516    -999.2500       2.8434    -999.2500       2.8749
   2346.7568      78.1926      17.2840      27.4414    -999.2500       2.8828    -999.2500       2.9266
   2346.9092      81.8450      18.5148      27.9374    -999.2500       3.0325    -999.2500       3.0750
   2347.0615      84.8495      18.0596      29.3379    -999.2500       3.3410    -999.2500       3.3658
   2347.2141      86.5546      21.0540      30.6177    -999.2500       3.3992    -999.2500       3.4884
   2347.3665      89.8500      22.6960      32.2768    -999.2500       3.1562    -999.2500       3.2337
   2347.5188      93.0224      25.9902      34.3268    -999.2500       2.6942    -999.2500       2.7392
   2347.6711    -999.2500      27.1000      36.9141    -999.2500       2.2372    -999.2500       2.2836
   2347.8235      99.8270      28.1387      41.3357    -999.2500       1.9574    -999.2500       1.9786
   2347.9761      97.8246      29.6278      45.5409    -999.2500       1.7298    -999.2500       1.7395
   2348.1284      93.5672      29.5646      48.5569    -999.2500       1.6315    -999.2500       1.6472
   2348.2808      94.6192      29.7594      51.3962    -999.2500       1.4057    -999.2500       1.3787
   2348.4331      95.5360      27.2674      55.6095    -999.2500       1.3285    -999.2500       1.2321
   2348.5857      93.6853      29.5055      60.9835    -999.2500       1.2245    -999.2500       1.2176
   2348.7380      93.6773      30.6056      62.4316    -999.2500       1.5668    -999.2500       1.5818
   2348.8904      94.9874      31.2204      60.9079    -999.2500       2.0123    -999.2500       2.0247
   2349.0427      96.2755      28.8814      60.1963    -999.2500       2.2127    -999.2500       2.1698
   2349.1953      95.1886      27.1997      61.1523    -999.2500       1.6497    -999.2500       1.6715
   2349.3477      93.9035      28.0790      58.6085    -999.2500       1.7378    -999.2500       1.7968
   2349.5000      94.7268      28.1427      54.8016    -999.2500       1.9916    -999.2500       2.0089
   2349.6523      96.1791      28.9237      54.1604    -999.2500       2.2078    -999.2500       2.1683
   2349.8047      95.8524      28.1821      53.6109    -999.2500       1.9798    -999.2500       1.9528
   2349.9573      96.9704      29.1395      53.3261    -999.2500       1.7555    -999.2500       1.7687
   2350.1096      96.2144      28.7181      54.6373    -999.2500       1.6290    -999.2500       1.6590
   2350.2620      94.2285      29.0206      59.8873    -999.2500       1.6470    -999.2500       1.6694
   2350.4143      92.0286      27.7734      60.8145    -999.2500       1.8233    -999.2500       1.8357
   2350.5669    -999.2500      23.9036      54.9865    -999.2500       2.4475    -999.2500       2.3903
   2350.7192      92.9980      21.5567      46.8659    -999.2500       3.0269    -999.2500       2.8922
   2350.8716      92.9980      17.9761      42.5461    -999.2500       2.8144    -999.2500       2.7219
   2351.0239      93.3395      20.7388      43.5542    -999.2500       2.1123    -999.2500       2.1026
   2351.1765      90.9694      23.2303      47.1511    -999.2500       1.7040    -999.2500       1.7089
