#------------------------------------------------------------------------------
#
#   Created by  : [OpenWorks] Log Export Utility (LEXP)
#   Created on  : 2016-05-23 11:55:58
#   Project     : CANT971
#   User        : R5K
#   Interpreter : PEP
#
#------------------------------------------------------------------------------
~VERSION INFORMATION
VERS. 2.0 : CWLS Log ASCII Standard - version 2.0
WRAP.  NO : One line per depth step
~WELL INFORMATION
#MNEMONIC   .UNIT                                           VALUE :DESCRIPTION
#------------------------------------------------------------------------------
STRT        .M                                           646.6334 :START DEPTH
STOP        .M                                          2755.8494 :STOP DEPTH
STEP        .M                                             0.1524 :STEP
NULL        .                                           -999.2500 :NULL VALUE
COMP        .                                   PEMEX EXPL & PROD :COMPANY
WELL        .                                                  42 :WELL
FLD         .                                           CANTARELL :FIELD
LOC         .                                             UNKNOWN :LOCATION
CNTY        .                                      CD. DEL CARMEN :COUNTY
STAT        .                                            CAMPECHE :STATE
CTRY        .                                              MEXICO :COUNTRY
SRVC        .                                             UNKNOWN :SERVICE COMPANY
DATE        .                                             UNKNOWN :LOG DATE
UWI         .                                          3060000464 :UNIQUE WELL ID
XCOORD      .                                       599690.710000 :SURFACE X
YCOORD      .                                      2143036.470000 :SURFACE Y
LAT         .                                           19.380144 :LATITUDE
LON         .                                          -92.050691 :LONGITUDE
ELEV        .M                                            26.7400 :SURFACE ELEV
ELEV_TYPE   .                                                  KB :ELEV TYPE
~CURVE INFORMATION
#MNEMONIC.UNIT        API CODE       : CURVE DESCRIPTION
#------------------------------------------------------------------------------
DEPTH    .M                          : Measured Depth
CALI     .inches      UNKNOWN        : CALI:Import:rC:NONE:v0 (auto-composite)
DRHO     .g/cm3       UNKNOWN        : DRHO:Import:rC:NONE:v0 (auto-composite)
DT       .us/ft       UNKNOWN        : DT:Import:rC:NONE:v0 (auto-composite)
GR       .API         UNKNOWN        : GR:Import:rC:NONE:v0 (auto-composite)
ILD      .ohm.m       UNKNOWN        : ILD:Import:rC:NONE:v0 (auto-composite)
ILM      .ohm.m       UNKNOWN        : ILM:Import:rC:NONE:v0 (auto-composite)
LLD      .ohm.m       UNKNOWN        : LLD:Import:rC:NONE:v0 (auto-composite)
LLS      .ohm.m       UNKNOWN        : LLS:Import:rC:NONE:v0 (auto-composite)
MSFL     .ohm.m       UNKNOWN        : MSFL:Import:rC:NONE:v0 (auto-composite)
NPHI     .v/v_decimal UNKNOWN        : NPHI:Import:rC:NONE:v0 (auto-composite)
PEF      .b/elec      UNKNOWN        : PEF:Import:rC:NONE:v0 (auto-composite)
RHOB     .g/cm3       UNKNOWN        : RHOB:Import:rC:NONE:v0 (auto-composite)
~A     DEPTH         CALI         DRHO           DT           GR          ILD          ILM          LLD          LLS         MSFL         NPHI          PEF         RHOB
# ...
   2614.4221       8.6090       0.0350      50.2962      47.9350    -999.2500    -999.2500    4682.3062    3421.3640    -999.2500       0.0378       5.2505       2.7175
   2614.5745       8.6090       0.0200      50.5900      52.2510    -999.2500    -999.2500    4794.8472    3122.6709    -999.2500       0.0363       5.4230       2.7100
   2614.7271       8.6090       0.0100      51.0368      49.7441    -999.2500    -999.2500    4929.7900    2958.0076    -999.2500       0.0365       5.3515       2.7040
   2614.8794       8.6090       0.0000      51.4830      47.2280    -999.2500    -999.2500    5064.5752    2793.5371    -999.2500       0.0377       5.2800       2.6980
   2615.0317       8.6090       0.0020      51.1553      42.6172    -999.2500    -999.2500    5022.1187    2725.4133    -999.2500       0.0396       5.1000       2.7040
   2615.1841       8.6090       0.0040      50.8280      37.9890    -999.2500    -999.2500    4979.7070    2657.3611    -999.2500       0.0414       4.9200       2.7100
   2615.3367       8.6120       0.0070      51.4178      34.7718    -999.2500    -999.2500    4728.0396    2632.4741    -999.2500       0.0428       4.6976       2.7205
   2615.4890       8.6150       0.0100      52.0070      31.5420    -999.2500    -999.2500    4476.6040    2607.6101    -999.2500       0.0441       4.4750       2.7310
   2615.6414       8.6310       0.0090      52.7583      33.4696    -999.2500    -999.2500    4604.0767    2765.5818    -999.2500       0.0458       4.5385       2.7210
   2615.7937       8.6470       0.0080      53.5090      35.4050    -999.2500    -999.2500    4731.4482    2923.4280    -999.2500       0.0485       4.6020       2.7110
   2615.9460       8.6815       0.0030      54.1232      38.4726    -999.2500    -999.2500    5170.5884    3165.6646    -999.2500       0.0527       4.3846       2.6835
   2616.0986       8.7160      -0.0020      54.7370      41.5530    -999.2500    -999.2500    5609.4341    3407.7390    -999.2500       0.0575       4.1670       2.6560
   2616.2510       8.7320      -0.0005      55.2171      43.2259    -999.2500    -999.2500    5867.8301    3849.8765    -999.2500       0.0619       4.2565       2.6605
   2616.4033       8.7480       0.0010      55.6970      44.9060    -999.2500    -999.2500    6126.0850    4291.7729    -999.2500       0.0663       4.3460       2.6650
   2616.5557       8.7525       0.0030      55.6535      46.6656    -999.2500    -999.2500    6429.0996    5456.2974    -999.2500       0.0715       4.8697       2.6565
   2616.7083       8.7570       0.0050      55.6100      48.4330    -999.2500    -999.2500    6731.9878    6620.3340    -999.2500       0.0751       5.3940       2.6480
   2616.8606       8.7525       0.0070      55.8765      50.9733    -999.2500    -999.2500    6354.5234    5888.1899    -999.2500       0.0749       6.2215       2.6550
   2617.0129       8.7480       0.0090      56.1430      53.5250    -999.2500    -999.2500    5977.1699    5156.2612    -999.2500       0.0719       7.0500       2.6620
   2617.1653       8.7765       0.0065      55.2852      53.2257    -999.2500    -999.2500    5144.5103    3900.1001    -999.2500       0.0669       7.6830       2.6720
   2617.3179       8.8050       0.0040      54.4290      52.9250    -999.2500    -999.2500    4313.3232    2646.1609    -999.2500       0.0631       8.3170       2.6820
   2617.4702       8.7950      -0.0040      54.5276      51.1178    -999.2500    -999.2500    3511.7256    2851.2563    -999.2500       0.0637       7.7335       2.6750
   2617.6226       8.7850      -0.0120      54.6260      49.3020    -999.2500    -999.2500    2711.4441    3056.0149    -999.2500       0.0652       7.1500       2.6680
   2617.7749       8.7715      -0.0160      54.2237      45.8315    -999.2500    -999.2500    2795.3728    3919.9211    -999.2500       0.0643       7.3145       2.6800
   2617.9272       8.7580      -0.0200      53.8220      42.3440    -999.2500    -999.2500    2879.1741    4782.5161    -999.2500       0.0617       7.4790       2.6920
   2618.0798       8.7910      -0.0220      53.2081      37.0623    -999.2500    -999.2500    2968.8350    4564.9004    -999.2500       0.0584       8.9668       2.6890
   2618.2322       8.8240      -0.0240      52.5950      31.7540    -999.2500    -999.2500    3058.3711    4347.5879    -999.2500       0.0559      10.4550       2.6860
   2618.3845       8.8210      -0.0265      53.7322      33.0616    -999.2500    -999.2500    3304.6021    4477.6797    -999.2500       0.0559      10.1750       2.6720
   2618.5369       8.8180      -0.0290      54.8680      34.3760    -999.2500    -999.2500    3550.5210    4607.6069    -999.2500       0.0554       9.8950       2.6580
   2618.6895       8.8065      -0.0285      54.7299      37.0366    -999.2500    -999.2500    4410.2144    6144.0791    -999.2500       0.0515       8.4253       2.6810
   2618.8418       8.7950      -0.0280      54.5920      39.7070    -999.2500    -999.2500    5268.9268    7678.7988    -999.2500       0.0479       6.9550       2.7040
   2618.9941       8.7820      -0.0380      53.6330      38.8152    -999.2500    -999.2500    5854.4873    6271.7725    -999.2500       0.0483       7.1005       2.6855
   2619.1465       8.7690      -0.0480      52.6750      37.9200    -999.2500    -999.2500    6439.4531    4866.1758    -999.2500       0.0514       7.2460       2.6670
   2619.2991       8.7635      -0.0550      53.2112      37.9380    -999.2500    -999.2500    5257.6548    3798.0022    -999.2500       0.0561       6.7537       2.6520
   2619.4514       8.7580      -0.0620      53.7470      37.9560    -999.2500    -999.2500    4076.9080    2730.7791    -999.2500       0.0596       6.2610       2.6370
   2619.6038       8.7640      -0.0570      54.7764      42.2408    -999.2500    -999.2500    2925.9731    2165.1511    -999.2500       0.0596       6.3140       2.6505
   2619.7561       8.7700      -0.0520      55.8050      46.5430    -999.2500    -999.2500    1775.9189    1599.9561    -999.2500       0.0574       6.3670       2.6640
   2619.9084       8.7745      -0.0460      54.9592      52.0495    -999.2500    -999.2500    1530.5376    1615.5074    -999.2500       0.0543       6.8393       2.6785
   2620.0610       8.7790      -0.0400      54.1140      57.5790    -999.2500    -999.2500    1285.3130    1631.0490    -999.2500       0.0525       7.3120       2.6930
   2620.2134       8.7845      -0.0360      53.6334      55.2685    -999.2500    -999.2500    1340.6172    1649.1232    -999.2500       0.0541       7.8022       2.6995
   2620.3657       8.7900      -0.0320      53.1530      52.9480    -999.2500    -999.2500    1395.8929    1667.1880    -999.2500       0.0575       8.2930       2.7060
   2620.5181       8.8070      -0.0270      55.0824      54.6537    -999.2500    -999.2500    1517.2225    2162.0476    -999.2500       0.0612       8.4679       2.7080
   2620.6707       8.8240      -0.0220      57.0110      56.3670    -999.2500    -999.2500    1638.5050    2656.7151    -999.2500       0.0632       8.6430       2.7100
   2620.8230       8.8475      -0.0165      56.4539      56.1690    -999.2500    -999.2500    1746.8872    2492.9265    -999.2500       0.0615       8.3322       2.7100
   2620.9753       8.8710      -0.0110      55.8970      55.9700    -999.2500    -999.2500    1855.2410    2329.1809    -999.2500       0.0590       8.0210       2.7100
   2621.1277       8.8855      -0.0070      56.0907      54.0046    -999.2500    -999.2500    1798.2495    2024.8479    -999.2500       0.0588       8.6006       2.7020
   2621.2803       8.9000      -0.0030      56.2840      52.0300    -999.2500    -999.2500    1741.3571    1721.0439    -999.2500       0.0601       9.1810       2.6940
   2621.4326       8.9030      -0.0095      56.8790      50.3999    -999.2500    -999.2500    1597.0353    1574.6360    -999.2500       0.0623      12.4515       2.6760
   2621.5850       8.9060      -0.0160      57.4730      48.7620    -999.2500    -999.2500    1452.9460    1428.4640    -999.2500       0.0637      15.7220       2.6580
