#------------------------------------------------------------------------------
#
#   Created by  : [OpenWorks] Log Export Utility (LEXP)
#   Created on  : 2016-05-23 11:57:27
#   Project     : CANT971
#   User        : R5K
#   Interpreter : PEP
#
#------------------------------------------------------------------------------
~VERSION INFORMATION
VERS. 2.0 : CWLS Log ASCII Standard - version 2.0
WRAP.  NO : One line per depth step
~WELL INFORMATION
#MNEMONIC   .UNIT                                           VALUE :DESCRIPTION
#------------------------------------------------------------------------------
STRT        .M                                           813.0000 :START DEPTH
STOP        .M                                          2589.2219 :STOP DEPTH
STEP        .M                                             0.1524 :STEP
NULL        .                                           -999.2500 :NULL VALUE
COMP        .                                   PEMEX EXPL & PROD :COMPANY
WELL        .                                                  84 :WELL
FLD         .                                           CANTARELL :FIELD
LOC         .                                             UNKNOWN :LOCATION
CNTY        .                                      CD. DEL CARMEN :COUNTY
STAT        .                                            CAMPECHE :STATE
CTRY        .                                              MEXICO :COUNTRY
SRVC        .                                             UNKNOWN :SERVICE COMPANY
DATE        .                                             UNKNOWN :LOG DATE
UWI         .                                          3060000616 :UNIQUE WELL ID
XCOORD      .                                       601709.550000 :SURFACE X
YCOORD      .                                      2142344.590000 :SURFACE Y
LAT         .                                           19.373791 :LATITUDE
LON         .                                          -92.031505 :LONGITUDE
ELEV        .M                                            24.0000 :SURFACE ELEV
ELEV_TYPE   .                                                  KB :ELEV TYPE
~CURVE INFORMATION
#MNEMONIC.UNIT        API CODE       : CURVE DESCRIPTION
#------------------------------------------------------------------------------
DEPTH    .M                          : Measured Depth
CALI     .in          UNKNOWN        : CALI:UNKNOWN:rC:NONE:v0 (auto-composite)
DRHO     .g/cm3       UNKNOWN        : DRHO:UNKNOWN:rC:NONE:v0 (auto-composite)
DT       .us/ft       UNKNOWN        : DT:DT:rC:NONE:v0 (auto-composite)
ILD      .ohmm        UNKNOWN        : ILD:UNKNOWN:rC:NONE:v0 (auto-composite)
ILM      .ohmm        UNKNOWN        : ILM:UNKNOWN:rC:NONE:v0 (auto-composite)
LLD      .ohmm        UNKNOWN        : LLD:UNKNOWN:rC:NONE:v0 (auto-composite)
LLS      .ohmm        UNKNOWN        : LLS:UNKNOWN:rC:NONE:v0 (auto-composite)
MSFL     .ohmm        UNKNOWN        : MSFL:UNKNOWN:rC:NONE:v0 (auto-composite)
NPHI     .v/v_decimal UNKNOWN        : NPHI:NPHI:rC:NONE:v0 (auto-composite)
PEF      .b/elec      UNKNOWN        : PEF:UNKNOWN:rC:NONE:v0 (auto-composite)
RG       .UNKNOWN     UNKNOWN        : RG:UNKNOWN:rC:NONE:v0 (auto-composite)
RHOB     .g/cm3       UNKNOWN        : RHOB:UNKNOWN:rC:NONE:v0 (auto-composite)
~A     DEPTH         CALI         DRHO           DT          ILD          ILM          LLD          LLS         MSFL         NPHI          PEF           RG         RHOB
# ...
   2107.7903       9.0605       0.0537      52.4461       0.0000       0.0000   35232.0391     518.8912       3.1539       3.7612       3.3434      42.0153       2.7724
   2107.9429       9.0425       0.0362      52.3631       0.0000       0.0000   21303.8613    1173.0397       4.2235       3.9636       3.3725      38.9157       2.7679
   2108.0952       9.0323       0.0232      52.1040       0.0000       0.0000   11342.6924    1496.9673       4.6948       4.3286       3.4113      35.6648       2.7639
   2108.2476       9.0358       0.0182      51.7493       0.0000       0.0000    8374.6602    1238.7734       4.1111       4.7822       3.4675      32.1470       2.7609
   2108.3999       9.0439       0.0167      52.6598       0.0000       0.0000    5789.4409     940.3181       3.4483       5.2026       3.5047      30.3163       2.7647
   2108.5525       9.0599       0.0212      54.2531       0.0000       0.0000    3863.0979     572.5667       2.6491       5.6050       3.5092      31.3893       2.7803
   2108.7048       9.0930       0.0253      54.2248       0.0000       0.0000    2861.8560     323.5385       2.1710       5.6214       3.5184      31.9305       2.7960
   2108.8572       9.1547       0.0288      53.3180       0.0000       0.0000    3415.4338     274.0489       2.2327       5.4274       3.5354      31.5780       2.8120
   2109.0095       9.1939       0.0310      53.0091       0.0000       0.0000    4008.2578     350.5383       2.2708       5.6830       3.5052      31.0299       2.8216
   2109.1621       9.1965       0.0310      53.0231       0.0000       0.0000    4665.5020     633.8156       2.2703       6.1833       3.3974      30.1604       2.8206
   2109.3145       9.1951       0.0360      54.3389       0.0000       0.0000    5285.8179     886.0522       2.1936       6.2655       3.3337      29.3814       2.8131
   2109.4668       9.1876       0.0490      56.3555       0.0000       0.0000    5846.9272    1088.5208       1.9947       6.1195       3.3407      28.7471       2.7950
   2109.6191       9.1816       0.0660      56.1041       0.0000       0.0000    5523.5083    1094.1288       1.7950       5.6049       3.2944      29.4686       2.7762
   2109.7715       9.1781       0.0890      54.6271       0.0000       0.0000    3805.3010     789.3123       1.5939       4.8897       3.1640      32.3281       2.7562
   2109.9241       9.8375       0.0825      52.8968       0.0000       0.0000    2528.9053     548.0167       1.2324       3.9997       2.7844      33.0259       2.5125
   2110.0764      11.5182       0.0303      51.0301       0.0000       0.0000    1933.1560     404.5801       0.6237       3.0144       2.0208      30.3936       1.9244
   2110.2288      12.0959       0.0002      50.4760       0.0000       0.0000    1617.6941     328.9200       0.2766       2.3483       1.6296      29.4876       1.6360
   2110.3811      11.0134       0.0032      50.6315       0.0000       0.0000    1724.1466     355.2830       0.3232       1.8561       1.7991      31.1803       1.7990
   2110.5337      10.1669       0.0127      52.1601       0.0000       0.0000    2933.9854     523.9563       0.6899       1.7449       2.0664      33.4055       1.9877
   2110.6860       9.6675       0.0318      54.4286       0.0000       0.0000    5766.8721     901.9637       1.5272       1.8403       2.4775      36.4138       2.2143
   2110.8384       9.3481       0.0434      57.7282       0.0000       0.0000    6413.5698    1056.2634       2.4919       3.1151       2.8924      38.1944       2.4148
   2110.9907       9.2875       0.0444      61.5857       0.0000       0.0000    3917.4507     888.9661       3.6396       5.0323       3.3128      38.2099       2.5776
   2111.1433       9.2408       0.0361      57.6607       0.0000       0.0000    2340.2485     774.7508       4.3348      28.5777       3.5731      37.1028       2.6601
   2111.2957       9.2137       0.0145      49.5392       0.0000       0.0000    2062.7412     735.6133       4.3900      63.8679       3.6072      34.4078       2.6290
   2111.4480       9.2167      -0.0047      51.1291       0.0000       0.0000    1876.9160     643.9770       3.8544      74.0076       3.6020      32.7059       2.6047
   2111.6003       9.2614      -0.0208      57.9756       0.0000       0.0000    1817.8397     479.7618       2.5022      70.4378       3.5423      32.3770       2.5896
   2111.7527       9.3373      -0.0257      59.7991       0.0000       0.0000    1793.1117     367.3433       1.6847      61.8054       3.5219      32.8343       2.5868
   2111.9053       9.4556      -0.0157      58.9125       0.0000       0.0000    1814.8029     324.9242       1.5899      50.4223       3.5545      34.3540       2.6003
   2112.0576       9.5018      -0.0070      56.8852       0.0000       0.0000    2110.2661     374.2161       1.6408      33.3313       3.6499      35.2054       2.6186
   2112.2100       9.4527       0.0000      54.2403       0.0000       0.0000    2767.4277     544.6736       1.8839      13.1274       3.8284      35.1738       2.6432
   2112.3623       9.3900       0.0071      54.3120       0.0000       0.0000    3029.0244     535.0750       2.0298       6.0385       3.9765      35.4295       2.6629
   2112.5149       9.3098       0.0141      55.8504       0.0000       0.0000    2779.6790     292.9022       2.0498       6.0795       4.0853      36.0562       2.6764
   2112.6672       9.2856       0.0160      59.5082       0.0000       0.0000    2607.5339     154.9641       1.9649       5.9358       4.0953      35.2957       2.6948
   2112.8196       9.3322       0.0115      64.3144       0.0000       0.0000    2532.8867     148.6667       1.7475       5.6912       3.9806      32.7833       2.7194
   2112.9719       9.3580       0.0088      61.7780       0.0000       0.0000    2534.4980     273.1505       1.9697       5.6073       3.9371      30.6119       2.7283
   2113.1245       9.3580       0.0083      55.2756       0.0000       0.0000    2630.8923     560.1841       2.7383       5.6108       3.9822      28.8646       2.7178
   2113.2769       9.3410       0.0085      53.0000       0.0000       0.0000    2555.6147     635.2687       2.6453       5.7657       4.0038      29.6387       2.7104
   2113.4292       9.3034       0.0095      53.0000       0.0000       0.0000    2271.6926     452.7573       1.5052       6.0033       3.9968      33.4774       2.7069
   2113.5815       9.3057       0.0077      53.0565       0.0000       0.0000    2070.6689     388.7493       1.3568       6.3264       3.9211      35.0037       2.5405
   2113.7339       9.3553       0.0027      53.1435       0.0000       0.0000    1968.1688     465.5813       2.3872       6.6960       3.7636      33.7818       2.1805
   2113.8865       9.4203      -0.0081      53.4852       0.0000       0.0000    1643.9744     435.4909       2.6273       6.0309       3.4371      31.9039       1.9003
   2114.0388       9.5030      -0.0257      53.9640       0.0000       0.0000    1062.1149     281.1295       1.9489       4.8044       2.9142      29.2636       1.7128
   2114.1912       9.5751      -0.0298      58.6342       0.0000       0.0000     715.9537     186.7995       2.7168       4.6010       2.7174      27.1741       1.6974
   2114.3435       9.6353      -0.0188      65.5707       0.0000       0.0000     637.6965     160.7035       5.1285       4.9546       2.8912      25.7107       1.8778
   2114.4961       9.6287      -0.0061      64.1234       0.0000       0.0000     648.1097     168.2327       5.6436       5.5620       3.0836      26.7644       2.0293
   2114.6484       9.5474       0.0084      58.1575       0.0000       0.0000     757.7271     213.3813       4.0366       6.3072       3.2967      30.6341       2.1487
   2114.8008       9.4545       0.0189      56.7300       0.0000       0.0000    1150.5651     282.6732       3.2111       6.9579       3.4729      34.6087       2.2677
   2114.9531       9.3487       0.0249      57.7579       0.0000       0.0000    1853.3010     378.3825       3.2407       7.5571       3.6088      38.6980       2.3866
