#------------------------------------------------------------------------------
#
#   Created by  : [OpenWorks] Log Export Utility (LEXP)
#   Created on  : 2016-05-23 11:57:24
#   Project     : CANT971
#   User        : R5K
#   Interpreter : PEP
#
#------------------------------------------------------------------------------
~VERSION INFORMATION
VERS. 2.0 : CWLS Log ASCII Standard - version 2.0
WRAP.  NO : One line per depth step
~WELL INFORMATION
#MNEMONIC   .UNIT                                           VALUE :DESCRIPTION
#------------------------------------------------------------------------------
STRT        .M                                           648.1292 :START DEPTH
STOP        .M                                          2685.5647 :STOP DEPTH
STEP        .M                                             0.1524 :STEP
NULL        .                                           -999.2500 :NULL VALUE
COMP        .                                   PEMEX EXPL & PROD :COMPANY
WELL        .                                                 81D :WELL
FLD         .                                           CANTARELL :FIELD
LOC         .                                             UNKNOWN :LOCATION
CNTY        .                                      CD. DEL CARMEN :COUNTY
STAT        .                                            CAMPECHE :STATE
CTRY        .                                              MEXICO :COUNTRY
SRVC        .                                             UNKNOWN :SERVICE COMPANY
DATE        .                                             UNKNOWN :LOG DATE
UWI         .                                          3060000666 :UNIQUE WELL ID
XCOORD      .                                       601717.100000 :SURFACE X
YCOORD      .                                      2142375.260000 :SURFACE Y
LAT         .                                           19.374067 :LATITUDE
LON         .                                          -92.031430 :LONGITUDE
ELEV        .M                                            30.0000 :SURFACE ELEV
ELEV_TYPEF  .b/elec                                            KB :ELEV TYPE
~CURVE INFORMATION
#MNEMONIC.UNIT        API CODE       : CURVE DESCRIPTION
#------------------------------------------------------------------------------
DEPTH    .M                          : Measured Depth
CALI     .in          UNKNOWN        : CALI:UNKNOWN:rC:NONE:v0 (auto-composite)
CGR      .API         UNKNOWN        : CGR:UNKNOWN:rC:NONE:v0 (auto-composite)
DRHO     .g/cm3       UNKNOWN        : DRHO:UNKNOWN:rC:NONE:v0 (auto-composite)
DT       .us/ft       UNKNOWN        : DT:DT:rC:NONE:v0 (auto-composite)
GR       .API         UNKNOWN        : GR:UNKNOWN:rC:NONE:v0 (auto-composite)
ILD      .ohmm        UNKNOWN        : ILD:UNKNOWN:rC:NONE:v0 (auto-composite)
ILM      .ohmm        UNKNOWN        : ILM:UNKNOWN:rC:NONE:v0 (auto-composite)
LLD      .ohmm        UNKNOWN        : LLD:UNKNOWN:rC:NONE:v0 (auto-composite)
LLS      .ohmm        UNKNOWN        : LLS:UNKNOWN:rC:NONE:v0 (auto-composite)
NPHI     .v/v_decimal UNKNOWN        : NPHI:NPHI:rC:NONE:v0 (auto-composite)
PEF      .b/elec      UNKNOWN        : PEF:UNKNOWN:rC:NONE:v0 (auto-composite)
POTA     .%           UNKNOWN        : POTA:UNKNOWN:rC:NONE:v0 (auto-composite)
RHOB     .g/cm3       UNKNOWN        : RHOB:UNKNOWN:rC:NONE:v0 (auto-composite)
THOR     .ppm         UNKNOWN        : THOR:UNKNOWN:rC:NONE:v0 (auto-composite)
URAN     .ppm         UNKNOWN        : URAN:UNKNOWN:rC:NONE:v0 (auto-composite)
~A     DEPTH         CALI          CGR         DRHO           DT           GR          ILD          ILM          LLD          LLS         NPHI          PEF         POTA         RHOB         THOR         URAN
# ...
   2110.2549      12.2153       4.5210    -999.2500    -999.2500      32.7093    -999.2500    -999.2500    1007.0613     359.8073       7.8349    -999.2500       0.0429    -999.2500       1.2488       3.1373
   2110.4072      12.2403       3.8483    -999.2500    -999.2500      32.2465    -999.2500    -999.2500    1038.3319     378.3531       7.4899    -999.2500       0.0304    -999.2500       1.0844       3.1883
   2110.5596      12.2118       4.2070    -999.2500    -999.2500      31.2614    -999.2500    -999.2500    1094.3301     394.3838       6.9214    -999.2500       0.0280    -999.2500       1.2036       3.0308
   2110.7119      12.1708       4.8087    -999.2500    -999.2500      30.1543    -999.2500    -999.2500    1156.0359     409.8340       6.2583    -999.2500       0.0280    -999.2500       1.3896       2.8242
   2110.8645      12.1857       5.4428    -999.2500    -999.2500      30.0837    -999.2500    -999.2500    1213.1962     427.9659       5.8967    -999.2500       0.0527    -999.2500       1.4756       2.7348
   2111.0168      12.2137       6.0845    -999.2500    -999.2500      30.2561    -999.2500    -999.2500    1269.3125     446.7138       5.6709    -999.2500       0.0832    -999.2500       1.5381       2.6728
   2111.1692      12.2312       6.1111    -999.2500    -999.2500      30.5975    -999.2500    -999.2500    1248.2881     445.0047       5.8297    -999.2500       0.0870    -999.2500       1.4982       2.6982
   2111.3215      12.2462       5.9925    -999.2500    -999.2500      30.9787    -999.2500    -999.2500    1209.4437     438.5698       6.1389    -999.2500       0.0845    -999.2500       1.4342       2.7443
   2111.4741      12.2128       6.7174    -999.2500    -999.2500      31.7680    -999.2500    -999.2500    1126.4620     420.6109       6.4516    -999.2500       0.1136    -999.2500       1.5306       2.7372
   2111.6265      12.1684       7.6402    -999.2500    -999.2500      32.6512    -999.2500    -999.2500    1033.3337     400.0028       6.7631    -999.2500       0.1501    -999.2500       1.6646       2.7177
   2111.7788      12.1819       7.3993    -999.2500    -999.2500      34.3640    -999.2500    -999.2500     991.0366     390.0192       6.7751    -999.2500       0.1185    -999.2500       1.7840       2.9534
   2111.9312      12.2089       6.8866    -999.2500    -999.2500      36.2687    -999.2500    -999.2500     960.4913     382.4919       6.6799    -999.2500       0.0710    -999.2500       1.8999       3.2488
   2112.0835      12.2185       6.3905    -999.2500    -999.2500      37.7456    -999.2500    -999.2500     996.0267     399.6703       6.4206    -999.2500       0.0494    -999.2500       1.8349       3.4731
   2112.2361      12.2240       5.8983    -999.2500    -999.2500      39.1230    -999.2500    -999.2500    1046.7659     422.5330       6.0737    -999.2500       0.0339    -999.2500       1.7274       3.6807
   2112.3884      12.2282       4.8976    -999.2500    -999.2500      39.7078    -999.2500    -999.2500    1026.5352     430.5136       6.0611    -999.2500       0.0314    -999.2500       1.4133       3.8480
   2112.5408      12.2322       3.7781    -999.2500    -999.2500      40.1073    -999.2500    -999.2500     989.8831     435.0508       6.2078    -999.2500       0.0319    -999.2500       1.0510       4.0059
   2112.6931      12.2391       2.8616    -999.2500    -999.2500      41.3923    -999.2500    -999.2500     937.1491     399.7719       6.7504    -999.2500       0.0320    -999.2500       0.7540       4.2563
   2112.8457      12.2466       1.9928    -999.2500    -999.2500      42.8876    -999.2500    -999.2500     880.7120     355.3246       7.5071    -999.2500       0.0320    -999.2500       0.4724       4.5284
   2112.9980      12.2270       1.4554    -999.2500    -999.2500      46.6568    -999.2500    -999.2500     818.4698     328.9083       8.3394    -999.2500       0.0324    -999.2500       0.2975       5.0073
   2113.1504      12.2009       0.9956    -999.2500    -999.2500      50.9693    -999.2500    -999.2500     754.8834     306.6676       9.1123    -999.2500       0.0329    -999.2500       0.1476       5.5346
   2113.3027      12.2033       0.9145    -999.2500    -999.2500      52.7051    -999.2500    -999.2500     712.4080     311.1743       9.5483    -999.2500       0.0334    -999.2500       0.1186       5.7366
   2113.4553      12.2123       0.9225    -999.2500    -999.2500      53.8471    -999.2500    -999.2500     674.7977     321.8452       9.7214    -999.2500       0.0339    -999.2500       0.1181       5.8622
   2113.6077      12.1881       0.9276    -999.2500    -999.2500      53.3987    -999.2500    -999.2500     694.2094     328.7328       8.8464    -999.2500       0.0340    -999.2500       0.1192       5.8127
   2113.7600      12.1561       0.9321    -999.2500    -999.2500      52.5817    -999.2500    -999.2500     726.8370     334.7435       7.6194    -999.2500       0.0340    -999.2500       0.1207       5.7222
   2113.9124      12.1375       1.0265    -999.2500    -999.2500      53.1982    -999.2500    -999.2500     757.2559     343.3112       7.1079    -999.2500       0.0340    -999.2500       0.1518       5.7900
   2114.0647      12.1220       1.1421    -999.2500    -999.2500      54.1523    -999.2500    -999.2500     787.1655     352.4688       6.8922    -999.2500       0.0340    -999.2500       0.1898       5.8951
   2114.2173      12.1226       1.0672    -999.2500    -999.2500      55.9002    -999.2500    -999.2500     768.7792     344.5479       7.0232    -999.2500       0.0340    -999.2500       0.1654       6.0887
   2114.3696      12.1272       0.9478    -999.2500    -999.2500      57.8360    -999.2500    -999.2500     739.1902     332.6655       7.3266    -999.2500       0.0340    -999.2500       0.1264       6.3031
   2114.5220      12.1435       2.5316    -999.2500    -999.2500      56.2691    -999.2500    -999.2500     745.8685     338.1496       7.1292    -999.2500       0.1069    -999.2500       0.2538       6.0052
   2114.6743      12.1625       4.5168    -999.2500    -999.2500      53.9022    -999.2500    -999.2500     760.9185     347.6426       6.7537    -999.2500       0.1969    -999.2500       0.4204       5.5865
   2114.8269      12.1745       3.6747    -999.2500    -999.2500      50.6397    -999.2500    -999.2500     824.1327     366.2150       6.0825    -999.2500       0.1411    -999.2500       0.3929       5.2613
   2114.9792      12.1850       2.1693    -999.2500    -999.2500      47.1714    -999.2500    -999.2500     898.4111     386.8731       5.2505    -999.2500       0.0512    -999.2500       0.3199       4.9579
   2115.1316      12.1979       2.4174    -999.2500    -999.2500      45.2528    -999.2500    -999.2500    1196.9064     479.6492       5.2231    -999.2500       0.0328    -999.2500       0.5326       4.7235
   2115.2839      12.2114       3.0792    -999.2500    -999.2500      43.6960    -999.2500    -999.2500    1547.2021     589.0865       5.3971    -999.2500       0.0313    -999.2500       0.8127       4.5055
   2115.4365      12.2095       3.3014    -999.2500    -999.2500      43.1681    -999.2500    -999.2500    3253.6831     894.2458       5.6435    -999.2500       0.0314    -999.2500       0.8980       4.4231
   2115.5889      12.2041       3.4205    -999.2500    -999.2500      42.8817    -999.2500    -999.2500    5271.9653    1244.4036       5.9233    -999.2500       0.0319    -999.2500       0.9375       4.3726
   2115.7412      12.2010       3.6577    -999.2500    -999.2500      42.1181    -999.2500    -999.2500    9387.9580    1439.3110       6.1229    -999.2500       0.0320    -999.2500       1.0131       4.2662
   2115.8936      12.1985       3.9226    -999.2500    -999.2500      41.2419    -999.2500    -999.2500   13988.9814    1598.3218       6.2865    -999.2500       0.0320    -999.2500       1.0970       4.1467
   2116.0459      12.2220       4.0589    -999.2500    -999.2500      41.1637    -999.2500    -999.2500   13827.2881    1666.0542       6.3489    -999.2500       0.0324    -999.2500       1.1381       4.1135
