#------------------------------------------------------------------------------
#
#   Created by  : [OpenWorks] Log Export Utility (LEXP)
#   Created on  : 2016-05-23 11:56:16
#   Project     : CANT971
#   User        : R5K
#   Interpreter : PEP
#
#------------------------------------------------------------------------------
~VERSION INFORMATION
VERS. 2.0 : CWLS Log ASCII Standard - version 2.0
WRAP.  NO : One line per depth step
~WELL INFORMATION
#MNEMONIC   .UNIT                                           VALUE :DESCRIPTION
#------------------------------------------------------------------------------
STRT        .M                                           785.0543 :START DEPTH
STOP        .M                                          3464.0940 :STOP DEPTH
STEP        .M                                             0.1524 :STEP
NULL        .                                           -999.2500 :NULL VALUE
COMP        .                                   PEMEX EXPL & PROD :COMPANY
WELL        .                                                448D :WELL
FLD         .                                           CANTARELL :FIELD
LOC         .                                             UNKNOWN :LOCATION
CNTY        .                                      CD. DEL CARMEN :COUNTY
STAT        .                                            CAMPECHE :STATE
CTRY        .                                              MEXICO :COUNTRY
SRVC        .                                             UNKNOWN :SERVICE COMPANY
DATE        .                                             UNKNOWN :LOG DATE
UWI         .                                          3060000822 :UNIQUE WELL ID
XCOORD      .                                       598710.240000 :SURFACE X
YCOORD      .                                      2143307.000000 :SURFACE Y
LAT         .                                           19.382637 :LATITUDE
LON         .                                          -92.060012 :LONGITUDE
ELEV        .M                                            28.0000 :SURFACE ELEV
ELEV_TYPE   .                                                  KB :ELEV TYPE
~CURVE INFORMATION
#MNEMONIC.UNIT        API CODE       : CURVE DESCRIPTION
#------------------------------------------------------------------------------
DEPTH    .M                          : Measured Depth
CALI     .inches      UNKNOWN        : CALI:registros:rC:NONE:v0 (auto-composite)
DRHO     .g/cm3       UNKNOWN        : DRHO:registros:rC:NONE:v0 (auto-composite)
DT       .us/ft       UNKNOWN        : DT:registros:rC:NONE:v0 (auto-composite)
GR       .API         UNKNOWN        : GR:registros:rC:NONE:v0 (auto-composite)
LLD      .ohm.m       UNKNOWN        : LLD:registros:rC:NONE:v0 (auto-composite)
LLS      .ohm.m       UNKNOWN        : LLS:registros:rC:NONE:v0 (auto-composite)
MSFL     .ohm.m       UNKNOWN        : MSFL:registros:rC:NONE:v0 (auto-composite)
NPHI     .v/v_decimal UNKNOWN        : NPHI:registros:rC:NONE:v0 (auto-composite)
PEF      .b/elec      UNKNOWN        : PEF:registros:rC:NONE:v0 (auto-composite)
RHOB     .g/cm3       UNKNOWN        : RHOB:registros:rC:NONE:v0 (auto-composite)
~A     DEPTH         CALI         DRHO           DT           GR          LLD          LLS         MSFL         NPHI          PEF         RHOB
# ...
   2807.7070      22.0965       0.1117     166.7858      16.4425     302.2193      75.0389       9.4616       0.3452       2.3914       2.0240
   2807.8596      22.0660       0.0596     174.3558      15.8747     270.5608      72.9299      12.2086       0.4675       2.0989       1.7283
   2808.0120      22.3254       0.0262     196.8494      17.2884     241.8356      70.6217      10.1429       0.5171       2.0818       1.4461
   2808.1643      23.1517       0.0181     215.7846      17.6998     222.5417      69.5917      10.1515       0.5050       2.2518       1.2958
   2808.3167      23.8250       0.0060     219.2561      17.4567     207.0591      68.6280      10.9146       0.4636       2.6123       1.2927
   2808.4692      23.8589       0.0257     203.3095      17.5724     201.8130      68.5793       7.0017       0.4164       2.8963       1.4160
   2808.6216      23.8240       0.0629     178.4562      18.4237     203.2729      68.4105       5.1009       0.4306       3.2011       1.6216
   2808.7739      23.5055       0.0784     172.8681      20.3571     210.0564      67.2055       5.0952       0.4800       3.4491       1.7856
   2808.9263      22.7543       0.0955     125.0794      22.8202     203.3740      65.0366       4.9534       0.5472       3.4259       1.9713
   2809.0786      22.9089       0.0761      54.8156      23.9589     184.4949      65.0462       5.1696       0.5701       3.3669       2.1538
   2809.2312      23.6921       0.0331      44.4000      23.5392     184.5315      69.9634       7.3517       0.5702       3.3281       2.3031
   2809.3835      23.7732       0.0106      44.4000      23.7049     194.0604      73.9351      12.1603       0.5524       3.2768       2.5041
   2809.5359      23.7832       0.0009      44.0420      27.2638     199.1884      75.3330      14.0578       0.4790       3.3285       2.5734
   2809.6882      23.5161      -0.0088      44.1609      32.7134     219.6027      78.5656      11.9215       0.3078       3.4059       2.6133
   2809.8408      22.0469       0.0000      47.0868      36.7034     286.8565      86.3912      13.2938       0.1517       3.4314       2.6681
   2809.9932      20.5933       0.0083      47.5545      36.9565     358.7247      90.7604      15.7340       0.0600       3.3981       2.6984
   2810.1455      20.5340       0.0166      51.6195      34.8028     395.8917      95.2971      53.3027       0.0504       3.4538       2.7051
   2810.2979      20.5128       0.0247      63.5022      32.1999     403.9537      96.6871     196.5843       0.0496       3.6616       2.7167
   2810.4504      20.4623       0.0231      65.2288      29.6630     418.9488      99.8013     306.7482       0.0514       3.7508       2.7208
   2810.6028      20.3286       0.0164      78.7701      26.2330     394.0223      99.0852     219.3777       0.0518       3.8076       2.7319
   2810.7551      20.4132       0.0206     119.5227      20.9561     399.9729      99.8878     251.1366       0.0367       3.8831       2.7607
   2810.9075      20.6513       0.0225     151.2820      15.5239     540.8452     110.4749     126.7353       0.0186       3.8904       2.7789
   2811.0598      20.7925       0.0251     149.6801      11.5647     893.2263     133.7944     261.9278       0.0087       3.7217       2.7823
   2811.2124      20.9524       0.0408     144.2894       9.7319     960.7080     138.3981     522.3975       0.0067       3.5826       2.7755
   2811.3647      21.1112       0.0804     144.1852      10.1465     855.4784     136.2256     205.3844       0.0076       3.4307       2.7620
   2811.5171      21.0897       0.0946     144.6872      11.7572     737.3773     133.1978     258.0760       0.0128       3.5065       2.6990
   2811.6694      20.8524       0.1013     160.5944      13.0248     588.1917     120.3530     352.7836       0.0269       3.6078       2.6512
   2811.8220      20.8756       0.1186     183.4140      13.8307     429.0174     103.6926     488.9168       0.0358       3.6925       2.6072
   2811.9744      20.9587       0.1311     194.7169      14.5530     423.6995     102.6813     564.5539       0.0393       3.6372       2.5312
   2812.1267      21.6877       0.0886     213.5176      14.1990     431.7272     102.0571     198.2247       0.0285       3.5453       2.4638
   2812.2791      22.6527       0.0742     216.1500      11.8078     424.4130     101.0965     184.0813       0.0321       3.4785       2.5009
   2812.4316      21.0477       0.0879     260.2423       9.0282     363.9017      92.7532      45.5692       0.0547       3.4793       2.6251
   2812.5840      21.1037       0.0661     331.7510       9.1779     336.2173      86.2376     193.6019       0.0626       3.3831       2.6571
   2812.7363      21.1971       0.0150     341.4772      11.3841     346.6054      86.4711     431.9883       0.0653       3.3051       2.6007
   2812.8887      21.8276       0.0196     340.4980      13.6321     358.0782      87.4194      43.1341       0.0514       3.2171       2.6138
   2813.0410      22.8542       0.0217     335.3051      14.4642     311.4402      81.9423     103.2351       0.0440       3.1928       2.6432
   2813.1936      22.8879       0.0225     331.6464      14.9170     305.7798      80.5302     125.0791       0.0431       3.2081       2.6667
   2813.3459      23.3882       0.0256     333.4382      13.9672     292.5115      77.5879      97.3562       0.0435       3.1016       2.6768
   2813.4983      23.5295       0.0195     320.7559      12.9302     242.2855      66.9690      82.0911       0.0490       3.0563       2.6557
   2813.6506      23.4564       0.0225     310.8286      11.0014     202.6359      58.0833      85.8085       0.0599       3.0166       2.6542
   2813.8032      23.2357       0.0436     322.7311       9.5684     203.4347      56.6578      95.6352       0.0755       3.0430       2.6587
   2813.9556      23.0634       0.0479     328.0195       9.2555     205.5659      55.2997      98.1238       0.0977       3.0017       2.6296
   2814.1079      22.1981       0.0368     337.1276      10.8205     203.7186      53.5025     113.4306       0.1222       2.8859       2.5962
   2814.2603      21.5937       0.0350     344.0201      11.7405     202.8985      51.1078     104.8463       0.1400       2.7325       2.5959
   2814.4128      21.2501       0.0321     344.0089      11.0633     199.1745      48.1013      73.2591       0.1419       2.6023       2.6157
   2814.5652      21.4177       0.0217     343.7955      10.8091     196.2229      46.7778      72.1297       0.1203       2.7614       2.5954
   2814.7175      22.3409       0.0171     328.2430      12.6560     189.3942      44.8788      59.6705       0.0893       2.7371       2.4110
   2814.8699      23.0845       0.0040     298.5687      15.8309     172.8872      41.1250      58.2921       0.0649       2.7847       2.0292
   2815.0222      22.0116       0.0212     287.0723      17.7548     167.6566      39.9165      94.0239       0.0728       2.9141       1.9631
   2815.1748      22.4960       0.0781     283.4593      18.8335     167.1401      40.1207      86.3243       0.0935       3.1990       2.0621
   2815.3271      23.8309       0.1760     283.7112      19.7287     167.4729      40.0956      85.5763       0.1266       3.4218       2.3406
   2815.4795      23.8738       0.2273     268.1703      19.2567     171.4988      40.5534      76.7373       0.1707       3.4394       2.4184
   2815.6318      23.8838       0.2494     240.7646      17.8400     179.3606      41.6983      25.9338       0.2223       3.2941       2.4265
   2815.7844      23.8776       0.2677     211.4765      16.3318     180.8348      41.6469      54.6503       0.2559       3.1716       2.4365
   2815.9368      23.8667       0.2411     167.4486      15.0575     180.4017      41.5072      68.2132       0.2769       3.0289       2.3742
   2816.0891      23.7938       0.1687     143.0981      14.8094     180.8383      41.6280      67.1009       0.2720       2.9191       2.2559
