#------------------------------------------------------------------------------
#
#   Created by  : [OpenWorks] Log Export Utility (LEXP)
#   Created on  : 2016-05-23 11:52:25
#   Project     : CANT971
#   User        : R5K
#   Interpreter : PEP
#
#------------------------------------------------------------------------------
~VERSION INFORMATION
VERS. 2.0 : CWLS Log ASCII Standard - version 2.0
WRAP.  NO : One line per depth step
~WELL INFORMATION
#MNEMONIC   .UNIT                                           VALUE :DESCRIPTION
#------------------------------------------------------------------------------
STRT        .M                                           940.1293 :START DEPTH
STOP        .M                                          2672.0029 :STOP DEPTH
STEP        .M                                             0.1524 :STEP
NULL        .                                           -999.2500 :NULL VALUE
COMP        .                                   PEMEX EXPL & PROD :COMPANY
WELL        .                                               2071D :WELL
FLD         .                                           CANTARELL :FIELD
LOC         .                                             UNKNOWN :LOCATION
CNTY        .                                      CD. DEL CARMEN :COUNTY
STAT        .                                            CAMPECHE :STATE
CTRY        .                                              MEXICO :COUNTRY
SRVC        .                                             UNKNOWN :SERVICE COMPANY
DATE        .                                             UNKNOWN :LOG DATE
UWI         .                                          3060000679 :UNIQUE WELL ID
XCOORD      .                                       601713.940000 :SURFACE X
YCOORD      .                                      2142372.000000 :SURFACE Y
LAT         .                                           19.374038 :LATITUDE
LON         .                                          -92.031462 :LONGITUDE
ELEV        .M                                            30.0000 :SURFACE ELEV
ELEV_TYPEF  .b/elec                                            KB :ELEV TYPE
~CURVE INFORMATION
#MNEMONIC.UNIT        API CODE       : CURVE DESCRIPTION
#------------------------------------------------------------------------------
DEPTH    .M                          : Measured Depth
CALI     .in          UNKNOWN        : CALI:UNKNOWN:rC:NONE:v0 (auto-composite)
DRHO     .g/cm3       UNKNOWN        : DRHO:UNKNOWN:rC:NONE:v0 (auto-composite)
DT       .us/ft       UNKNOWN        : DT:DT:rC:NONE:v0 (auto-composite)
GR       .API         UNKNOWN        : GR:UNKNOWN:rC:NONE:v0 (auto-composite)
ILD      .ohmm        UNKNOWN        : ILD:UNKNOWN:rC:NONE:v0 (auto-composite)
ILM      .ohmm        UNKNOWN        : ILM:UNKNOWN:rC:NONE:v0 (auto-composite)
LLD      .ohmm        UNKNOWN        : LLD:UNKNOWN:rC:NONE:v0 (auto-composite)
LLS      .ohmm        UNKNOWN        : LLS:UNKNOWN:rC:NONE:v0 (auto-composite)
MSFL     .ohmm        UNKNOWN        : MSFL:UNKNOWN:rC:NONE:v0 (auto-composite)
NPHI     .v/v_decimal UNKNOWN        : NPHI:UNKNOWN:rC:NONE:v0 (auto-composite)
PEF      .b/elec      UNKNOWN        : PEF:UNKNOWN:rC:NONE:v0 (auto-composite)
RHOB     .g/cm3       UNKNOWN        : RHOB:UNKNOWN:rC:NONE:v0 (auto-composite)
~A     DEPTH         CALI         DRHO           DT           GR          ILD          ILM          LLD          LLS         MSFL         NPHI          PEF         RHOB
# ...
   2344.6477      10.9300       0.0300      59.9427      63.4841    -999.2500    -999.2500     529.3248     218.9276       0.3695       0.0480       3.1825       2.7790
   2344.8000      10.9220       0.0230      58.1840      62.0210    -999.2500    -999.2500     265.9290     120.8760       0.3950       0.0625       3.1390       2.7680
   2344.9526      10.9695       0.0255      55.3326      60.1473    -999.2500    -999.2500     229.9541      95.6989       0.3895       0.0754       3.1955       2.7420
   2345.1050      11.0170       0.0280      52.4820      58.2740    -999.2500    -999.2500     193.9880      70.5280       0.3840       0.0882       3.2520       2.7160
   2345.2573      11.0295       0.0175      57.4778      55.1688    -999.2500    -999.2500     222.6158      88.4258       0.3475       0.0784       3.2115       2.6785
   2345.4097      11.0420       0.0070      62.4730      52.0590    -999.2500    -999.2500     251.2860     106.3500       0.3110       0.0685       3.1710       2.6410
   2345.5620      11.1221       0.0205      59.7825      47.2346    -999.2500    -999.2500     272.9553     116.0793       0.2760       0.0701       3.2150       2.6495
   2345.7146      11.2020       0.0340      57.0920      42.4180    -999.2500    -999.2500     294.5900     125.7930       0.2410       0.0718       3.2590       2.6580
   2345.8669      11.3995       0.0285      53.4387      35.6297    -999.2500    -999.2500     248.4384     111.0757       0.3107       0.0767       3.2334       2.6515
   2346.0193      11.5960       0.0230      49.7850      28.8730    -999.2500    -999.2500     202.5020      96.4270       0.3800       0.0816       3.2080       2.6450
   2346.1716      11.2941       0.0440      57.3710      23.9192    -999.2500    -999.2500     167.3357      80.9863       0.3640       0.0907       3.2881       2.6775
   2346.3242      10.9930       0.0650      64.9590      18.9800    -999.2500    -999.2500     132.2730      65.5910       0.3480       0.0998       3.3680       2.7100
   2346.4766      11.0330       0.0560      62.4865      17.9629    -999.2500    -999.2500     122.2709      61.2313       0.3665       0.1047       3.3120       2.7000
   2346.6289      11.0730       0.0470      60.0130      16.9470    -999.2500    -999.2500     112.2810      56.8770       0.3850       0.1096       3.2560       2.6900
   2346.7812      10.9421       0.0540      59.3471      22.2739    -999.2500    -999.2500     123.0022      64.4305       0.3950       0.1064       3.3039       2.6760
   2346.9338      10.8110       0.0610      58.6820      27.6120    -999.2500    -999.2500     133.7460      72.0000       0.4050       0.1032       3.3520       2.6620
   2347.0862      10.9060       0.0525      65.7474      34.5899    -999.2500    -999.2500     138.1121      74.4437       0.3940       0.0911       3.3680       2.6650
   2347.2385      11.0010       0.0440      72.8060      41.5610    -999.2500    -999.2500     142.4740      76.8850       0.3830       0.0789       3.3840       2.6680
   2347.3909      10.9413       0.0400      71.3429      45.1441    -999.2500    -999.2500     123.8009      63.9867       0.3559       0.0760       3.3579       2.6560
   2347.5432      10.8820       0.0360      69.8810      48.7070    -999.2500    -999.2500     105.2330      51.1610       0.3290       0.0731       3.3320       2.6440
   2347.6958      10.8464       0.0300      66.9500      50.6944    -999.2500    -999.2500     116.0532      57.1713       0.3771       0.0750       3.3200       2.6380
   2347.8481      10.8110       0.0240      64.0210      52.6740    -999.2500    -999.2500     126.8310      63.1580       0.4250       0.0768       3.3080       2.6320
   2348.0005      10.8900       0.0230      60.2894      52.8871    -999.2500    -999.2500     164.0170      80.2221       0.4055       0.0637       3.3565       2.6715
   2348.1528      10.9690       0.0220      56.5600      53.1000    -999.2500    -999.2500     201.1810      97.2760       0.3860       0.0507       3.4050       2.7110
   2348.3054      10.8781       0.0285      57.2717      50.4177    -999.2500    -999.2500     229.7204     104.0412       0.3600       0.0492       3.3900       2.7320
   2348.4578      10.7870       0.0350      57.9830      47.7280    -999.2500    -999.2500     258.3380     110.8250       0.3340       0.0478       3.3750       2.7530
   2348.6101      10.8486       0.0335      57.1574      46.7400    -999.2500    -999.2500     273.3221     114.6547       0.3300       0.0516       3.3224       2.7505
   2348.7625      10.9100       0.0320      56.3320      45.7540    -999.2500    -999.2500     288.2770     118.4770       0.3260       0.0553       3.2700       2.7480
   2348.9150      10.9677       0.0380      60.9370      47.2198    -999.2500    -999.2500     296.2849     121.0545       0.3370       0.0644       3.2936       2.7345
   2349.0674      11.0250       0.0440      65.5410      48.6760    -999.2500    -999.2500     304.2400     123.6150       0.3480       0.0734       3.3170       2.7210
   2349.2197      10.9354       0.0395      61.5463      44.2803    -999.2500    -999.2500     305.1655     124.6477       0.3295       0.0743       3.3215       2.7100
   2349.3721      10.8460       0.0350      57.5520      39.8990    -999.2500    -999.2500     306.0880     125.6770       0.3110       0.0752       3.3260       2.6990
   2349.5244      10.8085       0.0415      62.0114      37.9430    -999.2500    -999.2500     302.0626     126.0805       0.3220       0.0741       3.3690       2.7065
   2349.6770      10.7710       0.0480      66.4710      35.9870    -999.2500    -999.2500     298.0370     126.4840       0.3330       0.0730       3.4120       2.7140
   2349.8293      10.8659       0.0410      64.1527      40.3347    -999.2500    -999.2500     258.5348     110.8887       0.3155       0.0782       3.3421       2.6960
   2349.9817      10.9610       0.0340      61.8340      44.6900    -999.2500    -999.2500     218.9630      95.2660       0.2980       0.0835       3.2720       2.6780
   2350.1340      10.9134       0.0320      63.3230      50.1595    -999.2500    -999.2500     186.1481      78.3518       0.2875       0.0795       3.2900       2.6515
   2350.2866      10.8660       0.0300      64.8100      55.6130    -999.2500    -999.2500     153.4290      61.4870       0.2770       0.0756       3.3080       2.6250
   2350.4390      11.1885       0.0275      62.5301      58.3647    -999.2500    -999.2500     150.3022      66.3957       0.3111       0.0660       3.2568       2.6385
   2350.5913      11.5090       0.0250      60.2530      61.1000    -999.2500    -999.2500     147.1940      71.2750       0.3450       0.0564       3.2060       2.6520
   2350.7437      11.3458       0.0330      58.3850      57.1237    -999.2500    -999.2500     193.4225      92.9353       0.3150       0.0538       3.2415       2.6805
   2350.8962      11.1830       0.0410      56.5190      53.1580    -999.2500    -999.2500     239.5280     114.5380       0.2850       0.0512       3.2770       2.7090
   2351.0486      11.0684       0.0285      57.6605      47.2377    -999.2500    -999.2500     290.8921     131.8616       0.2800       0.0583       3.2355       2.6940
   2351.2009      10.9540       0.0160      58.8010      41.3230    -999.2500    -999.2500     342.2080     149.1690       0.2750       0.0654       3.1940       2.6790
   2351.3533      11.0094       0.0090      59.5573      39.4148    -999.2500    -999.2500     374.2312     157.9465       0.3070       0.0688       3.1885       2.6635
   2351.5056      11.0650       0.0020      60.3130      37.5020    -999.2500    -999.2500     406.3310     166.7450       0.3390       0.0722       3.1830       2.6480
   2351.6582      11.0265       0.0100      59.0331      36.0210    -999.2500    -999.2500     397.4559     162.1329       0.3515       0.0710       3.1850       2.6595
   2351.8105      10.9880       0.0180      57.7540      34.5410    -999.2500    -999.2500     388.5870     157.5240       0.3640       0.0698       3.1870       2.6710
