#------------------------------------------------------------------------------
#
#   Created by  : [OpenWorks] Log Export Utility (LEXP)
#   Created on  : 2016-05-23 11:52:51
#   Project     : CANT971
#   User        : R5K
#   Interpreter : PEP
#
#------------------------------------------------------------------------------
~VERSION INFORMATION
VERS. 2.0 : CWLS Log ASCII Standard - version 2.0
WRAP.  NO : One line per depth step
~WELL INFORMATION
#MNEMONIC   .UNIT                                           VALUE :DESCRIPTION
#------------------------------------------------------------------------------
STRT        .M                                           691.4386 :START DEPTH
STOP        .M                                          2836.4685 :STOP DEPTH
STEP        .M                                             0.1524 :STEP
NULL        .                                           -999.2500 :NULL VALUE
COMP        .                                   PEMEX EXPL & PROD :COMPANY
WELL        .                                                2094 :WELL
FLD         .                                           CANTARELL :FIELD
LOC         .                                             UNKNOWN :LOCATION
CNTY        .                                      CD. DEL CARMEN :COUNTY
STAT        .                                            CAMPECHE :STATE
CTRY        .                                              MEXICO :COUNTRY
SRVC        .                                             UNKNOWN :SERVICE COMPANY
DATE        .                                             UNKNOWN :LOG DATE
UWI         .                                          3060000525 :UNIQUE WELL ID
XCOORD      .                                       601711.170000 :SURFACE X
YCOORD      .                                      2142342.970000 :SURFACE Y
LAT         .                                           19.373776 :LATITUDE
LON         .                                          -92.031490 :LONGITUDE
ELEV        .M                                            24.0000 :SURFACE ELEV
ELEV_TYPE   .                                                  KB :ELEV TYPE
~CURVE INFORMATION
#MNEMONIC.UNIT        API CODE       : CURVE DESCRIPTION
#------------------------------------------------------------------------------
DEPTH    .M                          : Measured Depth
CALI     .in          UNKNOWN        : CALI:registros:rC:NONE:v0 (auto-composite)
DRHO     .g/cm3       UNKNOWN        : DRHO:registros:rC:NONE:v0 (auto-composite)
DT       .us/ft       UNKNOWN        : DT:registros:rC:NONE:v0 (auto-composite)
GR       .API         UNKNOWN        : GR:registros:rC:NONE:v0 (auto-composite)
ILD      .ohm.m       UNKNOWN        : ILD:registros:rC:NONE:v0 (auto-composite)
ILM      .ohm.m       UNKNOWN        : ILM:registros:rC:NONE:v0 (auto-composite)
LLD      .ohm.m       UNKNOWN        : LLD:registros:rC:NONE:v0 (auto-composite)
LLS      .ohm.m       UNKNOWN        : LLS:registros:rC:NONE:v0 (auto-composite)
MSFL     .ohm.m       UNKNOWN        : MSFL:registros:rC:NONE:v0 (auto-composite)
NPHI     .v/v_decimal UNKNOWN        : NPHI:registros:rC:NONE:v0 (auto-composite)
PEF      .b/elec      UNKNOWN        : PEF:registros:rC:NONE:v0 (auto-composite)
RHOB     .g/cm3       UNKNOWN        : RHOB:registros:rC:NONE:v0 (auto-composite)
~A     DEPTH         CALI         DRHO           DT           GR          ILD          ILM          LLD          LLS         MSFL         NPHI          PEF         RHOB
# ...
   2344.6738       8.5740       0.0850      60.3471      41.9900    -999.2500    -999.2500     775.0698     411.2451     590.9020       0.0467       3.0024       2.6769
   2344.8262       8.5740       0.0876      55.9191      42.2660    -999.2500    -999.2500     638.9250     349.3930     346.1620       0.0327       2.8214       2.7462
   2344.9785       8.5660       0.0715      56.6291      41.5203    -999.2500    -999.2500     560.0440     305.1457     214.0145       0.0285       2.8108       2.7840
   2345.1311       8.5546       0.0531      57.8922      40.7800    -999.2500    -999.2500     481.8630     261.2910      82.8290       0.0265       2.8834       2.7935
   2345.2834       8.5445       0.0490      55.1459      39.5305    -999.2500    -999.2500     620.4097     309.9100      69.1816       0.0319       2.9509       2.7780
   2345.4358       8.5452       0.0529      51.8388      38.2900    -999.2500    -999.2500     757.7450     358.1040      55.6320       0.0379       3.0526       2.7530
   2345.5881       8.5665       0.0585      51.4138      37.3668    -999.2500    -999.2500    1053.7772     460.8983      52.2105       0.0409       3.2278       2.7340
   2345.7405       8.5857       0.0656      53.0692      36.4500    -999.2500    -999.2500    1347.2560     562.8060      48.8130       0.0435       3.3730       2.7245
   2345.8931       8.5805       0.0740      56.0112      35.3146    -999.2500    -999.2500    1400.2732     653.8914      77.7093       0.0466       3.3846       2.7280
   2346.0454       8.5686       0.0797      59.9710      34.1870    -999.2500    -999.2500    1452.8400     744.2030     106.4060       0.0501       3.3394       2.7290
   2346.1978       8.5680       0.0790      64.6777      34.9617    -999.2500    -999.2500    1206.3049     673.6877     100.2070       0.0565       3.3150       2.7120
   2346.3501       8.5754       0.0781      68.5016      35.7300    -999.2500    -999.2500     961.8350     603.7630      94.0500       0.0627       3.3040       2.6903
   2346.5027       8.5875       0.0835      69.8046      38.9096    -999.2500    -999.2500     691.1250     499.3526      59.8210       0.0649       3.2990       2.6770
   2346.6550       8.5944       0.0979      69.2707      42.0630    -999.2500    -999.2500     422.6470     395.8030      25.8200       0.0665       3.3159       2.6775
   2346.8074       8.5860       0.1240      67.5794      45.2791    -999.2500    -999.2500     227.1210     213.9807      19.6418       0.0669       3.3709       2.6969
   2346.9597       8.5972       0.1516      65.1938      48.4690    -999.2500    -999.2500      33.1840      33.6360      13.5040       0.0677       3.4125       2.7091
   2347.1123       8.6629       0.1705      62.5674      44.0037    -999.2500    -999.2500      27.3592      28.1395     288.3762       0.0724       3.3891       2.6876
   2347.2646       8.7461       0.1784      60.1843      39.5740    -999.2500    -999.2500      21.5810      22.6870     561.4860       0.0768       3.3417       2.6636
   2347.4170       8.8094       0.1730      58.5272      37.7152    -999.2500    -999.2500      55.2566      57.4158     987.8321       0.0753       3.3115       2.6690
   2347.5693       8.8486       0.1524      57.2692      35.8710    -999.2500    -999.2500      88.6670      91.8710    1411.5000       0.0734       3.2914       2.6796
   2347.7217       8.8590       0.1145      56.0894      35.2401    -999.2500    -999.2500     168.0078     164.6208    1096.3029       0.0735       3.2740       2.6715
   2347.8743       8.9046       0.0807      55.9467      34.6140    -999.2500    -999.2500     246.7340     236.8070     783.0480       0.0758       3.2573       2.6499
   2348.0266       9.0502       0.0725      57.8017      34.2978    -999.2500    -999.2500     324.1287     274.4441     598.9468       0.0911       3.2390       2.6201
   2348.1790       9.1305       0.0816      59.3021      33.9840    -999.2500    -999.2500     400.9330     311.7940     416.2500       0.1062       3.2276       2.6062
   2348.3313       8.9791       0.1000      58.0994      34.3735    -999.2500    -999.2500     491.9201     351.1501     843.9785       0.1069       3.2315       2.6329
   2348.4839       8.7793       0.1171      56.1906      34.7600    -999.2500    -999.2500     582.2250     390.2110    1268.5000       0.1046       3.2406       2.6682
   2348.6362       8.7160       0.1225      55.5690      36.5340    -999.2500    -999.2500     722.3003     440.9181    1080.3699       0.0957       3.2450       2.6800
   2348.7886       8.7165       0.1195      55.6786      38.2950    -999.2500    -999.2500     861.3420     491.2510     893.6280       0.0868       3.2512       2.6788
   2348.9409       8.7080       0.1115      55.9696      38.7506    -999.2500    -999.2500     920.7637     502.5490     925.0529       0.0841       3.2660       2.6750
   2349.0935       8.7001       0.1033      56.0073      39.2030    -999.2500    -999.2500     979.6600     513.7470     956.2500       0.0832       3.3015       2.6725
   2349.2458       8.7025       0.0995      55.3570      38.1859    -999.2500    -999.2500    1000.6926     491.9907     564.1804       0.0895       3.3704       2.6750
   2349.3982       8.7191       0.0969      54.4645      37.1760    -999.2500    -999.2500    1021.5420     470.4240     174.9060       0.0957       3.4356       2.6807
   2349.5505       8.7539       0.0920      53.7726      35.7067    -999.2500    -999.2500     903.2255     402.1988     240.5578       0.0944       3.4600       2.6880
   2349.7029       8.7981       0.0840      53.2676      34.2500    -999.2500    -999.2500     785.9260     334.5600     305.7500       0.0913       3.4578       2.6974
   2349.8555       8.8424       0.0720      52.9397      34.5794    -999.2500    -999.2500     722.3947     298.4155     236.2569       0.0845       3.4430       2.7095
   2350.0078       8.8530       0.0566      52.9800      34.9060    -999.2500    -999.2500     659.4010     262.5770     167.2420       0.0777       3.4038       2.7139
   2350.1602       8.7952       0.0385      53.5836      34.3366    -999.2500    -999.2500     690.2010     297.5986      96.5875       0.0743       3.3277       2.7000
   2350.3125       8.7595       0.0275      54.3256      33.7720    -999.2500    -999.2500     720.7440     332.3280      26.4100       0.0735       3.3000       2.6820
   2350.4651       8.8377       0.0335      54.7833      32.5058    -999.2500    -999.2500     638.6955     347.6695      66.7447       0.0862       3.4072       2.6740
   2350.6174       8.9350       0.0439      54.6841      31.2500    -999.2500    -999.2500     557.3210     362.8850     106.8120       0.0991       3.5318       2.6653
   2350.7698       8.9560       0.0460      53.7489      31.2575    -999.2500    -999.2500     562.4979     352.0963      65.0633       0.1000       3.5555       2.6450
   2350.9221       8.8974       0.0408      52.7355      31.2650    -999.2500    -999.2500     567.6330     341.3950      23.5860       0.0978       3.5120       2.6255
   2351.0747       8.7547       0.0290      52.4000      31.3097    -999.2500    -999.2500     600.4824     351.1047      23.5965       0.0876       3.4341       2.6190
   2351.2271       8.6161       0.0177      52.4624      31.3540    -999.2500    -999.2500     633.0700     360.7370      23.6070       0.0776       3.3506       2.6194
   2351.3794       8.5700       0.0140      52.6507      32.8443    -999.2500    -999.2500     738.2161     403.3412      47.1737       0.0763       3.2901       2.6205
   2351.5317       8.5822       0.0186      52.9633      34.3230    -999.2500    -999.2500     842.5370     445.6110      70.5930       0.0763       3.2396       2.6275
   2351.6841       8.6189       0.0325      53.4007      37.9570    -999.2500    -999.2500    1443.9674     702.1653     121.1936       0.0768       3.1861       2.6455
   2351.8367       8.6581       0.0464      53.6203      41.5630    -999.2500    -999.2500    2040.7570     956.7400     171.4840       0.0775       3.1394       2.6618
