#------------------------------------------------------------------------------
#
#   Created by  : [OpenWorks] Log Export Utility (LEXP)
#   Created on  : 2016-05-23 11:55:46
#   Project     : CANT971
#   User        : R5K
#   Interpreter : PEP
#
#------------------------------------------------------------------------------
~VERSION INFORMATION
VERS. 2.0 : CWLS Log ASCII Standard - version 2.0
WRAP.  NO : One line per depth step
~WELL INFORMATION
#MNEMONIC   .UNIT                                           VALUE :DESCRIPTION
#------------------------------------------------------------------------------
STRT        .M                                           292.5192 :START DEPTH
STOP        .M                                          2727.7188 :STOP DEPTH
STEP        .M                                             0.1524 :STEP
NULL        .                                           -999.2500 :NULL VALUE
COMP        .                                   PEMEX EXPL & PROD :COMPANY
WELL        .                                                  39 :WELL
FLD         .                                           CANTARELL :FIELD
LOC         .                                             UNKNOWN :LOCATION
CNTY        .                                      CD. DEL CARMEN :COUNTY
STAT        .                                            CAMPECHE :STATE
CTRY        .                                              MEXICO :COUNTRY
SRVC        .                                             UNKNOWN :SERVICE COMPANY
DATE        .                                             UNKNOWN :LOG DATE
UWI         .                                          3060000161 :UNIQUE WELL ID
XCOORD      .                                       603360.280000 :SURFACE X
YCOORD      .                                      2145098.760000 :SURFACE Y
LAT         .                                           19.398594 :LATITUDE
LON         .                                          -92.015639 :LONGITUDE
ELEV        .M                                            27.1400 :SURFACE ELEV
ELEV_TYPE   .                                                  KB :ELEV TYPE
~CURVE INFORMATION
#MNEMONIC.UNIT        API CODE       : CURVE DESCRIPTION
#------------------------------------------------------------------------------
DEPTH    .M                          : Measured Depth
CALI     .inches      UNKNOWN        : CALI:Import:rC:NONE:v0 (auto-composite)
DRHO     .g/cm3       UNKNOWN        : DRHO:Import:rC:NONE:v0 (auto-composite)
DT       .us/ft       UNKNOWN        : DT:Import:rC:NONE:v0 (auto-composite)
GR       .API         UNKNOWN        : GR:Import:rC:NONE:v0 (auto-composite)
ILD      .ohm.m       UNKNOWN        : ILD:Import:rC:NONE:v0 (auto-composite)
LLD      .ohm.m       UNKNOWN        : LLD:Import:rC:NONE:v0 (auto-composite)
LLS      .ohm.m       UNKNOWN        : LLS:Import:rC:NONE:v0 (auto-composite)
MSFL     .ohm.m       UNKNOWN        : MSFL:Import:rC:NONE:v0 (auto-composite)
NPHI     .v/v_decimal UNKNOWN        : NPHI:Import:rC:NONE:v0 (auto-composite)
RHOB     .g/cm3       UNKNOWN        : RHOB:Import:rC:NONE:v0 (auto-composite)
~A     DEPTH         CALI         DRHO           DT           GR          ILD          LLD          LLS         MSFL         NPHI         RHOB
# ...
   2229.8279       0.0000       0.0000      40.0000      40.6952       0.2000       0.2000       0.2000       0.2000       0.5303       2.0000
   2229.9805       0.0000       0.0000      40.0000      39.7048       0.2000       0.2000       0.2000       0.2000       0.5167       2.0000
   2230.1328       0.0000       0.0000      40.0000      38.7682       0.2000       0.2000       0.2000       0.2000       0.4982       2.0000
   2230.2852       0.0000       0.0000      40.0000      38.3119       0.2000       0.2000       0.2000       0.2000       0.4806       2.0000
   2230.4375       0.0000       0.0000      40.0000      37.9845       0.2000       0.2000       0.2000       0.2000       0.4632       2.0000
   2230.5901       0.0000       0.0000      40.0000      38.0448       0.2000       0.2000       0.2000       0.2000       0.4617       2.0000
   2230.7424       0.0000       0.0000      40.0000      38.2057       0.2000       0.2000       0.2000       0.2000       0.4644       2.0000
   2230.8948       0.0000       0.0000      40.0000      38.2056       0.2000       0.2000       0.2000       0.2000       0.4713       2.0000
   2231.0471       0.0000       0.0000      40.0000      38.1635       0.2000       0.2000       0.2000       0.2000       0.4794       2.0000
   2231.1997       0.0000       0.0000      40.0000      38.1122       0.2000       0.2000       0.2000       0.2000       0.4853       2.0000
   2231.3521       0.0000       0.0000      40.0000      38.0586       0.2000       0.2000       0.2000       0.2000       0.4908       2.0000
   2231.5044       0.0000       0.0000      40.0000      38.3593       0.2000       0.2000       0.2000       0.2000       0.4939       2.0000
   2231.6567       0.0000       0.0000      40.0000      38.7471       0.2000       0.2000       0.2000       0.2000       0.4964       2.0000
   2231.8091       0.0000       0.0000      40.0000      39.0294       0.2000       0.2000       0.2000       0.2000       0.4991       2.0000
   2231.9617       0.0000       0.0000      40.0000      39.2856       0.2000       0.2000       0.2000       0.2000       0.5020       2.0000
   2232.1140       0.0000       0.0000      40.0000      39.2644       0.2000       0.2000       0.2000       0.2000       0.5019       2.0000
   2232.2664       0.0000       0.0000      40.0000      39.1769       0.2000       0.2000       0.2000       0.2000       0.5011       2.0000
   2232.4187       0.0000       0.0000      40.0000      39.0380       0.2000       0.2000       0.2000       0.2000       0.4968       2.0000
   2232.5713       0.0000       0.0000      40.0000      38.8867       0.2000       0.2000       0.2000       0.2000       0.4916       2.0000
   2232.7236       0.0000       0.0000      40.0000      39.2635       0.2000       0.2000       0.2000       0.2000       0.4891       2.0000
   2232.8760       0.0000       0.0000      40.0000      39.7639       0.2000       0.2000       0.2000       0.2000       0.4873       2.0000
   2233.0283       0.0000       0.0000      40.0000      40.4273       0.2000       0.2000       0.2000       0.2000       0.4859       2.0000
   2233.1809       0.0000       0.0000      40.0000      41.1275       0.2000       0.2000       0.2000       0.2000       0.4847       2.0000
   2233.3333       0.0000       0.0000      40.0000      41.1495       0.2000       0.2000       0.2000       0.2000       0.4826       2.0000
   2233.4856       0.0000       0.0000      40.0000      41.0177       0.2000       0.2000       0.2000       0.2000       0.4804       2.0000
   2233.6379       0.0000       0.0000      40.0000      41.1705       0.2000       0.2000       0.2000       0.2000       0.4810       2.0000
   2233.7903       0.0000       0.0000      40.0000      41.3856       0.2000       0.2000       0.2000       0.2000       0.4823       2.0000
   2233.9429       0.0000       0.0000      40.0000      41.5480       0.2000       0.2000       0.2000       0.2000       0.4827       2.0000
   2234.0952       0.0000       0.0000      40.0000      41.6993       0.2000       0.2000       0.2000       0.2000       0.4829       2.0000
   2234.2476       0.0000       0.0000      40.0000      41.1565       0.2000       0.2000       0.2000       0.2000       0.4854       2.0000
   2234.3999       0.0000       0.0000      40.0000      40.4651       0.2000       0.2000       0.2000       0.2000       0.4884       2.0000
   2234.5525       0.0000       0.0000      40.0000      40.2741       0.2000       0.2000       0.2000       0.2000       0.5002       2.0000
   2234.7048       0.0000       0.0000      40.0000      40.1861       0.2000       0.2000       0.2000       0.2000       0.5138       2.0000
   2234.8572       0.0000       0.0000      40.0000      40.9223       0.2000       0.2000       0.2000       0.2000       0.5183       2.0000
   2235.0095       0.0000       0.0000      40.0000      41.8293       0.2000       0.2000       0.2000       0.2000       0.5208       2.0000
   2235.1621       0.0000       0.0000      40.0000      41.9583       0.2000       0.2000       0.2000       0.2000       0.5130       2.0000
   2235.3145       0.0000       0.0000      40.0000      41.9322       0.2000       0.2000       0.2000       0.2000       0.5030       2.0000
   2235.4668       0.0000       0.0000      40.0000      41.3263       0.2000       0.2000       0.2000       0.2000       0.4984       2.0000
   2235.6191       0.0000       0.0000      40.0000      40.6081       0.2000       0.2000       0.2000       0.2000       0.4949       2.0000
   2235.7715       0.0000       0.0000      40.0000      40.6484       0.2000       0.2000       0.2000       0.2000       0.4943       2.0000
   2235.9241       0.0000       0.0000      40.0000      40.8364       0.2000       0.2000       0.2000       0.2000       0.4942       2.0000
   2236.0764       0.0000       0.0000      40.0000      41.6171       0.2000       0.2000       0.2000       0.2000       0.4959       2.0000
   2236.2288       0.0000       0.0000      40.0000      42.5085       0.2000       0.2000       0.2000       0.2000       0.4979       2.0000
   2236.3811       0.0000       0.0000      40.0000      42.7771       0.2000       0.2000       0.2000       0.2000       0.5032       2.0000
   2236.5337       0.0000       0.0000      40.0000      42.9340       0.2000       0.2000       0.2000       0.2000       0.5090       2.0000
   2236.6860       0.0000       0.0000      40.0000      42.9211       0.2000       0.2000       0.2000       0.2000       0.5135       2.0000
   2236.8384       0.0000       0.0000      40.0000      42.8775       0.2000       0.2000       0.2000       0.2000       0.5178       2.0000
   2236.9907       0.0000       0.0000      40.0000      43.3096       0.2000       0.2000       0.2000       0.2000       0.5220       2.0000
   2237.1433       0.0000       0.0000      40.0000      43.8248       0.2000       0.2000       0.2000       0.2000       0.5261       2.0000
   2237.2957       0.0000       0.0000      40.0000      44.1987       0.2000       0.2000       0.2000       0.2000       0.5277       2.0000
   2237.4480       0.0000       0.0000      40.0000      44.5477       0.2000       0.2000       0.2000       0.2000       0.5289       2.0000
   2237.6003       0.0000       0.0000      40.0000      44.5851       0.2000       0.2000       0.2000       0.2000       0.5278       2.0000
   2237.7527       0.0000       0.0000      40.0000      44.5701       0.2000       0.2000       0.2000       0.2000       0.5263       2.0000
   2237.9053       0.0000       0.0000      40.0000      44.2351       0.2000       0.2000       0.2000       0.2000       0.5257       2.0000
   2238.0576       0.0000       0.0000      40.0000      43.8485       0.2000       0.2000       0.2000       0.2000       0.5253       2.0000
   2238.2100       0.0000       0.0000      40.0000      42.7432       0.2000       0.2000       0.2000       0.2000       0.5202       2.0000
