#------------------------------------------------------------------------------
#
#   Created by  : [OpenWorks] Log Export Utility (LEXP)
#   Created on  : 2016-05-12 17:01:25
#   Project     : CANT971
#   User        : R5K
#   Interpreter : PEP
#
#------------------------------------------------------------------------------
~VERSION INFORMATION
VERS. 2.0 : CWLS Log ASCII Standard - version 2.0
WRAP.  NO : One line per depth step
~WELL INFORMATION
#MNEMONIC   .UNIT                                           VALUE :DESCRIPTION
#------------------------------------------------------------------------------
STRT        .M                                           310.6675 :START DEPTH
STOP        .M                                          2665.7046 :STOP DEPTH
STEP        .M                                             0.1524 :STEP
NULL        .                                           -999.2500 :NULL VALUE
COMP        .                                   PEMEX EXPL & PROD :COMPANY
WELL        .                                                 77A :WELL
FLD         .                                           CANTARELL :FIELD
LOC         .                                             UNKNOWN :LOCATION
CNTY        .                                      CD. DEL CARMEN :COUNTY
STAT        .                                            CAMPECHE :STATE
CTRY        .                                              MEXICO :COUNTRY
SRVC        .                                             UNKNOWN :SERVICE COMPANY
DATE        .                                             UNKNOWN :LOG DATE
UWI         .                                          3060000181 :UNIQUE WELL ID
XCOORD      .                                       602151.310000 :SURFACE X
YCOORD      .                                      2147165.430000 :SURFACE Y
LAT         .                                           19.417331 :LATITUDE
LON         .                                          -92.027040 :LONGITUDE
ELEV        .M                                            28.1700 :SURFACE ELEV
ELEV_TYPE   .                                                  KB :ELEV TYPE
~CURVE INFORMATION
#MNEMONIC.UNIT        API CODE       : CURVE DESCRIPTION
#------------------------------------------------------------------------------
DEPTH    .M                          : Measured Depth
CALI     .inches      UNKNOWN        : CALI:UNKNOWN:rC:NONE:v0 (auto-composite)
DRHO     .UNKNOWN     UNKNOWN        : DRHO:PETROWORKS:rC:NONE:v1 
DT       .us/ft       UNKNOWN        : DT:DT:rC:NONE:v0 (auto-composite)
GR       .API         UNKNOWN        : GR:UNKNOWN:rC:NONE:v0 (auto-composite)
ILD      .UNKNOWN     UNKNOWN        : ILD:UNKNOWN:rC:NONE:v0 (auto-composite)
LLD      .ohm.m       UNKNOWN        : LLD:UNKNOWN:rC:NONE:v0 (auto-composite)
LLS      .ohm.m       UNKNOWN        : LLS:UNKNOWN:rC:NONE:v0 (auto-composite)
MSFL     .ohm.m       UNKNOWN        : MSFL:UNKNOWN:rC:NONE:v0 (auto-composite)
NPHI     .v/v_decimal UNKNOWN        : NPHI:PETROWORKS:rC:NONE:v1 
RHOB     .UNKNOWN     UNKNOWN        : RHOB:PETROWORKS:rC:NONE:v1 
SP       .UNKNOWN     UNKNOWN        : SP:UNKNOWN:rC:NONE:v0 (auto-composite)
~A     DEPTH         CALI         DRHO           DT           GR          ILD          LLD          LLS         MSFL         NPHI         RHOB           SP
# ...
   2529.6116       8.9120       0.0156      71.1924      46.3577      19.3968      30.4692      23.6199    -999.2500       0.1250       2.5651      12.2517
   2529.7639       8.9381       0.0138      69.4388      48.9065      19.4650      25.2665      24.7332    -999.2500       0.1032       2.5707      12.3209
   2529.9163       8.9642       0.0085      67.4757      51.8145      19.4204      28.8955      31.3385    -999.2500       0.0928       2.5688      12.4412
   2530.0686       8.9860       0.0043      65.3046      54.4578      19.3903      33.5644      37.3657    -999.2500       0.0938       2.5663      12.5420
   2530.2212       8.9860       0.0036      63.0147      55.7363      19.4355      43.5722      40.4252    -999.2500       0.0980       2.5667      12.5420
   2530.3735       8.9948       0.0024      60.6063      56.8632      19.5347      51.0565      42.0442    -999.2500       0.1055       2.5681      12.5722
   2530.5259       9.0469      -0.0013      60.6350      57.2392      19.9017      46.0937      36.5580    -999.2500       0.1223       2.5692      12.7522
   2530.6782       9.0855      -0.0029      63.0849      57.8851      20.2624      41.3872      32.3591    -999.2500       0.1486       2.5707      12.9427
   2530.8308       9.0594      -0.0003      69.7784      59.8154      20.5928      37.8960      34.2664    -999.2500       0.2074       2.5729      13.1829
   2530.9832       9.0217       0.0005      80.7024      61.1891      20.6241      36.3733      37.0580    -999.2500       0.2988       2.5707      13.4444
   2531.1355       8.9305      -0.0035      86.1014      60.0118      19.2850      43.8395      43.8880    -999.2500       0.3373       2.5614      13.8041
   2531.2878       8.8584      -0.0033      86.0084      59.3529      17.8634      50.6600      48.7432    -999.2500       0.3229       2.5485      14.1530
   2531.4404       8.8714       0.0050      84.6321      61.0075      16.0739      54.6089      44.8174    -999.2500       0.2906       2.5336      14.4533
   2531.5928       8.8723       0.0155      81.9756      62.8843      14.3100      55.6608      40.2850    -999.2500       0.2402       2.5143      14.7423
   2531.7451       8.8206       0.0253      77.0234      65.7172      12.6559      44.2923      33.1528    -999.2500       0.2024       2.4894      14.9825
   2531.8975       8.8599       0.0278      69.7880      67.7761      11.4994      34.4323      27.3579    -999.2500       0.1771       2.4800      15.2109
   2532.0498       9.2766       0.0204      65.3423      66.6229      12.4079      30.8122      27.0951    -999.2500       0.1571       2.4949      15.3909
   2532.2024       9.7348       0.0090      63.6807      64.7337      13.2864      28.2690      27.2668    -999.2500       0.1423       2.5229      15.4870
   2532.3547      10.3595      -0.0036      62.8818      59.8953      14.0445      30.0268      29.1736    -999.2500       0.1281       2.5586      15.2469
   2532.5071      10.7199      -0.0106      62.9413      54.7441      15.6103      31.9220      31.4817    -999.2500       0.1144       2.5831      15.0067
   2532.6594      10.0565      -0.0092      63.1209      48.3815      20.3036      34.3473      35.3388    -999.2500       0.1047       2.5884      14.7668
   2532.8120       9.4530      -0.0062      63.4205      42.6682      25.9132      37.6909      40.3059    -999.2500       0.0989       2.5879      14.5268
   2532.9644       9.0755      -0.0048      63.8575      39.4092      34.9868      44.4953      49.4563    -999.2500       0.0964       2.5874      14.2866
   2533.1167       8.7818      -0.0013      64.4313      36.6993      42.9872      52.0960      57.2219    -999.2500       0.0972       2.5853      14.0465
   2533.2690       8.7948       0.0057      65.4384      35.9973      47.0630      62.5996      59.9389    -999.2500       0.0997       2.5809      13.8069
   2533.4216       8.7935       0.0154      66.8784      35.7261      49.5212      69.8348      60.0242    -999.2500       0.1038       2.5726      13.5802
   2533.5740       8.7414       0.0273      67.4609      36.9796      46.2536      65.5359      50.8222    -999.2500       0.1120       2.5599      13.3997
   2533.7263       8.7098       0.0294      67.1893      38.0972      43.1308      59.3304      42.0031    -999.2500       0.1243       2.5519      13.2329
   2533.8787       8.7489       0.0174      66.5500      38.7490      40.5040      46.6081      34.4928    -999.2500       0.1302       2.5521      13.1131
   2534.0310       8.7790       0.0072      65.5454      39.2326      37.9307      36.2105      29.5067    -999.2500       0.1299       2.5557      12.9932
   2534.1836       8.7790       0.0050      64.6920      39.1574      35.5351      33.5130      32.8821    -999.2500       0.1290       2.5608      12.8728
   2534.3359       8.7697       0.0217      63.9892      39.5392      33.2176      33.4941      37.7157    -999.2500       0.1275       2.5630      12.7669
   2534.4883       8.7307       0.0607      63.4309      41.3928      31.1521      42.0780      47.2330    -999.2500       0.1250       2.5607      12.7073
   2534.6406       8.7010       0.0832      63.0161      42.7215      29.7866      50.2142      54.4242    -999.2500       0.1216       2.5471      12.6185
   2534.7932       8.7010       0.0757      62.7181      42.3956      30.6280      56.9434      54.3049    -999.2500       0.1169       2.5201      12.4380
   2534.9456       8.7106       0.0561      62.5365      42.3909      31.0717      60.2051      51.4163    -999.2500       0.1108       2.4952      12.3020
   2535.0979       8.7497       0.0309      62.2598      43.3686      30.2996      52.8913      40.0819    -999.2500       0.1062       2.4776      12.3020
   2535.2502       8.7790       0.0150      61.8884      44.2137      29.7749      44.8274      30.5877    -999.2500       0.1032       2.4718      12.2870
   2535.4028       8.7790       0.0129      62.0408      44.6649      29.9850      34.5424      26.5425    -999.2500       0.1004       2.4785      12.2273
   2535.5552       8.7790       0.0220      62.7155      45.1097      30.7175      26.5937      23.7559    -999.2500       0.0978       2.4994      12.1675
   2535.7075       8.7790       0.0411      62.6889      45.5359      32.9562      25.3638      24.5887    -999.2500       0.0949       2.5345      12.1073
   2535.8599       8.7790       0.0528      61.9647      46.1794      35.1865      25.2045      25.6113    -999.2500       0.0917       2.5623      12.0945
   2536.0122       8.7790       0.0519      61.6593      47.4319      37.3933      28.0371      27.1644    -999.2500       0.0889       2.5763      12.2142
   2536.1648       8.7860       0.0412      61.7719      47.8279      39.4308      30.1115      28.2309    -999.2500       0.0863       2.5781      12.3020
   2536.3171       8.8120       0.0217      62.0026      45.8725      41.0031      30.1095      27.9652    -999.2500       0.0859       2.5688      12.3020
   2536.4695       8.8451       0.0060      62.3510      43.5072      42.0680      30.4411      28.6857    -999.2500       0.0877       2.5624      12.3020
   2536.6218       8.8967      -0.0023      62.5430      40.0476      41.7782      31.6610      32.0319    -999.2500       0.0920       2.5632      12.3020
   2536.7744       8.9412      -0.0033      62.5790      37.7870      41.3091      33.9469      36.0509    -999.2500       0.0987       2.5616      12.3020
   2536.9268       8.9673       0.0026      62.6922      38.6394      40.3745      38.9933      41.8119    -999.2500       0.1057       2.5548      12.3020
   2537.0791       8.9566       0.0133      62.8821      41.0915      39.3056      44.4699      46.8437    -999.2500       0.1128       2.5576      12.3020
   2537.2314       8.8528       0.0279      63.8640      47.5845      37.8972      51.0301      50.0386    -999.2500       0.1242       2.5741      12.3020
   2537.3838       8.7790       0.0359      65.6372      52.5987      36.2723      55.2634      49.9511    -999.2500       0.1397       2.5771      12.3020
