#------------------------------------------------------------------------------
#
#   Created by  : [OpenWorks] Log Export Utility (LEXP)
#   Created on  : 2016-05-23 11:51:57
#   Project     : CANT971
#   User        : R5K
#   Interpreter : PEP
#
#------------------------------------------------------------------------------
~VERSION INFORMATION
VERS. 2.0 : CWLS Log ASCII Standard - version 2.0
WRAP. YES : Mulitple lines per depth step
~WELL INFORMATION
#MNEMONIC   .UNIT                                           VALUE :DESCRIPTION
#------------------------------------------------------------------------------
STRT        .M                                           782.8787 :START DEPTH
STOP        .M                                          2966.0088 :STOP DEPTH
STEP        .M                                             0.1524 :STEP
NULL        .                                           -999.2500 :NULL VALUE
COMP        .                                   PEMEX EXPL & PROD :COMPANY
WELL        .                                                 178 :WELL
FLD         .                                           CANTARELL :FIELD
LOC         .                                             UNKNOWN :LOCATION
CNTY        .                                      CD. DEL CARMEN :COUNTY
STAT        .                                            CAMPECHE :STATE
CTRY        .                                              MEXICO :COUNTRY
SRVC        .                                             UNKNOWN :SERVICE COMPANY
DATE        .                                             UNKNOWN :LOG DATE
UWI         .                                          3060000702 :UNIQUE WELL ID
XCOORD      .                                       602144.590000 :SURFACE X
YCOORD      .                                      2147185.340000 :SURFACE Y
LAT         .                                           19.417512 :LATITUDE
LON         .                                          -92.027103 :LONGITUDE
ELEV        .M                                            28.1700 :SURFACE ELEV
ELEV_TYPE   .                                                  KB :ELEV TYPE
~CURVE INFORMATION
#MNEMONIC.UNIT        API CODE       : CURVE DESCRIPTION
#------------------------------------------------------------------------------
DEPTH    .M                          : Measured Depth
CALI     .inches      UNKNOWN        : CALI:registros:rC:NONE:v0 (auto-composite)
CGR      .API         UNKNOWN        : CGR:registros:rC:NONE:v0 (auto-composite)
DRHO     .g/cm3       UNKNOWN        : DRHO:registros:rC:NONE:v0 (auto-composite)
DT       .UNKNOWN     UNKNOWN        : DT:registros:rC:NONE:v0 (auto-composite)
GR       .API         UNKNOWN        : GR:registros:rC:NONE:v0 (auto-composite)
GR-LWD   .UNKNOWN     UNKNOWN        : GR-LWD:registros:rC:NONE:v0 (auto-composite)
ILD      .ohm.m       UNKNOWN        : ILD:registros:rC:NONE:v0 (auto-composite)
ILM      .ohm.m       UNKNOWN        : ILM:registros:rC:NONE:v0 (auto-composite)
LLD      .ohm.m       UNKNOWN        : LLD:registros:rC:NONE:v0 (auto-composite)
LLD-LWD  .UNKNOWN     UNKNOWN        : LLD-LWD:registros:rC:NONE:v0 (auto-composite)
LLS      .ohm.m       UNKNOWN        : LLS:registros:rC:NONE:v0 (auto-composite)
LLS-LWD  .UNKNOWN     UNKNOWN        : LLS-LWD:registros:rC:NONE:v0 (auto-composite)
MSFL     .ohm.m       UNKNOWN        : MSFL:registros:rC:NONE:v0 (auto-composite)
MSFL-LWD .UNKNOWN     UNKNOWN        : MSFL-LWD:registros:rC:NONE:v0 (auto-composite)
NPHI     .v/v_decimal UNKNOWN        : NPHI:registros:rC:NONE:v0 (auto-composite)
PEF      .b/elec      UNKNOWN        : PEF:registros:rC:NONE:v0 (auto-composite)
POTA     .wtpercent   UNKNOWN        : POTA:registros:rC:NONE:v0 (auto-composite)
RHOB     .g/cm3       UNKNOWN        : RHOB:registros:rC:NONE:v0 (auto-composite)
THOR     .ppm         UNKNOWN        : THOR:registros:rC:NONE:v0 (auto-composite)
URAN     .ppm         UNKNOWN        : URAN:registros:rC:NONE:v0 (auto-composite)
~A
# ...
   1918.7159
      11.1130       6.1961      -0.5147      56.2814      21.7202    -999.2500
    -999.2500    -999.2500     138.1261    -999.2500      84.7780    -999.2500
      52.6021    -999.2500       0.0644      14.5500       0.0024       2.1055
       0.9246       2.2402
   1918.8683
      11.0250       6.5200      -0.5237      56.3234      20.9466    -999.2500
    -999.2500    -999.2500     154.9602    -999.2500      93.9398    -999.2500
     102.5828    -999.2500       0.0632      14.7232       0.0025       2.0990
       0.9690       2.1064
   1919.0208
      10.9297       6.9875      -0.5315      56.3607      20.4698    -999.2500
    -999.2500    -999.2500     170.9917    -999.2500     102.7355    -999.2500
    1310.5137    -999.2500       0.0600      14.9074       0.0028       2.0952
       1.0106       1.9789
   1919.1731
      10.7530       9.0782      -0.5250      56.3453      23.4992    -999.2500
    -999.2500    -999.2500     177.5888    -999.2500     107.2126    -999.2500
   15862.4307    -999.2500       0.0527      15.2106       0.0035       2.1227
       1.0186       1.9280
   1919.3256
      10.5971      10.9588      -0.5193      56.3306      26.2001    -999.2500
    -999.2500    -999.2500     183.5951    -999.2500     111.3974    -999.2500
   28081.8145    -999.2500       0.0453      15.4398       0.0041       2.1504
       1.0299       1.8834
   1919.4779
      10.6850      10.3485      -0.5233      56.3251      24.8893    -999.2500
    -999.2500    -999.2500     182.7066    -999.2500     112.1550    -999.2500
   13465.7236    -999.2500       0.0404      14.8172       0.0041       2.1804
       1.0783       1.9128
   1919.6304
      10.7778       9.7620      -0.5272      56.3151      23.7180    -999.2500
    -999.2500    -999.2500     181.3638    -999.2500     112.6236    -999.2500
      34.8795    -999.2500       0.0369      14.2746       0.0040       2.2077
       1.1244       1.9492
   1919.7827
      10.9246       9.4760      -0.5297      56.2547      24.2107    -999.2500
    -999.2500    -999.2500     174.7879    -999.2500     109.7465    -999.2500
      90.6711    -999.2500       0.0369      14.6669       0.0039       2.2042
       1.1419       2.0636
   1919.9352
      11.0555       9.2019      -0.5314      56.1948      24.7414    -999.2500
    -999.2500    -999.2500     167.7039    -999.2500     106.5882    -999.2500
     137.5993    -999.2500       0.0377      14.9875       0.0038       2.2019
       1.1568       2.1835
   1920.0875
      10.9991       9.0761      -0.5234      56.1423      25.7192    -999.2500
    -999.2500    -999.2500     154.8465    -999.2500     100.2255    -999.2500
      83.3402    -999.2500       0.0390      14.4844       0.0038       2.2129
       1.1418       2.3643
   1920.2399
      10.9352       9.0156      -0.5166      56.0944      26.8862    -999.2500
    -999.2500    -999.2500     143.2963    -999.2500      94.4846    -999.2500
      36.7236    -999.2500       0.0405      14.0321       0.0038       2.2236
       1.1339       2.5602
   1920.3923
      10.7878       9.7077      -0.5236      56.0994      30.2413    -999.2500
    -999.2500    -999.2500     146.9082    -999.2500      95.9595    -999.2500
      77.4917    -999.2500       0.0420      14.1700       0.0040       2.2306
       1.2079       2.9229
   1920.5447
      10.6589      10.3851      -0.5303      56.1055      33.3957    -999.2500
    -999.2500    -999.2500     151.6365    -999.2500      98.0338    -999.2500
     111.7263    -999.2500       0.0432      14.3073       0.0043       2.2357
       1.2811       3.2586
   1920.6971
      10.7454      10.8714      -0.5338      56.1240      34.0634    -999.2500
    -999.2500    -999.2500     169.0847    -999.2500     106.9459    -999.2500
      71.1369    -999.2500       0.0430      14.4351       0.0045       2.2197
       1.3451       3.2792
   1920.8495
      10.8466      11.3594      -0.5364      56.1449      34.7254    -999.2500
    -999.2500    -999.2500     187.8059    -999.2500     116.6605    -999.2500
    4045.2280    -999.2500       0.0433      14.5682       0.0046       2.2033
       1.4072       3.2895
   1921.0020
      11.1160      11.8497      -0.5284      56.1939      35.2758    -999.2500
    -999.2500    -999.2500     220.7852    -999.2500     135.4057    -999.2500
   54020.0703    -999.2500       0.0457      14.7575       0.0047       2.1818
       1.4466       3.1841
   1921.1543
      11.3593      12.3331      -0.5206      56.2401      35.7148    -999.2500
    -999.2500    -999.2500     252.2375    -999.2500     153.2916    -999.2500
   95993.7969    -999.2500       0.0492      14.9338       0.0048       2.1611
       1.4846       3.0770
   1921.3068
      11.3002      12.7212      -0.5161      56.2536      34.8383    -999.2500
    -999.2500    -999.2500     265.5117    -999.2500     160.9427    -999.2500
   46044.8477    -999.2500       0.0548      14.9563       0.0049       2.1507
       1.5052       2.9527
   1921.4591
      11.2313      12.9271      -0.5116      56.2646      33.6870    -999.2500
    -999.2500    -999.2500     280.8991    -999.2500     169.1975    -999.2500
      79.4937    -999.2500       0.0605      14.9721       0.0049       2.1414
       1.5016       2.8166
   1921.6116
      11.0473      11.0319      -0.5066      56.2471      29.2972    -999.2500
    -999.2500    -999.2500     320.2604    -999.2500     184.2168    -999.2500
      69.0970    -999.2500       0.0650      14.9112       0.0046       2.1469
       1.2224       2.5493
   1921.7639
      10.8853       9.2546      -0.5023      56.2328      25.1829    -999.2500
    -999.2500    -999.2500     355.6443    -999.2500     197.7123    -999.2500
      64.6068    -999.2500       0.0681      14.8411       0.0043       2.1505
       0.9611       2.2988
   1921.9164
      10.9768       8.8755      -0.5063      56.2553      24.2798    -999.2500
    -999.2500    -999.2500     344.4330    -999.2500     193.3572    -999.2500
     127.8469    -999.2500       0.0669      14.6687       0.0041       2.1326
       0.9132       2.2464
   1922.0687
      11.0742       8.5030      -0.5103      56.2773      23.5837    -999.2500
    -999.2500    -999.2500     329.1384    -999.2500     186.9611    -999.2500
     183.6863    -999.2500       0.0651      14.5056       0.0039       2.1156
       0.8684       2.2048
   1922.2211
      11.2386       8.2158      -0.5143      56.2938      25.3351    -999.2500
    -999.2500    -999.2500     267.1677    -999.2500     157.2058    -999.2500
     155.0488    -999.2500       0.0636      14.4511       0.0034       2.1101
       0.8614       2.2887
   1922.3735
      11.3826       7.9125      -0.5166      56.3092      26.8989    -999.2500
    -999.2500    -999.2500     210.6403    -999.2500     130.0705    -999.2500
     134.2589    -999.2500       0.0623      14.4121       0.0030       2.1060
       0.8542       2.3679
   1922.5259
      11.2896       7.4359      -0.4991      56.3117      26.1599    -999.2500
    -999.2500    -999.2500     217.2854    -999.2500     133.3416    -999.2500
     203.5283    -999.2500       0.0610      14.5495       0.0028       2.1190
       0.8447       2.3914
   1922.6783
      11.1881       6.9450      -0.4824      56.3137      25.2498    -999.2500
    -999.2500    -999.2500     223.2898    -999.2500     136.2467    -999.2500
     257.7750    -999.2500       0.0603      14.6939       0.0026       2.1304
       0.8315       2.3972
   1922.8307
      10.9887       6.3126      -0.4754      56.3097      22.3458    -999.2500
    -999.2500    -999.2500     221.8481    -999.2500     134.9039    -999.2500
     139.4989    -999.2500       0.0614      14.9156       0.0025       2.1229
       0.7761       2.2015
   1922.9832
      10.8126       5.7527      -0.4694      56.3023      19.6497    -999.2500
    -999.2500    -999.2500     219.0961    -999.2500     132.8031    -999.2500
      41.7601    -999.2500       0.0620      15.1418       0.0025       2.1148
       0.7234       2.0175
