#------------------------------------------------------------------------------
#
#   Created by  : [OpenWorks] Log Export Utility (LEXP)
#   Created on  : 2016-05-23 11:53:36
#   Project     : CANT971
#   User        : R5K
#   Interpreter : PEP
#
#------------------------------------------------------------------------------
~VERSION INFORMATION
VERS. 2.0 : CWLS Log ASCII Standard - version 2.0
WRAP.  NO : One line per depth step
~WELL INFORMATION
#MNEMONIC   .UNIT                                           VALUE :DESCRIPTION
#------------------------------------------------------------------------------
STRT        .M                                           940.3716 :START DEPTH
STOP        .M                                          3167.2405 :STOP DEPTH
STEP        .M                                             0.1524 :STEP
NULL        .                                           -999.2500 :NULL VALUE
COMP        .                                   PEMEX EXPL & PROD :COMPANY
WELL        .                                                  24 :WELL
FLD         .                                           CANTARELL :FIELD
LOC         .                                             UNKNOWN :LOCATION
CNTY        .                                      CD. DEL CARMEN :COUNTY
STAT        .                                            CAMPECHE :STATE
CTRY        .                                              MEXICO :COUNTRY
SRVC        .                                             UNKNOWN :SERVICE COMPANY
DATE        .                                             UNKNOWN :LOG DATE
UWI         .                                          3060000153 :UNIQUE WELL ID
XCOORD      .                                       598455.290000 :SURFACE X
YCOORD      .                                      2145024.750000 :SURFACE Y
LAT         .                                           19.398172 :LATITUDE
LON         .                                          -92.062351 :LONGITUDE
ELEV        .M                                            26.5400 :SURFACE ELEV
ELEV_TYPE   .                                                  KB :ELEV TYPE
~CURVE INFORMATION
#MNEMONIC.UNIT        API CODE       : CURVE DESCRIPTION
#------------------------------------------------------------------------------
DEPTH    .M                          : Measured Depth
CALI     .inches      UNKNOWN        : CALI:Import:rC:NONE:v0 (auto-composite)
DRHO     .g/cm3       UNKNOWN        : DRHO:Import:rC:NONE:v0 (auto-composite)
DT       .us/ft       UNKNOWN        : DT:Import:rC:NONE:v0 (auto-composite)
GR       .API         UNKNOWN        : GR:Import:rC:NONE:v0 (auto-composite)
ILD      .ohm.m       UNKNOWN        : ILD:Import:rC:NONE:v0 (auto-composite)
LLD      .ohm.m       UNKNOWN        : LLD:Import:rC:NONE:v0 (auto-composite)
LLS      .ohm.m       UNKNOWN        : LLS:Import:rC:NONE:v0 (auto-composite)
MSFL     .ohm.m       UNKNOWN        : MSFL:Import:rC:NONE:v0 (auto-composite)
NPHI     .v/v_decimal UNKNOWN        : NPHI:Import:rC:NONE:v0 (auto-composite)
RHOB     .g/cm3       UNKNOWN        : RHOB:Import:rC:NONE:v0 (auto-composite)
~A     DEPTH         CALI         DRHO           DT           GR          ILD          LLD          LLS         MSFL         NPHI         RHOB
# ...
   2766.7332    -999.2500    -999.2500    -999.2500      24.9525    -999.2500      60.4678      95.7199      98.0808       0.0329    -999.2500
   2766.8855    -999.2500    -999.2500    -999.2500      22.8629    -999.2500      55.0217      79.4886      77.9609       0.0347    -999.2500
   2767.0381    -999.2500    -999.2500    -999.2500      21.7203    -999.2500      52.4703      73.3932      71.3201       0.0367    -999.2500
   2767.1904    -999.2500    -999.2500    -999.2500      20.8966    -999.2500      49.8986      67.5542      66.2880       0.0386    -999.2500
   2767.3428    -999.2500    -999.2500    -999.2500      22.7338    -999.2500      47.1568      63.8558      74.6794       0.0402    -999.2500
   2767.4951    -999.2500    -999.2500    -999.2500      24.5548    -999.2500      44.5406      60.9380      84.6215       0.0418    -999.2500
   2767.6475    -999.2500    -999.2500    -999.2500      26.2395    -999.2500      42.9828      64.5931     107.6202       0.0443    -999.2500
   2767.8000    -999.2500    -999.2500    -999.2500      28.0785    -999.2500      41.1043      66.7325     125.1997       0.0472    -999.2500
   2767.9524    -999.2500    -999.2500    -999.2500      31.1452    -999.2500      36.6757      56.8178      99.6817       0.0513    -999.2500
   2768.1047    -999.2500    -999.2500    -999.2500      34.0938    -999.2500      32.4056      47.2985      75.3183       0.0561    -999.2500
   2768.2571    -999.2500    -999.2500    -999.2500      36.0954    -999.2500      29.4068      40.9513      60.2174       0.0621    -999.2500
   2768.4097    -999.2500    -999.2500    -999.2500      37.9650    -999.2500      26.5064      34.7600      45.7559       0.0679    -999.2500
   2768.5620    -999.2500    -999.2500    -999.2500      38.7497    -999.2500      24.4158      29.8511      36.5549       0.0720    -999.2500
   2768.7144    -999.2500    -999.2500    -999.2500      39.7607    -999.2500      22.4113      25.1685      27.9670       0.0748    -999.2500
   2768.8667    -999.2500    -999.2500    -999.2500      42.6507    -999.2500      21.1212      22.3637      24.4693       0.0736    -999.2500
   2769.0193    -999.2500    -999.2500    -999.2500      45.4583    -999.2500      19.8285      19.6530      21.0914       0.0728    -999.2500
   2769.1716    -999.2500    -999.2500    -999.2500      47.6188    -999.2500      18.5151      17.6809      18.6540       0.0757    -999.2500
   2769.3240    -999.2500    -999.2500    -999.2500      49.7139    -999.2500      17.3311      15.9581      16.5251       0.0807    -999.2500
   2769.4763    -999.2500    -999.2500    -999.2500      51.2904    -999.2500      17.1718      16.2083      16.8377       0.0913    -999.2500
   2769.6287    -999.2500    -999.2500    -999.2500      52.9638    -999.2500      17.2185      16.6825      17.4001       0.0992    -999.2500
   2769.7812    -999.2500    -999.2500    -999.2500      55.4227    -999.2500      18.9362      18.9750      19.9895       0.0944    -999.2500
   2769.9336    -999.2500    -999.2500    -999.2500      58.2024    -999.2500      20.8272      21.5002      22.8193       0.0860    -999.2500
   2770.0859    -999.2500    -999.2500    -999.2500      63.6081    -999.2500      24.1357      25.9303      27.6172       0.0713    -999.2500
   2770.2383    -999.2500    -999.2500    -999.2500      67.8051    -999.2500      27.7109      30.7001      32.7822       0.0580    -999.2500
   2770.3909    -999.2500    -999.2500    -999.2500      62.0182    -999.2500      33.4877      38.2752      40.9791       0.0530    -999.2500
   2770.5432    -999.2500    -999.2500    -999.2500      55.8954    -999.2500      39.4020      46.0135      49.1319       0.0495    -999.2500
   2770.6956    -999.2500    -999.2500    -999.2500      46.9250    -999.2500      46.4812      55.1348      56.9110       0.0463    -999.2500
   2770.8479    -999.2500    -999.2500    -999.2500      38.4636    -999.2500      53.4753      64.2489      64.2561       0.0446    -999.2500
   2771.0005    -999.2500    -999.2500    -999.2500      34.0749    -999.2500      59.7896      73.3050      68.1279       0.0487    -999.2500
   2771.1528    -999.2500    -999.2500    -999.2500      30.3308    -999.2500      65.8410      82.0646      71.8851       0.0552    -999.2500
   2771.3052    -999.2500    -999.2500    -999.2500      31.7902    -999.2500      69.7703      88.4303      74.7174       0.0680    -999.2500
   2771.4575    -999.2500    -999.2500    -999.2500      33.1916    -999.2500      72.8949      92.4346      75.8951       0.0817    -999.2500
   2771.6099    -999.2500    -999.2500    -999.2500      34.1204    -999.2500      69.4641      77.2033      63.5952       0.0960    -999.2500
   2771.7625    -999.2500    -999.2500    -999.2500      34.7496    -999.2500      66.6772      63.9238      53.0538       0.1069    -999.2500
   2771.9148    -999.2500    -999.2500    -999.2500      32.8749    -999.2500      69.2706      66.9535      57.2060       0.1034    -999.2500
   2772.0671    -999.2500    -999.2500    -999.2500      31.0232    -999.2500      71.8702      70.0388      61.2753       0.0967    -999.2500
   2772.2195    -999.2500    -999.2500    -999.2500      29.3651    -999.2500      74.5231      73.5926      64.6456       0.0851    -999.2500
   2772.3721    -999.2500    -999.2500    -999.2500      27.8110    -999.2500      76.6202      76.4506      67.3228       0.0732    -999.2500
   2772.5244    -999.2500    -999.2500    -999.2500      27.0854    -999.2500      74.2912      73.7668      64.4790       0.0632    -999.2500
   2772.6768    -999.2500    -999.2500    -999.2500      26.5313    -999.2500      72.4618      71.9469      62.5882       0.0544    -999.2500
   2772.8291    -999.2500    -999.2500    -999.2500      27.3563    -999.2500      74.6467      77.0681      68.3536       0.0497    -999.2500
   2772.9817    -999.2500    -999.2500    -999.2500      28.1503    -999.2500      76.9056      82.3169      74.3474       0.0464    -999.2500
   2773.1340    -999.2500    -999.2500    -999.2500      28.6891    -999.2500      79.7754      88.6177      82.2235       0.0473    -999.2500
   2773.2864    -999.2500    -999.2500    -999.2500      28.9601    -999.2500      82.5067      95.0742      90.1904       0.0480    -999.2500
   2773.4387    -999.2500    -999.2500    -999.2500      27.0046    -999.2500      84.0876     102.8257      98.9121       0.0451    -999.2500
   2773.5911    -999.2500    -999.2500    -999.2500      25.1413    -999.2500      85.5064     109.9925     107.2867       0.0418    -999.2500
   2773.7437    -999.2500    -999.2500    -999.2500      24.0018    -999.2500      85.6513     112.5654     112.9348       0.0382    -999.2500
   2773.8960    -999.2500    -999.2500    -999.2500      23.0404    -999.2500      85.3644     113.4725     116.4209       0.0351    -999.2500
   2774.0483    -999.2500    -999.2500    -999.2500      23.4898    -999.2500      81.6549     101.1781     102.7737       0.0340    -999.2500
   2774.2007    -999.2500    -999.2500    -999.2500      23.9767    -999.2500      77.9932      89.4473      89.8067       0.0342    -999.2500
   2774.3533    -999.2500    -999.2500    -999.2500      24.7679    -999.2500      74.7186      82.2954      82.3670       0.0389    -999.2500
   2774.5056    -999.2500    -999.2500    -999.2500      25.6500    -999.2500      71.3046      74.9016      74.4836       0.0439    -999.2500
   2774.6580    -999.2500    -999.2500    -999.2500      27.2783    -999.2500      66.7475      65.5252      62.9641       0.0485    -999.2500
   2774.8103    -999.2500    -999.2500    -999.2500      28.7985    -999.2500      62.5277      56.9478      52.5212       0.0529    -999.2500
   2774.9629    -999.2500    -999.2500    -999.2500      29.4248    -999.2500      61.0967      54.9798      50.9839       0.0563    -999.2500
   2775.1152    -999.2500    -999.2500    -999.2500      29.7994    -999.2500      59.5492      53.0303      49.4499       0.0597    -999.2500
