#------------------------------------------------------------------------------
#
#   Created by  : [OpenWorks] Log Export Utility (LEXP)
#   Created on  : 2016-05-23 11:50:52
#   Project     : CANT971
#   User        : R5K
#   Interpreter : PEP
#
#------------------------------------------------------------------------------
~VERSION INFORMATION
VERS. 2.0 : CWLS Log ASCII Standard - version 2.0
WRAP.  NO : One line per depth step
~WELL INFORMATION
#MNEMONIC   .UNIT                                           VALUE :DESCRIPTION
#------------------------------------------------------------------------------
STRT        .M                                           540.4100 :START DEPTH
STOP        .M                                          3242.0049 :STOP DEPTH
STEP        .M                                             0.1524 :STEP
NULL        .                                           -999.2500 :NULL VALUE
COMP        .                                   PEMEX EXPL & PROD :COMPANY
WELL        .                                                1041 :WELL
FLD         .                                           CANTARELL :FIELD
LOC         .                                             UNKNOWN :LOCATION
CNTY        .                                      CD. DEL CARMEN :COUNTY
STAT        .                                            CAMPECHE :STATE
CTRY        .                                              MEXICO :COUNTRY
SRVC        .                                             UNKNOWN :SERVICE COMPANY
DATE        .                                             UNKNOWN :LOG DATE
UWI         .                                          3060000494 :UNIQUE WELL ID
XCOORD      .                                       596162.660000 :SURFACE X
YCOORD      .                                      2150607.940000 :SURFACE Y
LAT         .                                           19.448736 :LATITUDE
LON         .                                          -92.083900 :LONGITUDE
ELEV        .M                                            30.0000 :SURFACE ELEV
ELEV_TYPE   .                                                  KB :ELEV TYPE
~CURVE INFORMATION
#MNEMONIC.UNIT        API CODE       : CURVE DESCRIPTION
#------------------------------------------------------------------------------
DEPTH    .M                          : Measured Depth
CALI     .inches      UNKNOWN        : CALI:litodensidad:rC:NONE:v0 (auto-composite)
DRHO     .g/cm3      UNKNOWN        : DRHO:DRHO-Load:rC:NONE:v0 (auto-composite)
DT       .us/ft       UNKNOWN        : DT:DT:rC:NONE:v0 (auto-composite)
GR       .API         UNKNOWN        : GR:GR-Load:rC:NONE:v0 (auto-composite)
ILD      .ohmm        UNKNOWN        : ILD:ILD-Load:rC:NONE:v0 (auto-composite)
ILM      .ohmm        UNKNOWN        : ILM:ILM-Load:rC:NONE:v0 (auto-composite)
LLD      .ohmm        UNKNOWN        : LLD:LLD-Load:rC:NONE:v0 (auto-composite)
LLS      .ohmm        UNKNOWN        : LLS:LLS-Load:rC:NONE:v0 (auto-composite)
MSFL     .ohmm        UNKNOWN        : MSFL:MSFL-Load:rC:NONE:v0 (auto-composite)
NPHI     .v/v_decimal UNKNOWN        : NPHI:NPHI-Load:rC:NONE:v0 (auto-composite)
PEF      .b/elec      UNKNOWN        : PEF:PEF-Load:rC:NONE:v0 (auto-composite)
RHOB     .g/cm3       UNKNOWN        : RHOB:RHOB-Load:rC:NONE:v0 (auto-composite)
~A     DEPTH         CALI         DRHO           DT           GR          ILD          ILM          LLD          LLS         MSFL         NPHI          PEF         RHOB
# ...
   2595.9812    -999.2500       0.0130      73.9090      47.0370    -999.2500    -999.2500       9.8190       9.9940       9.1580       0.1214       3.9360       2.6370
   2596.1335    -999.2500       0.0130      58.9990      46.5690    -999.2500    -999.2500       9.8570       8.9240      10.0720       0.1210       3.7330       2.6610
   2596.2859    -999.2500       0.0130      58.9990      46.1010    -999.2500    -999.2500       9.8950       8.9240      11.0770       0.1206       3.7330       2.6610
   2596.4385    -999.2500       0.0110      62.9770      42.7900    -999.2500    -999.2500      10.7510       9.5930      12.9700       0.1119       3.8100       2.6610
   2596.5908    -999.2500       0.0080      66.9490      39.4840    -999.2500    -999.2500      11.6790      10.3110      15.1820       0.1032       3.8860       2.6610
   2596.7432    -999.2500       0.0080      61.8710      40.4830    -999.2500    -999.2500      21.9160      17.8260      97.3490       0.0329       4.0600       2.6660
   2596.8955    -999.2500       0.0090      61.8710      41.4820    -999.2500    -999.2500      21.9160      17.8260      97.3490       0.0329       4.2340       2.6660
   2597.0479    -999.2500       0.0100      62.3160      45.3500    -999.2500    -999.2500      20.2250      16.4400      95.1120       0.0367       4.3290       2.6560
   2597.2004    -999.2500       0.0100      62.7620      49.2250    -999.2500    -999.2500      18.6620      15.1600      92.9230       0.0404       4.4240       2.6460
   2597.3528    -999.2500       0.0130      64.5870      54.2530    -999.2500    -999.2500      14.5380      11.9140      66.2650       0.0513       4.4770       2.6240
   2597.5051    -999.2500       0.0130      66.4110      59.2810    -999.2500    -999.2500      11.3260       9.3630      47.2540       0.0621       4.4770       2.6010
   2597.6575    -999.2500       0.0130      69.0830      63.4710    -999.2500    -999.2500       8.8000       7.2330      26.1730       0.0740       4.4500       2.5840
   2597.8101    -999.2500       0.0120      71.7590      67.6670    -999.2500    -999.2500       6.8340       5.5850      14.4830       0.0858       4.4230       2.5670
   2597.9624    -999.2500       0.0070      76.1120      81.9440    -999.2500    -999.2500       7.5050       5.9490      11.3280       0.0957       4.2890       2.5560
   2598.1147    -999.2500       0.0070      76.1120      81.9440    -999.2500    -999.2500       7.5050       5.9490       8.8610       0.1055       4.2890       2.5440
   2598.2671    -999.2500       0.0070      67.4140      78.7900    -999.2500    -999.2500       7.1990       5.8120       8.5330       0.1194       4.3330       2.5360
   2598.4197    -999.2500       0.0070      58.7020      75.6310    -999.2500    -999.2500       6.9060       5.6780       8.2180       0.1332       4.3780       2.5290
   2598.5720    -999.2500       0.0020      77.1320      76.8010    -999.2500    -999.2500       7.0490       5.7780       7.2840       0.1314       4.6380       2.5260
   2598.7244    -999.2500       0.0020      77.1320      76.8010    -999.2500    -999.2500       7.1960       5.8800       7.2840       0.1314       4.6380       2.5240
   2598.8767    -999.2500       0.0030      66.3570      76.7490    -999.2500    -999.2500       8.9250       6.8580      11.7580       0.1338       4.3220       2.5220
   2599.0291    -999.2500       0.0030      66.3570      76.7490    -999.2500    -999.2500       8.9250       6.8580      11.7580       0.1338       4.3220       2.5220
   2599.1816    -999.2500       0.0040      70.9450      75.0950    -999.2500    -999.2500       8.7070       6.6890      11.5430       0.1436       4.0550       2.5210
   2599.3340    -999.2500       0.0050      75.5250      73.4430    -999.2500    -999.2500       8.4940       6.5230      11.3320       0.1534       3.7890       2.5200
   2599.4863    -999.2500       0.0070      74.4330      73.9900    -999.2500    -999.2500       8.1350       6.1940      11.9590       0.1316       3.9380       2.5130
   2599.6387    -999.2500       0.0090      74.4330      74.5370    -999.2500    -999.2500       7.7910       5.8810      12.6210       0.1316       3.9380       2.5060
   2599.7913    -999.2500       0.0120      74.6290      77.6230    -999.2500    -999.2500       7.4990       5.5560      17.8930       0.1330       3.8380       2.4740
   2599.9436    -999.2500       0.0150      74.8250      80.7030    -999.2500    -999.2500       7.2170       5.2510      25.3530       0.1344       3.7380       2.4410
   2600.0959    -999.2500       0.0350      76.1910      91.8010    -999.2500    -999.2500       4.9050       3.5160      17.4420       0.1447       3.8300       2.4490
   2600.2483    -999.2500       0.0350      77.5580      91.8010    -999.2500    -999.2500       4.9050       3.5160      11.9990       0.1550       3.9220       2.4570
   2600.4009    -999.2500       0.0230      79.1310      90.5260    -999.2500    -999.2500       5.1140       3.6010       6.8250       0.1715       4.1030       2.4690
   2600.5532    -999.2500       0.0120      80.7030      89.2520    -999.2500    -999.2500       5.3320       3.6870       3.8860       0.1880       4.2830       2.4820
   2600.7056    -999.2500       0.0180      80.8710      86.0830    -999.2500    -999.2500       5.3060       3.6640       6.2620       0.1622       4.2020       2.4780
   2600.8579    -999.2500       0.0250      81.0390      82.9140    -999.2500    -999.2500       5.2790       3.6420       6.2620       0.1622       4.1210       2.4750
   2601.0103    -999.2500       0.0380      82.5060      80.8300    -999.2500    -999.2500       4.8440       3.3800       5.9800       0.1701       3.8780       2.4300
   2601.1628    -999.2500       0.0510      83.9750      78.7430    -999.2500    -999.2500       4.4450       3.1360       5.7100       0.1780       3.6340       2.3860
   2601.3152    -999.2500       0.0710      88.5280      76.6790    -999.2500    -999.2500       4.4770       3.1380       2.9010       0.2302       4.0330       2.4020
   2601.4675    -999.2500       0.0710      88.5280      76.6790    -999.2500    -999.2500       4.5100       3.1390       2.9010       0.2302       4.0330       2.4180
   2601.6199    -999.2500       0.0610      87.3020      77.3040    -999.2500    -999.2500       4.5730       3.1670       3.0690       0.2240       3.9710       2.4470
   2601.7725    -999.2500       0.0510      86.0730      77.9300    -999.2500    -999.2500       4.6380       3.1950       3.2470       0.2177       3.9090       2.4750
   2601.9248    -999.2500       0.0140      84.4000      81.2140    -999.2500    -999.2500       4.6960       3.2500       4.6670       0.2241       3.7960       2.4720
   2602.0771    -999.2500       0.0140      82.7270      81.2140    -999.2500    -999.2500       4.7550       3.3050       4.6670       0.2241       3.6840       2.4700
   2602.2295    -999.2500       0.0140      82.5250      80.7960    -999.2500    -999.2500       4.8720       3.4310       4.5540       0.2176       3.6210       2.4650
   2602.3821    -999.2500       0.0150      82.3220      80.3770    -999.2500    -999.2500       4.9920       3.5620       4.4440       0.2110       3.5580       2.4610
   2602.5344    -999.2500       0.0350      82.4730      78.7550    -999.2500    -999.2500       5.2230       3.5500       3.4940       0.2119       3.4160       2.4650
   2602.6868    -999.2500       0.0350      82.4730      77.1340    -999.2500    -999.2500       5.2230       3.5390       3.4940       0.2129       3.4160       2.4680
   2602.8391    -999.2500       0.0340      81.9250      73.4650    -999.2500    -999.2500       4.6480       3.1610       3.5660       0.2229       3.6600       2.4810
   2602.9915    -999.2500       0.0340      81.9250      73.4650    -999.2500    -999.2500       4.6480       3.1610       3.5660       0.2229       3.6600       2.4810
   2603.1440    -999.2500       0.0310      81.1710      75.9910    -999.2500    -999.2500       4.6690       3.1790       3.7210       0.2167       3.6120       2.4890
