#------------------------------------------------------------------------------
#
#   Created by  : [OpenWorks] Log Export Utility (LEXP)
#   Created on  : 2016-05-23 11:57:14
#   Project     : CANT971
#   User        : R5K
#   Interpreter : PEP
#
#------------------------------------------------------------------------------
~VERSION INFORMATION
VERS. 2.0 : CWLS Log ASCII Standard - version 2.0
WRAP.  NO : One line per depth step
~WELL INFORMATION
#MNEMONIC   .UNIT                                           VALUE :DESCRIPTION
#------------------------------------------------------------------------------
STRT        .M                                           551.2302 :START DEPTH
STOP        .M                                          2435.9609 :STOP DEPTH
STEP        .M                                             0.1524 :STEP
NULL        .                                           -999.2500 :NULL VALUE
COMP        .                                   PEMEX EXPL & PROD :COMPANY
WELL        .                                                  76 :WELL
FLD         .                                           CANTARELL :FIELD
LOC         .                                             UNKNOWN :LOCATION
CNTY        .                                      CD. DEL CARMEN :COUNTY
STAT        .                                            CAMPECHE :STATE
CTRY        .                                              MEXICO :COUNTRY
SRVC        .                                             UNKNOWN :SERVICE COMPANY
DATE        .                                             UNKNOWN :LOG DATE
UWI         .                                          3060000416 :UNIQUE WELL ID
XCOORD      .                                       599729.570000 :SURFACE X
YCOORD      .                                      2147218.620000 :SURFACE Y
LAT         .                                           19.417934 :LATITUDE
LON         .                                          -92.050101 :LONGITUDE
ELEV        .M                                            27.8000 :SURFACE ELEV
ELEV_TYPE   .                                                  KB :ELEV TYPE
~CURVE INFORMATION
#MNEMONIC.UNIT        API CODE       : CURVE DESCRIPTION
#------------------------------------------------------------------------------
DEPTH    .M                          : Measured Depth
CAL      .inches      UNKNOWN        : CAL:UNKNOWN:rC:NONE:v0 (auto-composite)
DRHO     .UNKNOWN     UNKNOWN        : DRHO:UNKNOWN:rC:NONE:v0 (auto-composite)
DT       .us/ft       UNKNOWN        : DT:DT:rC:NONE:v0 (auto-composite)
GR       .UNKNOWN     UNKNOWN        : GR:GR-Load:rC:NONE:v0 (auto-composite)
ILD      .UNKNOWN     UNKNOWN        : ILD:ILD-Load:rC:NONE:v0 (auto-composite)
LLD      .UNKNOWN     UNKNOWN        : LLD:UNKNOWN:rC:NONE:v0 (auto-composite)
LLS      .UNKNOWN     UNKNOWN        : LLS:UNKNOWN:rC:NONE:v0 (auto-composite)
NPHI     .v/v_decimal UNKNOWN        : NPHI:NPHI:rC:NONE:v0 (auto-composite)
RHOB     .UNKNOWN     UNKNOWN        : RHOB:UNKNOWN:rC:NONE:v0 (auto-composite)
~A     DEPTH          CAL         DRHO           DT           GR          ILD          LLD          LLS         NPHI         RHOB
# ...
   2195.3215       6.4440       0.0428      79.5877      16.2149       0.2000      47.2777      31.7289      15.7035       2.6936
   2195.4739       6.4440       0.0463      81.3590      15.5560       0.2000      46.2990      32.7311      15.3090       2.7122
   2195.6262       6.4440       0.0502      79.7280      15.6501       0.2000      41.1809      31.9494      14.5700       2.7248
   2195.7786       6.4440       0.0542      78.0970      15.7440       0.2000      34.9927      30.7064      13.8310       2.7358
   2195.9309       6.4673       0.0666      74.2576      16.1703       0.2000      30.8747      27.8828      12.9200       2.7436
   2196.0835       6.4963       0.0812      70.4180      16.5960       0.2000      27.2737      24.6644      12.0090       2.7506
   2196.2358       6.4911       0.0913      68.0747      16.5865       0.2000      25.9923      22.6683      11.0836       2.7520
   2196.3882       6.4776       0.1003      65.7310      16.5770       0.2000      25.2703      20.9671      10.1580       2.7520
   2196.5405       6.4624       0.1065      66.7508      16.2023       0.2000      29.0912      20.9669       9.5426       2.7406
   2196.6931       6.4468       0.1120      67.7710      15.8280       0.2000      33.9692      21.3625       8.9270       2.7266
   2196.8455       6.4440       0.0954      67.1411      15.1496       0.2000      41.6377      23.8218       8.7105       2.7068
   2196.9978       6.4440       0.0739      66.5110      14.4720       0.2000      49.9320      26.7441       8.4940       2.6858
   2197.1501       6.4440       0.0634      65.0988      13.4870       0.2000      56.8800      29.9057       8.6886       2.6927
   2197.3027       6.4440       0.0554      63.6880      12.5030       0.2000      63.5340      33.1196       8.8830       2.7057
   2197.4551       6.4440       0.0561      62.2729      12.5755       0.2000      71.4453      35.3003       9.0761       2.7237
   2197.6074       6.4440       0.0586      60.8590      12.6480       0.2000      79.6209      37.2638       9.2690       2.7428
   2197.7598       6.4440       0.0544      61.0721      13.0517       0.2000      87.9159      38.1374       9.3660       2.7139
   2197.9121       6.4440       0.0489      61.2850      13.4550       0.2000      96.2349      38.7907       9.4630       2.6753
   2198.0647       6.4440       0.0379      62.7565      13.8524       0.2000     103.5086      39.2270       9.8366       2.6346
   2198.2170       6.4440       0.0259      64.2270      14.2490       0.2000     110.5792      39.6211      10.2100       2.5935
   2198.3694       6.4440       0.0236      65.3513      14.3466       0.2000     115.0020      40.1842      10.5056       2.5980
   2198.5217       6.4440       0.0231      66.4750      14.4440       0.2000     118.9312      40.7789      10.8010       2.6110
   2198.6743       6.4440       0.0438      67.9958      14.1963       0.2000     119.9160      41.4636      10.2969       2.6529
   2198.8267       6.4440       0.0684      69.5160      13.9490       0.2000     120.3682      42.1645       9.7930       2.7000
   2198.9790       6.4440       0.0652      84.2975      13.9710       0.2000     122.1979      42.6189       8.7624       2.7070
   2199.1313       6.4440       0.0571      99.0750      13.9930       0.2000     124.2662      43.0305       7.7320       2.7070
   2199.2839       6.4440       0.0500      98.0134      14.6441       0.2000     125.2616      43.4108       7.9630       2.7109
   2199.4363       6.4440       0.0430      96.9520      15.2940       0.2000     126.0794      43.7858       8.1940       2.7154
   2199.5886       6.4440       0.0407      84.9734      16.3799       0.2000     127.5877      43.9569       8.5800       2.7290
   2199.7410       6.4440       0.0392      72.9950      17.4640       0.2000     129.2051      44.0958       8.9660       2.7440
   2199.8933       6.4440       0.0390      76.2918      18.1770       0.2000     130.8485      44.2472       9.1515       2.7382
   2200.0459       6.4440       0.0390      79.5890      18.8890       0.2000     132.4957      44.4005       9.3370       2.7291
   2200.1982       6.4510       0.0355      86.4442      18.2245       0.2000     126.4407      44.8275       9.4900       2.7061
   2200.3506       6.4590       0.0315      93.3010      17.5610       0.2000     119.2648      45.2943       9.6430       2.6810
   2200.5029       6.4781       0.0319      86.5692      16.4028       0.2000     104.9154      44.8277       9.8540       2.6732
   2200.6555       6.4986       0.0329      79.8350      15.2460       0.2000      89.5739      44.2321      10.0650       2.6676
   2200.8079       6.4819       0.0348      71.8989      14.2675       0.2000      80.7061      42.2823       9.7846       2.6772
   2200.9602       6.4604       0.0368      63.9590      13.2900       0.2000      72.6873      40.1549       9.5040       2.6887
   2201.1125       6.4803       0.0504      60.5608      13.6182       0.2000      67.0848      38.2353       8.8482       2.7038
   2201.2651       6.5054       0.0654      57.1660      13.9460       0.2000      61.7821      36.3416       8.1930       2.7194
   2201.4175       6.5264       0.0751      53.8316      14.6379       0.2000      54.6684      34.2100       8.2095       2.7179
   2201.5698       6.5470       0.0841      50.5000      15.3280       0.2000      47.3426      32.0505       8.2260       2.7143
   2201.7222       6.5134       0.0841      46.4780      16.0569       0.2000      42.9032      30.6723       8.5556       2.7009
   2201.8745       6.4738       0.0831      42.4590      16.7840       0.2000      38.7821      29.3802       8.8850       2.6864
   2202.0271       6.4582       0.0762      44.8918      17.9138       0.2000      39.1052      28.0378       9.3456       2.6882
   2202.1794       6.4452       0.0687      47.3230      19.0410       0.2000      39.8969      26.6901       9.8060       2.6917
   2202.3318       6.4440       0.0466      49.4815      20.3298       0.2000      42.6650      27.1759      10.0085       2.6733
   2202.4841       6.4440       0.0230      51.6390      21.6160       0.2000      45.6282      27.8428      10.2110       2.6527
   2202.6367       6.4440       0.0261      53.7724      22.6971       0.2000      48.2792      29.8319      10.1595       2.6345
   2202.7891       6.4440       0.0316      55.9050      23.7760       0.2000      50.9015      31.9428      10.1080       2.6164
   2202.9414       6.4759       0.0292      59.7590      24.3335       0.2000      47.7726      31.2221      10.0540       2.6136
   2203.0938       6.5105       0.0262      63.6120      24.8900       0.2000      44.1520      30.2595      10.0000       2.6121
   2203.2463       6.4907       0.0330      63.2810      24.4571       0.2000      37.8625      27.2257      10.0000       2.6204
   2203.3987       6.4667       0.0405      62.9500      24.0250       0.2000      31.3622      24.0284      10.0000       2.6294
   2203.5510       6.4781       0.0387      62.2340      22.5778       0.2000      27.3056      22.0323      10.0000       2.6001
   2203.7034       6.4921       0.0362      61.5180      21.1330       0.2000      23.4309      20.1255      10.0000       2.5680
   2203.8557       6.5202       0.0529      60.3346      19.3682       0.2000      21.7898      19.3059      10.1415       2.5580
   2204.0083       6.5493       0.0710      59.1510      17.6060       0.2000      20.3006      18.5604      10.2830       2.5495
   2204.1606       6.5534       0.0994      58.2661      16.6153       0.2000      20.5460      18.3361      10.9654       2.5754
   2204.3130       6.5559       0.1285      57.3810      15.6260       0.2000      20.8985      18.1441      11.6480       2.6035
   2204.4653       6.5665       0.0882      57.1203      15.2273       0.2000      23.3120      19.2232      12.7367       2.6245
   2204.6179       6.5775       0.0441      56.8600      14.8290       0.2000      25.8400      20.3729      13.8240       2.6450
