#------------------------------------------------------------------------------
#
#   Created by  : [OpenWorks] Log Export Utility (LEXP)
#   Created on  : 2016-05-23 11:53:36
#   Project     : CANT971
#   User        : R5K
#   Interpreter : PEP
#
#------------------------------------------------------------------------------
~VERSION INFORMATION
VERS. 2.0 : CWLS Log ASCII Standard - version 2.0
WRAP.  NO : One line per depth step
~WELL INFORMATION
#MNEMONIC   .UNIT                                           VALUE :DESCRIPTION
#------------------------------------------------------------------------------
STRT        .M                                           940.3716 :START DEPTH
STOP        .M                                          3167.2405 :STOP DEPTH
STEP        .M                                             0.1524 :STEP
NULL        .                                           -999.2500 :NULL VALUE
COMP        .                                   PEMEX EXPL & PROD :COMPANY
WELL        .                                                  24 :WELL
FLD         .                                           CANTARELL :FIELD
LOC         .                                             UNKNOWN :LOCATION
CNTY        .                                      CD. DEL CARMEN :COUNTY
STAT        .                                            CAMPECHE :STATE
CTRY        .                                              MEXICO :COUNTRY
SRVC        .                                             UNKNOWN :SERVICE COMPANY
DATE        .                                             UNKNOWN :LOG DATE
UWI         .                                          3060000153 :UNIQUE WELL ID
XCOORD      .                                       598455.290000 :SURFACE X
YCOORD      .                                      2145024.750000 :SURFACE Y
LAT         .                                           19.398172 :LATITUDE
LON         .                                          -92.062351 :LONGITUDE
ELEV        .M                                            26.5400 :SURFACE ELEV
ELEV_TYPE   .                                                  KB :ELEV TYPE
~CURVE INFORMATION
#MNEMONIC.UNIT        API CODE       : CURVE DESCRIPTION
#------------------------------------------------------------------------------
DEPTH    .M                          : Measured Depth
CALI     .inches      UNKNOWN        : CALI:Import:rC:NONE:v0 (auto-composite)
DRHO     .g/cm3       UNKNOWN        : DRHO:Import:rC:NONE:v0 (auto-composite)
DT       .us/ft       UNKNOWN        : DT:Import:rC:NONE:v0 (auto-composite)
GR       .API         UNKNOWN        : GR:Import:rC:NONE:v0 (auto-composite)
ILD      .ohm.m       UNKNOWN        : ILD:Import:rC:NONE:v0 (auto-composite)
LLD      .ohm.m       UNKNOWN        : LLD:Import:rC:NONE:v0 (auto-composite)
LLS      .ohm.m       UNKNOWN        : LLS:Import:rC:NONE:v0 (auto-composite)
MSFL     .ohm.m       UNKNOWN        : MSFL:Import:rC:NONE:v0 (auto-composite)
NPHI     .v/v_decimal UNKNOWN        : NPHI:Import:rC:NONE:v0 (auto-composite)
RHOB     .g/cm3       UNKNOWN        : RHOB:Import:rC:NONE:v0 (auto-composite)
~A     DEPTH         CALI         DRHO           DT           GR          ILD          LLD          LLS         MSFL         NPHI         RHOB
# ...
   2160.7908       5.6038       0.0689      86.7177      26.7595    -999.2500      99.5528     117.5558      87.0784       0.0508       2.5737
   2160.9431       5.4608       0.0864      86.2518      26.5025    -999.2500     100.9866     113.0518      74.4827       0.0513       2.5217
   2161.0957       5.3550       0.1000      83.0755      25.5845    -999.2500     111.4286     143.7744      97.7733       0.0523       2.5282
   2161.2480       5.2605       0.1114      80.6342      24.6219    -999.2500     120.9445     171.9223     119.4431       0.0531       2.5328
   2161.4004       5.2560       0.1064      84.0372      23.3055    -999.2500     123.0970     179.5959     128.2258       0.0532       2.5223
   2161.5527       5.2539       0.1021      87.0607      22.0821    -999.2500     125.1117     186.7673     136.3353       0.0525       2.5132
   2161.7051       5.2709       0.1031      87.0397      21.6052    -999.2500     126.0201     189.9089     139.0445       0.0509       2.5147
   2161.8577       5.2859       0.1036      87.0106      21.2303    -999.2500     126.6133     191.9869     141.1356       0.0494       2.5151
   2162.0100       5.2849       0.0996      86.9146      21.6941    -999.2500     124.6142     185.3147     138.1424       0.0492       2.5066
   2162.1624       5.2837       0.0968      86.8173      22.1787    -999.2500     123.9645     179.8501     134.8090       0.0497       2.5000
   2162.3147       5.2807       0.1043      86.7079      22.8366    -999.2500     134.5157     184.4088     128.6519       0.0513       2.5096
   2162.4673       5.2775       0.1101      86.2771      23.3663    -999.2500     154.0130     196.5468     120.8997       0.0527       2.5169
   2162.6196       5.2730       0.1021      83.3239      22.8910    -999.2500     243.6883     268.1424     100.6345       0.0528       2.5074
   2162.7720       5.2695       0.0952      79.3939      22.3688    -999.2500     370.4669     377.6286      79.6838       0.0523       2.4990
   2162.9243       5.2740       0.0972      67.7353      21.4754    -999.2500     790.8326     786.9315      53.3099       0.0515       2.4990
   2163.0767       5.2801       0.0998      57.3560      20.7573    -999.2500    1127.2712    1113.8611      30.4193       0.0511       2.4994
   2163.2292       5.2996       0.1073    -999.2500      21.4615    -999.2500     782.8136     772.5001      35.7900       0.0518       2.5034
   2163.3816       5.3167       0.1138    -999.2500      22.1979    -999.2500     462.2455     455.7107      44.0189       0.0496       2.5080
   2163.5339       5.3142       0.1118    -999.2500      23.1979    -999.2500     337.2205     340.0472      75.6427       0.0396       2.5175
   2163.6863       5.3128       0.1090    -999.2500      24.1407    -999.2500     219.3000     230.3596     105.7258       0.0273       2.5256
   2163.8389       5.3203       0.1000    -999.2500      24.6101    -999.2500     160.0536     170.0260     123.0839       0.0158       2.5221
   2163.9912       5.3267       0.0909    -999.2500      25.2207    -999.2500     108.8417     117.3502     138.0495       0.0066       2.5171
   2164.1436       5.3237       0.0809    -739.4380      27.0272    -749.3880     125.7230     129.5746     132.7382       0.0029       2.4990
   2164.2959       5.3192       0.0726    -696.1649      28.8195    -707.7721     141.3564     141.3864     126.2878       0.0019       2.4836
   2164.4485       5.3032       0.0781    -306.6141      30.4988    -333.1399     147.0045     149.8972     110.7215       0.0032       2.4891
   2164.6008       5.2883       0.0836      40.0000      32.2668       0.2000     152.0146     156.1349      95.5941       0.0048       2.4947
   2164.7532       5.2818       0.0885      40.0000      34.7507       0.2000     151.8746     144.0216      84.0097       0.0048       2.5007
   2164.9055       5.2760       0.0930      40.0000      37.0174       0.2000     152.0033     132.6185      73.0316       0.0046       2.5060
   2165.0579       5.2760       0.0930      40.0000      37.5153       0.2000     154.3194     126.9989      66.9931       0.0046       2.5060
   2165.2104    -999.2500    -999.2500    -999.2500      37.8875    -999.2500     158.0186     123.5333      62.3551       0.0049    -999.2500
   2165.3628    -999.2500    -999.2500    -999.2500      37.2087    -999.2500     173.2730     138.0645      69.4196       0.0055    -999.2500
   2165.5151    -999.2500    -999.2500    -999.2500      36.2659    -999.2500     189.3371     153.3518      76.7825       0.0061    -999.2500
   2165.6675    -999.2500    -999.2500    -999.2500      33.0961    -999.2500     212.2286     175.0144      86.6624       0.0064    -999.2500
   2165.8201    -999.2500    -999.2500    -999.2500      30.0014    -999.2500     233.3854     194.1234      95.3850       0.0065    -999.2500
   2165.9724    -999.2500    -999.2500    -999.2500      27.5039    -999.2500     240.7292     192.8989      94.8922       0.0059    -999.2500
   2166.1248    -999.2500    -999.2500    -999.2500      25.0681    -999.2500     250.0066     193.9512      93.8746       0.0053    -999.2500
   2166.2771    -999.2500    -999.2500    -999.2500      23.1264    -999.2500     274.8160     213.2924      88.6411       0.0053    -999.2500
   2166.4297    -999.2500    -999.2500    -999.2500      21.3590    -999.2500     296.2899     229.2355      83.5695       0.0055    -999.2500
   2166.5820    -999.2500    -999.2500    -999.2500      21.0267    -999.2500     290.2840     217.1837      79.8326       0.0054    -999.2500
   2166.7344    -999.2500    -999.2500    -999.2500      20.7944    -999.2500     283.5272     203.4145      76.0977       0.0052    -999.2500
   2166.8867    -999.2500    -999.2500    -999.2500      21.3946    -999.2500     270.5282     175.3688      72.3789       0.0051    -999.2500
   2167.0391    -999.2500    -999.2500    -999.2500      22.2173    -999.2500     258.4418     150.8801      69.4402       0.0052    -999.2500
   2167.1917    -999.2500    -999.2500    -999.2500      24.7882    -999.2500     253.5255     154.3346      72.6304       0.0057    -999.2500
   2167.3440    -999.2500    -999.2500    -999.2500      27.3200    -999.2500     250.1337     159.0294      76.4498       0.0062    -999.2500
   2167.4963    -999.2500    -999.2500    -999.2500      29.5423    -999.2500     258.8224     173.5520      85.2559       0.0064    -999.2500
   2167.6487    -999.2500    -999.2500    -999.2500      31.7210    -999.2500     271.1619     188.7563      94.2452       0.0064    -999.2500
   2167.8013    -999.2500    -999.2500    -999.2500      33.5462    -999.2500     313.1617     209.4993     104.7222       0.0057    -999.2500
   2167.9536    -999.2500    -999.2500    -999.2500      35.2989    -999.2500     355.7265     230.4081     115.2109       0.0051    -999.2500
   2168.1060    -999.2500    -999.2500    -999.2500      36.4569    -999.2500     402.9216     252.6749     125.7964       0.0051    -999.2500
   2168.2583    -999.2500    -999.2500    -999.2500      37.2936    -999.2500     449.9118     281.3242     134.3363       0.0052    -999.2500
   2168.4109    -999.2500    -999.2500    -999.2500      35.4725    -999.2500     495.2068     362.7615     125.9581       0.0053    -999.2500
   2168.5632    -999.2500    -999.2500    -999.2500      33.7913    -999.2500     538.4388     439.5905     118.0594       0.0053    -999.2500
   2168.7156    -999.2500    -999.2500    -999.2500      33.2030    -999.2500     565.5430     480.3936     113.9095       0.0052    -999.2500
   2168.8679    -999.2500    -999.2500    -999.2500      32.7194    -999.2500     587.5097     513.0598     109.8707       0.0053    -999.2500
   2169.0203    -999.2500    -999.2500    -999.2500      33.0742    -999.2500     568.3080     480.5188     106.7220       0.0060    -999.2500
   2169.1729    -999.2500    -999.2500    -999.2500      33.4516    -999.2500     600.0793     503.0595     110.7888       0.0066    -999.2500
