#------------------------------------------------------------------------------
#
#   Created by  : [OpenWorks] Log Export Utility (LEXP)
#   Created on  : 2016-05-23 11:50:37
#   Project     : CANT971
#   User        : R5K
#   Interpreter : PEP
#
#------------------------------------------------------------------------------
~VERSION INFORMATION
VERS. 2.0 : CWLS Log ASCII Standard - version 2.0
WRAP.  NO : One line per depth step
~WELL INFORMATION
#MNEMONIC   .UNIT                                           VALUE :DESCRIPTION
#------------------------------------------------------------------------------
STRT        .M                                           690.6770 :START DEPTH
STOP        .M                                          3400.6538 :STOP DEPTH
STEP        .M                                             0.1524 :STEP
NULL        .                                           -999.2500 :NULL VALUE
COMP        .                                   PEMEX EXPL & PROD :COMPANY
WELL        .                                                1024 :WELL
FLD         .                                           CANTARELL :FIELD
LOC         .                                             UNKNOWN :LOCATION
CNTY        .                                      CD. DEL CARMEN :COUNTY
STAT        .                                            CAMPECHE :STATE
CTRY        .                                              MEXICO :COUNTRY
SRVC        .                                             UNKNOWN :SERVICE COMPANY
DATE        .                                             UNKNOWN :LOG DATE
UWI         .                                          3060000490 :UNIQUE WELL ID
XCOORD      .                                       596162.640000 :SURFACE X
YCOORD      .                                      2150611.280000 :SURFACE Y
LAT         .                                           19.448767 :LATITUDE
LON         .                                          -92.083900 :LONGITUDE
ELEV        .M                                            30.0000 :SURFACE ELEV
ELEV_TYPE   .                                                  KB :ELEV TYPE
~CURVE INFORMATION
#MNEMONIC.UNIT        API CODE       : CURVE DESCRIPTION
#------------------------------------------------------------------------------
DEPTH    .M                          : Measured Depth
CALI     .inches      UNKNOWN        : CALI:registros:rC:NONE:v0 (auto-composite)
DRHO     .g/cm3       UNKNOWN        : DRHO:registros:rC:NONE:v0 (auto-composite)
DT       .us/ft       UNKNOWN        : DT:registros:rC:NONE:v0 (auto-composite)
GR       .API         UNKNOWN        : GR:registros:rC:NONE:v0 (auto-composite)
ILD      .ohm.m       UNKNOWN        : ILD:registros:rC:NONE:v0 (auto-composite)
ILM      .ohm.m       UNKNOWN        : ILM:registros:rC:NONE:v0 (auto-composite)
LLD      .ohm.m       UNKNOWN        : LLD:registros:rC:NONE:v0 (auto-composite)
LLS      .ohm.m       UNKNOWN        : LLS:registros:rC:NONE:v0 (auto-composite)
MSFL     .ohm.m       UNKNOWN        : MSFL:registros:rC:NONE:v0 (auto-composite)
NPHI     .v/v_decimal UNKNOWN        : NPHI:registros:rC:NONE:v0 (auto-composite)
PEF      .b/elec      UNKNOWN        : PEF:registros:rC:NONE:v0 (auto-composite)
RHOB     .g/cm3       UNKNOWN        : RHOB:registros:rC:NONE:v0 (auto-composite)
~A     DEPTH         CALI         DRHO           DT           GR          ILD          ILM          LLD          LLS         MSFL         NPHI          PEF         RHOB
# ...
   3148.5842    -999.2500    -999.2500    -999.2500      47.8750       2.3630       2.2990      12.8470       8.7280       0.0930     -15.0000    -999.2500    -999.2500
   3148.7366    -999.2500    -999.2500    -999.2500      47.2343       2.4260       2.3635      12.1804      12.6255       0.0950     -15.0000    -999.2500    -999.2500
   3148.8889    -999.2500    -999.2500    -999.2500      46.5980       2.4890       2.4280      11.5120      16.5090       0.0970     -15.0000    -999.2500    -999.2500
   3149.0415    -999.2500    -999.2500    -999.2500      46.8955       2.5685       2.5225      13.0615      32.2643       0.0960     -15.0000    -999.2500    -999.2500
   3149.1938    -999.2500    -999.2500    -999.2500      47.1910       2.6480       2.6170      14.6130      47.9650       0.0950     -15.0000    -999.2500    -999.2500
   3149.3462    -999.2500    -999.2500    -999.2500      49.4659       2.7055       2.7340      19.3875      77.1142       0.0925     -15.0000    -999.2500    -999.2500
   3149.4985    -999.2500    -999.2500    -999.2500      51.7260       2.7630       2.8510      24.1690     106.1660       0.0900     -15.0000    -999.2500    -999.2500
   3149.6511    -999.2500    -999.2500    -999.2500      50.8723       2.8000       2.8455      21.2393      95.7966       0.0915     -15.0000    -999.2500    -999.2500
   3149.8035    -999.2500    -999.2500    -999.2500      50.0240       2.8370       2.8400      18.3050      85.4770       0.0930     -15.0000    -999.2500    -999.2500
   3149.9558    -999.2500    -999.2500    -999.2500      47.9515       2.8635       2.7905      12.5290      60.9316       0.0970     -15.0000    -999.2500    -999.2500
   3150.1082    -999.2500    -999.2500    -999.2500      45.8920       2.8900       2.7410       6.7430      36.5010       0.1010     -15.0000    -999.2500    -999.2500
   3150.2605    -999.2500    -999.2500    -999.2500      43.8698       2.8675       2.6550       9.8212      24.4210       0.1080     -15.0000    -999.2500    -999.2500
   3150.4131    -512.0460      -0.2500    -999.2500      41.8600       2.8450       2.5690      12.9050      12.3960       0.1150     -14.8314    -512.0460    -511.0950
   3150.5654    -255.7002      -0.2890    -999.2500      40.7406       2.7945       2.5110      11.0318      10.1320       0.1235     -14.3110    -254.0705    -254.6172
   3150.7178       0.7390      -0.3280    -999.2500      39.6280       2.7440       2.4530       9.1550       7.8780       0.1320     -12.0630       3.9990       1.9540
   3150.8701       2.7935      -0.7274    -999.2500      40.2022       2.7050       2.4320      10.3458       8.1701       0.1255      -6.5569      15.4422       1.9765
   3151.0227       4.8490      -1.1270    -999.2500      40.7730       2.6660       2.4110      11.5390       8.4610       0.1190      -1.2387      26.8910       1.9990
   3151.1750       6.5805      -1.1235    -999.2500      42.0612       2.6520       2.4630      11.3577       9.9050       0.1195       0.4701      54.9159       1.9980
   3151.3274       8.3130      -1.1200    -999.2500      43.3420       2.6380       2.5150      11.1760      11.3430       0.1200       0.4655      82.9580       1.9970
   3151.4797       8.3130      -1.1145    -999.2500      45.7954       2.6120       2.5010      11.8167      13.2143       0.1195       0.4656     242.9897       1.9925
   3151.6321       8.3130      -1.1090    -999.2500      48.2350       2.5860       2.4870      12.4590      15.0780       0.1190       0.4690     403.1400       1.9880
   3151.7847       8.3130      -1.1060    -999.2500      47.6729       2.5240       2.4170      14.3532      17.1957       0.1185       0.4748     364.8531       1.9795
   3151.9370       8.3130      -1.1030    -999.2500      47.1140       2.4620       2.3470      16.2520      19.3050       0.1180       0.4816     326.5330       1.9710
   3152.0894       8.3125      -1.1015    -999.2500      45.0595       2.3985       2.1921      11.3214      35.7418       0.1070       0.4879     249.7386       1.9820
   3152.2417       8.3120      -1.1000    -999.2500      43.0160       2.3350       2.0370       6.3780      52.1160       0.0960       0.4949     172.8680       1.9930
   3152.3943       8.3085      -1.1070    -999.2500      44.0292       2.2930       2.0570       8.1481      34.8913       0.0970       0.5035     124.0083       2.0325
   3152.5466       8.3050      -1.1140    -999.2500      45.0370       2.2510       2.0770       9.9230      17.7300       0.0980       0.5096      75.0940       2.0720
   3152.6990       8.2840      -1.1310    -999.2500      47.2535       2.2715       2.1405       8.8415      23.1677       0.1145       0.5085      52.8943       2.1779
   3152.8513       8.2630      -1.1480    -999.2500      49.4550       2.2920       2.2040       7.7570      28.5860       0.1310       0.5034      30.6670       2.2840
   3153.0039       8.2350      -1.1755    -999.2500      51.3498       2.3725       2.3035       9.1935      50.7129       0.1255       0.4966      31.1312       2.4264
   3153.1562       8.2070      -1.2030    -999.2500      53.2320       2.4530       2.4030      10.6320      72.7640       0.1200       0.4898      31.5960       2.5690
   3153.3086       8.2080      -1.1935    -999.2500      52.9671       2.5755       2.5115      17.4184      96.5058       0.1105       0.4849      33.1383       2.5230
   3153.4609       8.2090      -1.1840    -478.3750      52.7040       2.6980       2.6200      24.2150     120.1690       0.1010       0.4797      34.6830       2.4770
   3153.6133       8.2120      -1.1560    -219.3975      52.4050       2.8110       2.7295      21.4432      97.4248       0.0960       0.4721      32.3534       2.3841
   3153.7659       8.2150      -1.1280      40.0000      52.1080       2.9240       2.8390      18.6670      74.7530       0.0910       0.4661      30.0200       2.2910
   3153.9182       8.2235      -1.1020      41.1270      51.6099       3.0180       2.9330      13.2307      46.4117       0.0895       0.4658      31.1036       2.2096
   3154.0706       8.2320      -1.0760      42.2560      51.1150       3.1120       3.0270       7.7850      18.1570       0.0880       0.4722      32.1890       2.1280
   3154.2229       8.2315      -1.0845      48.4802      49.7423       3.2025       3.1005       7.8225      18.5298       0.0870       0.4870      34.7721       2.0461
   3154.3755       8.2310      -1.0930      54.7160      48.3780       3.2930       3.1740       7.8600      18.9010       0.0860       0.5005      37.3600       1.9640
   3154.5278       8.2320      -1.1040      59.8449      46.7070       3.2760       3.2215       8.3565      15.1021       0.0860       0.5031      35.1774       1.9795
   3154.6802       8.2330      -1.1150      64.9840      45.0460       3.2590       3.2690       8.8540      11.3200       0.0860       0.4977      32.9940       1.9950
   3154.8325       8.2370      -1.0995      64.6748      45.2551       3.1920       3.2230       9.8514      15.4629       0.0860       0.4862      26.3872       2.0585
   3154.9851       8.2410      -1.0840      64.3650      45.4630       3.1250       3.1770      10.8510      19.5880       0.0860       0.4679      19.7770       2.1220
   3155.1375       8.2395      -1.0385      64.4604      45.7207       3.0140       3.0580      12.0651      36.8779       0.0860       0.4411      24.3405       2.2345
   3155.2898       8.2380      -0.9930      64.5560      45.9770       2.9030       2.9390      13.2820      54.0960       0.0860       0.4197      28.9070       2.3470
   3155.4421       8.2325      -0.9950      64.7098      46.0522       2.7491       2.7766      12.0804      74.4705       0.0860       0.4183      40.9469       2.3260
   3155.5945       8.2270      -0.9970      64.8640      46.1270       2.5950       2.6140      10.8760      94.7630       0.0860       0.4269      52.9960       2.3050
   3155.7471       8.2180      -0.9910      64.9444      45.9054       2.4381       2.4281      11.9237     105.2790       0.0860       0.4371      76.4210       2.2800
