#------------------------------------------------------------------------------
#
#   Created by  : [OpenWorks] Log Export Utility (LEXP)
#   Created on  : 2016-05-23 11:50:53
#   Project     : CANT971
#   User        : R5K
#   Interpreter : PEP
#
#------------------------------------------------------------------------------
~VERSION INFORMATION
VERS. 2.0 : CWLS Log ASCII Standard - version 2.0
WRAP.  NO : One line per depth step
~WELL INFORMATION
#MNEMONIC   .UNIT                                           VALUE :DESCRIPTION
#------------------------------------------------------------------------------
STRT        .M                                           494.4622 :START DEPTH
STOP        .M                                          2707.4626 :STOP DEPTH
STEP        .M                                             0.1524 :STEP
NULL        .                                           -999.2500 :NULL VALUE
COMP        .                                   PEMEX EXPL & PROD :COMPANY
WELL        .                                                1042 :WELL
FLD         .                                           CANTARELL :FIELD
LOC         .                                             UNKNOWN :LOCATION
CNTY        .                                      CD. DEL CARMEN :COUNTY
STAT        .                                            CAMPECHE :STATE
CTRY        .                                              MEXICO :COUNTRY
SRVC        .                                             UNKNOWN :SERVICE COMPANY
DATE        .                                             UNKNOWN :LOG DATE
UWI         .                                          3060000495 :UNIQUE WELL ID
XCOORD      .                                       596162.680000 :SURFACE X
YCOORD      .                                      2150604.600000 :SURFACE Y
LAT         .                                           19.448706 :LATITUDE
LON         .                                          -92.083900 :LONGITUDE
ELEV        .M                                            30.0000 :SURFACE ELEV
ELEV_TYPE   .                                                  KB :ELEV TYPE
~CURVE INFORMATION
#MNEMONIC.UNIT        API CODE       : CURVE DESCRIPTION
#------------------------------------------------------------------------------
DEPTH    .M                          : Measured Depth
CALI     .inches      UNKNOWN        : CALI:litodensidad:rC:NONE:v0 (auto-composite)
DT       .us/ft       UNKNOWN        : DT:DT:rC:NONE:v0 (auto-composite)
GR       .API         UNKNOWN        : GR:GR-Load:rC:NONE:v0 (auto-composite)
ILD      .ohmm        UNKNOWN        : ILD:UNKNOWN:rC:NONE:v0 (auto-composite)
LLD      .ohmm        UNKNOWN        : LLD:UNKNOWN:rC:NONE:v0 (auto-composite)
LLS      .ohmm        UNKNOWN        : LLS:UNKNOWN:rC:NONE:v0 (auto-composite)
MSFL     .ohmm        UNKNOWN        : MSFL:UNKNOWN:rC:NONE:v0 (auto-composite)
NPHI     .v/v_decimal UNKNOWN        : NPHI:NPHI:rC:NONE:v0 (auto-composite)
~A     DEPTH         CALI           DT           GR          ILD          LLD          LLS         MSFL         NPHI
# ...
   2345.2078       8.1563    -999.2500      22.2268       0.2000     383.9509     255.1354      42.2792       0.0436
   2345.3604       8.1608    -999.2500      24.7948       0.2000     280.4244     197.2800      34.3202       0.0431
   2345.5127       8.1725    -999.2500      28.7086       0.2000     180.1592     140.8460      31.6193       0.0420
   2345.6650       8.1915    -999.2500      33.9708       0.2000     129.0826     105.8489     108.2261       0.0401
   2345.8174       8.2198    -999.2500      35.1621       0.2000      80.7617      72.6647     176.0900       0.0387
   2345.9700       8.2573    -999.2500      32.2606       0.2000      70.3775      64.4354     123.5954       0.0377
   2346.1223       8.2999    -999.2500      29.5885       0.2000      60.7791      56.9141      72.6652       0.0375
   2346.2747       8.3473    -999.2500      27.1466       0.2000      61.1221      58.3480      41.5219       0.0381
   2346.4270       8.3617    -999.2500      28.9006       0.2000      61.8027      59.8890      14.3971       0.0399
   2346.5793       8.3432    -999.2500      34.8753       0.2000      66.4298      62.6805      34.2437       0.0428
   2346.7319       8.3244    -999.2500      39.9353       0.2000      70.0183      64.4869      51.2361       0.0438
   2346.8843       8.3054    -999.2500      44.0780       0.2000      62.0948      55.3747      36.5910       0.0427
   2347.0366       8.2935    -999.2500      44.9060       0.2000      54.4761      46.5248      22.6340       0.0405
   2347.1890       8.2885    -999.2500      42.3981       0.2000      50.0042      40.3837      15.7825       0.0370
   2347.3416       8.2822    -999.2500      40.1449       0.2000      46.9806      35.5853       9.6275       0.0326
   2347.4939       8.2747    -999.2500      38.1473       0.2000      57.9420      43.7509      10.1981       0.0272
   2347.6462       8.3002    -999.2500      33.6742       0.2000      71.8250      53.4216      11.4787       0.0245
   2347.7986       8.3581    -999.2500      26.7087       0.2000     112.1834      76.7312      19.1936       0.0246
   2347.9509       8.4586    -999.2500      24.7548       0.2000     153.1769     100.6474      25.5183       0.0253
   2348.1035       8.6011    -999.2500      27.8324       0.2000     199.5878     129.7377      19.9839       0.0265
   2348.2559       8.7230    -999.2500      33.0413       0.2000     231.3988     149.2608      14.9710       0.0276
   2348.4082       8.8245    -999.2500      40.3837       0.2000     143.7062      90.4738      14.2269       0.0287
   2348.5605       8.8670    -999.2500      41.0626       0.2000      66.3106      38.3740      13.2733       0.0295
   2348.7131       8.8510    -999.2500      35.0484       0.2000      68.6145      38.0330      10.6971       0.0303
   2348.8655       8.7696    -999.2500      36.5864       0.2000      73.4451      38.8787       9.3834       0.0314
   2349.0178       8.6237    -999.2500      45.6880       0.2000      96.8124      48.4297      17.3315       0.0328
   2349.1702       8.5033    -999.2500      48.0564       0.2000     124.0760      59.9526      23.9872       0.0340
   2349.3228       8.4083    -999.2500      43.6583       0.2000     178.4888      85.2156      21.6382       0.0349
   2349.4751       8.3793    -999.2500      39.9776       0.2000     227.7278     108.4631      19.2807       0.0350
   2349.6274       8.4158    -999.2500      37.0159       0.2000     242.6597     118.3455      16.8670       0.0343
   2349.7798       8.4207    -999.2500      38.5863       0.2000     255.1055     127.1106      18.1231       0.0331
   2349.9321       8.3942    -999.2500      44.7135       0.2000     251.8365     128.8134      42.5763       0.0313
   2350.0847       8.3609    -999.2500      44.2337       0.2000     246.9735     130.1907      62.9456       0.0300
   2350.2371       8.3209    -999.2500      37.1303       0.2000     232.3615     129.5765      58.3388       0.0290
   2350.3894       8.2880    -999.2500      30.7768       0.2000     217.8006     128.7535      52.0045       0.0288
   2350.5417       8.2619    -999.2500      25.1777       0.2000     203.5380     126.7098      35.5714       0.0295
   2350.6943       8.2583    -999.2500      21.0840       0.2000     189.9761     124.8317      20.4146       0.0309
   2350.8467       8.2768    -999.2500      18.5001       0.2000     180.3344     123.8801      12.3983       0.0330
   2350.9990       8.2832    -999.2500      16.8298       0.2000     174.5174     123.9208       5.5061       0.0338
   2351.1514       8.2777    -999.2500      16.0790       0.2000     189.2117     129.2831       4.6412       0.0334
   2351.3040       8.2778    -999.2500      16.4714       0.2000     204.7442     135.2843       4.2233       0.0323
   2351.4563       8.2833    -999.2500      18.0110       0.2000     224.5909     144.5726       6.1060       0.0305
   2351.6086       8.3091    -999.2500      18.5194       0.2000     244.3568     153.1039       8.5418       0.0277
   2351.7610       8.3551    -999.2500      17.9962       0.2000     263.7189     157.8495      13.7432       0.0238
   2351.9133       8.3599    -999.2500      18.7676       0.2000     287.4906     164.6177      19.4296       0.0219
   2352.0659       8.3239    -999.2500      20.8388       0.2000     332.4603     181.1089      27.4473       0.0221
   2352.2183       8.2723    -999.2500      20.8447       0.2000     383.8336     200.1347      32.5694       0.0237
   2352.3706       8.2053    -999.2500      18.7831       0.2000     464.8311     230.8854      24.2955       0.0266
   2352.5229       8.1936    -999.2500      19.1536       0.2000     542.2137     262.6693      17.8538       0.0310
   2352.6755       8.2366    -999.2500      21.9671       0.2000     603.4886     299.0572      19.5765       0.0371
   2352.8279       8.2399    -999.2500      21.3432       0.2000     659.8729     334.3137      21.5164       0.0395
   2352.9802       8.2039    -999.2500      17.2765       0.2000     695.2481     364.7101      24.3891       0.0381
   2353.1326       8.1955    -999.2500      15.8859       0.2000     721.2255     391.1421      25.5744       0.0350
   2353.2852       8.2145    -999.2500      17.1848       0.2000     707.8494     400.9728      19.6936       0.0301
   2353.4375       8.2639    -999.2500      18.1922       0.2000     700.1192     411.9833      17.0138       0.0282
   2353.5898       8.3434    -999.2500      18.9074       0.2000     715.2126     427.7625      27.2742       0.0293
   2353.7422       8.3722    -999.2500      19.1545       0.2000     748.5297     453.5353      35.3603       0.0307
   2353.8945       8.3507    -999.2500      18.9309       0.2000     853.0168     518.3364      34.9547       0.0324
   2354.0471       8.3340    -999.2500      18.7002       0.2000     970.4061     589.6837      59.5230       0.0318
   2354.1995       8.3220    -999.2500      18.4623       0.2000    1136.5071     685.7454     178.3800       0.0288
   2354.3518       8.3145    -999.2500      17.5386       0.2000    1283.7452     778.5595     325.1712       0.0277
   2354.5042       8.3115    -999.2500      15.9250       0.2000    1362.0908     859.5119     573.9870       0.0284
   2354.6567       8.3168    -999.2500      15.6013       0.2000    1417.0042     925.3129     685.3364       0.0293
   2354.8091       8.3303    -999.2500      16.5714       0.2000    1389.0767     937.5491     310.6974       0.0302
   2354.9614       8.3458    -999.2500      17.4219       0.2000    1360.7350     942.1997      20.7426       0.0288
   2355.1138       8.3633    -999.2500      18.1522       0.2000    1330.9625     920.6375      23.4275       0.0253
   2355.2664       8.3748    -999.2500      20.0993       0.2000    1280.5275     883.3517      26.0165       0.0243
   2355.4187       8.3803    -999.2500      23.2674       0.2000    1160.9094     793.4199      28.2843       0.0259
   2355.5710       8.3604    -999.2500      23.8168       0.2000    1035.5248     705.0044      31.3555       0.0272
