#------------------------------------------------------------------------------
#
#   Created by  : [OpenWorks] Log Export Utility (LEXP)
#   Created on  : 2016-05-23 11:51:27
#   Project     : CANT971
#   User        : R5K
#   Interpreter : PEP
#
#------------------------------------------------------------------------------
~VERSION INFORMATION
VERS. 2.0 : CWLS Log ASCII Standard - version 2.0
WRAP.  NO : One line per depth step
~WELL INFORMATION
#MNEMONIC   .UNIT                                           VALUE :DESCRIPTION
#------------------------------------------------------------------------------
STRT        .M                                           294.1315 :START DEPTH
STOP        .M                                          1758.8479 :STOP DEPTH
STEP        .M                                             0.1524 :STEP
NULL        .                                           -999.2500 :NULL VALUE
COMP        .                                   PEMEX EXPL & PROD :COMPANY
WELL        .                                                1084 :WELL
FLD         .                                           CANTARELL :FIELD
LOC         .                                             UNKNOWN :LOCATION
CNTY        .                                      CD. DEL CARMEN :COUNTY
STAT        .                                            CAMPECHE :STATE
CTRY        .                                              MEXICO :COUNTRY
SRVC        .                                             UNKNOWN :SERVICE COMPANY
DATE        .                                             UNKNOWN :LOG DATE
UWI         .                                          3060000213 :UNIQUE WELL ID
XCOORD      .                                       596992.320000 :SURFACE X
YCOORD      .                                      2148289.820000 :SURFACE Y
LAT         .                                           19.427749 :LATITUDE
LON         .                                          -92.076116 :LONGITUDE
ELEV        .M                                            27.5000 :SURFACE ELEV
ELEV_TYPE   .                                                  KB :ELEV TYPE
~CURVE INFORMATION
#MNEMONIC.UNIT        API CODE       : CURVE DESCRIPTION
#------------------------------------------------------------------------------
DEPTH    .M                          : Measured Depth
CALI     .in          UNKNOWN        : CALI:registros:rC:NONE:v0 (auto-composite)
DRHO     .g/cm3       UNKNOWN        : DRHO:registros:rC:NONE:v0 (auto-composite)
DT       .us/ft       UNKNOWN        : DT:registros:rC:NONE:v0 (auto-composite)
GR       .api         UNKNOWN        : GR:registros:rC:NONE:v0 (auto-composite)
ILD      .ohmm        UNKNOWN        : ILD:registros:rC:NONE:v0 (auto-composite)
NPHI     .v/v_decimal UNKNOWN        : NPHI:registros:rC:NONE:v0 (auto-composite)
RHOB     .g/cm3       UNKNOWN        : RHOB:registros:rC:NONE:v0 (auto-composite)
~A     DEPTH         CALI         DRHO           DT           GR          ILD         NPHI         RHOB
# ...
   1080.3632    -999.2500    -999.2500    -999.2500    -999.2500       3.0550       0.5301    -999.2500
   1080.5155    -999.2500    -999.2500    -999.2500    -999.2500       3.0700       0.5296    -999.2500
   1080.6678    -999.2500    -999.2500    -999.2500    -999.2500       3.0565       0.5330    -999.2500
   1080.8203    -999.2500    -999.2500    -999.2500    -999.2500       3.0430       0.5364    -999.2500
   1080.9727    -999.2500    -999.2500    -999.2500    -999.2500       2.9636       0.5361    -999.2500
   1081.1251    -999.2500    -999.2500    -999.2500    -999.2500       2.8840       0.5319    -999.2500
   1081.2775    -999.2500    -999.2500    -999.2500    -999.2500       2.7536       0.5222    -999.2500
   1081.4299    -999.2500    -999.2500    -999.2500    -999.2500       2.6230       0.5133    -999.2500
   1081.5823    -999.2500    -999.2500    -999.2500    -999.2500       2.5561       0.5120    -999.2500
   1081.7347    -999.2500    -999.2500    -999.2500    -999.2500       2.4890       0.5151    -999.2500
   1081.8871    -999.2500    -999.2500    -999.2500    -999.2500       2.4645       0.5213    -999.2500
   1082.0396    -999.2500    -999.2500    -999.2500    -999.2500       2.4400       0.5297    -999.2500
   1082.1919    -999.2500    -999.2500    -999.2500    -999.2500       2.4450       0.5400    -999.2500
   1082.3444    -999.2500    -999.2500    -999.2500    -999.2500       2.4500       0.5504    -999.2500
   1082.4967    -999.2500    -999.2500    -999.2500    -999.2500       2.4475       0.5594    -999.2500
   1082.6490    -999.2500    -999.2500    -999.2500    -999.2500       2.4450       0.5667    -999.2500
   1082.8015    -999.2500    -999.2500    -999.2500    -999.2500       2.4335       0.5713    -999.2500
   1082.9539    -999.2500    -999.2500    -999.2500    -999.2500       2.4220       0.5764    -999.2500
   1083.1063    -999.2500    -999.2500    -999.2500    -999.2500       2.3920       0.5854    -999.2500
   1083.2587    -999.2500    -999.2500    -999.2500    -999.2500       2.3620       0.5963    -999.2500
   1083.4111    -999.2500    -999.2500    -999.2500    -999.2500       2.2985       0.6080    -999.2500
   1083.5635    -999.2500    -999.2500    -999.2500    -999.2500       2.2350       0.6206    -999.2500
   1083.7159    -999.2500    -999.2500    -999.2500    -999.2500       2.1960       0.6348    -999.2500
   1083.8683    -999.2500    -999.2500    -999.2500    -999.2500       2.1570       0.6463    -999.2500
   1084.0208    -999.2500    -999.2500    -999.2500    -999.2500       2.1330       0.6495    -999.2500
   1084.1731    -999.2500    -999.2500    -999.2500    -999.2500       2.1090       0.6479    -999.2500
   1084.3254    -999.2500    -999.2500    -999.2500    -999.2500       2.0930       0.6426    -999.2500
   1084.4779    -999.2500       0.2500    -999.2500    -999.2500       2.0770       0.6242    -999.2500
   1084.6302    -999.2500       0.2325    -999.2500    -999.2500       2.0720       0.5768    -999.2500
   1084.7827    -731.7340       0.2150    -999.2500    -999.2500       2.0670       0.5313    -999.2500
   1084.9351    -365.3869       0.1075    -999.2500    -999.2500       2.0610       0.5200    -999.2500
   1085.0875       1.6640       0.0000    -999.2500    -999.2500       2.0550       0.5272    -999.2500
   1085.2399       4.8932       0.0000    -999.2500    -999.2500       2.0450       0.5459    -999.2500
   1085.3923       8.1290       0.0000    -999.2500    -999.2500       2.0350       0.5637    -999.2500
   1085.5447      10.4819       0.0000    -999.2500    -999.2500       2.0260       0.5671    -999.2500
   1085.6971      12.8400       0.0000    -999.2500    -741.5100       2.0170       0.5620    -999.2500
   1085.8495      12.8400       0.0000    -999.2500    -368.4134       2.0120       0.5497    -999.2500
   1086.0020      12.8400       0.0000    -999.2500       3.7480       2.0070       0.5380    -733.8670
   1086.1543      12.8400       0.0000    -999.2500      10.9551       2.0010       0.5349    -366.0592
   1086.3066      12.8400       0.0000    -999.2500      18.1450       1.9950       0.5349       2.0270
   1086.4591      12.8415       0.0000    -999.2500      24.1813       1.9850       0.5340       2.2884
   1086.6115      12.8430       0.0000    -999.2500      30.2040       1.9750       0.5333       2.5500
   1086.7639      12.8465       0.0000    -999.2500      31.2276       1.9625       0.5339       2.5450
   1086.9163      12.8500       0.0000    -999.2500      32.2490       1.9500       0.5369       2.5400
   1087.0687      12.8485       0.0000    -999.2500      34.5003       1.9310       0.5450       2.5400
   1087.2211      12.8470       0.0000    -999.2500      36.7470       1.9120       0.5522       2.5400
   1087.3735      12.8285       0.0000    -999.2500      40.6737       1.8945       0.5522       2.5400
   1087.5259      12.8100       0.0000    -999.2500      44.5930       1.8770       0.5499       2.5400
   1087.6783      12.8115       0.0000    -999.2500      46.8544       1.8505       0.5495       2.5400
   1087.8307      12.8130       0.0000    -999.2500      49.1100       1.8240       0.5508       2.5400
   1087.9832      12.8165       0.0000    -999.2500      48.9973       1.7970       0.5545       2.5400
   1088.1355      12.8200       0.0000    -999.2500      48.8850       1.7700       0.5614       2.5400
   1088.2878      12.8200      -0.0015    -999.2500      48.3932       1.7500       0.5739       2.5400
   1088.4403      12.8200      -0.0030    -999.2500      47.9030       1.7300       0.5820       2.5400
   1088.5927      12.8230      -0.0120    -999.2500      47.3882       1.7325       0.5730       2.5370
   1088.7451      12.8260      -0.0210    -999.2500      46.8750       1.7350       0.5621       2.5340
   1088.8975      12.8355      -0.0805    -999.2500      46.6522       1.7465       0.5638       2.5070
   1089.0499      12.8450      -0.1400    -999.2500      46.4300       1.7580       0.5689       2.4800
   1089.2023      12.8540      -0.1385    -999.2500      46.4696       1.7715       0.5702       2.4825
   1089.3547      12.8630      -0.1370    -999.2500      46.5090       1.7850       0.5699       2.4850
   1089.5071      12.8665      -0.1320    -999.2500      46.9050       1.7965       0.5688       2.4965
   1089.6595      12.8700      -0.1270    -999.2500      47.3000       1.8080       0.5666       2.5080
   1089.8119      12.8700      -0.1220    -999.2500      47.1783       1.8215       0.5620       2.5240
   1089.9644      12.8700      -0.1170    -999.2500      47.0570       1.8350       0.5559       2.5400
   1090.1167      12.8700      -0.1135    -999.2500      46.2826       1.8450       0.5478       2.5360
   1090.2690      12.8700      -0.1100    -999.2500      45.5100       1.8550       0.5410       2.5320
   1090.4215      12.8750      -0.1050    -999.2500      45.7097       1.8650       0.5395       2.5195
   1090.5739      12.8800      -0.1000    -999.2500      45.9090       1.8750       0.5402       2.5070
   1090.7263      12.8775      -0.1015    -999.2500      47.6163       1.8840       0.5415       2.4980
   1090.8787      12.8750      -0.1030    -999.2500      49.3200       1.8930       0.5422       2.4890
   1091.0311      12.8575      -0.1080    -999.2500      49.2795       1.9020       0.5404       2.4720
   1091.1835      12.8400      -0.1130    -999.2500      49.2390       1.9110       0.5365       2.4550
   1091.3359      12.8400      -0.1215    -999.2500      48.9733       1.9280       0.5294       2.4275
   1091.4883      12.8400      -0.1300    -999.2500      48.7080       1.9450       0.5229       2.4000
   1091.6407      12.8415      -0.1285    -999.2500      48.1490       1.9590       0.5212       2.4000
   1091.7931      12.8430      -0.1270    -999.2500      47.5910       1.9730       0.5213       2.4000
   1091.9456      12.8465      -0.1235    -999.2500      47.2601       1.9965       0.5217       2.4050
