#------------------------------------------------------------------------------
#
#   Created by  : [OpenWorks] Log Export Utility (LEXP)
#   Created on  : 2016-05-23 11:55:56
#   Project     : CANT971
#   User        : R5K
#   Interpreter : PEP
#
#------------------------------------------------------------------------------
~VERSION INFORMATION
VERS. 2.0 : CWLS Log ASCII Standard - version 2.0
WRAP.  NO : One line per depth step
~WELL INFORMATION
#MNEMONIC   .UNIT                                           VALUE :DESCRIPTION
#------------------------------------------------------------------------------
STRT        .M                                          3767.4790 :START DEPTH
STOP        .M                                          5548.2729 :STOP DEPTH
STEP        .M                                             0.1524 :STEP
NULL        .                                           -999.2500 :NULL VALUE
COMP        .                                             UNKNOWN :COMPANY
WELL        .                                            418D-ST2 :WELL
FLD         .                                             UNKNOWN :FIELD
LOC         .                                             UNKNOWN :LOCATION
CNTY        .                                             UNKNOWN :COUNTY
STAT        .                                             UNKNOWN :STATE
CTRY        .                                             UNKNOWN :COUNTRY
SRVC        .                                             UNKNOWN :SERVICE COMPANY
DATE        .                                             UNKNOWN :LOG DATE
UWI         .                                            418D-ST2 :UNIQUE WELL ID
XCOORD      .                                       597130.010000 :SURFACE X
YCOORD      .                                      2144879.410000 :SURFACE Y
LAT         .                                           19.396924 :LATITUDE
LON         .                                          -92.074978 :LONGITUDE
ELEV        .M                                             0.0000 :SURFACE ELEV
ELEV_TYPE   .                                                  NA :ELEV TYPE
~CURVE INFORMATION
#MNEMONIC.UNIT        API CODE       : CURVE DESCRIPTION
#------------------------------------------------------------------------------
DEPTH    .M                          : Measured Depth
CALI     .inches      UNKNOWN        : CALI:PETROWORKS:rC:NONE:v1 
CGR      .API         UNKNOWN        : CGR:PETROWORKS:rC:NONE:v2 
DRHO     .g/cm3       UNKNOWN        : DRHO:PETROWORKS:rC:NONE:v1 
DT       .us/ft       UNKNOWN        : DT:PETROWORKS:rC:NONE:v2 
GR       .API         UNKNOWN        : GR:PETROWORKS:rC:NONE:v2 
ILD      .ohm.m       UNKNOWN        : ILD:PETROWORKS:rC:NONE:v2 
ILM      .ohm.m       UNKNOWN        : ILM:PETROWORKS:rC:NONE:v2 
NPHI     .v/v_decimal UNKNOWN        : NPHI:PETROWORKS:rC:NONE:v3 
PEF      .b/elec      UNKNOWN        : PEF:PETROWORKS:rC:NONE:v1 
POTA     .wtpercent   UNKNOWN        : POTA:PETROWORKS:rC:NONE:v2 
RHOB     .UNKNOWN     UNKNOWN        : RHOB:PETROWORKS:rC:NONE:v1 
THOR     .ppm         UNKNOWN        : THOR:PETROWORKS:rC:NONE:v2 
URAN     .ppm         UNKNOWN        : URAN:PETROWORKS:rC:NONE:v2 
~A     DEPTH         CALI          CGR         DRHO           DT           GR          ILD          ILM         NPHI          PEF         POTA         RHOB         THOR         URAN
# ...
   4733.0854       6.6478      13.9902       0.0442      46.7578      20.6699   20000.0000   20000.0000       0.0061       4.2355       0.0036       2.8326       2.5899       0.8443
   4733.2378       6.6388      14.4119       0.0466      46.7744      20.4413   20000.0000   20000.0000       0.0058       4.2323       0.0038       2.8427       2.6684       0.7870
   4733.3901       6.6888      14.7570       0.0457      46.7917      20.2143   20000.0000   20000.0000       0.0053       4.2096       0.0040       2.8436       2.6356       0.7307
   4733.5425       6.7591      15.0715       0.0428      46.8243      20.0888   20000.0000   20000.0000       0.0049       4.1704       0.0044       2.8422       2.5636       0.6801
   4733.6948       6.7524      14.9286       0.0408      46.8319      20.1884   20000.0000   20000.0000       0.0049       4.1537       0.0044       2.8409       2.5097       0.6985
   4733.8472       6.7138      14.4844       0.0410      46.7824      20.3151   20000.0000   20000.0000       0.0049       4.1642       0.0042       2.8404       2.4649       0.7540
   4734.0000       6.7006      14.1482       0.0432      46.5075      20.4126   20000.0000   20000.0000       0.0048       4.2528       0.0041       2.8432       2.4155       0.8006
   4734.1523       6.7338      13.9431       0.0464      46.2594      20.4565   20000.0000   20000.0000       0.0047       4.3690       0.0040       2.8461       2.3625       0.8319
   4734.3047       6.7376      13.5383       0.0481      46.3527      20.3795   20000.0000   20000.0000       0.0049       4.4329       0.0039       2.8457       2.2919       0.8701
   4734.4570       6.6924      12.7194       0.0521      46.5940      20.1984   20000.0000   20000.0000       0.0056       4.4872       0.0036       2.8490       2.2155       0.9369
   4734.6094       6.6936      11.8077       0.0555      46.7414      19.9266   20000.0000   20000.0000       0.0058       4.5065       0.0032       2.8520       2.1458       1.0105
   4734.7617       6.7189      11.1194       0.0550      46.6740      19.7238   20000.0000   20000.0000       0.0057       4.4910       0.0029       2.8497       2.0615       1.0720
   4734.9141       6.7265      10.8664       0.0562      46.5621      19.6977   20000.0000   20000.0000       0.0054       4.4341       0.0028       2.8516       2.0036       1.1028
   4735.0664       6.7425      11.1746       0.0582      46.6087      19.7562   20000.0000   20000.0000       0.0053       4.3691       0.0030       2.8571       2.0397       1.0779
   4735.2192       6.7585      11.4508       0.0583      46.7145      19.8210   20000.0000   20000.0000       0.0055       4.3606       0.0030       2.8584       2.0878       1.0527
   4735.3716       6.7327      11.3639       0.0583      46.7931      19.9646   20000.0000   20000.0000       0.0063       4.3729       0.0031       2.8573       2.0286       1.0806
   4735.5239       6.7098      11.3505       0.0585      46.9742      20.1511   20000.0000   20000.0000       0.0069       4.3838       0.0032       2.8563       1.9542       1.1095
   4735.6763       6.7258      11.9000       0.0540      47.1472      20.4142   20000.0000   20000.0000       0.0076       4.3617       0.0034       2.8456       2.0264       1.0821
   4735.8286       6.7615      12.3808       0.0491      47.3078      20.6825   20000.0000   20000.0000       0.0085       4.3102       0.0035       2.8359       2.1714       1.0594
   4735.9810       6.7939      12.9833       0.0473      47.4666      20.8557   20000.0000   20000.0000       0.0096       4.2489       0.0034       2.8362       2.4195       1.0120
   4736.1333       6.8162      13.6075       0.0484      47.4247      20.9209   20000.0000   20000.0000       0.0104       4.2141       0.0033       2.8421       2.6306       0.9489
   4736.2856       6.8479      14.3423       0.0508      47.0824      21.0912   20000.0000   20000.0000       0.0110       4.3501       0.0035       2.8487       2.7842       0.8877
   4736.4380       6.8552      14.8748       0.0496      46.9587      21.3066   20000.0000   20000.0000       0.0115       4.5595       0.0036       2.8479       2.8802       0.8553
   4736.5908       6.8244      15.2786       0.0403      48.2029      21.6328   20000.0000   20000.0000       0.0129       5.0030       0.0037       2.8288       2.9781       0.8392
   4736.7432       6.8275      15.7973       0.0287      49.7954      21.8976   20000.0000   20000.0000       0.0154       5.5562       0.0039       2.8072       3.0634       0.8033
   4736.8955       6.8398      15.9613       0.0181      50.1195      21.9976   20000.0000   20000.0000       0.0184       5.8587       0.0040       2.7888       3.0194       0.8001
   4737.0479       6.8395      15.9010       0.0106      49.2886      22.1442   20000.0000   20000.0000       0.0207       5.9571       0.0041       2.7737       2.9441       0.8308
   4737.2002       6.8438      15.6305       0.0107      47.9783      22.3666   20000.0000   20000.0000       0.0214       5.7451       0.0042       2.7634       2.8515       0.8913
   4737.3525       6.8310      14.9292       0.0166      47.1873      22.5791   20000.0000   20000.0000       0.0203       5.2657       0.0041       2.7564       2.6733       1.0011
   4737.5049       6.8218      14.4720       0.0245      46.7538      23.1415   20000.0000   20000.0000       0.0183       4.9437       0.0041       2.7618       2.5138       1.1352
   4737.6572       6.8352      14.5463       0.0350      46.5801      23.8935   20000.0000   20000.0000       0.0161       4.6199       0.0043       2.7803       2.4276       1.2357
   4737.8096       6.8630      13.9366       0.0500      46.7752      27.5941   20000.0000   20000.0000       0.0143       4.4771       0.0042       2.8087       2.2891       1.7537
   4737.9624       6.8544      11.6286       0.0628      46.9512      31.9640   20000.0000   20000.0000       0.0128       4.5845       0.0030       2.8379       2.1427       2.5279
   4738.1147       6.8574       9.7701       0.0628      47.3791      39.4007   20000.0000   20000.0000       0.0123       4.6014       0.0021       2.8450       2.0528       3.6046
   4738.2671       6.8743       9.1776       0.0576      47.8756      51.1986   20000.0000   20000.0000       0.0135       4.5483       0.0023       2.8399       1.7226       5.0338
   4738.4194       6.8962       9.1372       0.0553      48.6839      57.2784   20000.0000   20000.0000       0.0156       4.5706       0.0028       2.8350       1.4683       5.7335
   4738.5718       6.9155       9.3497       0.0502      49.5950      58.6214   20000.0000   20000.0000       0.0178       4.5862       0.0029       2.8177       1.4781       5.8618
   4738.7241       6.9280      11.3337       0.0465      49.9304      53.3968   20000.0000   20000.0000       0.0187       4.5683       0.0039       2.8038       1.6224       5.0697
   4738.8765       6.9356      16.4439       0.0456      49.7267      44.2775   20000.0000   20000.0000       0.0186       4.5235       0.0060       2.8010       2.1225       3.4872
   4739.0288       6.9059      19.4626       0.0426      49.3953      40.9488   20000.0000   20000.0000       0.0180       4.5019       0.0072       2.7955       2.4647       2.7741
   4739.1816       6.8502      19.1540       0.0446      49.7509      41.9404   20000.0000   20000.0000       0.0166       4.4929       0.0069       2.7987       2.5175       2.9118
   4739.3340       6.8295      18.5574       0.0500      50.2513      42.7128   20000.0000   20000.0000       0.0156       4.4609       0.0066       2.8084       2.5278       3.0586
   4739.4863       6.8524      17.1411       0.0499      49.3122      42.0425   20000.0000   20000.0000       0.0157       4.7732       0.0058       2.8059       2.4794       3.1141
   4739.6387       6.8802      15.8403       0.0437      48.1941      40.9095   20000.0000   20000.0000       0.0161       5.1814       0.0050       2.7945       2.4847       3.0856
