#------------------------------------------------------------------------------
#
#   Created by  : [OpenWorks] Log Export Utility (LEXP)
#   Created on  : 2015-10-01 09:50:16
#   Project     : CANT971
#   User        : R5K
#   Interpreter : PEP
#
#------------------------------------------------------------------------------
~VERSION INFORMATION
VERS. 2.0 : CWLS Log ASCII Standard - version 2.0
WRAP.  NO : One line per depth step
~WELL INFORMATION
#MNEMONIC   .UNIT                                           VALUE :DESCRIPTION
#------------------------------------------------------------------------------
STRT        .M                                           352.7300 :START DEPTH
STOP        .M                                          2346.8840 :STOP DEPTH
STEP        .M                                             0.1524 :STEP
NULL        .                                           -999.2500 :NULL VALUE
COMP        .                                   PEMEX EXPL & PROD :COMPANY
WELL        .                                        CANTARELL-64 :WELL
FLD         .                                           CANTARELL :FIELD
LOC         .                                             UNKNOWN :LOCATION
CNTY        .                                      CD. DEL CARMEN :COUNTY
STAT        .                                            CAMPECHE :STATE
CTRY        .                                              MEXICO :COUNTRY
SRVC        .                                             UNKNOWN :SERVICE COMPANY
DATE        .                                             UNKNOWN :LOG DATE
UWI         .                                          3060000172 :UNIQUE WELL ID
XCOORD      .                                       599695.280000 :SURFACE X
YCOORD      .                                      2143036.290000 :SURFACE Y
LAT         .                                           19.380142 :LATITUDE
LON         .                                          -92.050647 :LONGITUDE
ELEV        .M                                            26.7400 :SURFACE ELEV
ELEV_TYPE   .                                                  KB :ELEV TYPE
~CURVE INFORMATION
#MNEMONIC.UNIT        API CODE       : CURVE DESCRIPTION
#------------------------------------------------------------------------------
DEPTH    .M                          : Measured Depth
CALI     .inches      UNKNOWN        : CALI:UNKNOWN:rC:NONE:v0 (auto-composite)
DRHO     .g/cm3       UNKNOWN        : DRHO:UNKNOWN:rC:NONE:v0 (auto-composite)
DT       .us/ft       UNKNOWN        : DT:DT:rC:NONE:v0 (auto-composite)
GR       .API         UNKNOWN        : GR:GR-Load:rC:NONE:v0 (auto-composite)
ILD      .ohm.m       UNKNOWN        : ILD:ILD-Load:rC:NONE:v0 (auto-composite)
LLD      .ohm.m       UNKNOWN        : LLD:UNKNOWN:rC:NONE:v0 (auto-composite)
LLS      .ohm.m       UNKNOWN        : LLS:UNKNOWN:rC:NONE:v0 (auto-composite)
MSFL     .ohm.m       UNKNOWN        : MSFL:UNKNOWN:rC:NONE:v0 (auto-composite)
NPHI     .v/v_decimal UNKNOWN        : NPHI:NPHI:rC:NONE:v0 (auto-composite)
PEF      .b/elec      UNKNOWN        : PEF:UNKNOWN:rC:NONE:v0 (auto-composite)
RHOB     .g/cm3       UNKNOWN        : RHOB:RHOB-Load:rC:NONE:v0 (auto-composite)
~A     DEPTH        CALI         DRHO           DT           GR          ILD          LLD          LLS         MSFL         NPHI          PEF         RHOB
# ...
   2127.8853      6.6320       0.0712      76.7654      41.3643       0.0000     300.4549      55.6562       2.2150      10.0222       5.1362       2.4660 
   2128.0376      6.6355       0.0481      71.0638      44.0868       0.0000     184.6870      42.3859       1.9418      13.6100       5.1944       2.3245 
   2128.1899      6.6849       0.0371      59.1443      45.0433       0.0000      98.2797      32.9175       1.7454      18.0164       5.1524       2.2583 
   2128.3425      6.8403       0.0542      41.0976      44.2596       0.0000      79.7879      32.2431       1.7268      23.2241       4.8786       2.2668 
   2128.4949      7.0252       0.0638      33.1815      41.9556       0.0000      67.5838      31.6624       1.6927      27.1904       4.5762       2.2888 
   2128.6472      7.2764       0.0568      35.2828      38.1482       0.0000      69.5483      31.2929       1.6235      29.9369       4.2092       2.3243 
   2128.7996      7.4322       0.0453      40.3695      33.6105       0.0000      72.5444      30.6245       2.7871      31.1104       3.9244       2.3626 
   2128.9521      7.3786       0.0237      48.3996      28.3527       0.0000      77.8060      29.2998       6.6573      30.7431       3.8201       2.4036 
   2129.1045      7.1617       0.0076      57.1801      23.7896       0.0000      84.5087      28.1901      14.5475      29.7445       3.7428       2.4423 
   2129.2568      6.5956       0.0031      66.7031      19.9137       0.0000      94.2955      27.5403      31.0410      28.1254       3.7232       2.4788 
   2129.4092      6.2002      -0.0023      70.7677      18.6054       0.0000     114.0699      30.8887      37.3649      26.1231       3.6870       2.5085 
   2129.5615      6.1636      -0.0093      69.4482      19.8299       0.0000     154.8354      42.6403      22.3152      23.7451       3.6158       2.5316 
   2129.7141      6.1277      -0.0122      64.7272      19.8073       0.0000     223.5283      58.2385      21.9840      20.7450       3.5876       2.5525 
   2129.8665      6.0931      -0.0067      56.6606      18.5503       0.0000     349.4524      81.7196      51.8152      17.1332       3.6472       2.5715 
   2130.0188      6.0703      -0.0017      53.4158      17.9989       0.0000     455.9594     102.3697      92.5939      13.9734       3.6992       2.5933 
   2130.1711      6.0713       0.0023      54.9293      18.1439       0.0000     523.6595     117.3618     155.2521      11.2569       3.7358       2.6178 
   2130.3237      6.0718       0.0067      55.4500      18.6510       0.0000     588.1802     130.3430     194.2829       9.2539       3.7343       2.6488 
   2130.4761      6.0713       0.0117      54.9937      19.5168       0.0000     646.5024     139.4041     187.2509       7.9485       3.6586       2.6863 
   2130.6284      6.0715       0.0152      53.5917      20.7158       0.0000     754.1957     160.9050     170.4797       6.7157       3.5914       2.7090 
   2130.7808      6.0730       0.0157      51.2558      22.2436       0.0000     955.7975     206.0676     135.1837       5.5543       3.5403       2.7170 
   2130.9333      6.0740       0.0148      47.1955      23.4228       0.0000    1234.2208     268.9416     111.5152       4.9830       3.4811       2.7258 
   2131.0857      6.0740       0.0113      41.4375      24.2566       0.0000    1656.2443     364.9231     109.5818       4.9890       3.4069       2.7353 
   2131.2380      6.0740       0.0095      39.0158      24.9007       0.0000    2112.0554     456.9745     105.7969       5.0210       3.3217       2.7382 
   2131.3904      6.0740       0.0110      39.8902      25.3574       0.0000    2629.5073     541.8558      98.6340       5.0785       3.2164       2.7347 
   2131.5427      6.0740       0.0134      42.9836      25.7686       0.0000    2840.6465     592.9917     103.2964       5.1926       3.1622       2.7272 
   2131.6953      6.0740       0.0175      48.2628      26.1349       0.0000    2506.3042     584.0339     129.0172       5.3621       3.1988       2.7157 
   2131.8477      6.0740       0.0193      50.8415      26.6979       0.0000    2224.7754     555.9080     153.1633       5.5861       3.2533       2.7072 
   2132.0000      6.0740       0.0173      50.7509      27.4551       0.0000    2035.0670     494.4572     174.5717       5.8637       3.3390       2.7017 
   2132.1523      6.0740       0.0132      50.7531      27.6983       0.0000    1904.2963     456.0501     278.1642       6.2987       3.4029       2.6952 
   2132.3049      6.0740       0.0057      50.8465      27.4350       0.0000    1873.5791     456.7626     521.2740       6.8880       3.4294       2.6877 
   2132.4573      6.0731       0.0021      50.8525      26.8606       0.0000    2266.2183     486.8425     582.5774       7.1646       3.4419       2.6755 
   2132.6096      6.0706       0.0051      50.7720      25.9788       0.0000    3360.7273     565.6097     342.4691       7.1341       3.4308       2.6585 
   2132.7620      6.0659       0.0076      47.4083      25.3027       0.0000    3639.7075     589.4844     185.3127       7.0377       3.3948       2.6518 
   2132.9146      6.0579       0.0091      40.8077      24.8294       0.0000    2589.1238     523.8669     163.3934       6.8768       3.3181       2.6553 
   2133.0669      6.0368       0.0106      40.8456      24.3657       0.0000    1801.1481     474.3892     152.8673       6.6835       3.2526       2.6625 
   2133.2192      5.9946       0.0121      47.4516      23.9115       0.0000    1431.3765     450.6138     160.4849       6.4584       3.2050       2.6735 
   2133.3716      5.9874       0.0122      50.6743      23.9429       0.0000    1124.5243     436.8612     181.8987       6.3149       3.1748       2.6828 
   2133.5239      6.0346       0.0102      50.5598      24.4532       0.0000     915.5599     438.7018     224.7760       6.2515       3.1718       2.6903 
   2133.6765      6.0652       0.0098      50.2833      25.7861       0.0000     741.9160     418.1662     253.2454       6.1605       3.1825       2.7018 
   2133.8289      6.0707       0.0118      49.8475      27.9334       0.0000     621.9609     363.6175     259.8136       6.0424       3.2141       2.7173 
   2133.9812      6.0740       0.0130      49.3584      28.9044       0.0000     573.4451     329.7773     223.5723       5.8807       3.2923       2.7253 
   2134.1335      6.0740       0.0130      48.8167      28.7145       0.0000     631.0406     326.6962     123.7446       5.6761       3.4396       2.7258 
   2134.2861      6.0740       0.0132      48.6679      28.3385       0.0000     953.1773     400.9214     111.7350       5.5179       3.4836       2.7263 
   2134.4385      6.0740       0.0137      48.9058      27.7783       0.0000    1661.8678     588.1083     228.0474       5.4049       3.3768       2.7268 
   2134.5908      6.0736       0.0134      49.3683      26.6762       0.0000    2433.8667     811.2966     421.2108       5.3758       3.2814       2.7260 
   2134.7432      6.0726       0.0119      50.0525      25.0389       0.0000    3296.2759    1085.8983     724.1245       5.4288       3.2022       2.7240 
   2134.8958      6.0534       0.0093      50.4696      24.3644       0.0000    3845.1118    1234.8086     877.7776       5.5798       3.2046       2.7195 
   2135.0481      6.0088       0.0053      50.6235      24.6440       0.0000    3956.2493    1208.2736     823.0870       5.8267       3.3209       2.7125 
   2135.2004      5.9754       0.0028      50.6836      25.4143       0.0000    3766.6428    1127.9098     880.6246       6.1085       3.3498       2.7070 
   2135.3528      5.9573       0.0023      50.6511      26.6693       0.0000    3166.6907     974.1004    1091.2900       6.4246       3.2596       2.7030 
   2135.5051      5.9446       0.0022      49.6193      28.0516       0.0000    2823.5342     868.1674    1105.0356       6.5499       3.1852       2.6985 
   2135.6577      5.9391       0.0027      47.6032      29.5595       0.0000    2822.9026     826.0938     856.1217       6.4885       3.1321       2.6935 
