#------------------------------------------------------------------------------
#
#   Created by  : [OpenWorks] Log Export Utility (LEXP)
#   Created on  : 2016-05-11 12:45:47
#   Project     : CANT971
#   User        : R5K
#   Interpreter : PEP
#
#------------------------------------------------------------------------------
~VERSION INFORMATION
VERS. 2.0 : CWLS Log ASCII Standard - version 2.0
WRAP.  NO : One line per depth step
~WELL INFORMATION
#MNEMONIC   .UNIT                                           VALUE :DESCRIPTION
#------------------------------------------------------------------------------
STRT        .M                                           801.4664 :START DEPTH
STOP        .M                                          3402.1724 :STOP DEPTH
STEP        .M                                             0.1524 :STEP
NULL        .                                           -999.2500 :NULL VALUE
COMP        .                                   PEMEX EXPL & PROD :COMPANY
WELL        .                                        CANTARELL-85 :WELL
FLD         .                                           CANTARELL :FIELD
LOC         .                                             UNKNOWN :LOCATION
CNTY        .                                      CD. DEL CARMEN :COUNTY
STAT        .                                            CAMPECHE :STATE
CTRY        .                                              MEXICO :COUNTRY
SRVC        .                                             UNKNOWN :SERVICE COMPANY
DATE        .                                             UNKNOWN :LOG DATE
UWI         .                                          3060000185 :UNIQUE WELL ID
XCOORD      .                                       604541.690000 :SURFACE X
YCOORD      .                                      2141649.620000 :SURFACE Y
LAT         .                                           19.367365 :LATITUDE
LON         .                                          -92.004578 :LONGITUDE
ELEV        .M                                            30.0000 :SURFACE ELEV
ELEV_TYPE   .                                                  KB :ELEV TYPE
~CURVE INFORMATION
#MNEMONIC.UNIT        API CODE       : CURVE DESCRIPTION
#------------------------------------------------------------------------------
DEPTH    .M                          : Measured Depth
CALI     .inches      UNKNOWN        : CALI:Import:rC:NONE:v0 (auto-composite)
DRHO     .g/cm3       UNKNOWN        : DRHO:Import:rC:NONE:v0 (auto-composite)
DT       .us/ft       UNKNOWN        : DT:Import:rC:NONE:v0 (auto-composite)
GR       .API         UNKNOWN        : GR:Import:rC:NONE:v0 (auto-composite)
ILD      .ohm.m       UNKNOWN        : ILD:Import:rC:NONE:v0 (auto-composite)
ILM      .ohm.m       UNKNOWN        : ILM:Import:rC:NONE:v0 (auto-composite)
NPHI     .v/v_decimal UNKNOWN        : NPHI:Import:rC:NONE:v0 (auto-composite)
RHOB     .g/cm3       UNKNOWN        : RHOB:Import:rC:NONE:v0 (auto-composite)
SN       .ohm.m       UNKNOWN        : SN:Import:rC:NONE:v0 (auto-composite)
SP       .mV          UNKNOWN        : SP:Import:rC:NONE:v0 (auto-composite)
~A     DEPTH         CALI         DRHO           DT           GR          ILD          ILM         NPHI         RHOB           SN           SP
# ...
   1142.8424    -999.2500    -999.2500    -999.2500      38.9302       0.8737       0.9420    -999.2500       2.3108       0.8800    -284.3874
   1142.9948    -999.2500    -999.2500    -999.2500      36.7915       0.8537       0.9275    -999.2500       2.3013       0.8800    -260.6342
   1143.1472    -999.2500    -999.2500    -999.2500      42.4257       0.8443       0.9052    -999.2500       2.2908       0.8800    -210.2338
   1143.2996    -999.2500    -999.2500    -999.2500      48.3325       0.8353       0.8826    -999.2500       2.2803       0.8800    -158.8985
   1143.4520    -999.2500    -999.2500    -999.2500      47.1374       0.8335       0.8937    -999.2500       2.2703       0.8800    -113.7504
   1143.6044    -999.2500    -999.2500    -999.2500      45.7351       0.8320       0.9056    -999.2500       2.2603       0.8800     -68.7828
   1143.7567    -999.2500    -999.2500    -999.2500      43.2618       0.8398       0.9205    -999.2500       2.2600       0.8800     -62.0417
   1143.9092    -999.2500    -999.2500    -999.2500      40.7554       0.8478       0.9355    -999.2500       2.2600       0.8800     -56.4836
   1144.0615    -999.2500    -999.2500    -999.2500      39.9716       0.8640       0.9394    -999.2500       2.2552       0.8800     -78.8587
   1144.2140    -999.2500    -999.2500    -999.2500      39.2427       0.8805       0.9429    -999.2500       2.2502       0.8800    -102.1238
   1144.3663    -999.2500    -999.2500    -999.2500      41.4089       0.8974       0.9551    -999.2500       2.2689       0.8800    -117.4682
   1144.5188    -999.2500    -999.2500    -999.2500      43.6726       0.9144       0.9676    -999.2500       2.2884       0.8800    -132.5462
   1144.6711    -999.2500    -999.2500    -999.2500      40.0122       0.9261       0.9903    -999.2500       2.2895       0.8800    -123.5278
   1144.8236    -999.2500    -999.2500    -999.2500      36.1419       0.9377       1.0133    -999.2500       2.2900       0.8800    -113.6560
   1144.9760    -999.2500    -999.2500    -999.2500      39.8704       0.9050       0.9990    -999.2500       2.2948       0.8800    -103.6973
   1145.1284    -999.2500    -999.2500    -999.2500      43.8231       0.8710       0.9835    -999.2500       2.2998       0.8800     -93.7361
   1145.2808    -999.2500    -999.2500    -999.2500      46.2270       0.8589       0.9297    -999.2500       2.3000       0.8800     -85.3873
   1145.4332    -999.2500    -999.2500    -999.2500      48.5825       0.8474       0.8747    -999.2500       2.3000       0.8800     -77.0889
   1145.5856    -999.2500    -999.2500    -999.2500      45.8624       0.8402       0.8875    -999.2500       2.3097       0.8800     -62.0148
   1145.7379    -999.2500    -999.2500    -999.2500      42.9788       0.8332       0.9025    -999.2500       2.3197       0.8800     -46.7225
   1145.8904    -999.2500    -999.2500    -999.2500      39.9191       0.8470       0.9243    -999.2500       2.3055       0.8800     -39.8000
   1146.0427    -999.2500    -999.2500    -999.2500      36.8534       0.8615       0.9463    -999.2500       2.2905       0.8800     -33.1619
   1146.1952    -999.2500    -999.2500    -999.2500      39.3797       0.8804       0.9659    -999.2500       2.2948       0.8800     -58.9859
   1146.3475    -999.2500    -999.2500    -999.2500      42.1011       0.8994       0.9854    -999.2500       2.2998       0.8800     -85.9428
   1146.5000    -999.2500    -999.2500    -999.2500      42.9473       0.8932       0.9666    -999.2500       2.3048       0.8800    -112.8516
   1146.6523    -999.2500    -999.2500    -999.2500      43.7374       0.8862       0.9466    -999.2500       2.3098       0.8800    -139.7590
   1146.8048    -999.2500    -999.2500    -999.2500      46.5425       0.8618       0.9523    -999.2500       2.3148       0.8800    -127.8509
   1146.9572    -999.2500    -999.2500    -999.2500      49.4097       0.8368       0.9588    -999.2500       2.3198       0.8800    -114.7488
   1147.1096    -999.2500    -999.2500    -999.2500      45.6263       0.8500       0.9358    -999.2500       2.3200       0.8800     -94.1623
   1147.2620    -999.2500    -999.2500    -999.2500      41.6265       0.8645       0.9118    -999.2500       2.3200       0.8800     -73.3323
   1147.4144    -999.2500    -999.2500    -999.2500      36.9515       0.8829       0.9463    -999.2500       2.3200       0.8800     -59.2274
   1147.5668    -999.2500    -999.2500    -999.2500      32.2539       0.9014       0.9828    -999.2500       2.3200       0.8800     -45.3474
   1147.7191    -999.2500    -999.2500    -999.2500      34.7336       0.9185       1.0053    -999.2500       2.3103       0.8800     -56.1166
   1147.8716    -999.2500    -999.2500    -999.2500      37.4661       0.9355       1.0274    -999.2500       2.3003       0.8800     -67.7544
   1148.0239    -999.2500    -999.2500    -999.2500      40.4347       0.9433       1.0086    -999.2500       2.3048       0.8800     -86.2148
   1148.1764    -999.2500    -999.2500    -999.2500      43.4103       0.9508       0.9886    -999.2500       2.3098       0.8800    -104.8753
   1148.3287    -999.2500    -999.2500    -999.2500      42.5606       0.9437       0.9836    -999.2500       2.3148       0.8800     -89.7881
   1148.4812    -999.2500    -999.2500    -999.2500      41.5920       0.9362       0.9791    -999.2500       2.3198       0.8800     -73.6516
   1148.6335    -999.2500    -999.2500    -999.2500      46.4677       0.8857       0.9669    -999.2500       2.3152       0.8800     -58.7122
   1148.7860    -999.2500    -999.2500    -999.2500      51.5305       0.8337       0.9544    -999.2500       2.3102       0.8800     -43.8111
   1148.9384    -999.2500    -999.2500    -999.2500      52.9457       0.7962       0.8989    -999.2500       2.3197       0.9236     -35.2814
   1149.0908    -999.2500    -999.2500    -999.2500      54.2377       0.7592       0.8419    -999.2500       2.3297       0.9686     -26.9669
   1149.2432    -999.2500    -999.2500    -999.2500      51.6746       0.7464       0.8177    -999.2500       2.3252       1.0378     -41.9153
   1149.3956    -999.2500    -999.2500    -999.2500      48.9777       0.7343       0.7947    -999.2500       2.3202       1.1078     -57.6711
   1149.5480    -999.2500    -999.2500    -999.2500      44.6101       0.7277       0.8149    -999.2500       2.3248       1.0083     -60.3738
   1149.7003    -999.2500    -999.2500    -999.2500      40.1931       0.7212       0.8364    -999.2500       2.3298       0.9033     -62.6893
   1149.8528    -999.2500    -999.2500    -999.2500      39.7610       0.7835       0.8787    -999.2500       2.3300       0.9000     -75.1645
   1150.0051    -999.2500    -999.2500    -999.2500      39.4507       0.8480       0.9217    -999.2500       2.3300       0.9000     -87.9504
   1150.1576    -999.2500    -999.2500    -999.2500      38.5923       0.8679       0.9395    -999.2500       2.3203       1.0017    -142.0766
   1150.3099    -999.2500    -999.2500    -999.2500      37.7162       0.8864       0.9565    -999.2500       2.3103       1.1067    -197.5401
   1150.4624    -999.2500    -999.2500    -999.2500      38.3678       0.8904       0.9652    -999.2500       2.3052       1.1100    -205.6656
   1150.6147    -999.2500    -999.2500    -999.2500      39.0702       0.8939       0.9737    -999.2500       2.3002       1.1100    -212.2162
   1150.7672    -999.2500    -999.2500    -999.2500      37.7013       0.8901       0.9658    -999.2500       2.3145       1.0325    -171.6772
   1150.9196    -999.2500    -999.2500    -999.2500      36.2598       0.8861       0.9572    -999.2500       2.3295       0.9525    -129.4878
   1151.0720    -999.2500    -999.2500    -999.2500      35.7030       0.8831       0.9536    -999.2500       2.3397       0.9161     -95.4285
   1151.2244    -999.2500    -999.2500    -999.2500      35.1719       0.8801       0.9501    -999.2500       2.3497       0.8811     -61.6061
