#------------------------------------------------------------------------------
#
#   Created by  : [OpenWorks] Log Export Utility (LEXP)
#   Created on  : 2016-05-23 11:57:01
#   Project     : CANT971
#   User        : R5K
#   Interpreter : PEP
#
#------------------------------------------------------------------------------
~VERSION INFORMATION
VERS. 2.0 : CWLS Log ASCII Standard - version 2.0
WRAP.  NO : One line per depth step
~WELL INFORMATION
#MNEMONIC   .UNIT                                           VALUE :DESCRIPTION
#------------------------------------------------------------------------------
STRT        .M                                           485.8514 :START DEPTH
STOP        .M                                          3526.5361 :STOP DEPTH
STEP        .M                                             0.1524 :STEP
NULL        .                                           -999.2500 :NULL VALUE
COMP        .                                   PEMEX EXPL & PROD :COMPANY
WELL        .                                                  62 :WELL
FLD         .                                           CANTARELL :FIELD
LOC         .                                             UNKNOWN :LOCATION
CNTY        .                                      CD. DEL CARMEN :COUNTY
STAT        .                                            CAMPECHE :STATE
CTRY        .                                              MEXICO :COUNTRY
SRVC        .                                             UNKNOWN :SERVICE COMPANY
DATE        .                                             UNKNOWN :LOG DATE
UWI         .                                          3060000468 :UNIQUE WELL ID
XCOORD      .                                       601711.280000 :SURFACE X
YCOORD      .                                      2142346.320000 :SURFACE Y
LAT         .                                           19.373806 :LATITUDE
LON         .                                          -92.031488 :LONGITUDE
ELEV        .M                                            24.0000 :SURFACE ELEV
ELEV_TYPE   .                                                  KB :ELEV TYPE
~CURVE INFORMATION
#MNEMONIC.UNIT        API CODE       : CURVE DESCRIPTION
#------------------------------------------------------------------------------
DEPTH    .M                          : Measured Depth
CALI     .inches      UNKNOWN        : CALI:editado:rC:NONE:v0 (auto-composite)
DRHO     .g/cm3       UNKNOWN        : DRHO:editado:rC:NONE:v0 (auto-composite)
DT       .us/ft       UNKNOWN        : DT:editado:rC:NONE:v0 (auto-composite)
GR       .API         UNKNOWN        : GR:editado:rC:NONE:v0 (auto-composite)
ILD      .ohm.m       UNKNOWN        : ILD:editado:rC:NONE:v0 (auto-composite)
ILM      .ohm.m       UNKNOWN        : ILM:editado:rC:NONE:v0 (auto-composite)
LLD      .ohm.m       UNKNOWN        : LLD:editado:rC:NONE:v0 (auto-composite)
LLS      .ohm.m       UNKNOWN        : LLS:editado:rC:NONE:v0 (auto-composite)
MSFL     .ohm.m       UNKNOWN        : MSFL:editado:rC:NONE:v0 (auto-composite)
NPHI     .v/v_decimal UNKNOWN        : NPHI:editado:rC:NONE:v0 (auto-composite)
PEF      .b/elec      UNKNOWN        : PEF:editado:rC:NONE:v0 (auto-composite)
RHOB     .g/cm3       UNKNOWN        : RHOB:editado:rC:NONE:v0 (auto-composite)
~A     DEPTH         CALI         DRHO           DT           GR          ILD          ILM          LLD          LLS         MSFL         NPHI          PEF         RHOB
# ...
   2512.1619       8.5480       0.0160      49.0780      27.0730    -999.2500    -999.2500    1044.9810     495.4230      99.4760       0.0458       3.7070       2.6600
   2512.3142       8.5410       0.0346      49.1591      26.1994    -999.2500    -999.2500     772.1843     405.6140      54.4683       0.0471       3.8551       2.6680
   2512.4666       8.5340       0.0530      49.2400      25.3300    -999.2500    -999.2500     501.1340     316.3800       9.8200       0.0473       4.0020       2.6760
   2512.6189       8.5315       0.0455      49.6191      25.3601    -999.2500    -999.2500     533.7142     339.9399      17.0053       0.0453       3.8193       2.7021
   2512.7715       8.5290       0.0380      49.9970      25.3900    -999.2500    -999.2500     566.0900     363.3520      24.1340       0.0433       3.6380       2.7280
   2512.9238       8.5390       0.0274      51.0000      26.5491    -999.2500    -999.2500     561.1553     362.8219      60.3210       0.0436       3.6531       2.7671
   2513.0762       8.5490       0.0170      52.0000      27.7030    -999.2500    -999.2500     556.2510     362.2950      96.2280       0.0456       3.6680       2.8060
   2513.2285       8.5751       0.0140      51.3901      29.7626    -999.2500    -999.2500     489.9233     350.9684     314.5708       0.0500       3.7990       2.8000
   2513.3811       8.6010       0.0110      50.7820      31.8130    -999.2500    -999.2500     424.1010     339.7280     531.2500       0.0539       3.9290       2.7940
   2513.5334       8.6286       0.0075      49.7962      32.7039    -999.2500    -999.2500     446.0642     323.4390     286.3681       0.0541       3.8904       2.7805
   2513.6858       8.6560       0.0040      48.8130      33.5910    -999.2500    -999.2500     467.8630     307.2720      43.3200       0.0535       3.8520       2.7670
   2513.8381       8.6736       0.0015      48.9728      34.7013    -999.2500    -999.2500     458.8593     300.5924     114.3904       0.0546       3.9388       2.7399
   2513.9907       8.6910      -0.0010      49.1320      35.8070    -999.2500    -999.2500     449.9220     293.9620     184.9370       0.0582       4.0250       2.7130
   2514.1431       8.6790       0.0131      49.4216      35.4733    -999.2500    -999.2500     461.5872     297.7678     139.7434       0.0679       4.0170       2.6804
   2514.2954       8.6670       0.0270      49.7100      35.1410    -999.2500    -999.2500     473.1680     301.5460      94.8770       0.0769       4.0090       2.6480
   2514.4478       8.6404       0.0481      50.3563      32.4452    -999.2500    -999.2500     546.3937     326.3598      62.4049       0.0779       4.0772       2.6620
   2514.6001       8.6140       0.0690      51.0000      29.7600    -999.2500    -999.2500     619.0980     350.9970      30.1640       0.0746       4.1450       2.6760
   2514.7527       8.5909       0.0444      50.9259      29.9509    -999.2500    -999.2500     770.5845     425.0905      34.9018       0.0667       4.1420       2.6951
   2514.9050       8.5680       0.0200      50.8520      30.1410    -999.2500    -999.2500     921.0120     498.6660      39.5990       0.0594       4.1390       2.7140
   2515.0574       8.5559       0.0235      50.3751      30.6875    -999.2500    -999.2500     896.3889     489.0866      50.3213       0.0581       4.1029       2.7291
   2515.2097       8.5440       0.0270      49.9000      31.2320    -999.2500    -999.2500     871.9350     479.5730      60.9530       0.0581       4.0670       2.7440
   2515.3623       8.5490       0.0235      48.6823      32.0145    -999.2500    -999.2500     794.5657     456.0883      54.3319       0.0560       3.9957       2.7405
   2515.5146       8.5540       0.0200      47.4690      32.7930    -999.2500    -999.2500     717.7180     432.7620      47.7660       0.0526       3.9250       2.7370
   2515.6670       8.5746       0.0155      47.7820      33.5514    -999.2500    -999.2500     615.4119     387.2704      63.2837       0.0477       3.7975       2.7631
   2515.8193       8.5950       0.0110      48.0940      34.3060    -999.2500    -999.2500     513.7830     342.0800      78.6740       0.0430       3.6710       2.7890
   2515.9719       8.6392       0.0090      48.0805      33.9060    -999.2500    -999.2500     529.5698     346.9142     138.3844       0.0401       3.7076       2.7880
   2516.1243       8.6830       0.0070      48.0670      33.5080    -999.2500    -999.2500     545.2540     351.7170     197.6120       0.0381       3.7440       2.7870
   2516.2766       8.7232      -0.0026      47.6734      32.7557    -999.2500    -999.2500     616.9600     377.1877     283.1402       0.0372       4.0246       2.7554
   2516.4290       8.7630      -0.0120      47.2810      32.0070    -999.2500    -999.2500     688.2090     402.4960     367.9880       0.0363       4.3030       2.7240
   2516.5813       8.6917      -0.0110      47.4222      32.1493    -999.2500    -999.2500     997.0262     491.6011     929.9462       0.0345       4.2167       2.7240
   2516.7339       8.6210      -0.0100      47.5630      32.2910    -999.2500    -999.2500    1303.9160     580.1500    1487.5000       0.0322       4.1310       2.7240
   2516.8862       8.6250      -0.0035      47.5350      32.4940    -999.2500    -999.2500    1130.8468     542.3388    1294.2418       0.0293       4.1722       2.7360
   2517.0386       8.6290       0.0030      47.5070      32.6960    -999.2500    -999.2500     958.8370     504.7590    1102.4730       0.0264       4.2130       2.7480
   2517.1909       8.6476       0.0010      47.2847      33.2051    -999.2500    -999.2500     962.5425     505.6007     884.3403       0.0241       4.1292       2.7701
   2517.3435       8.6660      -0.0010      47.0630      33.7120    -999.2500    -999.2500     966.2200     506.4360     667.8630       0.0225       4.0460       2.7920
   2517.4958       8.7162      -0.0005      47.1566      33.4685    -999.2500    -999.2500    1000.2454     524.7408     614.2717       0.0224       4.0641       2.7910
   2517.6482       8.7660       0.0000      47.2500      33.2260    -999.2500    -999.2500    1034.0170     542.9090     561.0800       0.0230       4.0820       2.7900
   2517.8005       8.7590      -0.0030      47.0691      31.8481    -999.2500    -999.2500    1237.4996     623.4861     486.2028       0.0239       4.1482       2.7704
   2517.9531       8.7520      -0.0060      46.8890      30.4760    -999.2500    -999.2500    1439.4890     703.4720     411.8750       0.0253       4.2140       2.7510
   2518.1055       8.7219      -0.0045      46.5689      30.8252    -999.2500    -999.2500    1350.9785     674.3254     701.9987       0.0278       4.4368       2.7595
   2518.2578       8.6920      -0.0030      46.2500      31.1730    -999.2500    -999.2500    1263.1060     645.3890     990.0310       0.0308       4.6580       2.7680
   2518.4102       8.6202       0.0025      46.3412      34.1318    -999.2500    -999.2500    1097.6384     573.8660     697.4223       0.0347       4.5250       2.7595
   2518.5625       8.5490       0.0080      46.4320      37.0790    -999.2500    -999.2500     933.3440     502.8500     406.8880       0.0387       4.3930       2.7510
   2518.7151       8.5595       0.0261      46.6704      36.8253    -999.2500    -999.2500     768.4201     424.6082     265.0277       0.0424       4.0960       2.7375
   2518.8674       8.5700       0.0440      46.9080      36.5730    -999.2500    -999.2500     604.6440     346.9110     124.3810       0.0446       3.8010       2.7240
   2519.0198       8.5901       0.0350      47.4866      35.4771    -999.2500    -999.2500     511.4232     299.6408      85.1894       0.0423       3.9149       2.7285
   2519.1721       8.6100       0.0260      48.0630      34.3870    -999.2500    -999.2500     418.8400     252.6940      46.3280       0.0385       4.0280       2.7330
   2519.3247       8.6286       0.0139      47.9708      33.0852    -999.2500    -999.2500     516.8458     300.1191      95.7211       0.0339       3.8613       2.7516
