#------------------------------------------------------------------------------
#
#   Created by  : [OpenWorks] Log Export Utility (LEXP)
#   Created on  : 2016-05-23 11:52:02
#   Project     : CANT971
#   User        : R5K
#   Interpreter : PEP
#
#------------------------------------------------------------------------------
~VERSION INFORMATION
VERS. 2.0 : CWLS Log ASCII Standard - version 2.0
WRAP.  NO : One line per depth step
~WELL INFORMATION
#MNEMONIC   .UNIT                                           VALUE :DESCRIPTION
#------------------------------------------------------------------------------
STRT        .M                                           300.3808 :START DEPTH
STOP        .M                                          2575.7129 :STOP DEPTH
STEP        .M                                             0.1524 :STEP
NULL        .                                           -999.2500 :NULL VALUE
COMP        .                                   PEMEX EXPL & PROD :COMPANY
WELL        .                                                  19 :WELL
FLD         .                                           CANTARELL :FIELD
LOC         .                                             UNKNOWN :LOCATION
CNTY        .                                      CD. DEL CARMEN :COUNTY
STAT        .                                            CAMPECHE :STATE
CTRY        .                                              MEXICO :COUNTRY
SRVC        .                                             UNKNOWN :SERVICE COMPANY
DATE        .                                             UNKNOWN :LOG DATE
UWI         .                                          3060000151 :UNIQUE WELL ID
XCOORD      .                                       603362.598000 :SURFACE X
YCOORD      .                                      2145096.350000 :SURFACE Y
LAT         .                                           19.398572 :LATITUDE
LON         .                                          -92.015617 :LONGITUDE
ELEV        .M                                            27.1400 :SURFACE ELEV
ELEV_TYPE   .                                                  KB :ELEV TYPE
~CURVE INFORMATION
#MNEMONIC.UNIT        API CODE       : CURVE DESCRIPTION
#------------------------------------------------------------------------------
DEPTH    .M                          : Measured Depth
CALI     .inches      UNKNOWN        : CALI:Import:rC:NONE:v0 (auto-composite)
DRHO     .g/cm3       UNKNOWN        : DRHO:Import:rC:NONE:v0 (auto-composite)
DT       .us/ft       UNKNOWN        : DT:Import:rC:NONE:v0 (auto-composite)
GR       .API         UNKNOWN        : GR:Import:rC:NONE:v0 (auto-composite)
ILD      .ohm.m       UNKNOWN        : ILD:Import:rC:NONE:v0 (auto-composite)
LLD      .ohm.m       UNKNOWN        : LLD:Import:rC:NONE:v0 (auto-composite)
LLS      .ohm.m       UNKNOWN        : LLS:Import:rC:NONE:v0 (auto-composite)
NPHI     .v/v_decimal UNKNOWN        : NPHI:Import:rC:NONE:v0 (auto-composite)
RHOB     .g/cm3       UNKNOWN        : RHOB:RHOB-Load:rC:NONE:v0 (auto-composite)
~A     DEPTH         CALI         DRHO           DT           GR          ILD          LLD          LLS         NPHI         RHOB
# ...
   2483.0537       5.7076       0.0030    -999.2500      38.9305       0.0010      28.0442      16.3621       0.1131       2.4325
   2483.2061       5.7410       0.0100    -999.2500      40.8400       0.0010      36.9290      20.3490       0.1201       2.4220
   2483.3584       5.7595      -0.0005    -999.2500      45.4116       0.0010      36.5877      24.1292       0.1251       2.4466
   2483.5107       5.7780      -0.0110    -999.2500      49.9670       0.0010      36.2470      27.9020       0.1291       2.4710
   2483.6631       5.7780      -0.0075    -999.2500      49.8132       0.0010      34.5515      27.1328       0.1329       2.5096
   2483.8157       5.7780      -0.0040    -999.2500      49.6600       0.0010      32.8590      26.3650       0.1349       2.5480
   2483.9680       5.7800       0.0005    -999.2500      52.5548       0.0010      29.0768      23.0282       0.1334       2.5726
   2484.1204       5.7820       0.0050    -999.2500      55.4400       0.0010      25.3070      19.6970       0.1279       2.5970
   2484.2727       5.8356       0.0155    -999.2500      61.7785       0.0010      26.9937      20.9034       0.1173       2.5870
   2484.4253       5.8890       0.0260    -999.2500      68.0970       0.0010      28.6750      22.1080       0.1059       2.5770
   2484.5776       5.8880       0.0415    -999.2500      67.0028       0.0010      26.4271      21.5361       0.0975       2.5685
   2484.7300       5.8870       0.0570    -999.2500      65.9120       0.0010      24.1860      20.9660       0.0910       2.5600
   2484.8823       5.8655       0.0465    -999.2500      61.1971       0.0010      22.4149      19.0627       0.0858       2.5640
   2485.0349       5.8440       0.0360    -999.2500      56.4960       0.0010      20.6490      17.1650       0.0832       2.5680
   2485.1873       5.8110       0.0170    -999.2500      54.0000       0.0010      20.0522      15.8682       0.0850       2.5725
   2485.3396       5.7780      -0.0020    -999.2500      51.5110       0.0010      19.4570      14.5750       0.0891       2.5770
   2485.4919       5.7780      -0.0165    -999.2500      51.2522       0.0010      19.2868      14.7392       0.0941       2.5685
   2485.6443       5.7780      -0.0310    -999.2500      50.9940       0.0010      19.1170      14.9030       0.0986       2.5600
   2485.7969       5.7780      -0.0260    -999.2500      51.3985       0.0010      19.5856      15.9628       0.1016       2.5530
   2485.9492       5.7780      -0.0210    -999.2500      51.8020       0.0010      20.0530      17.0200       0.1038       2.5460
   2486.1016       5.7760      -0.0175    -999.2500      54.5670       0.0010      20.3824      18.4477       0.1062       2.5495
   2486.2539       5.7740      -0.0140    -999.2500      57.3210       0.0010      20.7110      19.8720       0.1081       2.5530
   2486.4065       5.7500      -0.0095    -999.2500      60.0428       0.0010      21.3222      21.7572       0.1086       2.5655
   2486.5588       5.7260      -0.0050    -999.2500      62.7540       0.0010      21.9320      23.6380       0.1070       2.5780
   2486.7112       5.6964       0.0045    -999.2500      58.2861       0.0010      24.7615      25.2868       0.1020       2.5885
   2486.8635       5.6670       0.0140    -999.2500      53.8350       0.0010      27.5850      26.9320       0.0966       2.5990
   2487.0161       5.6670       0.0090    -999.2500      48.7267       0.0010      20.4437      22.7993       0.0936       2.5960
   2487.1685       5.6670       0.0040    -999.2500      43.6370       0.0010      13.3170      18.6750       0.0919       2.5930
   2487.3208       5.6670       0.0090    -999.2500      44.5120       0.0010      13.9376      15.0616       0.0906       2.5765
   2487.4731       5.6670       0.0140    -999.2500      45.3840       0.0010      14.5570      11.4550       0.0890       2.5600
   2487.6255       5.6670       0.0095    -999.2500      46.9081       0.0010      18.7292      12.6946       0.0867       2.5605
   2487.7781       5.6670       0.0050    -999.2500      48.4270       0.0010      22.8940      13.9320       0.0848       2.5610
   2487.9304       5.6670       0.0065    -999.2500      49.2639       0.0010      27.3643      17.8147       0.0845       2.5705
   2488.0828       5.6670       0.0080    -999.2500      50.0980       0.0010      31.8200      21.6910       0.0862       2.5800
   2488.2351       5.6670       0.0065    -999.2500      51.3495       0.0010      34.2082      27.3208       0.0903       2.5880
   2488.3877       5.6670       0.0050    -999.2500      52.5970       0.0010      36.5890      32.9420       0.0954       2.5960
   2488.5400       5.6670      -0.0010    -999.2500      55.3586       0.0010      38.0021      31.8368       0.1000       2.5855
   2488.6924       5.6670      -0.0070    -999.2500      58.1120       0.0010      39.4110      30.7350       0.1020       2.5750
   2488.8447       5.6670      -0.0055    -999.2500      64.0816       0.0010      32.5521      26.9656       0.0991       2.5600
   2488.9973       5.6670      -0.0040    -999.2500      70.0340       0.0010      25.7130      23.2070       0.0928       2.5450
   2489.1497       5.6710       0.0000    -999.2500      69.1548       0.0010      26.6964      23.2771       0.0841       2.5515
   2489.3020       5.6750       0.0040    -999.2500      68.2780       0.0010      27.6770      23.3470       0.0774       2.5580
   2489.4543       5.7046      -0.0005    -999.2500      65.4598       0.0010      31.3383      24.4855       0.0772       2.5695
   2489.6067       5.7340      -0.0050    -999.2500      62.6490       0.0010      34.9900      25.6210       0.0806       2.5810
   2489.7593       5.7535       0.0030    -999.2500      60.0728       0.0010      32.9700      26.3769       0.0851       2.5900
   2489.9116       5.7730       0.0110    -999.2500      57.5030       0.0010      30.9550      27.1310       0.0891       2.5990
   2490.0640       5.7755       0.0070    -999.2500      55.9464       0.0010      28.0541      26.4462       0.0911       2.5970
   2490.2163       5.7780       0.0030    -999.2500      54.3960       0.0010      25.1600      25.7630       0.0912       2.5950
   2490.3689       5.7780      -0.0090    -999.2500      53.9276       0.0010      26.1016      23.9570       0.0892       2.5905
   2490.5212       5.7780      -0.0210    -999.2500      53.4610       0.0010      27.0410      22.1550       0.0879       2.5860
   2490.6736       5.7780      -0.0165    -999.2500      57.4660       0.0010      30.8190      22.5499       0.0901       2.5830
   2490.8259       5.7780      -0.0120    -999.2500      61.4560       0.0010      34.5890      22.9440       0.0930       2.5800
   2490.9785       5.7780      -0.0125    -999.2500      74.5666       0.0010      33.5014      25.1672       0.0938       2.5730
   2491.1309       5.7780      -0.0130    -999.2500      87.6300       0.0010      32.4160      27.3860       0.0927       2.5660
   2491.2832       5.7645      -0.0120    -999.2500      85.5158       0.0010      31.2924      28.8253       0.0896       2.5369
   2491.4355       5.7510      -0.0110    -999.2500      83.4090       0.0010      30.1710      30.2620       0.0864       2.5080
   2491.5879       5.7014       0.0075    -999.2500      80.3153       0.0010      27.6488      28.2738       0.0845       2.4594
   2491.7405       5.6520       0.0260    -999.2500      77.2320       0.0010      25.1310      26.2890       0.0858       2.4110
   2491.8928       5.6194       0.0350    -999.2500      76.0882       0.0010      18.4217      19.6771       0.0922       2.3443
   2492.0452       5.5870       0.0440    -999.2500      74.9480       0.0010      11.7340      13.0760       0.1026       2.2780
   2492.1975       5.6471       0.0255    -999.2500      71.6719       0.0010       7.3352       8.4555       0.1161       2.2083
   2492.3501       5.7070       0.0070    -999.2500      68.4060       0.0010       2.9500       3.8420       0.1310       2.1390
