#------------------------------------------------------------------------------
#
#   Created by  : [OpenWorks] Log Export Utility (LEXP)
#   Created on  : 2016-05-23 11:50:23
#   Project     : CANT971
#   User        : R5K
#   Interpreter : PEP
#
#------------------------------------------------------------------------------
~VERSION INFORMATION
VERS. 2.0 : CWLS Log ASCII Standard - version 2.0
WRAP.  NO : One line per depth step
~WELL INFORMATION
#MNEMONIC   .UNIT                                           VALUE :DESCRIPTION
#------------------------------------------------------------------------------
STRT        .M                                           790.6004 :START DEPTH
STOP        .M                                          2649.8804 :STOP DEPTH
STEP        .M                                             0.1524 :STEP
NULL        .                                           -999.2500 :NULL VALUE
COMP        .                                             UNKNOWN :COMPANY
WELL        .                                               1012D :WELL
FLD         .                                             UNKNOWN :FIELD
LOC         .                                             UNKNOWN :LOCATION
CNTY        .                                             UNKNOWN :COUNTY
STAT        .                                             UNKNOWN :STATE
CTRY        .                                             UNKNOWN :COUNTRY
SRVC        .                                             UNKNOWN :SERVICE COMPANY
DATE        .                                             UNKNOWN :LOG DATE
UWI         .                                               1012D :UNIQUE WELL ID
XCOORD      .                                       594334.990000 :SURFACE X
YCOORD      .                                      2152041.060000 :SURFACE Y
LAT         .                                           19.461774 :LATITUDE
LON         .                                          -92.101239 :LONGITUDE
ELEV        .M                                             0.0000 :SURFACE ELEV
ELEV_TYPE   .                                                  KB :ELEV TYPE
~CURVE INFORMATION
#MNEMONIC.UNIT        API CODE       : CURVE DESCRIPTION
#------------------------------------------------------------------------------
DEPTH    .M                          : Measured Depth
DT       .us/ft       UNKNOWN        : DT:UNKNOWN:rC:NONE:v0 (auto-composite)
GR       .API         UNKNOWN        : GR:PETROWORKS:rC:NONE:v1 
GR-LWD   .API         UNKNOWN        : GR-LWD:PETROWORKS:rC:NONE:v1 
ILD      .ohm.m       UNKNOWN        : ILD:resistivos:rC:NONE:v0 (auto-composite)
ILD-LWD  .ohm.m       UNKNOWN        : ILD-LWD:PETROWORKS:rC:NONE:v1 
ILM      .ohm.m       UNKNOWN        : ILM:resistivos:rC:NONE:v0 (auto-composite)
ILM-LWD  .ohm.m       UNKNOWN        : ILM-LWD:PETROWORKS:rC:NONE:v1 
~A     DEPTH           DT           GR       GR-LWD          ILD      ILD-LWD          ILM      ILM-LWD
# ...
   2304.3896      87.3349      21.3102      52.8043    -999.2500       1.6066    -999.2500       1.5600
   2304.5420      87.4841      25.4178      53.5132    -999.2500       1.5778    -999.2500       1.5606
   2304.6943      89.4034      26.5607      52.9984    -999.2500       1.6743    -999.2500       1.6675
   2304.8469      91.3761      26.6201      50.5611    -999.2500       1.9646    -999.2500       1.9238
   2304.9993      92.8769      25.8704      47.6978    -999.2500       2.3100    -999.2500       2.2676
   2305.1516      94.2150      27.5681      47.8459    -999.2500       2.3130    -999.2500       2.2947
   2305.3040      92.4366      26.8140      48.7242    -999.2500       2.2192    -999.2500       2.2018
   2305.4563      91.0696      26.4179      51.5583    -999.2500       1.9996    -999.2500       1.9859
   2305.6089      88.2934      25.1767      54.4040    -999.2500       1.7889    -999.2500       1.7876
   2305.7612      86.3665      26.5977      56.0519    -999.2500       1.6910    -999.2500       1.7028
   2305.9136      87.0427      26.3851      57.7431    -999.2500       1.6542    -999.2500       1.6741
   2306.0659      87.0829      25.0718      57.2494    -999.2500       1.6461    -999.2500       1.6632
   2306.2185      87.8990      23.9434      55.6297    -999.2500       1.6631    -999.2500       1.6693
   2306.3708      90.1294      25.2388      54.5443    -999.2500       1.8152    -999.2500       1.7877
   2306.5232      90.4048      29.3681      53.3429    -999.2500       1.7019    -999.2500       1.6716
   2306.6755      90.4864      28.6097      52.8140    -999.2500       1.5779    -999.2500       1.5505
   2306.8279      89.9304      24.7911      54.7917    -999.2500       1.4841    -999.2500       1.4647
   2306.9805      90.2867      21.0991      60.9299    -999.2500       1.2388    -999.2500       1.2507
   2307.1328      93.1335      22.2027      65.6219    -999.2500       1.2430    -999.2500       1.2499
   2307.2852      93.9806      25.7358      68.2006    -999.2500       1.3471    -999.2500       1.3368
   2307.4375      93.0451      28.8236      68.9505    -999.2500       1.6040    -999.2500       1.5734
   2307.5901      94.8215      31.9515      69.0534    -999.2500       1.2338    -999.2500       1.2320
   2307.7424      95.1114      32.6452      68.9885    -999.2500       1.1343    -999.2500       1.1424
   2307.8948      95.6801      33.6612      68.6750    -999.2500       1.0759    -999.2500       1.0828
   2308.0471      97.9275      34.8159      71.3966    -999.2500       1.0744    -999.2500       1.0660
   2308.1997     123.8159      35.5655      74.6547    -999.2500       0.8709    -999.2500       0.8811
   2308.3521     177.6830      34.3681      72.0883    -999.2500       0.9748    -999.2500       0.9915
   2308.5044     175.6818      34.7625      64.6815    -999.2500       1.4668    -999.2500       1.4387
   2308.6567     165.6270      35.5760      62.7111    -999.2500       1.5708    -999.2500       1.5602
   2308.8091     165.6270      38.5800      58.5540    -999.2500       1.5527    -999.2500       1.5777
   2308.9617    -999.2500      37.0221      58.7620    -999.2500       1.4674    -999.2500       1.4719
   2309.1140    -999.2500      35.2634      65.4061    -999.2500       1.3804    -999.2500       1.3698
   2309.2664    -999.2500      33.8331      66.1541    -999.2500       1.3656    -999.2500       1.3574
   2309.4187    -999.2500      34.3064      66.3292    -999.2500       1.3435    -999.2500       1.3384
   2309.5713    -999.2500      35.2875      66.2639    -999.2500       1.3266    -999.2500       1.3313
   2309.7236    -999.2500      32.1585      66.0981    -999.2500       1.3179    -999.2500       1.3325
   2309.8760      90.3307      28.1880      65.3732    -999.2500       1.3205    -999.2500       1.3369
   2310.0283      62.7217      22.3360      62.5090    -999.2500       1.3447    -999.2500       1.3541
   2310.1809      73.7557      22.4436      60.0356    -999.2500       1.3655    -999.2500       1.3801
   2310.3333      60.4365      23.3969      58.2249    -999.2500       1.3808    -999.2500       1.4092
   2310.4856      80.6653      25.7538      57.4504    -999.2500       1.3838    -999.2500       1.4143
   2310.6379     106.3731      27.3283      57.3549    -999.2500       1.3794    -999.2500       1.4047
   2310.7903     106.8003      27.8385      57.2011    -999.2500       1.4035    -999.2500       1.4240
   2310.9429     105.6013      27.6436      57.0568    -999.2500       1.4269    -999.2500       1.4431
   2311.0952     104.4325      27.1020      57.3180    -999.2500       1.4412    -999.2500       1.4559
   2311.2476     103.5950      25.2010      57.9498    -999.2500       1.4400    -999.2500       1.4569
   2311.3999      94.9122      24.2461      56.7260    -999.2500       1.4314    -999.2500       1.4500
   2311.5525      91.8507      23.6244      53.6362    -999.2500       1.4132    -999.2500       1.4341
   2311.7048      92.3743      25.3172      52.6707    -999.2500       1.3962    -999.2500       1.4045
   2311.8572      85.3612      24.8876      52.1274    -999.2500       1.3705    -999.2500       1.3720
   2312.0095      83.9017      25.9388      52.5775    -999.2500       1.3244    -999.2500       1.3381
   2312.1621      81.9526      26.9087      55.4644    -999.2500       1.2487    -999.2500       1.2663
   2312.3145      80.0009      27.0411      58.9665    -999.2500       1.1169    -999.2500       1.1268
   2312.4668      81.9855      28.1848      62.0837    -999.2500       1.0052    -999.2500       1.0106
   2312.6191     103.7598      29.9181      65.2562    -999.2500       0.9292    -999.2500       0.9301
   2312.7715     125.5290      30.9066      67.2905    -999.2500       0.8761    -999.2500       0.8771
   2312.9241     147.2749      29.0226      67.0768    -999.2500       0.8203    -999.2500       0.8259
   2313.0764     165.4400      28.3196      67.5356    -999.2500       0.8011    -999.2500       0.8046
   2313.2288    -999.2500      28.0660      68.1623    -999.2500       0.8449    -999.2500       0.8363
   2313.3811    -999.2500      27.8281      68.6373    -999.2500       0.9197    -999.2500       0.9014
   2313.5337    -999.2500      27.0626      68.4875    -999.2500       0.9751    -999.2500       0.9543
   2313.6860    -999.2500      28.2462      66.0409    -999.2500       1.0054    -999.2500       0.9922
   2313.8384    -999.2500      28.7449      64.1726    -999.2500       1.1382    -999.2500       1.1383
   2313.9907    -999.2500      27.3945      60.9901    -999.2500       1.4435    -999.2500       1.4818
   2314.1433    -999.2500      24.5760      59.7217    -999.2500       1.6670    -999.2500       1.7268
   2314.2957    -999.2500      21.3405      55.4994    -999.2500       1.9004    -999.2500       1.9590
   2314.4480    -999.2500      18.3115      50.3715    -999.2500       2.0906    -999.2500       2.1320
   2314.6003    -999.2500      15.9691      45.4267    -999.2500       2.2053    -999.2500       2.2037
   2314.7527    -999.2500      15.2083      40.0257    -999.2500       2.3010    -999.2500       2.2410
   2314.9053    -999.2500      16.9856      33.7150    -999.2500       2.5048    -999.2500       2.3571
   2315.0576    -999.2500      16.8868      29.3882    -999.2500       2.6482    -999.2500       2.4528
   2315.2100    -999.2500      17.2130      27.3095    -999.2500       2.6609    -999.2500       2.5186
   2315.3623    -999.2500      13.5415      27.3987    -999.2500       2.2746    -999.2500       2.2772
   2315.5149    -999.2500      12.9366      28.5549    -999.2500       2.2214    -999.2500       2.2369
   2315.6672    -999.2500      13.4895      32.5776    -999.2500       2.4597    -999.2500       2.3569
   2315.8196    -999.2500      14.8427      34.8032    -999.2500       2.8655    -999.2500       2.4885
   2315.9719    -999.2500      17.5807      33.6697    -999.2500       2.9038    -999.2500       2.6466
