#------------------------------------------------------------------------------
#
#   Created by  : [OpenWorks] Log Export Utility (LEXP)
#   Created on  : 2016-05-12 17:01:19
#   Project     : CANT971
#   User        : R5K
#   Interpreter : PEP
#
#------------------------------------------------------------------------------
~VERSION INFORMATION
VERS. 2.0 : CWLS Log ASCII Standard - version 2.0
WRAP.  NO : One line per depth step
~WELL INFORMATION
#MNEMONIC   .UNIT                                           VALUE :DESCRIPTION
#------------------------------------------------------------------------------
STRT        .M                                           335.5854 :START DEPTH
STOP        .M                                          2510.4858 :STOP DEPTH
STEP        .M                                             0.1524 :STEP
NULL        .                                           -999.2500 :NULL VALUE
COMP        .                                   PEMEX EXPL & PROD :COMPANY
WELL        .                                                  35 :WELL
FLD         .                                           CANTARELL :FIELD
LOC         .                                             UNKNOWN :LOCATION
CNTY        .                                      CD. DEL CARMEN :COUNTY
STAT        .                                            CAMPECHE :STATE
CTRY        .                                              MEXICO :COUNTRY
SRVC        .                                             UNKNOWN :SERVICE COMPANY
DATE        .                                             UNKNOWN :LOG DATE
UWI         .                                          3060000159 :UNIQUE WELL ID
XCOORD      .                                       602147.900000 :SURFACE X
YCOORD      .                                      2147168.470000 :SURFACE Y
LAT         .                                           19.417359 :LATITUDE
LON         .                                          -92.027072 :LONGITUDE
ELEV        .M                                            28.1700 :SURFACE ELEV
ELEV_TYPE   .                                                  KB :ELEV TYPE
~CURVE INFORMATION
#MNEMONIC.UNIT        API CODE       : CURVE DESCRIPTION
#------------------------------------------------------------------------------
DEPTH    .M                          : Measured Depth
CALI     .inches      UNKNOWN        : CALI:Import:rC:NONE:v0 (auto-composite)
DRHO     .g/cm3       UNKNOWN        : DRHO:Import:rC:NONE:v0 (auto-composite)
DT       .us/ft       UNKNOWN        : DT:Import:rC:NONE:v0 (auto-composite)
GR       .API         UNKNOWN        : GR:Import:rC:NONE:v0 (auto-composite)
ILD      .ohm.m       UNKNOWN        : ILD:Import:rC:NONE:v0 (auto-composite)
LLD      .ohm.m       UNKNOWN        : LLD:Import:rC:NONE:v0 (auto-composite)
LLS      .ohm.m       UNKNOWN        : LLS:Import:rC:NONE:v0 (auto-composite)
MSFL     .ohm.m       UNKNOWN        : MSFL:Import:rC:NONE:v0 (auto-composite)
NPHI     .v/v_decimal UNKNOWN        : NPHI:Import:rC:NONE:v0 (auto-composite)
RHOB     .g/cm3       UNKNOWN        : RHOB:Import:rC:NONE:v0 (auto-composite)
SP       .mV          UNKNOWN        : SP:Import:rC:NONE:v0 (auto-composite)
~A     DEPTH         CALI         DRHO           DT           GR          ILD          LLD          LLS         MSFL         NPHI         RHOB           SP
# ...
   1896.7710       6.4490   -1998.5000      88.8860      69.3550    -999.2500       4.4440       4.1460       6.9640    -999.2500    -999.2500    -999.2500
   1896.9233       6.3681   -1998.5000      86.0212      66.4359    -999.2500       4.8342       4.5981       8.2498    -999.2500    -999.2500    -999.2500
   1897.0758       6.2880   -1998.5000      83.1890      63.5500    -999.2500       5.2200       5.0450       9.5210    -999.2500    -999.2500    -999.2500
   1897.2281       6.2548   -1998.5000      81.8620      57.4633    -999.2500       6.1698       6.1050      10.7896    -999.2500    -999.2500    -999.2500
   1897.3806       6.2220   -1998.5000      80.5510      51.4500    -999.2500       7.1090       7.1530      12.0440    -999.2500    -999.2500    -999.2500
   1897.5330       6.2084   -1998.5000      78.7450      51.9784    -999.2500       8.8909       8.9616      12.9691    -999.2500    -999.2500    -999.2500
   1897.6854       6.1950   -1998.5000      76.9620      52.5000    -999.2500      10.6530      10.7500      13.8840    -999.2500    -999.2500    -999.2500
   1897.8378       6.1423   -1998.5000      73.0408      51.8459    -999.2500      13.0130      13.0939      19.8855    -999.2500    -999.2500    -999.2500
   1897.9902       6.0900   -1998.5000      69.1690      51.2000    -999.2500      15.3470      15.4120      25.8210    -999.2500    -999.2500    -999.2500
   1898.1426       6.0900   -1998.5000      63.8111      48.8654    -999.2500      24.0810      25.0887      69.1564    -999.2500    -999.2500    -999.2500
   1898.2950       6.0900   -1998.5000      58.5200      46.5600    -999.2500      32.7200      34.6600     112.0200    -999.2500    -999.2500    -999.2500
   1898.4474       6.0980   -1998.5000      58.9713      46.5997    -999.2500      32.2726      34.1749      96.8941    -999.2500    -999.2500    -999.2500
   1898.5997       6.1060   -1998.5000      59.4170      46.6390    -999.2500      31.8300      33.6950      81.9310    -999.2500    -999.2500    -999.2500
   1898.7522       6.1834   -1998.5000      61.7643      49.0980    -999.2500      29.9299      31.6778      56.1428    -999.2500    -999.2500    -999.2500
   1898.9045       6.2600   -1998.5000      64.0830      51.5270    -999.2500      28.0500      29.6820      30.6290    -999.2500    -999.2500    -999.2500
   1899.0570       6.2560   -1998.5000      68.0857      59.8287    -999.2500      20.8270      22.4731      24.8496    -999.2500    -999.2500    -999.2500
   1899.2094       6.2520   -1998.5000      72.0400      68.0300    -999.2500      13.6800      15.3400      19.1310    -999.2500    -999.2500    -999.2500
   1899.3618       6.2219   -1998.5000      71.3212      67.2770    -999.2500      14.1072      16.2477      11.8979    -999.2500    -999.2500    -999.2500
   1899.5142       6.1920   -1998.5000      70.6110      66.5330    -999.2500      14.5300      17.1460       4.7400    -999.2500    -999.2500    -999.2500
   1899.6666       6.1302   -1998.5000      68.1117      62.2290    -999.2500      17.6505      22.2070       5.9834    -999.2500    -999.2500    -999.2500
   1899.8190       6.0690   -1998.5000      65.6420      57.9760    -999.2500      20.7390      27.2160       7.2140    -999.2500    -999.2500    -999.2500
   1899.9714       6.0293   -1998.5000      63.7675      50.3101    -999.2500      28.3591      35.3970      17.8675    -999.2500    -999.2500    -999.2500
   1900.1238       5.9900   -1998.5000      61.9150      42.7340    -999.2500      35.9020      43.4950      28.4130    -999.2500    -999.2500    -999.2500
   1900.2762       5.9965   -1998.5000      60.9092      38.6473    -999.2500      38.2075      46.7119      38.2447    -999.2500    -999.2500    -999.2500
   1900.4286       6.0030   -1998.5000      59.9150      34.6080    -999.2500      40.4880      49.8940      47.9700    -999.2500    -999.2500    -999.2500
   1900.5809       6.0216   -1998.5000      59.3447      30.6714    -999.2500      61.1827      72.0240      46.0439    -999.2500    -999.2500    -999.2500
   1900.7334       6.0400   -1998.5000      58.7810      26.7800    -999.2500      81.6400      93.9000      44.1400    -999.2500    -999.2500    -999.2500
   1900.8857       6.0465   -1998.5000      58.3428      27.1653    -999.2500      81.4454      93.4218      50.3704    -999.2500    -999.2500    -999.2500
   1901.0382       6.0530   -1998.5000      57.9100      27.5460    -999.2500      81.2530      92.9490      56.5300    -999.2500    -999.2500    -999.2500
   1901.1906       6.0756   -1998.5000      58.1973      29.3496    -999.2500      75.3177      85.1226      53.8052    -999.2500    -999.2500    -999.2500
   1901.3430       6.0980   -1998.5000      58.4810      31.1300    -999.2500      69.4490      77.3840      51.1110    -999.2500    -999.2500    -999.2500
   1901.4954       6.1131   -1998.5000      60.9663      30.3591    -999.2500      53.1540      59.3469      41.8893    -999.2500    -999.2500    -999.2500
   1901.6478       6.1280   -1998.5000      63.4200      29.5980    -999.2500      37.0400      41.5100      32.7700    -999.2500    -999.2500    -999.2500
   1901.8002       6.1541   -1998.5000      63.3496      26.8201    -999.2500      37.1521      41.6905      33.0717    -999.2500    -999.2500    -999.2500
   1901.9526       6.1800   -1998.5000      63.2800      24.0770    -999.2500      37.2630      41.8690      33.3700    -999.2500    -999.2500    -999.2500
   1902.1050       6.1649   -1998.5000      63.5250      22.1213    -999.2500      38.2519      42.7392      32.5656    -999.2500    -999.2500    -999.2500
   1902.2574       6.1500   -1998.5000      63.7670      20.1900    -999.2500      39.2300      43.6000      31.7700    -999.2500    -999.2500    -999.2500
   1902.4098       6.1500   -1998.5000      66.1633      20.5880    -999.2500      36.9679      40.8905      27.3664    -999.2500    -999.2500    -999.2500
   1902.5621       6.1500   -1998.5000      68.5300      20.9810    -999.2500      34.7300      38.2100      23.0100    -999.2500    -999.2500    -999.2500
   1902.7146       6.1500   -1998.5000      68.5250      22.7840    -999.2500      34.8909      38.3859      27.9713    -999.2500    -999.2500    -999.2500
   1902.8669       6.1500   -1998.5000      68.5200      24.5650    -999.2500      35.0500      38.5600      32.8800    -999.2500    -999.2500    -999.2500
   1903.0194       6.1199   -1998.5000      68.3766      29.6733    -999.2500      34.3001      37.4230      31.1570    -999.2500    -999.2500    -999.2500
   1903.1718       6.0900   -1998.5000      68.2350      34.7200    -999.2500      33.5580      36.2980      29.4520    -999.2500    -999.2500    -999.2500
   1903.3242       6.0900   -1998.5000      67.7461      34.6627    -999.2500      29.8649      32.0018      18.6450    -999.2500    -999.2500    -999.2500
   1903.4766       6.0900   -1998.5000      67.2630      34.6060    -999.2500      26.2100      27.7500       7.9500    -999.2500    -999.2500    -999.2500
   1903.6290       6.0900   -1998.5000      66.4442      34.2620    -999.2500      26.7337      28.2717       8.7627    -999.2500    -999.2500    -999.2500
   1903.7814       6.0900   -1998.5000      65.6350      33.9220    -999.2500      27.2520      28.7880       9.5670    -999.2500    -999.2500    -999.2500
   1903.9338       6.1026   -1998.5000      62.8160      32.9191    -999.2500      29.1255      30.7439      14.6321    -999.2500    -999.2500    -999.2500
   1904.0862       6.1150   -1998.5000      60.0300      31.9280    -999.2500      30.9800      32.6800      19.6460    -999.2500    -999.2500    -999.2500
   1904.2386       6.1582   -1998.5000      60.3463      29.2384    -999.2500      30.6261      31.9772      55.5566    -999.2500    -999.2500    -999.2500
   1904.3910       6.2010   -1998.5000      60.6590      26.5800    -999.2500      30.2760      31.2820      91.0800    -999.2500    -999.2500    -999.2500
   1904.5433       6.2306   -1998.5000      64.5870      27.4807    -999.2500      26.4229      26.6530      86.8483    -999.2500    -999.2500    -999.2500
