#------------------------------------------------------------------------------
#
#   Created by  : [OpenWorks] Log Export Utility (LEXP)
#   Created on  : 2016-05-23 11:50:56
#   Project     : CANT971
#   User        : R5K
#   Interpreter : PEP
#
#------------------------------------------------------------------------------
~VERSION INFORMATION
VERS. 2.0 : CWLS Log ASCII Standard - version 2.0
WRAP.  NO : One line per depth step
~WELL INFORMATION
#MNEMONIC   .UNIT                                           VALUE :DESCRIPTION
#------------------------------------------------------------------------------
STRT        .M                                           679.7040 :START DEPTH
STOP        .M                                          2836.1641 :STOP DEPTH
STEP        .M                                             0.1524 :STEP
NULL        .                                           -999.2500 :NULL VALUE
COMP        .                                   PEMEX EXPL & PROD :COMPANY
WELL        .                                                1044 :WELL
FLD         .                                           CANTARELL :FIELD
LOC         .                                             UNKNOWN :LOCATION
CNTY        .                                      CD. DEL CARMEN :COUNTY
STAT        .                                            CAMPECHE :STATE
CTRY        .                                              MEXICO :COUNTRY
SRVC        .                                             UNKNOWN :SERVICE COMPANY
DATE        .                                             UNKNOWN :LOG DATE
UWI         .                                          3060000497 :UNIQUE WELL ID
XCOORD      .                                       596164.320000 :SURFACE X
YCOORD      .                                      2150609.730000 :SURFACE Y
LAT         .                                           19.448753 :LATITUDE
LON         .                                          -92.083884 :LONGITUDE
ELEV        .M                                            30.0000 :SURFACE ELEV
ELEV_TYPE   .                                                  KB :ELEV TYPE
~CURVE INFORMATION
#MNEMONIC.UNIT        API CODE       : CURVE DESCRIPTION
#------------------------------------------------------------------------------
DEPTH    .M                          : Measured Depth
CALI     .inches      UNKNOWN        : CALI:litodensidad:rC:NONE:v0 (auto-composite)
DRHO     .g/cm3       UNKNOWN        : DRHO:litodensidad:rC:NONE:v0 (auto-composite)
DT       .us/ft       UNKNOWN        : DT:DT:rC:NONE:v0 (auto-composite)
GR       .API         UNKNOWN        : GR:UNKNOWN:rC:NONE:v0 (auto-composite)
ILD      .ohm.m       UNKNOWN        : ILD:UNKNOWN:rC:NONE:v0 (auto-composite)
ILM      .ohm.m       UNKNOWN        : ILM:UNKNOWN:rC:NONE:v0 (auto-composite)
LLD      .ohm.m       UNKNOWN        : LLD:UNKNOWN:rC:NONE:v0 (auto-composite)
LLS      .ohm.m       UNKNOWN        : LLS:UNKNOWN:rC:NONE:v0 (auto-composite)
MSFL     .ohm.m       UNKNOWN        : MSFL:UNKNOWN:rC:NONE:v0 (auto-composite)
NPHI     .v/v_decimal UNKNOWN        : NPHI:NPHI:rC:NONE:v0 (auto-composite)
PEF      .b/elec      UNKNOWN        : PEF:UNKNOWN:rC:NONE:v0 (auto-composite)
RHOB     .g/cm3       UNKNOWN        : RHOB:UNKNOWN:rC:NONE:v0 (auto-composite)
~A     DEPTH         CALI         DRHO           DT           GR          ILD          ILM          LLD          LLS         MSFL         NPHI          PEF         RHOB
# ...
   2662.1233      10.0920       0.1420      91.7640     152.6680    -999.2500    -999.2500       3.7459       3.2146       3.9137       0.3013       2.7750       2.3140
   2662.2756      10.1839       0.1375      92.3488     154.4557    -999.2500    -999.2500       3.8932       3.3124       3.9360       0.3147       2.8334       2.3265
   2662.4280      10.2760       0.1330      92.9350     156.2390    -999.2500    -999.2500       4.0409       3.4105       3.9584       0.3281       2.8920       2.3390
   2662.5803      10.0932       0.1115      92.0676     153.0818    -999.2500    -999.2500       4.4369       3.7168       4.6830       0.3143       2.9699       2.3735
   2662.7327       9.9100       0.0900      91.1980     149.9320    -999.2500    -999.2500       4.8340       4.0239       5.4095       0.3005       3.0480       2.4080
   2662.8853       9.6766       0.0930      89.4089     142.3711    -999.2500    -999.2500       5.3812       4.4589       6.9527       0.2835       3.0021       2.4375
   2663.0376       9.4430       0.0960      87.6180     134.8270    -999.2500    -999.2500       5.9299       4.8951       8.4999       0.2665       2.9560       2.4670
   2663.1899       9.2996       0.0935      85.2228     130.0855    -999.2500    -999.2500       6.1452       5.1050       9.2610       0.2496       2.9865       2.4840
   2663.3423       9.1560       0.0910      82.8250     125.3540    -999.2500    -999.2500       6.3611       5.3155      10.0242       0.2326       3.0170       2.5010
   2663.4949       8.9801       0.0825      76.9116     129.1823    -999.2500    -999.2500       6.1967       5.2301      10.0522       0.1677       2.9560       2.5700
   2663.6472       8.8040       0.0740      70.9910     133.0030    -999.2500    -999.2500       6.0320       5.1446      10.0802       0.1027       2.8950       2.6390
   2663.7996       8.8540       0.0755      72.0883     139.3208    -999.2500    -999.2500       5.5024       4.7759       8.8635       0.1126       2.9070       2.6165
   2663.9519       8.9040       0.0770      73.1870     145.6270    -999.2500    -999.2500       4.9721       4.4068       7.6451       0.1225       2.9190       2.5940
   2664.1045       8.9934       0.0990      76.1478     148.3123    -999.2500    -999.2500       4.4812       4.0521       6.4360       0.1470       2.9475       2.5535
   2664.2568       9.0830       0.1210      79.1130     150.9930    -999.2500    -999.2500       3.9895       3.6969       5.2251       0.1714       2.9760       2.5130
   2664.4092       9.2369       0.1645      81.9372     148.7027    -999.2500    -999.2500       3.7386       3.5233       4.7449       0.1879       2.9260       2.4885
   2664.5615       9.3910       0.2080      84.7660     146.4160    -999.2500    -999.2500       3.4873       3.3494       4.2639       0.2044       2.8760       2.4640
   2664.7139       9.6793       0.2365      86.5085     149.1015    -999.2500    -999.2500       3.3648       3.2901       4.1013       0.2119       2.8975       2.4450
   2664.8665       9.9680       0.2650      88.2540     151.7830    -999.2500    -999.2500       3.2422       3.2308       3.9384       0.2193       2.9190       2.4260
   2665.0188       9.9625       0.2495      90.4834     150.0715    -999.2500    -999.2500       3.1574       3.2119       3.8862       0.2430       2.9794       2.4390
   2665.1711       9.9570       0.2340      92.7170     148.3650    -999.2500    -999.2500       3.0724       3.1931       3.8339       0.2667       3.0400       2.4520
   2665.3235       9.9260       0.1910      92.3279     148.4246    -999.2500    -999.2500       3.0470       3.2094       3.8646       0.2666       3.0090       2.4355
   2665.4761       9.8950       0.1480      91.9380     148.4840    -999.2500    -999.2500       3.0217       3.2257       3.8954       0.2664       2.9780       2.4190
   2665.6284       9.7551       0.1520      90.6059     152.5665    -999.2500    -999.2500       3.0399       3.2622       3.9973       0.2640       2.9355       2.4315
   2665.7808       9.6150       0.1560      89.2710     156.6380    -999.2500    -999.2500       3.0582       3.2989       4.0994       0.2616       2.8930       2.4440
   2665.9331       9.8358       0.1660      89.7420     155.4169    -999.2500    -999.2500       3.0629       3.3118       4.1886       0.2616       2.9190       2.4425
   2666.0857      10.0570       0.1760      90.2140     154.1990    -999.2500    -999.2500       3.0677       3.3247       4.2780       0.2616       2.9450       2.4410
   2666.2380      10.0295       0.1750      90.0901     152.6261    -999.2500    -999.2500       3.0691       3.3216       4.3011       0.2622       2.8561       2.4375
   2666.3904      10.0020       0.1740      89.9660     151.0570    -999.2500    -999.2500       3.0705       3.3184       4.3242       0.2628       2.7670       2.4340
   2666.5427      10.1543       0.1660      90.1648     153.1469    -999.2500    -999.2500       3.0458       3.2860       4.2705       0.2696       2.7720       2.4265
   2666.6951      10.3070       0.1580      90.3640     155.2320    -999.2500    -999.2500       3.0210       3.2534       4.2168       0.2764       2.7770       2.4190
   2666.8477      10.3065       0.1375      91.4255     157.4960    -999.2500    -999.2500       2.9903       3.2069       4.1345       0.2709       2.8239       2.4060
   2667.0000      10.3060       0.1170      92.4880     159.7550    -999.2500    -999.2500       2.9595       3.1603       4.0521       0.2655       2.8710       2.3930
   2667.1523      10.2835       0.1175      92.3970     157.8300    -999.2500    -999.2500       2.9451       3.1283       3.9829       0.2659       2.9599       2.3845
   2667.3047      10.2610       0.1180      92.3060     155.9090    -999.2500    -999.2500       2.9307       3.0963       3.9135       0.2663       3.0490       2.3760
   2667.4573      10.5263       0.1205      92.5938     153.6478    -999.2500    -999.2500       2.9296       3.0801       3.8689       0.2746       3.0450       2.3745
   2667.6096      10.7920       0.1230      92.8820     151.3910    -999.2500    -999.2500       2.9284       3.0640       3.8243       0.2830       3.0410       2.3730
   2667.7620      10.7320       0.1225      92.7201     150.6603    -999.2500    -999.2500       2.9322       3.0620       3.7995       0.2744       3.0370       2.3825
   2667.9143      10.6720       0.1220      92.5580     149.9310    -999.2500    -999.2500       2.9359       3.0601       3.7748       0.2659       3.0330       2.3920
   2668.0669      10.5481       0.1205      92.5590     150.0316    -999.2500    -999.2500       2.9486       3.0725       3.7459       0.2664       3.0215       2.3860
   2668.2192      10.4240       0.1190      92.5600     150.1320    -999.2500    -999.2500       2.9614       3.0848       3.7171       0.2669       3.0100       2.3800
   2668.3716      10.5449       0.1210      93.9294     151.6212    -999.2500    -999.2500       3.0130       3.1286       3.6569       0.2834       3.0175       2.3665
   2668.5239      10.6660       0.1230      95.3010     153.1080    -999.2500    -999.2500       3.0647       3.1725       3.5966       0.2999       3.0250       2.3530
   2668.6763      10.5491       0.1275      95.0033     152.6747    -999.2500    -999.2500       3.1573       3.2540       3.5771       0.2996       3.0040       2.3595
   2668.8289      10.4320       0.1320      94.7050     152.2420    -999.2500    -999.2500       3.2501       3.3356       3.5576       0.2993       2.9830       2.3660
   2668.9812      10.4690       0.1235      93.7559     150.2586    -999.2500    -999.2500       3.3317       3.4234       3.6001       0.2928       2.9315       2.3755
   2669.1335      10.5060       0.1150      92.8050     148.2810    -999.2500    -999.2500       3.4134       3.5113       3.6427       0.2864       2.8800       2.3850
   2669.2859      10.5465       0.1160      92.0677     144.4812    -999.2500    -999.2500       3.4387       3.5534       3.7428       0.2919       2.8340       2.3770
