#------------------------------------------------------------------------------
#
#   Created by  : [OpenWorks] Log Export Utility (LEXP)
#   Created on  : 2016-05-23 11:52:51
#   Project     : CANT971
#   User        : R5K
#   Interpreter : PEP
#
#------------------------------------------------------------------------------
~VERSION INFORMATION
VERS. 2.0 : CWLS Log ASCII Standard - version 2.0
WRAP.  NO : One line per depth step
~WELL INFORMATION
#MNEMONIC   .UNIT                                           VALUE :DESCRIPTION
#------------------------------------------------------------------------------
STRT        .M                                           691.4386 :START DEPTH
STOP        .M                                          2836.4685 :STOP DEPTH
STEP        .M                                             0.1524 :STEP
NULL        .                                           -999.2500 :NULL VALUE
COMP        .                                   PEMEX EXPL & PROD :COMPANY
WELL        .                                                2094 :WELL
FLD         .                                           CANTARELL :FIELD
LOC         .                                             UNKNOWN :LOCATION
CNTY        .                                      CD. DEL CARMEN :COUNTY
STAT        .                                            CAMPECHE :STATE
CTRY        .                                              MEXICO :COUNTRY
SRVC        .                                             UNKNOWN :SERVICE COMPANY
DATE        .                                             UNKNOWN :LOG DATE
UWI         .                                          3060000525 :UNIQUE WELL ID
XCOORD      .                                       601711.170000 :SURFACE X
YCOORD      .                                      2142342.970000 :SURFACE Y
LAT         .                                           19.373776 :LATITUDE
LON         .                                          -92.031490 :LONGITUDE
ELEV        .M                                            24.0000 :SURFACE ELEV
ELEV_TYPE   .                                                  KB :ELEV TYPE
~CURVE INFORMATION
#MNEMONIC.UNIT        API CODE       : CURVE DESCRIPTION
#------------------------------------------------------------------------------
DEPTH    .M                          : Measured Depth
CALI     .in          UNKNOWN        : CALI:registros:rC:NONE:v0 (auto-composite)
DRHO     .g/cm3       UNKNOWN        : DRHO:registros:rC:NONE:v0 (auto-composite)
DT       .us/ft       UNKNOWN        : DT:registros:rC:NONE:v0 (auto-composite)
GR       .API         UNKNOWN        : GR:registros:rC:NONE:v0 (auto-composite)
ILD      .ohm.m       UNKNOWN        : ILD:registros:rC:NONE:v0 (auto-composite)
ILM      .ohm.m       UNKNOWN        : ILM:registros:rC:NONE:v0 (auto-composite)
LLD      .ohm.m       UNKNOWN        : LLD:registros:rC:NONE:v0 (auto-composite)
LLS      .ohm.m       UNKNOWN        : LLS:registros:rC:NONE:v0 (auto-composite)
MSFL     .ohm.m       UNKNOWN        : MSFL:registros:rC:NONE:v0 (auto-composite)
NPHI     .v/v_decimal UNKNOWN        : NPHI:registros:rC:NONE:v0 (auto-composite)
PEF      .b/elec      UNKNOWN        : PEF:registros:rC:NONE:v0 (auto-composite)
RHOB     .g/cm3       UNKNOWN        : RHOB:registros:rC:NONE:v0 (auto-composite)
~A     DEPTH         CALI         DRHO           DT           GR          ILD          ILM          LLD          LLS         MSFL         NPHI          PEF         RHOB
# ...
   2366.6194       8.5645       0.0320      53.3796      41.9792    -999.2500    -999.2500     330.6982     293.6109     216.1567       0.0665       3.3604       2.7230
   2366.7717       8.5550       0.0251      56.6727      41.5400    -999.2500    -999.2500     347.5560     313.2430     167.6250       0.0659       3.4286       2.7108
   2366.9243       8.5041       0.0335      61.4056      38.9127    -999.2500    -999.2500     508.8385     461.6741     195.3864       0.0617       3.4286       2.6895
   2367.0767       8.4670       0.0452      65.0436      36.3060    -999.2500    -999.2500     668.8560     608.9410     222.9740       0.0592       3.4772       2.6701
   2367.2290       8.5019       0.0485      64.8516      35.5405    -999.2500    -999.2500     666.0351     605.6161     652.4901       0.0672       3.7012       2.6640
   2367.3813       8.5398       0.0441      61.8649      34.7810    -999.2500    -999.2500     663.2360     602.3170    1078.6880       0.0759       3.8739       2.6605
   2367.5337       8.5116       0.0310      56.6008      35.2593    -999.2500    -999.2500     637.3753     575.6548    1067.7068       0.0769       3.7584       2.6495
   2367.6863       8.4684       0.0181      52.0061      35.7340    -999.2500    -999.2500     611.7110     549.1950    1056.8090       0.0755       3.5704       2.6386
   2367.8386       8.4590       0.0140      51.1507      35.7210    -999.2500    -999.2500     484.8041     428.2574     589.2819       0.0721       3.5145       2.6355
   2367.9910       8.4634       0.0140      51.7955      35.7080    -999.2500    -999.2500     358.8460     308.2240     125.2500       0.0675       3.5154       2.6387
   2368.1433       8.4645       0.0140      51.9905      35.3853    -999.2500    -999.2500     361.5792     310.2114     126.2958       0.0604       3.5085       2.6480
   2368.2959       8.4633       0.0152      51.9497      35.0650    -999.2500    -999.2500     364.2880     312.1810     127.3340       0.0532       3.4636       2.6622
   2368.4482       8.4605       0.0190      51.8403      32.9820    -999.2500    -999.2500     410.3423     345.0422     145.1689       0.0483       3.3426       2.6815
   2368.6006       8.4546       0.0219      51.7876      30.9140    -999.2500    -999.2500     455.9910     377.6140     162.8750       0.0450       3.1985       2.7007
   2368.7529       8.4435       0.0200      51.9277      31.6321    -999.2500    -999.2500     685.5150     580.7337    1083.4537       0.0451       3.0792       2.7150
   2368.9055       8.4480       0.0162      52.2255      32.3440    -999.2500    -999.2500     913.0440     782.0880    1997.5000       0.0452       3.0182       2.7275
   2369.0579       8.4924       0.0130      52.6778      31.8167    -999.2500    -999.2500    1060.3621     922.2936    1278.9313       0.0422       3.0613       2.7410
   2369.2102       8.5369       0.0104      52.5714      31.2940    -999.2500    -999.2500    1206.4189    1061.2990     565.3760       0.0376       3.0891       2.7533
   2369.3625       8.5415       0.0085      51.0726      31.1308    -999.2500    -999.2500    1293.6874    1121.6708     501.7201       0.0303       2.9772       2.7620
   2369.5149       8.5192       0.0106      51.5068      30.9690    -999.2500    -999.2500    1380.2190    1181.5330     438.5000       0.0242       2.8514       2.7522
   2369.6675       8.4771       0.0205      57.6134      33.8947    -999.2500    -999.2500    1648.2649    1276.8044     628.5503       0.0247       2.8349       2.7051
   2369.8198       8.4526       0.0380      63.1984      36.7960    -999.2500    -999.2500    1914.0830    1371.2841     817.3220       0.0277       2.9127       2.6636
   2369.9722       8.4874       0.0645      61.9958      41.0720    -999.2500    -999.2500    1608.5699    1204.4285    1354.9343       0.0331       3.0902       2.6725
   2370.1245       8.5465       0.0839      62.3964      45.3130    -999.2500    -999.2500    1305.5601    1038.9399    1889.0000       0.0376       3.2331       2.7049
   2370.2771       8.5999       0.0785      73.1371      41.5172    -999.2500    -999.2500     893.8414     723.5024    1013.6333       0.0366       3.1982       2.7394
   2370.4294       8.7594       0.0567      82.9193      37.7520    -999.2500    -999.2500     485.4420     410.6080     143.9370       0.0447       3.0337       2.6958
   2370.5818       9.1621       0.0230      80.2150      36.2812    -999.2500    -999.2500     499.9813     428.9107     158.5771       0.0927       2.7582       2.4747
   2370.7341       9.9307      -0.0076      74.2116      34.8220    -999.2500    -999.2500     514.4050     447.0680     173.1010       0.1712       2.4740       2.1974
   2370.8867      11.2784      -0.0195      73.2758      34.0600    -999.2500    -999.2500     587.4689     514.0090     686.1171       0.3235       2.2807       1.9713
   2371.0391      12.3276      -0.0177      74.2003      33.3040    -999.2500    -999.2500     659.9620     580.4270    1195.1250       0.4585       2.2386       1.8589
   2371.1914      12.1212      -0.0040      74.2259      34.6522    -999.2500    -999.2500     555.9930     519.8228     680.0910       0.4557       2.4450       1.9507
   2371.3438      11.2466       0.0109      73.4415      35.9900    -999.2500    -999.2500     452.8240     459.6850     169.0200       0.3996       2.7595       2.1225
   2371.4961      10.1284       0.0165      71.7318      33.5136    -999.2500    -999.2500     414.1916     420.8542     146.7929       0.2838       3.0672       2.2689
   2371.6487       9.1425       0.0200      67.5462      31.0560    -999.2500    -999.2500     375.9130     382.3790     124.7340       0.1693       3.2804       2.3966
   2371.8010       8.6988       0.0280      58.6899      30.5612    -999.2500    -999.2500     271.2863     280.4765     122.4053       0.1179       3.2872       2.5083
   2371.9534       8.5523       0.0347      51.1164      30.0700    -999.2500    -999.2500     167.6040     179.4940     120.0940       0.0883       3.2105       2.5986
   2372.1057       8.5329       0.0340      51.0536      31.1289    -999.2500    -999.2500     169.2513     180.2966     597.2923       0.0755       3.1531       2.6564
   2372.2583       8.5462       0.0286      53.5057      32.1800    -999.2500    -999.2500     170.8840     181.0920    1071.0000       0.0688       3.1208       2.6845
   2372.4106       8.5056       0.0200      54.1498      31.1378    -999.2500    -999.2500     225.2988     230.3823     581.9123       0.0680       3.1265       2.6775
   2372.5630       8.4616       0.0119      54.0301      30.1030    -999.2500    -999.2500     279.2360     279.2400      96.3440       0.0684       3.1574       2.6634
   2372.7153       8.4645       0.0080      53.9790      29.2443    -999.2500    -999.2500     429.3119     279.1084      57.9348       0.0678       3.2074       2.6685
   2372.8679       8.4920       0.0065      53.7296      28.3930    -999.2500    -999.2500     578.0880     278.9780      19.7970       0.0670       3.2523       2.6788
   2373.0203       8.5289       0.0060      52.9587      26.6661    -999.2500    -999.2500     576.8693     282.6783      17.0334       0.0663       3.2660       2.6820
   2373.1726       8.5604       0.0065      51.5146      24.9540    -999.2500    -999.2500     575.6610     286.3470      14.2890       0.0655       3.2658       2.6808
   2373.3250       8.5700       0.0080      49.0520      24.4057    -999.2500    -999.2500     552.1772     385.6416      13.9283       0.0635       3.2650       2.6770
   2373.4773       8.7436       0.0086      47.4463      23.8620    -999.2500    -999.2500     528.8910     484.1010      13.5700       0.0620       3.2422       2.6582
   2373.6299       9.3179       0.0060      48.8147      26.1098    -999.2500    -999.2500     572.0582     612.3741      10.5113       0.0632       3.1691       2.6076
   2373.7822      10.1001       0.0033      50.8960      28.3390    -999.2500    -999.2500     614.8680     739.5850       7.4730       0.0688       3.1094       2.5548
