#------------------------------------------------------------------------------
#
#   Created by  : [OpenWorks] Log Export Utility (LEXP)
#   Created on  : 2016-05-23 11:50:53
#   Project     : CANT971
#   User        : R5K
#   Interpreter : PEP
#
#------------------------------------------------------------------------------
~VERSION INFORMATION
VERS. 2.0 : CWLS Log ASCII Standard - version 2.0
WRAP.  NO : One line per depth step
~WELL INFORMATION
#MNEMONIC   .UNIT                                           VALUE :DESCRIPTION
#------------------------------------------------------------------------------
STRT        .M                                           494.4622 :START DEPTH
STOP        .M                                          2707.4626 :STOP DEPTH
STEP        .M                                             0.1524 :STEP
NULL        .                                           -999.2500 :NULL VALUE
COMP        .                                   PEMEX EXPL & PROD :COMPANY
WELL        .                                                1042 :WELL
FLD         .                                           CANTARELL :FIELD
LOC         .                                             UNKNOWN :LOCATION
CNTY        .                                      CD. DEL CARMEN :COUNTY
STAT        .                                            CAMPECHE :STATE
CTRY        .                                              MEXICO :COUNTRY
SRVC        .                                             UNKNOWN :SERVICE COMPANY
DATE        .                                             UNKNOWN :LOG DATE
UWI         .                                          3060000495 :UNIQUE WELL ID
XCOORD      .                                       596162.680000 :SURFACE X
YCOORD      .                                      2150604.600000 :SURFACE Y
LAT         .                                           19.448706 :LATITUDE
LON         .                                          -92.083900 :LONGITUDE
ELEV        .M                                            30.0000 :SURFACE ELEV
ELEV_TYPE   .                                                  KB :ELEV TYPE
~CURVE INFORMATION
#MNEMONIC.UNIT        API CODE       : CURVE DESCRIPTION
#------------------------------------------------------------------------------
DEPTH    .M                          : Measured Depth
CALI     .inches      UNKNOWN        : CALI:litodensidad:rC:NONE:v0 (auto-composite)
DT       .us/ft       UNKNOWN        : DT:DT:rC:NONE:v0 (auto-composite)
GR       .API         UNKNOWN        : GR:GR-Load:rC:NONE:v0 (auto-composite)
ILD      .ohmm        UNKNOWN        : ILD:UNKNOWN:rC:NONE:v0 (auto-composite)
LLD      .ohmm        UNKNOWN        : LLD:UNKNOWN:rC:NONE:v0 (auto-composite)
LLS      .ohmm        UNKNOWN        : LLS:UNKNOWN:rC:NONE:v0 (auto-composite)
MSFL     .ohmm        UNKNOWN        : MSFL:UNKNOWN:rC:NONE:v0 (auto-composite)
NPHI     .v/v_decimal UNKNOWN        : NPHI:NPHI:rC:NONE:v0 (auto-composite)
~A     DEPTH         CALI           DT           GR          ILD          LLD          LLS         MSFL         NPHI
# ...
   2050.7710    -999.2500    -999.2500      33.6266       0.2000     516.0135     348.2267      13.2858       0.0717
   2050.9233    -999.2500    -999.2500      32.7513       0.2000     387.0675     249.3145      18.5464       0.0693
   2051.0759    -999.2500    -999.2500      33.2650       0.2000     310.9846     200.0034      15.7553       0.0657
   2051.2283    -999.2500    -999.2500      35.1717       0.2000     236.1631     151.8759      12.7720       0.0609
   2051.3806    -999.2500    -999.2500      35.4105       0.2000     235.5967     152.1228       8.5294       0.0624
   2051.5330    -999.2500    -999.2500      33.9816       0.2000     236.3733     153.2445       4.2640       0.0703
   2051.6855    -999.2500    -999.2500      33.3362       0.2000     222.4788     149.9674       4.6584       0.0781
   2051.8379    -999.2500    -999.2500      33.4767       0.2000     208.2620     146.6010       5.1220       0.0857
   2051.9902    -999.2500    -999.2500      33.8318       0.2000     169.1263     124.8965       7.3531       0.0915
   2052.1426    -999.2500    -999.2500      34.4016       0.2000     129.5560     102.9510       9.6090       0.0952
   2052.2952    -999.2500    -999.2500      33.8935       0.2000     110.0358      91.8796      11.4326       0.1016
   2052.4475    -999.2500    -999.2500      32.3034       0.2000      90.5170      80.8090      13.2560       0.1104
   2052.5999    -999.2500    -999.2500      31.7895       0.2000      74.1268      63.3865      11.3358       0.1185
   2052.7522    -999.2500    -999.2500      32.3528       0.2000      57.9190      46.1580       9.4370       0.1259
   2052.9045    -999.2500    -999.2500      33.3852       0.2000    8451.6182    8089.9341      10.1569       0.1240
   2053.0571    -999.2500    -999.2500      34.8887       0.2000   16673.4180   15968.9766      10.8620       0.1127
   2053.2095    -999.2500    -999.2500      33.9456       0.2000   32743.6621   34013.3359      15.6914       0.1018
   2053.3618    -999.2500    -999.2500      30.5526       0.2000   48406.5859   51679.7578      20.4324       0.0912
   2053.5142    -999.2500    -999.2500      31.2514       0.2000   52392.1055   60606.5625      23.5390       0.0864
   2053.6667    -999.2500    -999.2500      36.0616       0.2000   56296.0938   69405.8203      26.3125       0.0875
   2053.8191    -999.2500    -999.2500      36.3838       0.2000   56794.9531   72878.2422      15.1721       0.0885
   2053.9714    -999.2500    -999.2500      32.2096       0.2000   57200.9023   76255.5625       4.4740       0.0894
   2054.1238    -999.2500    -999.2500      30.6820       0.2000   54487.9648   76440.1797       8.6235       0.0897
   2054.2764    -999.2500    -999.2500      31.8149       0.2000   51776.2266   76617.0000      12.9566       0.0893
   2054.4287    -999.2500    -999.2500      33.1233       0.2000   49097.9531   76575.5703      22.4303       0.0880
   2054.5811    -999.2500    -999.2500      34.6077       0.2000   46536.6602   76527.6953      31.4396       0.0858
   2054.7334    -999.2500    -999.2500      34.7071       0.2000   46781.7148   76325.1562      29.3054       0.0850
   2054.8857    -999.2500    -999.2500      33.4137       0.2000   47165.5898   76104.7578      27.6934       0.0856
   2055.0383    -999.2500    -999.2500      32.7835       0.2000   50568.7422   75495.6719      37.4379       0.0911
   2055.1907    -999.2500    -999.2500      32.8185       0.2000   53584.4492   74763.5469      45.8283       0.1013
   2055.3430    -999.2500    -999.2500      33.5447       0.2000   49161.0039   71668.8672      28.2190       0.1135
   2055.4954    -999.2500    -999.2500      34.9621       0.2000   44531.2383   68047.1094      11.7188       0.1275
   2055.6479    -999.2500    -999.2500      35.5062       0.2000   36359.8086   55377.4609      14.2578       0.1581
   2055.8003    -999.2500    -999.2500      35.1741       0.2000   27932.6797   42318.3398      19.6169       0.2052
   2055.9526    -999.2500    -999.2500      34.1355       0.2000   15541.2188   23220.7656      68.6979       0.2151
   2056.1050    -999.2500    -999.2500      32.3903       0.2000    3844.6582    5215.8286     112.4735       0.1881
   2056.2576    -999.2500    -999.2500      32.2641       0.2000    1960.4119    2639.4421      81.3326       0.1626
   2056.4099    -999.2500    -999.2500      33.7631       0.2000     211.0140     246.7437      51.1770       0.1387
   2056.5623    -999.2500    -999.2500      36.3207       0.2000     251.0404     291.5615      34.0962       0.1201
   2056.7146    -999.2500    -999.2500      39.9376       0.2000     295.7514     343.3648      18.0500       0.1067
   2056.8669    -999.2500    -999.2500      40.6817       0.2000     397.7246     480.5587      14.6521       0.0985
   2057.0195    -999.2500    -999.2500      38.5404       0.2000     496.2738     613.8427      11.4131       0.0952
   2057.1719    -999.2500    -999.2500      37.7152       0.2000     556.0631     702.8659       9.9731       0.0964
   2057.3242    -999.2500    -999.2500      38.2080       0.2000     609.4473     783.2053       8.9722       0.1021
   2057.4766    -999.2500    -999.2500      39.0158       0.2000     595.3687     772.0805      12.5952       0.1043
   2057.6292    -999.2500    -999.2500      40.1403       0.2000     571.6805     747.8647      16.0734       0.1031
   2057.7815    -999.2500    -999.2500      38.3625       0.2000     453.4364     594.8391      18.1264       0.0990
   2057.9338    -999.2500    -999.2500      33.6770       0.2000     340.4462     448.2281      19.6210       0.0921
   2058.0862    -999.2500    -999.2500      32.3584       0.2000     276.8184     361.8847      15.8686       0.0852
   2058.2388    -999.2500    -999.2500      34.4246       0.2000     222.5365     287.0096      12.5282       0.0785
   2058.3911    -999.2500    -999.2500      35.9724       0.2000     250.7697     313.3873      12.8256       0.0754
   2058.5435    -999.2500    -999.2500      37.0005       0.2000     290.6609     351.2555      13.1176       0.0758
   2058.6958    -999.2500    -999.2500      35.8580       0.2000     427.5573     484.7370      13.3658       0.0741
   2058.8481    -999.2500    -999.2500      32.5323       0.2000     878.3715     902.1706      13.8878       0.0702
   2059.0007    -999.2500    -999.2500      31.4866       0.2000    3797.5225    3552.3210      16.5622       0.0696
   2059.1531    -999.2500    -999.2500      32.7275       0.2000    7276.5093    6943.5391      18.5076       0.0723
   2059.3054    -999.2500    -999.2500      33.7024       0.2000   14925.0957   15854.1514      15.0240       0.0760
   2059.4578    -999.2500    -999.2500      34.4110       0.2000   20781.2656   22852.3809      11.5464       0.0808
   2059.6104    -999.2500    -999.2500      33.1919       0.2000   13965.1689   16330.1855       8.1116       0.0803
   2059.7627    -999.2500    -999.2500      30.0382       0.2000    8081.5044   10782.6650       5.1940       0.0743
   2059.9150    -999.2500    -999.2500      29.3217       0.2000    8558.0723   11883.5215       5.8042       0.0738
   2060.0674    -999.2500    -999.2500      31.0434       0.2000    8402.2324   12012.1592       6.4351       0.0786
   2060.2200    -999.2500    -999.2500      30.2349       0.2000    4138.2197    5825.1904       7.2002       0.0808
   2060.3723    -999.2500    -999.2500      26.8862       0.2000     465.0034     493.7984       7.8691       0.0803
   2060.5247    -999.2500    -999.2500      25.6039       0.2000     452.9439     464.4019       7.9418       0.0790
   2060.6770    -999.2500    -999.2500      26.3901       0.2000     443.1554     440.1756       7.9297       0.0769
   2060.8293    -999.2500    -999.2500      28.3623       0.2000     446.8126     446.5608       7.4158       0.0771
   2060.9819    -999.2500    -999.2500      31.5260       0.2000     444.8515     448.4695       6.7389       0.0797
   2061.1343    -999.2500    -999.2500      31.8527       0.2000     411.0629     425.0183       5.1388       0.0833
