#------------------------------------------------------------------------------
#
#   Created by  : [OpenWorks] Log Export Utility (LEXP)
#   Created on  : 2016-05-23 11:53:36
#   Project     : CANT971
#   User        : R5K
#   Interpreter : PEP
#
#------------------------------------------------------------------------------
~VERSION INFORMATION
VERS. 2.0 : CWLS Log ASCII Standard - version 2.0
WRAP.  NO : One line per depth step
~WELL INFORMATION
#MNEMONIC   .UNIT                                           VALUE :DESCRIPTION
#------------------------------------------------------------------------------
STRT        .M                                           940.3716 :START DEPTH
STOP        .M                                          3167.2405 :STOP DEPTH
STEP        .M                                             0.1524 :STEP
NULL        .                                           -999.2500 :NULL VALUE
COMP        .                                   PEMEX EXPL & PROD :COMPANY
WELL        .                                                  24 :WELL
FLD         .                                           CANTARELL :FIELD
LOC         .                                             UNKNOWN :LOCATION
CNTY        .                                      CD. DEL CARMEN :COUNTY
STAT        .                                            CAMPECHE :STATE
CTRY        .                                              MEXICO :COUNTRY
SRVC        .                                             UNKNOWN :SERVICE COMPANY
DATE        .                                             UNKNOWN :LOG DATE
UWI         .                                          3060000153 :UNIQUE WELL ID
XCOORD      .                                       598455.290000 :SURFACE X
YCOORD      .                                      2145024.750000 :SURFACE Y
LAT         .                                           19.398172 :LATITUDE
LON         .                                          -92.062351 :LONGITUDE
ELEV        .M                                            26.5400 :SURFACE ELEV
ELEV_TYPE   .                                                  KB :ELEV TYPE
~CURVE INFORMATION
#MNEMONIC.UNIT        API CODE       : CURVE DESCRIPTION
#------------------------------------------------------------------------------
DEPTH    .M                          : Measured Depth
CALI     .inches      UNKNOWN        : CALI:Import:rC:NONE:v0 (auto-composite)
DRHO     .g/cm3       UNKNOWN        : DRHO:Import:rC:NONE:v0 (auto-composite)
DT       .us/ft       UNKNOWN        : DT:Import:rC:NONE:v0 (auto-composite)
GR       .API         UNKNOWN        : GR:Import:rC:NONE:v0 (auto-composite)
ILD      .ohm.m       UNKNOWN        : ILD:Import:rC:NONE:v0 (auto-composite)
LLD      .ohm.m       UNKNOWN        : LLD:Import:rC:NONE:v0 (auto-composite)
LLS      .ohm.m       UNKNOWN        : LLS:Import:rC:NONE:v0 (auto-composite)
MSFL     .ohm.m       UNKNOWN        : MSFL:Import:rC:NONE:v0 (auto-composite)
NPHI     .v/v_decimal UNKNOWN        : NPHI:Import:rC:NONE:v0 (auto-composite)
RHOB     .g/cm3       UNKNOWN        : RHOB:Import:rC:NONE:v0 (auto-composite)
~A     DEPTH         CALI         DRHO           DT           GR          ILD          LLD          LLS         MSFL         NPHI         RHOB
# ...
   2305.8755    -999.2500    -999.2500    -999.2500      20.7996    -999.2500      79.0017      79.8048      66.3223       0.0040    -999.2500
   2306.0281    -999.2500    -999.2500    -999.2500      21.6880    -999.2500      69.8480      83.1675      72.7486       0.0039    -999.2500
   2306.1804    -999.2500    -999.2500    -999.2500      21.8044    -999.2500      61.3832      75.9716      66.1010       0.0043    -999.2500
   2306.3328    -999.2500    -999.2500    -999.2500      21.9164    -999.2500      53.1786      68.9006      59.5516       0.0048    -999.2500
   2306.4851    -999.2500    -999.2500    -999.2500      21.9923    -999.2500      47.0662      62.8336      53.7917       0.0054    -999.2500
   2306.6377    -999.2500    -999.2500    -999.2500      22.0443    -999.2500      41.1884      56.9797      48.3883       0.0059    -999.2500
   2306.7900    -999.2500    -999.2500    -999.2500      21.8994    -999.2500      37.2456      52.8825      45.9228       0.0066    -999.2500
   2306.9424    -999.2500    -999.2500    -999.2500      21.7914    -999.2500      33.5945      49.0943      43.6783       0.0074    -999.2500
   2307.0947    -999.2500    -999.2500    -999.2500      21.9910    -999.2500      32.3691      47.8764      43.2712       0.0084    -999.2500
   2307.2471    -999.2500    -999.2500    -999.2500      22.3075    -999.2500      31.2514      46.7528      42.9136       0.0093    -999.2500
   2307.3997    -999.2500    -999.2500    -999.2500      23.5435    -999.2500      30.9805      46.3700      42.9456       0.0091    -999.2500
   2307.5520    -999.2500    -999.2500    -999.2500      24.7950    -999.2500      30.7679      46.0266      42.9784       0.0088    -999.2500
   2307.7043    -999.2500    -999.2500    -999.2500      26.1698    -999.2500      31.0166      45.9967      43.0173       0.0084    -999.2500
   2307.8567    -999.2500    -999.2500    -999.2500      27.5849    -999.2500      31.3524      46.0918      43.4334       0.0080    -999.2500
   2308.0093    -999.2500    -999.2500    -999.2500      29.3277    -999.2500      32.3970      47.2038      46.9154       0.0077    -999.2500
   2308.1616    -999.2500    -999.2500    -999.2500      31.1829    -999.2500      33.3592      48.2404      50.2488       0.0078    -999.2500
   2308.3140    -999.2500    -999.2500    -999.2500      33.9607    -999.2500      33.6461      48.6577      52.3628       0.0090    -999.2500
   2308.4663    -999.2500    -999.2500    -999.2500      37.0426    -999.2500      33.9209      49.0284      54.4974       0.0101    -999.2500
   2308.6189    -999.2500    -999.2500    -999.2500      42.6411    -999.2500      34.0964      49.0133      56.8013       0.0095    -999.2500
   2308.7712    -999.2500    -999.2500    -999.2500      47.9421    -999.2500      34.3477      49.0502      60.3843       0.0086    -999.2500
   2308.9236    -999.2500    -999.2500    -999.2500      50.9159    -999.2500      35.1916      49.4926      73.9726       0.0076    -999.2500
   2309.0759    -999.2500    -999.2500    -999.2500      53.3972    -999.2500      36.1309      50.0331      90.1456       0.0066    -999.2500
   2309.2283    -999.2500    -999.2500    -999.2500      51.9294    -999.2500      37.8341      51.3595     127.0427       0.0054    -999.2500
   2309.3809    -999.2500    -999.2500    -999.2500      50.4562    -999.2500      38.7638      51.3534     155.6981       0.0043    -999.2500
   2309.5332    -999.2500    -999.2500    -999.2500      48.9398    -999.2500      33.4361      40.5685     117.6910       0.0044    -999.2500
   2309.6855    -999.2500    -999.2500    -999.2500      47.1280    -999.2500      28.3885      30.5210      81.0607       0.0045    -999.2500
   2309.8379    -999.2500    -999.2500    -999.2500      42.9052    -999.2500      25.6269      26.4905      55.6655       0.0041    -999.2500
   2309.9905    -999.2500    -999.2500    -999.2500      38.3127    -999.2500      23.9745      24.5268      34.5287       0.0039    -999.2500
   2310.1428    -999.2500    -999.2500    -999.2500      30.6245    -999.2500      31.6082      39.8672      49.0434       0.0048    -999.2500
   2310.2952    -999.2500    -999.2500    -999.2500      23.7787    -999.2500      40.0086      56.6049      65.8874       0.0063    -999.2500
   2310.4475    -999.2500    -999.2500    -999.2500      24.0494    -999.2500      54.8869      85.1485     102.4101       0.0094    -999.2500
   2310.6001    -999.2500    -999.2500    -999.2500      24.3195    -999.2500      70.9237     115.8084     141.2658       0.0127    -999.2500
   2310.7524    -999.2500    -999.2500    -999.2500      24.5844    -999.2500      96.2038     163.3524     198.7345       0.0160    -999.2500
   2310.9048    -999.2500    -999.2500    -999.2500      24.7384    -999.2500     123.3438     212.2755     251.0601       0.0188    -999.2500
   2311.0571    -999.2500    -999.2500    -999.2500      23.9998    -999.2500     165.4534     272.2985     261.9916       0.0194    -999.2500
   2311.2095    -999.2500    -999.2500    -999.2500      23.1973    -999.2500     213.8039     340.5445     276.9358       0.0193    -999.2500
   2311.3621    -999.2500    -999.2500    -999.2500      21.8674    -999.2500     313.6732     476.6717     325.0045       0.0169    -999.2500
   2311.5144    -999.2500    -999.2500    -999.2500      20.6337    -999.2500     422.9864     628.2529     375.2583       0.0141    -999.2500
   2311.6667    -999.2500    -999.2500    -999.2500      20.2020    -999.2500     610.9625     908.5594     443.7126       0.0107    -999.2500
   2311.8191    -999.2500    -999.2500    -999.2500      19.7165    -999.2500     810.3987    1179.5431     501.1375       0.0074    -999.2500
   2311.9717    -999.2500    -999.2500    -999.2500      18.8074    -999.2500    1100.0347    1377.1493     471.7527       0.0059    -999.2500
   2312.1240    -999.2500    -999.2500    -999.2500      18.0603    -999.2500    1336.0990    1529.9652     435.8572       0.0047    -999.2500
   2312.2764    -999.2500    -999.2500    -999.2500      18.5997    -999.2500    1146.8463    1327.1802     348.2727       0.0045    -999.2500
   2312.4287    -999.2500    -999.2500    -999.2500      18.9816    -999.2500     968.3369    1143.1022     266.9852       0.0045    -999.2500
   2312.5813    -999.2500    -999.2500    -999.2500      18.0820    -999.2500     877.2852    1111.3130     236.9602       0.0048    -999.2500
   2312.7336    -999.2500    -999.2500    -999.2500      17.3218    -999.2500     783.0931    1056.5145     206.5350       0.0050    -999.2500
   2312.8860    -999.2500    -999.2500    -999.2500      17.7066    -999.2500     663.1069     812.7313     172.8225       0.0047    -999.2500
   2313.0383    -999.2500    -999.2500    -999.2500      17.9204    -999.2500     555.5563     589.8018     142.9047       0.0045    -999.2500
   2313.1907    -999.2500    -999.2500    -999.2500      16.7171    -999.2500     551.0638     539.6944     144.4339       0.0047    -999.2500
   2313.3433    -999.2500    -999.2500    -999.2500      15.7687    -999.2500     552.1968     499.8594     147.1929       0.0050    -999.2500
   2313.4956    -999.2500    -999.2500    -999.2500      16.8174    -999.2500     597.3911     540.4844     159.5847       0.0053    -999.2500
   2313.6479    -999.2500    -999.2500    -999.2500      17.6581    -999.2500     642.4263     574.3190     179.1811       0.0055    -999.2500
   2313.8003    -999.2500    -999.2500    -999.2500      16.8285    -999.2500     686.1844     553.6329     256.6256       0.0052    -999.2500
   2313.9529    -999.2500    -999.2500    -999.2500      16.1636    -999.2500     734.9397     548.7366     323.0485       0.0049    -999.2500
   2314.1052    -999.2500    -999.2500    -999.2500      16.8333    -999.2500     824.1736     671.7405     300.1934       0.0047    -999.2500
   2314.2576    -999.2500    -999.2500    -999.2500      17.4115    -999.2500     908.8382     806.8807     290.2780       0.0044    -999.2500
