#------------------------------------------------------------------------------
#
#   Created by  : [OpenWorks] Log Export Utility (LEXP)
#   Created on  : 2016-05-23 11:51:58
#   Project     : CANT971
#   User        : R5K
#   Interpreter : PEP
#
#------------------------------------------------------------------------------
~VERSION INFORMATION
VERS. 2.0 : CWLS Log ASCII Standard - version 2.0
WRAP.  NO : One line per depth step
~WELL INFORMATION
#MNEMONIC   .UNIT                                           VALUE :DESCRIPTION
#------------------------------------------------------------------------------
STRT        .M                                           695.7060 :START DEPTH
STOP        .M                                          3054.7056 :STOP DEPTH
STEP        .M                                             0.1524 :STEP
NULL        .                                           -999.2500 :NULL VALUE
COMP        .                                   PEMEX EXPL & PROD :COMPANY
WELL        .                                                 17D :WELL
FLD         .                                           CANTARELL :FIELD
LOC         .                                             UNKNOWN :LOCATION
CNTY        .                                      CD. DEL CARMEN :COUNTY
STAT        .                                            CAMPECHE :STATE
CTRY        .                                              MEXICO :COUNTRY
SRVC        .                                             UNKNOWN :SERVICE COMPANY
DATE        .                                             UNKNOWN :LOG DATE
UWI         .                                          3060000460 :UNIQUE WELL ID
XCOORD      .                                       603362.626000 :SURFACE X
YCOORD      .                                      2145093.910000 :SURFACE Y
LAT         .                                           19.398550 :LATITUDE
LON         .                                          -92.015617 :LONGITUDE
ELEV        .M                                            27.1400 :SURFACE ELEV
ELEV_TYPE   .                                                  KB :ELEV TYPE
~CURVE INFORMATION
#MNEMONIC.UNIT        API CODE       : CURVE DESCRIPTION
#------------------------------------------------------------------------------
DEPTH    .M                          : Measured Depth
CALI     .in          UNKNOWN        : CALI:UNKNOWN:rC:NONE:v0 (auto-composite)
DT       .us/ft       UNKNOWN        : DT:DT:rC:NONE:v0 (auto-composite)
GR       .API         UNKNOWN        : GR:UNKNOWN:rC:NONE:v0 (auto-composite)
ILD      .ohmm        UNKNOWN        : ILD:UNKNOWN:rC:NONE:v0 (auto-composite)
LLD      .ohmm        UNKNOWN        : LLD:UNKNOWN:rC:NONE:v0 (auto-composite)
LLS      .ohmm        UNKNOWN        : LLS:UNKNOWN:rC:NONE:v0 (auto-composite)
MSFL     .ohmm        UNKNOWN        : MSFL:UNKNOWN:rC:NONE:v0 (auto-composite)
NPHI     .v/v_decimal UNKNOWN        : NPHI:UNKNOWN:rC:NONE:v0 (auto-composite)
PEF      .b/elec      UNKNOWN        : PEF:UNKNOWN:rC:NONE:v0 (auto-composite)
RHOB     .g/cm3       UNKNOWN        : RHOB:UNKNOWN:rC:NONE:v0 (auto-composite)
~A     DEPTH         CALI           DT           GR          ILD          LLD          LLS         MSFL         NPHI          PEF         RHOB
# ...
   2590.3428       6.4615      85.2186     125.1415    -999.2500     776.7698     814.8015     201.7179       0.2246       4.3628       2.4645
   2590.4951       6.4620      85.4451     125.1350    -999.2500     890.6700     923.5190     218.8340       0.2223       4.5200       2.4690
   2590.6477       6.4730      87.0188     118.8227    -999.2500     517.5077    1572.4226     371.3855       0.1936       4.5070       2.4973
   2590.8000       6.4840      89.1846     112.4300    -999.2500     139.5870    2223.3169     524.4050       0.1646       4.4940       2.5260
   2590.9524       6.4835      93.0597     112.5590    -999.2500     562.4310    2146.9045     514.8972       0.1667       4.3837       2.5061
   2591.1047       6.4830      96.9907     112.6890    -999.2500     988.6790    2070.2480     505.3590       0.1687       4.2730       2.4860
   2591.2571       6.4760      97.3033     122.4758    -999.2500     525.5612    1598.0708     396.6335       0.1902       4.1191       2.4865
   2591.4097       6.4690      96.8059     132.2950    -999.2500      60.9060    1124.3260     287.5470       0.2119       3.9650       2.4870
   2591.5620       6.4695      95.1091     132.1779    -999.2500     251.8458     806.6063     287.7741       0.2107       3.9730       2.4930
   2591.7144       6.4700      92.5105     132.0600    -999.2500     444.0570     487.7910     288.0020       0.2096       3.9810       2.4990
   2591.8667       6.4755      87.4438     130.7819    -999.2500     385.0526     424.8624     302.5002       0.2005       4.1289       2.5259
   2592.0193       6.4810      80.8506     129.4910    -999.2500     325.4570     361.8100     317.0270       0.1913       4.2770       2.5530
   2592.1716       6.4805      67.5632     123.3299    -999.2500     328.4595     363.0836     491.8107       0.1794       4.2715       2.5525
   2592.3240       6.4800      56.4110     117.1360    -999.2500     331.4780     364.3600     666.9600       0.1674       4.2660       2.5520
   2592.4763       6.4755      54.6591     117.1630    -999.2500     331.1096     375.5166     664.2820       0.1686       4.0817       2.5420
   2592.6289       6.4710      56.1790     117.1900    -999.2500     330.7410     386.6980     661.5980       0.1698       3.8970       2.5320
   2592.7812       6.4670      65.1125     117.7554    -999.2500     321.9898     379.1369     599.2496       0.1791       3.9030       2.5320
   2592.9336       6.4630      73.3675     118.3230    -999.2500     313.2040     371.5580     536.7550       0.1884       3.9090       2.5320
   2593.0859       6.4575      79.0789     121.2937    -999.2500     235.1169     277.9956     544.9344       0.2033       3.9684       2.5365
   2593.2383       6.4520      84.0115     124.2860    -999.2500     156.4600     184.2020     553.1340       0.2184       4.0280       2.5410
   2593.3909       6.4525      90.3624     127.3626    -999.2500     159.6128     187.5946     683.2147       0.2181       4.1888       2.5400
   2593.5432       6.4530      95.6296     130.4670    -999.2500     162.7940     190.9960     813.6330       0.2179       4.3500       2.5390
   2593.6956       6.4525      96.8081     131.9568    -999.2500     195.6048     225.6903     790.3762       0.2162       4.3315       2.5175
   2593.8479       6.4520      96.6676     133.4530    -999.2500     228.5580     260.4790     767.0560       0.2144       4.3130       2.4960
   2594.0005       6.4495      96.0662     134.1161    -999.2500     331.7675     365.5634     642.7914       0.2140       4.1522       2.4965
   2594.1528       6.4470      95.5317     134.7800    -999.2500     435.1050     470.9470     518.1730       0.2136       3.9910       2.4970
   2594.3052       6.4355      95.8055     134.0292    -999.2500     695.5032     723.4549     443.4207       0.2028       4.0045       2.5060
   2594.4575       6.4240      97.2540     133.2750    -999.2500     957.0940     976.7140     368.4460       0.1920       4.0180       2.5150
   2594.6101       6.4240     102.2261     127.2784    -999.2500     951.9009     972.2584     388.3557       0.1922       4.1144       2.5135
   2594.7625       6.4240     107.7633     121.2440    -999.2500     946.6750     967.7890     408.3270       0.1924       4.2110       2.5120
   2594.9148       6.4315     107.8962     122.2218    -999.2500     903.3618     929.2991     400.9644       0.2007       4.2035       2.4966
   2595.0671       6.4390     106.9582     123.2090    -999.2500     859.6300     890.6850     393.5780       0.2090       4.1960       2.4810
   2595.2195       6.4390     104.2922     132.0329    -999.2500     768.3921     802.1553     349.7260       0.2089       4.1390       2.4820
   2595.3721       6.4390     100.9474     140.9150    -999.2500     676.5530     713.3290     305.7270       0.2088       4.0820       2.4830
   2595.5244       6.4365      93.6913     140.6857    -999.2500     563.3194     595.7365     268.4474       0.2052       3.9866       2.4960
   2595.6768       6.4340      87.4162     140.4560    -999.2500     449.8740     477.7350     231.0380       0.2015       3.8910       2.5090
   2595.8291       6.4285      84.3521     138.9028    -999.2500     369.3735     396.4872     185.3661       0.2015       3.8196       2.5075
   2595.9817       6.4230      82.4434     137.3440    -999.2500     288.5830     315.0770     139.6030       0.2016       3.7480       2.5060
   2596.1340       6.4185      81.2348     137.6788    -999.2500     265.4005     291.9705     141.1778       0.2022       3.6951       2.5080
   2596.2864       6.4140      80.1745     138.0160    -999.2500     242.0570     268.8150     142.7560       0.2028       3.6420       2.5100
   2596.4387       6.4145      79.3390     142.2089    -999.2500     190.9344     214.3318     153.2212       0.2024       3.6505       2.5403
   2596.5913       6.4150      78.5457     146.4450    -999.2500     139.2850     159.7260     163.7100       0.2019       3.6590       2.5710
   2596.7437       6.4180      77.6810     146.2007    -999.2500     140.0653     160.5660     171.5047       0.1978       3.7369       2.5705
   2596.8960       6.4210      76.7034     145.9550    -999.2500     140.8500     161.4080     179.3180       0.1937       3.8150       2.5700
   2597.0483       6.4265      75.0828     143.1897    -999.2500     154.0631     175.7456     211.7105       0.1716       4.0507       2.5675
   2597.2007       6.4320      73.7910     140.4220    -999.2500     167.2880     190.1190     244.1840       0.1493       4.2870       2.5650
   2597.3533       6.4280      73.8226     126.4426    -999.2500     243.6196     323.4804     448.2776       0.1506       4.2715       2.5560
   2597.5056       6.4240      74.3682     112.4040    -999.2500     320.2740     457.1920     652.9070       0.1520       4.2560       2.5470
   2597.6580       6.4240      77.2408     112.9151    -999.2500     369.2768     454.4578     620.3668       0.1632       4.0942       2.5291
   2597.8103       6.4240      80.3431     113.4300    -999.2500     418.6510     451.7160     587.7370       0.1745       3.9320       2.5110
   2597.9629       6.4290      83.8342     117.1467    -999.2500     423.8070     454.0961     440.9257       0.2135       3.9350       2.4806
   2598.1152       6.4340      87.2446     120.8980    -999.2500     429.0110     456.4830     293.6920       0.2528       3.9380       2.4500
   2598.2676       6.4335      87.1363     126.7909    -999.2500     463.7696     481.3272     313.4578       0.2514       3.9829       2.4520
   2598.4199       6.4330      86.2815     132.7110    -999.2500     498.6890     506.2460     333.2830       0.2500       4.0280       2.4540
   2598.5725       6.4290      83.7514     131.8701    -999.2500     620.1760     609.3277     505.4182       0.2398       4.2452       2.4700
   2598.7249       6.4250      81.1354     131.0280    -999.2500     741.8480     712.7320     678.0920       0.2296       4.4630       2.4860
