#------------------------------------------------------------------------------
#
#   Created by  : [OpenWorks] Log Export Utility (LEXP)
#   Created on  : 2015-10-01 09:49:56
#   Project     : CANT971
#   User        : R5K
#   Interpreter : PEP
#
#------------------------------------------------------------------------------
~VERSION INFORMATION
VERS. 2.0 : CWLS Log ASCII Standard - version 2.0
WRAP.  NO : One line per depth step
~WELL INFORMATION
#MNEMONIC   .UNIT                                           VALUE :DESCRIPTION
#------------------------------------------------------------------------------
STRT        .M                                           799.8710 :START DEPTH
STOP        .M                                          1367.5610 :STOP DEPTH
STEP        .M                                             0.1524 :STEP
NULL        .                                           -999.2500 :NULL VALUE
COMP        .                                   PEMEX EXPL & PROD :COMPANY
WELL        .                                        CANTARELL-1A :WELL
FLD         .                                           CANTARELL :FIELD
LOC         .                                             UNKNOWN :LOCATION
CNTY        .                                      CD. DEL CARMEN :COUNTY
STAT        .                                            CAMPECHE :STATE
CTRY        .                                              MEXICO :COUNTRY
SRVC        .                                             UNKNOWN :SERVICE COMPANY
DATE        .                                             UNKNOWN :LOG DATE
UWI         .                                          3060000138 :UNIQUE WELL ID
XCOORD      .                                       600823.080000 :SURFACE X
YCOORD      .                                      2145118.550000 :SURFACE Y
LAT         .                                           19.398902 :LATITUDE
LON         .                                          -92.039798 :LONGITUDE
ELEV        .M                                            27.7000 :SURFACE ELEV
ELEV_TYPE   .                                                  KB :ELEV TYPE
~CURVE INFORMATION
#MNEMONIC.UNIT        API CODE       : CURVE DESCRIPTION
#------------------------------------------------------------------------------
DEPTH    .M                          : Measured Depth
CALI     .inches      UNKNOWN        : CALI:UNKNOWN:rC:NONE:v0 (auto-composite)
DRHO     .g/cm3       UNKNOWN        : DRHO:UNKNOWN:rC:NONE:v0 (auto-composite)
DT       .us/ft       UNKNOWN        : DT:DT:rC:NONE:v0 (auto-composite)
ILD      .ohm.m       UNKNOWN        : ILD:UNKNOWN:rC:NONE:v0 (auto-composite)
LLD      .ohm.m       UNKNOWN        : LLD:UNKNOWN:rC:NONE:v0 (auto-composite)
LLS      .ohm.m       UNKNOWN        : LLS:UNKNOWN:rC:NONE:v0 (auto-composite)
MSFL     .ohm.m       UNKNOWN        : MSFL:UNKNOWN:rC:NONE:v0 (auto-composite)
NPHI     .v/v_decimal UNKNOWN        : NPHI:NPHI:rC:NONE:v0 (auto-composite)
GR       .API         UNKNOWN        : RG:UNKNOWN:rC:NONE:v0 (auto-composite)
RHOB     .g/cm3       UNKNOWN        : RHOB:UNKNOWN:rC:NONE:v0 (auto-composite)
~A     DEPTH         CALI         DRHO           DT          ILD          LLD          LLS         MSFL         NPHI           GR         RHOB
# ...
   1200.9878      15.9116       0.0107    -999.2500       1.4986       0.2000       0.2000       0.2000      48.6853      33.2394       2.3391
   1201.1403      15.9617       0.0067    -999.2500       1.5241       0.2000       0.2000       0.2000      48.4873      33.3507       2.3376
   1201.2926      15.9721       0.0119    -999.2500       1.5278       0.2000       0.2000       0.2000      49.0608      33.4651       2.3425
   1201.4451      15.9530       0.0239    -999.2500       1.5153       0.2000       0.2000       0.2000      50.4108      33.5819       2.3520
   1201.5974      15.8996       0.0363    -999.2500       1.4841       0.2000       0.2000       0.2000      52.1254      33.9838       2.3662
   1201.7499      15.8214       0.0488    -999.2500       1.4395       0.2000       0.2000       0.2000      54.2072      34.5920       2.3837
   1201.9022      15.8183       0.0531    -999.2500       1.3561       0.2000       0.2000       0.2000      55.9457      34.9124       2.3945
   1202.0547      15.8685       0.0516    -999.2500       1.2454       0.2000       0.2000       0.2000      57.3397      35.0292       2.4005
   1202.2070      15.8778       0.0445    -999.2500       1.1526       0.2000       0.2000       0.2000      54.4115      35.4360       2.3846
   1202.3594      15.8587       0.0335    -999.2500       1.0724       0.2000       0.2000       0.2000      47.1442      36.0442       2.3536
   1202.5118      15.8047       0.0317    -999.2500       1.0269       0.2000       0.2000       0.2000      45.6946      36.4190       2.3344
   1202.6642      15.7270       0.0362    -999.2500       1.0048       0.2000       0.2000       0.2000      50.0870      36.6355       2.3234
   1202.8167      15.7083       0.0362    -999.2500       0.9984       0.2000       0.2000       0.2000      53.9346      36.3112       2.3247
   1202.9690      15.7289       0.0332    -999.2500       1.0024       0.2000       0.2000       0.2000      57.2350      35.6273       2.3342
   1203.1215      15.6717       0.0323    -999.2500       1.0116       0.2000       0.2000       0.2000      58.4795      35.1258       2.3456
   1203.2738      15.5639       0.0328    -999.2500       1.0241       0.2000       0.2000       0.2000      57.6585      34.7427       2.3581
   1203.4263      15.4864       0.0315    -999.2500       1.0535       0.2000       0.2000       0.2000      56.7138      34.4812       2.3621
   1203.5786      15.4283       0.0290    -999.2500       1.0936       0.2000       0.2000       0.2000      55.6449      34.2967       2.3606
   1203.7311      15.3946       0.0326    -999.2500       1.1405       0.2000       0.2000       0.2000      54.5143      34.1722       2.3619
   1203.8834      15.3760       0.0402    -999.2500       1.1917       0.2000       0.2000       0.2000      53.3218      34.0850       2.3649
   1204.0359      15.3571       0.0380    -999.2500       1.2403       0.2000       0.2000       0.2000      52.7265      33.0718       2.3697
   1204.1882      15.3381       0.0300    -999.2500       1.2874       0.2000       0.2000       0.2000      52.7315      31.4959       2.3758
   1204.3406      15.3068       0.0232    -999.2500       1.3198       0.2000       0.2000       0.2000      52.1215      30.7898       2.3717
   1204.4930      15.2682       0.0172    -999.2500       1.3433       0.2000       0.2000       0.2000      50.8930      30.5998       2.3617
   1204.6454      15.2543       0.0118    -999.2500       1.3422       0.2000       0.2000       0.2000      48.0235      31.1659       2.3536
   1204.7979      15.2548       0.0068    -999.2500       1.3266       0.2000       0.2000       0.2000      43.5031      32.1717       2.3465
   1204.9502      15.2870       0.0088    -999.2500       1.2862       0.2000       0.2000       0.2000      42.2885      33.0542       2.3462
   1205.1027      15.3371       0.0149    -999.2500       1.2315       0.2000       0.2000       0.2000      44.3999      33.8666       2.3497
   1205.2550      15.3743       0.0273    -999.2500       1.1836       0.2000       0.2000       0.2000      46.4244      33.7172       2.3626
   1205.4075      15.4044       0.0434    -999.2500       1.1395       0.2000       0.2000       0.2000      48.3613      33.0328       2.3806
   1205.5598      15.4030       0.0487    -999.2500       1.1259       0.2000       0.2000       0.2000      49.1595      33.1901       2.3974
   1205.7123      15.3844       0.0482    -999.2500       1.1290       0.2000       0.2000       0.2000      48.8114      33.8043       2.4134
   1205.8646      15.3846       0.0470    -999.2500       1.1451       0.2000       0.2000       0.2000      48.3039      34.0897       2.4200
   1206.0171      15.3946       0.0455    -999.2500       1.1681       0.2000       0.2000       0.2000      47.6364      34.2010       2.4215
   1206.1694      15.3858       0.0374    -999.2500       1.1988       0.2000       0.2000       0.2000      47.5043      34.4470       2.4098
   1206.3218      15.3672       0.0259    -999.2500       1.2334       0.2000       0.2000       0.2000      47.9098      34.7628       2.3912
   1206.4742      15.3550       0.0220    -999.2500       1.2630       0.2000       0.2000       0.2000      50.6760      34.4808       2.3853
   1206.6266      15.3460       0.0220    -999.2500       1.2901       0.2000       0.2000       0.2000      55.8128      33.8962       2.3858
   1206.7791      15.3235       0.0210    -999.2500       1.3077       0.2000       0.2000       0.2000      57.2197      33.3114       2.3790
   1206.9314      15.2945       0.0195    -999.2500       1.3208       0.2000       0.2000       0.2000      54.8797      32.7265       2.3684
   1207.0839      15.2789       0.0153    -999.2500       1.3233       0.2000       0.2000       0.2000      52.5298      31.9447       2.3711
   1207.2362      15.2699       0.0098    -999.2500       1.3208       0.2000       0.2000       0.2000      50.1699      31.0678       2.3801
   1207.3887      15.2605       0.0060    -999.2500       1.2992       0.2000       0.2000       0.2000      49.0700      31.0651       2.3827
   1207.5410      15.2510       0.0029    -999.2500       1.2686       0.2000       0.2000       0.2000      49.2365      31.4743       2.3822
   1207.6935      15.2284       0.0065    -999.2500       1.2669       0.2000       0.2000       0.2000      49.4172      32.3645       2.3689
   1207.8458      15.1999       0.0130    -999.2500       1.2784       0.2000       0.2000       0.2000      49.6122      33.4756       2.3499
   1207.9983      15.2592       0.0129    -999.2500       1.3062       0.2000       0.2000       0.2000      50.3390      33.6221       2.3464
   1208.1506      15.3579       0.0099    -999.2500       1.3413       0.2000       0.2000       0.2000      51.6005      33.3353       2.3499
   1208.3030      15.3409       0.0087    -999.2500       1.4015       0.2000       0.2000       0.2000      51.9334      32.9126       2.3646
   1208.4554      15.2733       0.0082    -999.2500       1.4727       0.2000       0.2000       0.2000      51.3324      32.4305       2.3841
   1208.6078      15.2600       0.0133    -999.2500       1.5203       0.2000       0.2000       0.2000      50.2284      31.9482       2.3998
   1208.7603      15.2701       0.0208    -999.2500       1.5579       0.2000       0.2000       0.2000      48.6185      31.4659       2.4139
   1208.9126      15.2457       0.0184    -999.2500       1.5329       0.2000       0.2000       0.2000      48.2431      30.9814       2.4067
   1209.0651      15.2071       0.0119    -999.2500       1.4818       0.2000       0.2000       0.2000      49.1101      30.4960       2.3906
   1209.2174      15.2178       0.0064    -999.2500       1.3821       0.2000       0.2000       0.2000      49.7406      30.7218       2.3621
   1209.3699      15.2483       0.0014    -999.2500       1.2629       0.2000       0.2000       0.2000      50.1331      31.2361       2.3285
