#------------------------------------------------------------------------------
#
#   Created by  : [OpenWorks] Log Export Utility (LEXP)
#   Created on  : 2016-05-23 11:55:55
#   Project     : CANT971
#   User        : R5K
#   Interpreter : PEP
#
#------------------------------------------------------------------------------
~VERSION INFORMATION
VERS. 2.0 : CWLS Log ASCII Standard - version 2.0
WRAP.  NO : One line per depth step
~WELL INFORMATION
#MNEMONIC   .UNIT                                           VALUE :DESCRIPTION
#------------------------------------------------------------------------------
STRT        .M                                          2870.4541 :START DEPTH
STOP        .M                                          3966.9722 :STOP DEPTH
STEP        .M                                             0.1524 :STEP
NULL        .                                           -999.2500 :NULL VALUE
COMP        .                                             UNKNOWN :COMPANY
WELL        .                                            418D-ST1 :WELL
FLD         .                                             UNKNOWN :FIELD
LOC         .                                             UNKNOWN :LOCATION
CNTY        .                                             UNKNOWN :COUNTY
STAT        .                                             UNKNOWN :STATE
CTRY        .                                             UNKNOWN :COUNTRY
SRVC        .                                             UNKNOWN :SERVICE COMPANY
DATE        .                                             UNKNOWN :LOG DATE
UWI         .                                            418D-ST1 :UNIQUE WELL ID
XCOORD      .                                       597130.010000 :SURFACE X
YCOORD      .                                      2144879.410000 :SURFACE Y
LAT         .                                           19.396924 :LATITUDE
LON         .                                          -92.074978 :LONGITUDE
ELEV        .M                                             0.0000 :SURFACE ELEV
ELEV_TYPE   .                                                  NA :ELEV TYPE
~CURVE INFORMATION
#MNEMONIC.UNIT        API CODE       : CURVE DESCRIPTION
#------------------------------------------------------------------------------
DEPTH    .M                          : Measured Depth
CALI     .inches      UNKNOWN        : CALI:litodensidad:rC:NONE:v0 (auto-composite)
CGR      .API         UNKNOWN        : CGR:litodensidad:rC:NONE:v0 (auto-composite)
DRHO     .g/cm3       UNKNOWN        : DRHO:litodensidad:rC:NONE:v0 (auto-composite)
DT       .us/ft       UNKNOWN        : DT:DT-Load:rC:NONE:v0 (auto-composite)
GR       .API         UNKNOWN        : GR:litodensidad:rC:NONE:v0 (auto-composite)
LLD      .ohm.m       UNKNOWN        : LLD:PETROWORKS:rC:NONE:v1 
LLS      .ohm.m       UNKNOWN        : LLS:PETROWORKS:rC:NONE:v1 
MSFL     .ohm.m       UNKNOWN        : MSFL:resistivos:rC:NONE:v0 (auto-composite)
NPHI     .v/v_decimal UNKNOWN        : NPHI:litodensidad:rC:NONE:v0 (auto-composite)
PEF      .UNKNOWN     UNKNOWN        : PEF:litodensidad:rC:NONE:v0 (auto-composite)
POTA     .UNKNOWN     UNKNOWN        : POTA:litodensidad:rC:NONE:v0 (auto-composite)
RHOB     .g/cm3       UNKNOWN        : RHOB:litodensidad:rC:NONE:v0 (auto-composite)
THOR     .ppm         UNKNOWN        : THOR:litodensidad:rC:NONE:v0 (auto-composite)
URAN     .ppm         UNKNOWN        : URAN:litodensidad:rC:NONE:v0 (auto-composite)
~A     DEPTH         CALI          CGR         DRHO           DT           GR          LLD          LLS         MSFL         NPHI          PEF         POTA         RHOB         THOR         URAN
# ...
   3011.2717      12.1719      39.7112      -0.0017    -999.2500      66.8712    1484.1587     418.0672       1.2178       0.0267       5.1797       0.0151       2.6675       4.2447       3.4907
   3011.4241      12.1719      35.1896      -0.0054    -999.2500      59.4184    2110.6528     474.4559       1.1826       0.0305       5.1641       0.0139       2.6618       3.5477       3.1140
   3011.5764      12.1719      31.2854      -0.0095    -999.2500      53.6197    1702.4839     429.3343       1.1807       0.0288       5.5156       0.0118       2.6455       3.3703       2.8705
   3011.7290      12.1719      30.1643      -0.0085    -999.2500      52.0061    1585.8442     409.2120       1.3008       0.0219       5.9023       0.0114       2.6530       3.2599       2.8072
   3011.8813      12.1328      29.8811      -0.0098    -999.2500      51.3766    1445.8167     387.8123       1.2861       0.0173       5.8086       0.0115       2.6454       3.1426       2.7627
   3012.0337      12.0000      41.8864      -0.0092    -999.2500      60.3386    1718.7034     403.4861       1.3457       0.0189       5.4688       0.0182       2.6476       3.4876       2.3715
   3012.1860      12.0000      40.5321      -0.0079    -999.2500      58.0579    2272.9800     436.6876       1.3301       0.0257       5.4141       0.0179       2.6492       3.2709       2.2525
   3012.3386      12.0000      31.8284      -0.0045    -999.2500      47.0128    1811.2476     423.6074       1.2148       0.0298       5.6367       0.0142       2.6584       2.5122       1.9516
   3012.4910      12.0078      30.3017      -0.0022    -999.2500      44.9910    1176.3879     375.7083       1.2803       0.0281       5.9766       0.0134       2.6694       2.4363       1.8879
   3012.6433      12.0156      39.2763      -0.0002    -999.2500      54.2597     728.9890     308.6630       1.1963       0.0248       5.9063       0.0150       2.6666       4.1610       1.9257
   3012.7957      12.0313      39.7649      -0.0020    -999.2500      54.8748     551.4457     273.5326       1.1934       0.0285       5.8125       0.0152       2.6519       4.2236       1.9420
   3012.9480      12.0156      40.7724      -0.0014    -999.2500      56.2960     419.8878     230.8072       1.1680       0.0341       5.6406       0.0156       2.6389       4.3137       1.9951
   3013.1006      12.0000      39.3003      -0.0023    -999.2500      53.8452     418.5789     225.2187       1.2744       0.0366       5.7578       0.0152       2.6385       4.0704       1.8694
   3013.2529      12.0156      38.3032      -0.0000    -999.2500      52.7171     362.1194     210.5236       1.4150       0.0330       5.8516       0.0150       2.6551       3.9103       1.8525
   3013.4053      12.0000      42.6634       0.0000    -999.2500      61.3042     373.2026     217.5126       1.5752       0.0336       5.4063       0.0168       2.6674       4.2875       2.3958
   3013.5576      12.0000      45.8142      -0.0016    -999.2500      68.6612     463.2311     246.3154       1.4922       0.0403       5.1094       0.0181       2.6547       4.6075       2.9364
   3013.7102      12.0000      41.2897      -0.0001    -999.2500      62.6853     477.6124     247.7582       1.3418       0.0493       5.3203       0.0164       2.6344       4.1151       2.7498
   3013.8625      12.0000      38.0300       0.0029    -999.2500      57.9605     550.3361     268.9697       1.1865       0.0567       5.4180       0.0153       2.5976       3.6819       2.5615
   3014.0149      12.0000      39.6411       0.0012    -999.2500      60.7319     516.4896     263.4172       1.1348       0.0655       5.5742       0.0160       2.5848       3.8442       2.7107
   3014.1672      12.0000      34.3898       0.0042    -999.2500      53.9103     523.8469     267.8187       1.2363       0.0730       5.2422       0.0142       2.6008       3.1843       2.5088
   3014.3196      12.0000      31.9412       0.0062    -999.2500      50.3747     533.2625     272.1010       1.0596       0.0666       5.5625       0.0134       2.6367       2.8655       2.3691
   3014.4722      12.0000      30.2148       0.0028    -999.2500      48.0474     293.6381     193.4369       1.1719       0.0517       5.3906       0.0127       2.6483       2.6998       2.2919
   3014.6245      12.0000      33.5129      -0.0052    -999.2500      54.9480     268.9780     175.8465       1.3730       0.0451       5.3672       0.0130       2.6399       3.4541       2.7549
   3014.7769      12.0000      33.9100      -0.0083    -999.2500      56.0128     220.8302     153.9399       1.6416       0.0467       5.3594       0.0129       2.6387       3.6051       2.8407
   3014.9292      12.0000      22.5016      -0.0084    -999.2500      44.8097     201.8937     143.5732       1.5098       0.0387       5.5352       0.0066       2.6660       3.2192       2.8671
   3015.0818      12.0000      16.3782      -0.0144    -999.2500      34.7177     251.8259     166.5329       1.2734       0.0206       5.9688       0.0067       2.7159       1.5627       2.3571
   3015.2341      12.0000      17.7070      -0.0082    -999.2500      36.3742     379.0506     218.8443       1.2451       0.0138       6.3672       0.0073       2.7679       1.6319       2.3992
   3015.3865      12.0000      22.0505      -0.0042    -999.2500      41.6536     431.6486     234.6065       1.2285       0.0170       5.8984       0.0093       2.7840       1.9823       2.5195
   3015.5388      12.0000      33.2548      -0.0067    -999.2500      56.1033     396.6651     225.4203       1.0615       0.0313       5.6172       0.0139       2.7205       2.9972       2.9366
   3015.6914      12.0000      30.6338      -0.0089    -999.2500      50.7844     308.2287     194.1807       1.0449       0.0348       5.2188       0.0127       2.6803       2.8243       2.5898
   3015.8438      12.0000      32.6874       0.0028    -999.2500      53.6474     256.4805     173.6683       1.1533       0.0280       5.1250       0.0134       2.6719       3.0702       2.6938
   3015.9961      12.0000      42.9627       0.0055    -999.2500      65.9818     211.6436     148.2361       1.3496       0.0270       4.7500       0.0165       2.6765       4.5036       2.9585
   3016.1484      12.0000      54.1531       0.0007    -999.2500      78.4363     182.3188     134.5914       1.5654       0.0450       4.5039       0.0197       2.6547       6.1691       3.1210
   3016.3008      12.0000      63.5988      -0.0031    -999.2500      88.1689     176.7276     135.4447       1.5830       0.0667       4.5664       0.0227       2.6307       7.4408       3.1578
   3016.4534      12.0000      63.7634      -0.0063    -999.2500      88.1834     164.1236     128.6101       1.3203       0.0735       4.3750       0.0228       2.6246       7.4434       3.1385
   3016.6057      12.0000      59.5115      -0.0050    -999.2500      80.1252     177.9785     138.0777       1.3848       0.0683       4.1875       0.0217       2.6537       6.7426       2.6493
   3016.7581      12.0000      60.5679      -0.0038    -999.2500      81.4014     208.7407     157.0491       1.2441       0.0597       3.8809       0.0221       2.6903       6.8812       2.6776
   3016.9104      12.0000      59.1686       0.0005    -999.2500      78.8088     191.4195     149.2914       1.1758       0.0503       4.0273       0.0214       2.7196       6.7691       2.5242
   3017.0630      12.0000      61.4346      -0.0020    -999.2500      82.0347     181.5518     143.0392       1.1689       0.0413       4.3164       0.0222       2.7145       7.0652       2.6476
   3017.2153      12.0000      64.1004      -0.0039    -999.2500      85.7462     162.5880     133.1894       1.3340       0.0388       4.8477       0.0231       2.6921       7.3881       2.7820
   3017.3677      12.0000      64.7003      -0.0068    -999.2500      86.6167     131.1611     111.8361       1.2598       0.0420       4.9766       0.0234       2.6654       7.4152       2.8168
   3017.5200      12.0000      67.1517      -0.0083    -999.2500      90.0526     118.7601     101.0666       1.6309       0.0537       4.8203       0.0244       2.6406       7.6462       2.9433
