#------------------------------------------------------------------------------
#
#   Created by  : [OpenWorks] Log Export Utility (LEXP)
#   Created on  : 2016-05-23 11:53:49
#   Project     : CANT971
#   User        : R5K
#   Interpreter : PEP
#
#------------------------------------------------------------------------------
~VERSION INFORMATION
VERS. 2.0 : CWLS Log ASCII Standard - version 2.0
WRAP.  NO : One line per depth step
~WELL INFORMATION
#MNEMONIC   .UNIT                                           VALUE :DESCRIPTION
#------------------------------------------------------------------------------
STRT        .M                                           293.9797 :START DEPTH
STOP        .M                                          2713.7869 :STOP DEPTH
STEP        .M                                             0.1524 :STEP
NULL        .                                           -999.2500 :NULL VALUE
COMP        .                                   PEMEX EXPL & PROD :COMPANY
WELL        .                                                  28 :WELL
FLD         .                                           CANTARELL :FIELD
LOC         .                                             UNKNOWN :LOCATION
CNTY        .                                      CD. DEL CARMEN :COUNTY
STAT        .                                            CAMPECHE :STATE
CTRY        .                                              MEXICO :COUNTRY
SRVC        .                                             UNKNOWN :SERVICE COMPANY
DATE        .                                             UNKNOWN :LOG DATE
UWI         .                                          3060000156 :UNIQUE WELL ID
XCOORD      .                                       598450.720000 :SURFACE X
YCOORD      .                                      2145024.710000 :SURFACE Y
LAT         .                                           19.398172 :LATITUDE
LON         .                                          -92.062394 :LONGITUDE
ELEV        .M                                            26.5400 :SURFACE ELEV
ELEV_TYPE   .                                                  KB :ELEV TYPE
~CURVE INFORMATION
#MNEMONIC.UNIT        API CODE       : CURVE DESCRIPTION
#------------------------------------------------------------------------------
DEPTH    .M                          : Measured Depth
CALI     .inches      UNKNOWN        : CALI:Import:rC:NONE:v0 (auto-composite)
DRHO     .g/cm3       UNKNOWN        : DRHO:Import:rC:NONE:v0 (auto-composite)
DT       .us/ft       UNKNOWN        : DT:Import:rC:NONE:v0 (auto-composite)
GR       .API         UNKNOWN        : GR:Import:rC:NONE:v0 (auto-composite)
ILD      .ohm.m       UNKNOWN        : ILD:Import:rC:NONE:v0 (auto-composite)
LLD      .ohm.m       UNKNOWN        : LLD:Import:rC:NONE:v0 (auto-composite)
LLS      .ohm.m       UNKNOWN        : LLS:Import:rC:NONE:v0 (auto-composite)
MSFL     .ohm.m       UNKNOWN        : MSFL:Import:rC:NONE:v0 (auto-composite)
NPHI     .v/v_decimal UNKNOWN        : NPHI:Import:rC:NONE:v0 (auto-composite)
PEF      .b/elec      UNKNOWN        : PEF:Import:rC:NONE:v0 (auto-composite)
RHOB     .g/cm3       UNKNOWN        : RHOB:Import:rC:NONE:v0 (auto-composite)
~A     DEPTH         CALI         DRHO           DT           GR          ILD          LLD          LLS         MSFL         NPHI          PEF         RHOB
# ...
   1149.8580       7.5615    -999.2500    -999.2500      49.3680    -999.2500       0.8235       0.7845       1.0020       0.4511    -999.2500    -999.2500
   1150.0105       7.5630    -999.2500    -999.2500      48.5752    -999.2500       0.8150       0.7780       1.0010       0.4505    -999.2500    -999.2500
   1150.1628       7.5675    -999.2500    -999.2500      47.7870    -999.2500       0.7974       0.7660       0.9784       0.4488    -999.2500    -999.2500
   1150.3153       7.5720    -999.2500    -999.2500      47.9094    -999.2500       0.7800       0.7540       0.9560       0.4473    -999.2500    -999.2500
   1150.4677       7.5815    -999.2500    -999.2500      48.0310    -999.2500       0.7830       0.7565       0.8802       0.4477    -999.2500    -999.2500
   1150.6201       7.5910    -999.2500    -999.2500      48.4854    -999.2500       0.7860       0.7590       0.8050       0.4495    -999.2500    -999.2500
   1150.7725       7.5970    -999.2500    -999.2500      48.9370    -999.2500       0.7991       0.7746       0.8100       0.4536    -999.2500    -999.2500
   1150.9249       7.6030    -999.2500    -999.2500      49.3297    -999.2500       0.8120       0.7900       0.8150       0.4597    -999.2500    -999.2500
   1151.0773       7.6035    -999.2500    -999.2500      49.7200    -999.2500       0.8261       0.7875       0.8411       0.4691    -999.2500    -999.2500
   1151.2297       7.6040    -999.2500    -999.2500      50.5715    -999.2500       0.8400       0.7850       0.8670       0.4774    -999.2500    -999.2500
   1151.3821       7.6045    -999.2500    -999.2500      51.4180    -999.2500       0.8365       0.7704       0.9443       0.4796    -999.2500    -999.2500
   1151.5344       7.6050    -999.2500    -999.2500      52.9445    -999.2500       0.8330       0.7560       1.0210       0.4766    -999.2500    -999.2500
   1151.6869       7.6255    -999.2500    -999.2500      54.4620    -999.2500       0.8184       0.7570       1.0145       0.4660    -999.2500    -999.2500
   1151.8392       7.6460    -999.2500    -999.2500      55.4458    -999.2500       0.8040       0.7580       1.0080       0.4557    -999.2500    -999.2500
   1151.9917       7.6415    -999.2500    -999.2500      56.4240    -999.2500       0.8095       0.7690       1.0160       0.4537    -999.2500    -999.2500
   1152.1440       7.6370    -999.2500    -999.2500      56.2274    -999.2500       0.8150       0.7800       1.0240       0.4557    -999.2500    -999.2500
   1152.2965       7.6155    -999.2500    -999.2500      56.0320    -999.2500       0.8602       0.8282       1.0646       0.4602    -999.2500    -999.2500
   1152.4489       7.5940    -999.2500    -999.2500      55.1917    -999.2500       0.9050       0.8760       1.1050       0.4662    -999.2500    -999.2500
   1152.6013       7.5670    -999.2500    -999.2500      54.3560    -999.2500       0.9010       0.8680       1.0950       0.4742    -999.2500    -999.2500
   1152.7537       7.5400    -999.2500    -999.2500      53.5132    -999.2500       0.8970       0.8600       1.0850       0.4800    -999.2500    -999.2500
   1152.9061       7.5165    -999.2500    -999.2500      52.6750    -999.2500       0.8789       0.8254       0.9996       0.4783    -999.2500    -999.2500
   1153.0585       7.4930    -999.2500    -999.2500      52.1802    -999.2500       0.8610       0.7910       0.9150       0.4709    -999.2500    -999.2500
   1153.2108       7.4930    -999.2500    -999.2500      51.6880    -999.2500       0.8359       0.7393       0.9195       0.4556    -999.2500    -999.2500
   1153.3633       7.4930    -999.2500    -999.2500      50.6975    -999.2500       0.8110       0.6880       0.9240       0.4413    -999.2500    -999.2500
   1153.5156       7.4935    -999.2500    -999.2500      49.7120    -999.2500       0.7608       0.6930       0.9160       0.4380    -999.2500    -999.2500
   1153.6681       7.4940    -999.2500    -999.2500      50.3027    -999.2500       0.7110       0.6980       0.9080       0.4394    -999.2500    -999.2500
   1153.8204       7.4945    -999.2500    -999.2500      50.8900    -999.2500       0.7145       0.7211       0.9206       0.4425    -999.2500    -999.2500
   1153.9729       7.4950    -999.2500    -999.2500      50.4676    -999.2500       0.7180       0.7440       0.9330       0.4466    -999.2500    -999.2500
   1154.1252       7.4955    -999.2500    -999.2500      50.0480    -999.2500       0.7381       0.7781       0.9947       0.4517    -999.2500    -999.2500
   1154.2777       7.4960    -999.2500    -999.2500      48.6285    -999.2500       0.7580       0.8120       1.0560       0.4572    -999.2500    -999.2500
   1154.4301       7.4965    -999.2500    -999.2500      47.2180    -999.2500       0.8042       0.8451       1.1704       0.4629    -999.2500    -999.2500
   1154.5825       7.4970    -999.2500    -999.2500      46.6733    -999.2500       0.8500       0.8780       1.2840       0.4672    -999.2500    -999.2500
   1154.7349       7.4975    -999.2500    -999.2500      46.1320    -999.2500       0.9102       0.9041       1.2725       0.4675    -999.2500    -999.2500
   1154.8873       7.4980    -999.2500    -999.2500      45.5482    -999.2500       0.9700       0.9300       1.2610       0.4658    -999.2500    -999.2500
   1155.0397       7.4985    -999.2500    -999.2500      44.9680    -999.2500       0.9690       0.9290       1.1988       0.4626    -999.2500    -999.2500
   1155.1920       7.4990    -999.2500    -999.2500      44.9921    -999.2500       0.9680       0.9280       1.1370       0.4593    -999.2500    -999.2500
   1155.3445       7.4995    -999.2500    -999.2500      45.0160    -999.2500       0.9605       0.9210       1.1400       0.4571    -999.2500    -999.2500
   1155.4968       7.5000    -999.2500    -999.2500      45.2356    -999.2500       0.9530       0.9140       1.1430       0.4544    -999.2500    -999.2500
   1155.6493       7.5005    -999.2500    -999.2500      45.4540    -999.2500       0.9344       0.8939       1.1264       0.4487    -999.2500    -999.2500
   1155.8016       7.5010    -999.2500    -999.2500      46.2182    -999.2500       0.9160       0.8740       1.1100       0.4435    -999.2500    -999.2500
   1155.9541       7.5015    -999.2500    -999.2500      46.9780    -999.2500       0.8929       0.8474       1.0548       0.4424    -999.2500    -999.2500
   1156.1064       7.5020    -999.2500    -999.2500      49.0222    -999.2500       0.8700       0.8210       1.0000       0.4431    -999.2500    -999.2500
   1156.2589       7.5025    -999.2500    -999.2500      51.0550    -999.2500       0.8509       0.8054       0.9709       0.4451    -999.2500    -999.2500
   1156.4113       7.5030    -999.2500    -999.2500      51.0299    -999.2500       0.8320       0.7900       0.9420       0.4448    -999.2500    -999.2500
   1156.5637       7.5035    -999.2500    -999.2500      51.0050    -999.2500       0.8074       0.7654       0.9154       0.4368    -999.2500    -999.2500
   1156.7161       7.5040    -999.2500    -999.2500      50.5859    -999.2500       0.7830       0.7410       0.8890       0.4286    -999.2500    -999.2500
   1156.8685       7.5045    -999.2500    -999.2500      50.1690    -999.2500       0.7865       0.7500       0.8915       0.4271    -999.2500    -999.2500
   1157.0209       7.5050    -999.2500    -999.2500      48.8090    -999.2500       0.7900       0.7590       0.8940       0.4293    -999.2500    -999.2500
   1157.1732       7.5055    -999.2500    -999.2500      47.4560    -999.2500       0.8091       0.7575       0.8764       0.4354    -999.2500    -999.2500
   1157.3257       7.5060    -999.2500    -999.2500      46.3176    -999.2500       0.8280       0.7560       0.8590       0.4409    -999.2500    -999.2500
   1157.4780       7.5065    -999.2500    -999.2500      45.1850    -999.2500       0.8255       0.7495       0.8610       0.4410    -999.2500    -999.2500
   1157.6305       7.5070    -999.2500    -999.2500      44.6404    -999.2500       0.8230       0.7430       0.8630       0.4381    -999.2500    -999.2500
