#------------------------------------------------------------------------------
#
#   Created by  : [OpenWorks] Log Export Utility (LEXP)
#   Created on  : 2016-05-12 17:01:25
#   Project     : CANT971
#   User        : R5K
#   Interpreter : PEP
#
#------------------------------------------------------------------------------
~VERSION INFORMATION
VERS. 2.0 : CWLS Log ASCII Standard - version 2.0
WRAP.  NO : One line per depth step
~WELL INFORMATION
#MNEMONIC   .UNIT                                           VALUE :DESCRIPTION
#------------------------------------------------------------------------------
STRT        .M                                           310.6675 :START DEPTH
STOP        .M                                          2665.7046 :STOP DEPTH
STEP        .M                                             0.1524 :STEP
NULL        .                                           -999.2500 :NULL VALUE
COMP        .                                   PEMEX EXPL & PROD :COMPANY
WELL        .                                                 77A :WELL
FLD         .                                           CANTARELL :FIELD
LOC         .                                             UNKNOWN :LOCATION
CNTY        .                                      CD. DEL CARMEN :COUNTY
STAT        .                                            CAMPECHE :STATE
CTRY        .                                              MEXICO :COUNTRY
SRVC        .                                             UNKNOWN :SERVICE COMPANY
DATE        .                                             UNKNOWN :LOG DATE
UWI         .                                          3060000181 :UNIQUE WELL ID
XCOORD      .                                       602151.310000 :SURFACE X
YCOORD      .                                      2147165.430000 :SURFACE Y
LAT         .                                           19.417331 :LATITUDE
LON         .                                          -92.027040 :LONGITUDE
ELEV        .M                                            28.1700 :SURFACE ELEV
ELEV_TYPE   .                                                  KB :ELEV TYPE
~CURVE INFORMATION
#MNEMONIC.UNIT        API CODE       : CURVE DESCRIPTION
#------------------------------------------------------------------------------
DEPTH    .M                          : Measured Depth
CALI     .inches      UNKNOWN        : CALI:UNKNOWN:rC:NONE:v0 (auto-composite)
DRHO     .UNKNOWN     UNKNOWN        : DRHO:PETROWORKS:rC:NONE:v1 
DT       .us/ft       UNKNOWN        : DT:DT:rC:NONE:v0 (auto-composite)
GR       .API         UNKNOWN        : GR:UNKNOWN:rC:NONE:v0 (auto-composite)
ILD      .UNKNOWN     UNKNOWN        : ILD:UNKNOWN:rC:NONE:v0 (auto-composite)
LLD      .ohm.m       UNKNOWN        : LLD:UNKNOWN:rC:NONE:v0 (auto-composite)
LLS      .ohm.m       UNKNOWN        : LLS:UNKNOWN:rC:NONE:v0 (auto-composite)
MSFL     .ohm.m       UNKNOWN        : MSFL:UNKNOWN:rC:NONE:v0 (auto-composite)
NPHI     .v/v_decimal UNKNOWN        : NPHI:PETROWORKS:rC:NONE:v1 
RHOB     .UNKNOWN     UNKNOWN        : RHOB:PETROWORKS:rC:NONE:v1 
SP       .UNKNOWN     UNKNOWN        : SP:UNKNOWN:rC:NONE:v0 (auto-composite)
~A     DEPTH         CALI         DRHO           DT           GR          ILD          LLD          LLS         MSFL         NPHI         RHOB           SP
# ...
    746.5315      22.8560       0.0244     126.0828      39.8637       1.2300    -999.2500    -999.2500    -999.2500       0.3592       2.2582     117.2224
    746.6839      22.8560       0.0299     127.4012      37.9317       1.2300    -999.2500    -999.2500    -999.2500       0.3541       2.2697     117.0069
    746.8363      22.8560       0.0338     130.2009      36.4979       1.2320    -999.2500    -999.2500    -999.2500       0.3571       2.2685     116.8510
    746.9887      22.8560       0.0347     134.4708      35.9134       1.2376    -999.2500    -999.2500    -999.2500       0.3683       2.2530     116.7968
    747.1411      22.8560       0.0330     135.9346      36.6914       1.2357    -999.2500    -999.2500    -999.2500       0.3729       2.2355     116.8034
    747.2935      22.8560       0.0288     134.6127      39.7418       1.2217    -999.2500    -999.2500    -999.2500       0.3708       2.2179     116.9112
    747.4459      22.8560       0.0261     131.4795      42.4639       1.2077    -999.2500    -999.2500    -999.2500       0.3599       2.2115     116.9370
    747.5983      22.8560       0.0253     126.5476      44.6504       1.1936    -999.2500    -999.2500    -999.2500       0.3402       2.2174     116.8292
    747.7507      22.8560       0.0248     124.6600      45.8666       1.1883    -999.2500    -999.2500    -999.2500       0.3313       2.2191     116.8254
    747.9031      22.8560       0.0243     125.7962      45.5363       1.1968    -999.2500    -999.2500    -999.2500       0.3331       2.2144     116.9873
    748.0555      22.8560       0.0258     128.4541      45.5038       1.2141    -999.2500    -999.2500    -999.2500       0.3408       2.2129     117.1702
    748.2079      22.8560       0.0296     132.6215      45.9359       1.2452    -999.2500    -999.2500    -999.2500       0.3543       2.2159     117.3858
    748.3603      22.8560       0.0277     134.1757      45.2612       1.2700    -999.2500    -999.2500    -999.2500       0.3598       2.2232     117.6227
    748.5127      22.8560       0.0194     133.1373      42.8972       1.2850    -999.2500    -999.2500    -999.2500       0.3571       2.2348     117.8924
    748.6651      22.8560       0.0183     132.7768      40.8998       1.2940    -999.2500    -999.2500    -999.2500       0.3562       2.2497     117.9026
    748.8175      22.8560       0.0259     133.0893      39.4503       1.2940    -999.2500    -999.2500    -999.2500       0.3570       2.2679     117.5251
    748.9699      22.8560       0.0383     133.8728      38.3420       1.2962    -999.2500    -999.2500    -999.2500       0.3593       2.2717     117.2134
    749.1223      22.8560       0.0549     135.1237      37.7319       1.3018    -999.2500    -999.2500    -999.2500       0.3629       2.2593     116.9978
    749.2747      22.8560       0.0690     135.0087      37.8858       1.2955    -999.2500    -999.2500    -999.2500       0.3625       2.2540     116.8931
    749.4271      22.8560       0.0798     133.5372      39.1315       1.2724    -999.2500    -999.2500    -999.2500       0.3580       2.2581     116.9467
    749.5795      22.8560       0.0807     129.4823      40.0170       1.2458    -999.2500    -999.2500    -999.2500       0.3457       2.2578     117.0679
    749.7319      22.8560       0.0711     122.8615      40.3986       1.2142    -999.2500    -999.2500    -999.2500       0.3256       2.2518     117.2835
    749.8843      22.8560       0.0583     120.3856      40.8015       1.1949    -999.2500    -999.2500    -999.2500       0.3191       2.2474     117.4764
    750.0367      22.8560       0.0430     122.0274      41.2336       1.1924    -999.2500    -999.2500    -999.2500       0.3262       2.2452     117.6383
    750.1891      22.8560       0.0393     125.4519      41.3505       1.1921    -999.2500    -999.2500    -999.2500       0.3422       2.2490     117.5467
    750.3415      22.8560       0.0483     130.6453      41.0452       1.1946    -999.2500    -999.2500    -999.2500       0.3672       2.2590     117.1156
    750.4939      22.8560       0.0564     133.8882      41.7519       1.1997    -999.2500    -999.2500    -999.2500       0.3868       2.2613     116.9176
    750.6463      22.8560       0.0626     135.1957      43.7856       1.2082    -999.2500    -999.2500    -999.2500       0.4011       2.2550     117.0254
    750.7987      22.8560       0.0618     134.1523      44.7844       1.2117    -999.2500    -999.2500    -999.2500       0.4071       2.2461     117.1095
    750.9511      22.8560       0.0538     130.7754      44.4539       1.2087    -999.2500    -999.2500    -999.2500       0.4050       2.2352     117.1631
    751.1035      22.8560       0.0460     129.1321      44.3827       1.2070    -999.2500    -999.2500    -999.2500       0.3954       2.2270     117.1692
    751.2559      22.8560       0.0389     129.2101      44.6368       1.2070    -999.2500    -999.2500    -999.2500       0.3783       2.2218     117.1156
    751.4083      22.8560       0.0328     131.5443      44.6630       1.2108    -999.2500    -999.2500    -999.2500       0.3701       2.2163     117.1101
    751.5607      22.8560       0.0278     136.1192      44.4089       1.2193    -999.2500    -999.2500    -999.2500       0.3710       2.2103     117.1637
    751.7131      22.8560       0.0235     138.0450      44.3853       1.2265    -999.2500    -999.2500    -999.2500       0.3735       2.2057     117.1441
    751.8655      22.8560       0.0199     137.3394      44.6394       1.2320    -999.2500    -999.2500    -999.2500       0.3776       2.2026     117.0363
    752.0179      22.8560       0.0186     135.7411      44.6137       1.2403    -999.2500    -999.2500    -999.2500       0.3823       2.2023     116.9780
    752.1703      22.8560       0.0195     133.2572      44.2577       1.2518    -999.2500    -999.2500    -999.2500       0.3876       2.2046     116.9780
    752.3227      22.8560       0.0219     132.3214      44.1261       1.2636    -999.2500    -999.2500    -999.2500       0.3922       2.2120     117.0280
    752.4751      22.8560       0.0259     132.9219      44.2534       1.2756    -999.2500    -999.2500    -999.2500       0.3960       2.2243     117.1358
    752.6275      22.8560       0.0308     133.1944      43.5929       1.2834    -999.2500    -999.2500    -999.2500       0.4020       2.2454     117.2690
    752.7799      22.8560       0.0368     133.1414      42.0419       1.2864    -999.2500    -999.2500    -999.2500       0.4101       2.2751     117.4309
    752.9323      22.8560       0.0448     133.0114      41.8060       1.2880    -999.2500    -999.2500    -999.2500       0.4134       2.2936     117.3626
    753.0847      22.8560       0.0547     132.8049      43.0262       1.2880    -999.2500    -999.2500    -999.2500       0.4119       2.3006     117.0392
    753.2371      22.8560       0.0586     132.5093      42.9781       1.2851    -999.2500    -999.2500    -999.2500       0.4077       2.2916     116.8450
    753.3895      22.8560       0.0563     132.1254      41.5547       1.2791    -999.2500    -999.2500    -999.2500       0.4009       2.2670     116.7909
    753.5419      22.8560       0.0538     129.8348      40.9084       1.2689    -999.2500    -999.2500    -999.2500       0.3926       2.2513     116.8939
    753.6943      22.8560       0.0513     125.6504      41.0863       1.2544    -999.2500    -999.2500    -999.2500       0.3828       2.2451     117.1636
    753.8467      22.8560       0.0520     123.6964      40.8653       1.2401    -999.2500    -999.2500    -999.2500       0.3721       2.2438     117.1953
    753.9991      22.8560       0.0560     123.9585      40.2296       1.2261    -999.2500    -999.2500    -999.2500       0.3606       2.2472     116.9797
    754.1515      22.8560       0.0618     126.3746      40.1736       1.2175    -999.2500    -999.2500    -999.2500       0.3637       2.2508     116.8176
    754.3039      22.8560       0.0693     130.9280      40.7074       1.2145    -999.2500    -999.2500    -999.2500       0.3815       2.2543     116.7098
