#------------------------------------------------------------------------------
#
#   Created by  : [OpenWorks] Log Export Utility (LEXP)
#   Created on  : 2016-05-11 12:45:43
#   Project     : CANT971
#   User        : R5K
#   Interpreter : PEP
#
#------------------------------------------------------------------------------
~VERSION INFORMATION
VERS. 2.0 : CWLS Log ASCII Standard - version 2.0
WRAP.  NO : One line per depth step
~WELL INFORMATION
#MNEMONIC   .UNIT                                           VALUE :DESCRIPTION
#------------------------------------------------------------------------------
STRT        .M                                            80.3144 :START DEPTH
STOP        .M                                          1350.4160 :STOP DEPTH
STEP        .M                                             0.1524 :STEP
NULL        .                                           -999.2500 :NULL VALUE
COMP        .                                   PEMEX EXPL & PROD :COMPANY
WELL        .                                         CANTARELL-3 :WELL
FLD         .                                           CANTARELL :FIELD
LOC         .                                             UNKNOWN :LOCATION
CNTY        .                                      CD. DEL CARMEN :COUNTY
STAT        .                                            CAMPECHE :STATE
CTRY        .                                              MEXICO :COUNTRY
SRVC        .                                             UNKNOWN :SERVICE COMPANY
DATE        .                                             UNKNOWN :LOG DATE
UWI         .                                          3060000139 :UNIQUE WELL ID
XCOORD      .                                       600825.370000 :SURFACE X
YCOORD      .                                      2145118.460000 :SURFACE Y
LAT         .                                           19.398901 :LATITUDE
LON         .                                          -92.039777 :LONGITUDE
ELEV        .M                                            27.7000 :SURFACE ELEV
ELEV_TYPE   .                                                  KB :ELEV TYPE
~CURVE INFORMATION
#MNEMONIC.UNIT        API CODE       : CURVE DESCRIPTION
#------------------------------------------------------------------------------
DEPTH    .M                          : Measured Depth
CALI     .inches      UNKNOWN        : CALI:Import:rC:NONE:v0 (auto-composite)
DRHO     .g/cm3       UNKNOWN        : DRHO:Import:rC:NONE:v0 (auto-composite)
DT       .us/ft       UNKNOWN        : DT:Import:rC:NONE:v0 (auto-composite)
GR       .API         UNKNOWN        : GR:Import:rC:NONE:v0 (auto-composite)
ILD      .ohm.m       UNKNOWN        : ILD:Import:rC:NONE:v0 (auto-composite)
NPHI     .v/v_decimal UNKNOWN        : NPHI:Import:rC:NONE:v0 (auto-composite)
RHOB     .g/cm3       UNKNOWN        : RHOB:Import:rC:NONE:v0 (auto-composite)
SP       .mV          UNKNOWN        : SP:Import:rC:NONE:v0 (auto-composite)
~A     DEPTH         CALI         DRHO           DT           GR          ILD         NPHI         RHOB           SP
# ...
   1089.8120      16.4799       0.0255     115.0160      24.9818       1.1735       0.2639       2.4050     130.2305
   1089.9644      16.4110       0.0300     117.6852      25.2740       1.2280       0.2677       2.4090     130.1190
   1090.1168      16.4310       0.0250     120.3440      26.7522       1.2210       0.2685       2.4005     128.7722
   1090.2692      16.4510       0.0200     119.8035      28.2260       1.2140       0.2677       2.3920     127.4240
   1090.4216      16.4385       0.0285     119.2650      28.1278       1.2185       0.2662       2.4110     130.4122
   1090.5740      16.4260       0.0370     117.5789      28.0300       1.2230       0.2643       2.4300     133.4040
   1090.7264      16.3819       0.0370     115.8990      27.5341       1.2195       0.2624       2.4295     132.8853
   1090.8788      16.3380       0.0370     115.4560      27.0400       1.2160       0.2612       2.4290     132.3660
   1091.0312      16.2964       0.0275     115.0150      27.2108       1.1945       0.2619       2.4175     127.6853
   1091.1836      16.2550       0.0180     114.2371      27.3810       1.1730       0.2642       2.4060     122.9980
   1091.3361      16.1759       0.0195     113.4630      27.9725       1.1250       0.2686       2.4110     123.4856
   1091.4884      16.0970       0.0210     114.1827      28.5620       1.0770       0.2751       2.4160     123.9740
   1091.6407      16.1020       0.0290     114.8990      29.3738       1.0295       0.2842       2.4135     126.0383
   1091.7932      16.1070       0.0370     117.3743      30.1830       0.9820       0.2919       2.4110     128.1060
   1091.9456      16.1220       0.0370     119.8380      30.1580       0.9870       0.2935       2.3900     131.8831
   1092.0980      16.1370       0.0370     123.3285      30.1330       0.9920       0.2911       2.3690     135.6670
   1092.2504      16.0979       0.0350     126.8030      29.3669       1.0125       0.2854       2.3725     135.2814
   1092.4028      16.0590       0.0330     126.6436      28.6030       1.0330       0.2751       2.3760     134.8950
   1092.5552      16.0685       0.0250     126.4850      28.7001       1.0765       0.2569       2.3975     132.0340
   1092.7076      16.0780       0.0170     120.1482      28.7970       1.1200       0.2408       2.4190     129.1670
   1092.8600      15.9994       0.0185     113.8390      28.7479       1.1150       0.2375       2.4175     129.8615
   1093.0125      15.9210       0.0200     114.1071      28.6990       1.1100       0.2409       2.4160     130.5570
   1093.1648      15.9210       0.0160     114.3740      28.1548       1.0855       0.2471       2.4100     130.5475
   1093.3173      15.9210       0.0120     115.3580      27.6120       1.0610       0.2538       2.4040     130.5380
   1093.4696      15.9310       0.0130     116.3380      27.8077       1.0750       0.2588       2.3920     130.4645
   1093.6219      15.9410       0.0140     120.2939      28.0030       1.0890       0.2614       2.3800     130.3910
   1093.7744      15.9290       0.0180     124.2340      27.8068       1.1605       0.2602       2.3835     130.1166
   1093.9268      15.9170       0.0220     123.5006      27.6110       1.2320       0.2548       2.3870     129.8420
   1094.0792      15.7913       0.0265     122.7700      25.5375       1.3369       0.2434       2.4050     130.0499
   1094.2316      15.6660       0.0310     117.8719      23.4700       1.4420       0.2277       2.4230     130.2580
   1094.3840      15.7251       0.0270     112.9920      23.5922       1.5080       0.2081       2.4441     129.5849
   1094.5364      15.7840       0.0230      99.9841      23.7140       1.5740       0.1933       2.4650     128.9110
   1094.6888      15.7790       0.0230      87.0230      24.5765       1.6135       0.1937       2.4580     129.0114
   1094.8412      15.7740       0.0230      89.9713      25.4360       1.6530       0.2050       2.4510     129.1120
   1094.9937      15.7299       0.0240      92.9070      27.8986       1.6235       0.2264       2.4269     129.5012
   1095.1460      15.6860       0.0250     102.9538      30.3530       1.5940       0.2507       2.4030     129.8910
   1095.2983      15.6960       0.0250     112.9510      30.1567       1.4865       0.2716       2.3875     130.8507
   1095.4508      15.7060       0.0250     116.7276      29.9610       1.3790       0.2851       2.3720     131.8120
   1095.6031      15.7526       0.0240     120.4860      28.8733       1.2685       0.2853       2.3790     131.7421
   1095.7556      15.7990       0.0230     117.2865      27.7890       1.1580       0.2812       2.3860     131.6720
   1095.9080      15.8541       0.0195     114.1020      28.0839       1.1590       0.2808       2.3855     131.4272
   1096.0604      15.9090       0.0160     114.5656      28.3780       1.1600       0.2815       2.3850     131.1820
   1096.2128      15.9190       0.0175     115.0270      28.2789       1.1710       0.2809       2.3735     131.0107
   1096.3652      15.9290       0.0190     118.3479      28.1800       1.1820       0.2765       2.3620     130.8390
   1096.5176      15.9535       0.0190     121.6540      27.3894       1.1615       0.2649       2.3635     130.5578
   1096.6700      15.9780       0.0190     118.8980      26.6010       1.1410       0.2538       2.3650     130.2760
   1096.8224      16.0401       0.0155     116.1540      26.7722       1.1425       0.2508       2.3745     129.7833
   1096.9749      16.1020       0.0120     116.1660      26.9430       1.1440       0.2529       2.3840     129.2900
   1097.1272      16.1366       0.0135     116.1780      27.7545       1.1575       0.2586       2.3835     129.3410
   1097.2795      16.1710       0.0150     117.4416      28.5640       1.1710       0.2637       2.3830     129.3920
   1097.4320      16.1955       0.0145     118.7000      28.4659       1.2010       0.2642       2.3775     130.1437
   1097.5844      16.2200       0.0140     117.9686      28.3680       1.2310       0.2631       2.3720     130.8960
   1097.7368      16.2596       0.0150     117.2400      27.5763       1.2425       0.2632       2.3745     130.6146
   1097.8892      16.2990       0.0160     114.2313      26.7870       1.2540       0.2646       2.3770     130.3330
   1098.0416      16.3361       0.0185     111.2340      26.8842       1.2800       0.2678       2.3855     130.4909
   1098.1940      16.3730       0.0210     115.1658      26.9810       1.3060       0.2695       2.3940     130.6490
   1098.3464      16.3955       0.0330     119.0830      26.4871       1.3000       0.2656       2.4176     130.4166
   1098.4988      16.4180       0.0450     117.7541      25.9950       1.2940       0.2627       2.4410     130.1840
   1098.6512      16.4180       0.0445     116.4300      26.2890       1.2715       0.2674       2.4235     130.2050
   1098.8036      16.4180       0.0440     116.7597      26.5820       1.2490       0.2733       2.4060     130.2260
   1098.9561      16.4180       0.0405     117.0880      27.8631       1.2265       0.2741       2.4065     130.4019
   1099.1084      16.4180       0.0370     124.1348      29.1400       1.2040       0.2718       2.4070     130.5780
   1099.2607      16.4180       0.0315     131.1470      29.1150       1.1785       0.2680       2.4105     131.1945
   1099.4132      16.4180       0.0260     129.7577      29.0900       1.1530       0.2645       2.4140     131.8120
   1099.5656      16.4185       0.0265     128.3750      28.0279       1.1035       0.2632       2.4130     130.9467
   1099.7180      16.4190       0.0270     123.7988      26.9690       1.0540       0.2645       2.4120     130.0800
   1099.8704      16.3995       0.0370     119.2440      27.1403       1.0580       0.2694       2.4075     130.6749
   1100.0228      16.3800       0.0470     117.4815      27.3110       1.0620       0.2744       2.4030     131.2710
   1100.1752      16.3995       0.0460     115.7270      27.9018       1.0835       0.2759       2.3995     131.1531
