#------------------------------------------------------------------------------
#
#   Created by  : [OpenWorks] Log Export Utility (LEXP)
#   Created on  : 2016-05-23 11:56:46
#   Project     : CANT971
#   User        : R5K
#   Interpreter : PEP
#
#------------------------------------------------------------------------------
~VERSION INFORMATION
VERS. 2.0 : CWLS Log ASCII Standard - version 2.0
WRAP.  NO : One line per depth step
~WELL INFORMATION
#MNEMONIC   .UNIT                                           VALUE :DESCRIPTION
#------------------------------------------------------------------------------
STRT        .M                                           170.6880 :START DEPTH
STOP        .M                                          2221.8396 :STOP DEPTH
STEP        .M                                             0.1524 :STEP
NULL        .                                           -999.2500 :NULL VALUE
COMP        .                                   PEMEX EXPL & PROD :COMPANY
WELL        .                                                  51 :WELL
FLD         .                                           CANTARELL :FIELD
LOC         .                                             UNKNOWN :LOCATION
CNTY        .                                      CD. DEL CARMEN :COUNTY
STAT        .                                            CAMPECHE :STATE
CTRY        .                                              MEXICO :COUNTRY
SRVC        .                                             UNKNOWN :SERVICE COMPANY
DATE        .                                             UNKNOWN :LOG DATE
UWI         .                                          3060000165 :UNIQUE WELL ID
XCOORD      .                                       599727.990000 :SURFACE X
YCOORD      .                                      2147220.270000 :SURFACE Y
LAT         .                                           19.417949 :LATITUDE
LON         .                                          -92.050116 :LONGITUDE
ELEV        .M                                            27.8000 :SURFACE ELEV
ELEV_TYPE   .                                                  KB :ELEV TYPE
~CURVE INFORMATION
#MNEMONIC.UNIT        API CODE       : CURVE DESCRIPTION
#------------------------------------------------------------------------------
DEPTH    .M                          : Measured Depth
CAL      .inches      UNKNOWN        : CAL:CAL-Load:rC:NONE:v0 (auto-composite)
DRHO     .UNKNOWN     UNKNOWN        : DRHO:DRHO-Load:rC:NONE:v0 (auto-composite)
DT       .us/ft       UNKNOWN        : DT:DT:rC:NONE:v0 (auto-composite)
GR       .UNKNOWN     UNKNOWN        : GR:GR-Load:rC:NONE:v0 (auto-composite)
ILD      .UNKNOWN     UNKNOWN        : ILD:ILD-Load:rC:NONE:v0 (auto-composite)
NPHI     .v/v_decimal UNKNOWN        : NPHI:NPHI:rC:NONE:v0 (auto-composite)
RHOB     .UNKNOWN     UNKNOWN        : RHOB:RHOB-Load:rC:NONE:v0 (auto-composite)
SN       .UNKNOWN     UNKNOWN        : SN:SN-Load:rC:NONE:v0 (auto-composite)
~A     DEPTH          CAL         DRHO           DT           GR          ILD         NPHI         RHOB           SN
# ...
   1022.4516    -999.2500    -999.2500    -999.2500      31.6316       0.8615      36.3595    -999.2500       0.8705
   1022.6040    -999.2500    -999.2500    -999.2500      31.6850       0.8640      35.9460    -999.2500       0.8640
   1022.7564    -999.2500    -999.2500    -999.2500      31.7401       0.8700      35.6370    -999.2500       0.8750
   1022.9088    -999.2500    -999.2500    -999.2500      31.7950       0.8760      35.3280    -999.2500       0.8860
   1023.0612    -999.2500    -999.2500    -999.2500      32.5644       0.8860      35.2610    -999.2500       0.9040
   1023.2136    -999.2500    -999.2500    -999.2500      33.3320       0.8960      35.1940    -999.2500       0.9220
   1023.3660    -999.2500    -999.2500    -999.2500      33.9862       0.9070      35.1720    -999.2500       0.9350
   1023.5184    -999.2500    -999.2500    -999.2500      34.6390       0.9180      35.1500    -999.2500       0.9480
   1023.6708    -999.2500    -999.2500    -999.2500      34.5464       0.9290      35.0980    -999.2500       0.9665
   1023.8232    -999.2500    -999.2500    -999.2500      34.4540       0.9400      35.0460    -999.2500       0.9850
   1023.9756    -999.2500    -999.2500    -999.2500      34.6072       0.9495      34.9720    -999.2500       0.9985
   1024.1281    -999.2500    -999.2500    -999.2500      34.7600       0.9590      34.8980    -999.2500       1.0120
   1024.2804    -999.2500    -999.2500    -999.2500      34.8897       0.9630      34.9645    -999.2500       1.0175
   1024.4329    -999.2500    -999.2500    -999.2500      35.0190       0.9670      35.0310    -999.2500       1.0230
   1024.5852    -999.2500    -999.2500    -999.2500      35.0510       0.9605      35.0820    -999.2500       1.0195
   1024.7375    -999.2500    -999.2500    -999.2500      35.0830       0.9540      35.1330    -999.2500       1.0160
   1024.8900    -999.2500    -999.2500    -999.2500      35.0945       0.9390      34.9785    -999.2500       1.0010
   1025.0424    -999.2500    -999.2500    -999.2500      35.1060       0.9240      34.8240    -999.2500       0.9860
   1025.1948    -999.2500    -999.2500    -999.2500      34.8157       0.9055      34.5949    -999.2500       0.9715
   1025.3472    -999.2500    -999.2500    -999.2500      34.5260       0.8870      34.3660    -999.2500       0.9570
   1025.4996    -999.2500    -999.2500    -999.2500      33.8418       0.8770      34.6756    -999.2500       0.9410
   1025.6520    -999.2500    -999.2500    -999.2500      33.1590       0.8670      34.9850    -999.2500       0.9250
   1025.8044    -999.2500    -999.2500    -999.2500      32.5995       0.8595      35.4416    -999.2500       0.8989
   1025.9568    -999.2500    -999.2500    -999.2500      32.0410       0.8520      35.8980    -999.2500       0.8730
   1026.1093    -999.2500    -999.2500    -999.2500      31.8283       0.8535      36.1925    -999.2500       0.8735
   1026.2616    -999.2500    -999.2500    -999.2500      31.6160       0.8550      36.4870    -999.2500       0.8740
   1026.4141    -999.2500    -999.2500    -999.2500      32.0635       0.8605      36.3325    -999.2500       0.8905
   1026.5664    -999.2500    -999.2500    -999.2500      32.5100       0.8660      36.1780    -999.2500       0.9070
   1026.7188    -999.2500    -999.2500    -999.2500      33.2572       0.8755      36.0375    -999.2500       0.9245
   1026.8712    -999.2500    -999.2500    -999.2500      34.0020       0.8850      35.8970    -999.2500       0.9420
   1027.0236    -999.2500    -999.2500    -999.2500      34.5754       0.8950      35.9190    -999.2500       0.9505
   1027.1760    -999.2500    -999.2500    -999.2500      35.1470       0.9050      35.9410    -999.2500       0.9590
   1027.3284    -999.2500    -999.2500    -999.2500      35.2782       0.9165      36.3679    -999.2500       0.9515
   1027.4808    -999.2500    -999.2500    -999.2500      35.4090       0.9280      36.7950    -999.2500       0.9440
   1027.6332    -999.2500    -999.2500    -999.2500      35.0440       0.9210      38.2607    -999.2500       0.9215
   1027.7856    -999.2500    -999.2500    -999.2500      34.6800       0.9140      39.7270    -999.2500       0.8990
   1027.9380    -999.2500    -999.2500    -999.2500      34.4637       0.8875      40.4796    -999.2500       0.8724
   1028.0905    -999.2500    -999.2500    -999.2500      34.2480       0.8610      41.2320    -999.2500       0.8460
   1028.2428    -999.2500    -999.2500    -999.2500      34.3531       0.8300      41.4826    -999.2500       0.8204
   1028.3953    -999.2500    -999.2500    -999.2500      34.4580       0.7990      41.7330    -999.2500       0.7950
   1028.5476    -999.2500    -999.2500    -999.2500      34.1672       0.8030      41.4009    -999.2500       0.7820
   1028.7000    -999.2500    -999.2500    -999.2500      33.8770       0.8070      41.0690    -999.2500       0.7690
   1028.8524    -999.2500    -999.2500    -999.2500      33.6377       0.8210      40.2728    -999.2500       0.7895
   1029.0048    -999.2500    -999.2500    -999.2500      33.3990       0.8350      39.4770    -999.2500       0.8100
   1029.1572    -999.2500    -999.2500    -999.2500      32.9866       0.8520      38.6583    -999.2500       0.8596
   1029.3096    -999.2500    -999.2500    -999.2500      32.5750       0.8690      37.8400    -999.2500       0.9090
   1029.4620    -999.2500    -999.2500    -999.2500      32.0905       0.8915      38.1491    -999.2500       0.9310
   1029.6144    -999.2500    -999.2500    -999.2500      31.6070       0.9140      38.4580    -999.2500       0.9530
   1029.7668    -999.2500    -999.2500    -999.2500      31.4153       0.9335      38.8560    -999.2500       0.9430
   1029.9192    -999.2500    -999.2500    -999.2500      31.2240       0.9530      39.2540    -999.2500       0.9330
   1030.0717    -999.2500    -999.2500    -999.2500      30.7631       0.9465      39.1435    -999.2500       0.9375
   1030.2240    -999.2500    -999.2500    -999.2500      30.3030       0.9400      39.0330    -999.2500       0.9420
   1030.3763    -999.2500    -999.2500    -999.2500      30.0637       0.9410      38.7745    -999.2500       0.9666
   1030.5288    -999.2500    -999.2500    -999.2500      29.8250       0.9420      38.5160    -999.2500       0.9910
   1030.6812    -999.2500    -999.2500    -999.2500      30.0258       0.9690      38.1110    -999.2500       1.0161
   1030.8336    -999.2500    -999.2500    -999.2500      30.2260       0.9960      37.7060    -999.2500       1.0410
   1030.9860    -999.2500    -999.2500    -999.2500      29.7157       1.0235      37.0646    -999.2500       1.0786
   1031.1384    -999.2500    -999.2500    -999.2500      29.2070       1.0510      36.4230    -999.2500       1.1160
   1031.2908    -999.2500    -999.2500    -999.2500      28.8440       1.0670      35.5672    -999.2500       1.1446
   1031.4432    -999.2500    -999.2500    -999.2500      28.4820       1.0830      34.7110    -999.2500       1.1730
   1031.5956    -999.2500    -999.2500    -999.2500      28.5886       1.0895      34.7110    -999.2500       1.1640
   1031.7480    -999.2500    -999.2500    -999.2500      28.6950       1.0960      34.7110    -999.2500       1.1550
   1031.9004    -999.2500    -999.2500    -999.2500      28.6234       1.0975      34.8441    -999.2500       1.1380
   1032.0529    -999.2500    -999.2500    -999.2500      28.5520       1.0990      34.9770    -999.2500       1.1210
   1032.2052    -999.2500    -999.2500    -999.2500      28.4324       1.0970      35.0650    -999.2500       1.1265
   1032.3575    -999.2500    -999.2500    -999.2500      28.3130       1.0950      35.1530    -999.2500       1.1320
   1032.5100    -999.2500    -999.2500    -999.2500      28.6864       1.0880      35.4326    -999.2500       1.1340
   1032.6624    -999.2500    -999.2500    -999.2500      29.0590       1.0810      35.7120    -999.2500       1.1360
   1032.8148    -999.2500    -999.2500    -999.2500      29.4855       1.0735      35.8891    -999.2500       1.1350
