#------------------------------------------------------------------------------
#
#   Created by  : [OpenWorks] Log Export Utility (LEXP)
#   Created on  : 2016-05-12 17:01:28
#   Project     : CANT971
#   User        : R5K
#   Interpreter : PEP
#
#------------------------------------------------------------------------------
~VERSION INFORMATION
VERS. 2.0 : CWLS Log ASCII Standard - version 2.0
WRAP.  NO : One line per depth step
~WELL INFORMATION
#MNEMONIC   .UNIT                                           VALUE :DESCRIPTION
#------------------------------------------------------------------------------
STRT        .M                                           350.5962 :START DEPTH
STOP        .M                                          2218.5630 :STOP DEPTH
STEP        .M                                             0.1524 :STEP
NULL        .                                           -999.2500 :NULL VALUE
COMP        .                                   PEMEX EXPL & PROD :COMPANY
WELL        .                                                  79 :WELL
FLD         .                                           CANTARELL :FIELD
LOC         .                                             UNKNOWN :LOCATION
CNTY        .                                      CD. DEL CARMEN :COUNTY
STAT        .                                            CAMPECHE :STATE
CTRY        .                                              MEXICO :COUNTRY
SRVC        .                                             UNKNOWN :SERVICE COMPANY
DATE        .                                             UNKNOWN :LOG DATE
UWI         .                                          3060000183 :UNIQUE WELL ID
XCOORD      .                                       602154.470000 :SURFACE X
YCOORD      .                                      2147172.410000 :SURFACE Y
LAT         .                                           19.417394 :LATITUDE
LON         .                                          -92.027010 :LONGITUDE
ELEV        .M                                            28.1700 :SURFACE ELEV
ELEV_TYPE   .                                                  KB :ELEV TYPE
~CURVE INFORMATION
#MNEMONIC.UNIT        API CODE       : CURVE DESCRIPTION
#------------------------------------------------------------------------------
DEPTH    .M                          : Measured Depth
CALI     .inches      UNKNOWN        : CALI:CALI-Load:rC:NONE:v0 (auto-composite)
DT       .us/ft       UNKNOWN        : DT:DT:rC:NONE:v0 (auto-composite)
GR       .UNKNOWN     UNKNOWN        : GR:GR-Load:rC:NONE:v0 (auto-composite)
ILD      .UNKNOWN     UNKNOWN        : ILD:ILD-Load:rC:NONE:v0 (auto-composite)
LLD      .UNKNOWN     UNKNOWN        : LLD:LLD-Load:rC:NONE:v0 (auto-composite)
LLS      .UNKNOWN     UNKNOWN        : LLS:LLS-Load:rC:NONE:v0 (auto-composite)
MSFL     .UNKNOWN     UNKNOWN        : MSFL:MSFL-Load:rC:NONE:v0 (auto-composite)
NPHI     .v/v_decimal UNKNOWN        : NPHI:NPHI:rC:NONE:v0 (auto-composite)
RG       .API         UNKNOWN        : RG:UNKNOWN:rC:NONE:v0 (auto-composite)
RHOB     .UNKNOWN     UNKNOWN        : RHOB:RHOB-Load:rC:NONE:v0 (auto-composite)
SP       .UNKNOWN     UNKNOWN        : SP:SP-Load:rC:NONE:v0 (auto-composite)
~A     DEPTH         CALI           DT           GR          ILD          LLD          LLS         MSFL         NPHI           RG         RHOB           SP
# ...
   2086.1274       6.2260      68.5583      20.4054    -999.2500     150.5399      43.2167      16.5631       0.1034      20.4799       2.7120      47.8340
   2086.2798       6.2440      70.3825      20.0251    -999.2500     160.6596      45.7046      16.9444       0.0994      20.0363       2.7060      47.8340
   2086.4321       6.2560      66.0048      19.7167    -999.2500     171.1663      48.4925      22.8004       0.0944      18.9041       2.7088      47.8295
   2086.5845       6.2620      55.3508      19.4801    -999.2500     182.0571      51.5781      34.1261       0.0883      19.0675       2.7203      47.8205
   2086.7371       6.2650      51.1692      19.5369    -999.2500     180.5303      51.4898      37.1300       0.0830      20.0890       2.7338      47.8193
   2086.8894       6.2650      53.5182      19.8860    -999.2500     166.6337      48.2396      31.8443       0.0785      20.6107       2.7493      47.8258
   2087.0417       6.2650      54.6379      19.8474    -999.2500     155.7894      45.6860      26.9812       0.0755      20.8067       2.7640      47.8303
   2087.1941       6.2650      54.5128      19.4236    -999.2500     147.9768      43.8243      22.5406       0.0739      21.4883       2.7780      47.8328
   2087.3467       6.2560      57.9988      19.4375    -999.2500     148.1320      44.2994      21.9928       0.0730      22.4791       2.7822      47.8405
   2087.4990       6.2380      65.1303      19.8876    -999.2500     156.2285      47.1034      25.3249       0.0728      22.1805       2.7767      47.8535
   2087.6514       6.2200      71.9455      20.6560    -999.2500     152.5865      46.6239      26.1190       0.0729      21.0799       2.7647      47.8690
   2087.8037       6.2020      78.4404      21.7405    -999.2500     137.2799      42.8815      24.3748       0.0734      20.5277       2.7462      47.8870
   2087.9563       6.2050      85.7684      22.6006    -999.2500     123.8690      38.8813      22.9419       0.0733      20.3086       2.7373      47.9015
   2088.1086       6.2290      93.9379      23.2368    -999.2500     112.3365      34.6257      21.8194       0.0724      22.2190       2.7378      47.9125
   2088.2610       6.2230      94.0257      23.4134    -999.2500      97.2440      29.6276      22.2511       0.0716      25.3927       2.7403      47.9325
   2088.4133       6.1870      85.9227      23.1330    -999.2500      78.6122      23.8915      24.2378       0.0707      30.0802       2.7448      47.9615
   2088.5657       6.1825      83.6412      22.9179    -999.2500      70.0649      21.5332      26.7424       0.0708      35.6506       2.7452      47.9692
   2088.7183       6.2095      87.2426      22.7678    -999.2500      71.5142      22.5233      29.7636       0.0720      34.9816       2.7417      47.9557
   2088.8706       6.2335      80.4113      22.0082    -999.2500      77.5209      25.3149      29.6730       0.0729      30.7589       2.7443      47.9380
   2089.0229       6.2545      63.0688      20.6423    -999.2500      88.0608      29.8986      26.4674       0.0737      25.3859       2.7528      47.9160
   2089.1753       6.2470      55.2081      19.3980    -999.2500      99.0007      34.3319      23.9060       0.0740      19.3732       2.7598      47.9138
   2089.3279       6.2110      56.9337      18.2751    -999.2500     110.3373      38.6161      21.9878       0.0740      16.7500       2.7653      47.9313
   2089.4802       6.1930      57.4889      17.8463    -999.2500     114.0226      39.2942      21.9526       0.0741      15.9663       2.7728      47.9312
   2089.6326       6.1930      56.8642      18.1081    -999.2500     110.0931      36.3836      23.7913       0.0745      16.0461       2.7823      47.9137
   2089.7849       6.2050      57.4079      18.5168    -999.2500      98.4751      31.4260      22.5457       0.0737      16.5830       2.7772      47.9050
   2089.9375       6.2290      59.1335      19.0720    -999.2500      79.2279      24.4370      18.2202       0.0718      17.5194       2.7577      47.9050
   2090.0898       6.2350      59.8134      19.8646    -999.2500      67.0698      20.0570      17.2200       0.0711      18.6622       2.7498      47.9050
   2090.2422       6.2230      59.4385      20.8937    -999.2500      61.9705      18.2748      19.5310       0.0714      19.1508       2.7533      47.9050
   2090.3945       6.2170      59.4737      21.2111    -999.2500      65.3044      19.2883      22.0646       0.0728      19.3072       2.7560      47.9050
   2090.5469       6.2170      59.9239      20.8174    -999.2500      77.0109      23.0772      24.8206       0.0753      19.5032       2.7580      47.9050
   2090.6995       6.2050      57.4410      19.9803    -999.2500      91.1806      27.8285      25.6582       0.0770      19.7188       2.7479      47.8960
   2090.8518       6.1810      51.9983      18.7013    -999.2500     107.8042      33.5386      24.5847       0.0779      21.4849       2.7260      47.8780
   2091.0042       6.1780      46.4864      18.3644    -999.2500     115.7984      35.9635      22.4867       0.0785      23.9999       2.7042      47.8725
   2091.1565       6.1960      40.9043      18.9631    -999.2500     115.2211      35.1254      19.3645       0.0787      26.8050       2.6827      47.8795
   2091.3091       6.2080      41.9208      20.8514    -999.2500     108.8092      32.2175      18.5834       0.0778      29.7466       2.6878      47.8873
   2091.4614       6.2140      49.5990      24.0251    -999.2500      96.5817      27.2467      20.1358       0.0758      27.6244       2.7193      47.8958
   2091.6138       6.2170      54.8636      27.1687    -999.2500      93.4403      25.4659      21.3909       0.0739      23.1782       2.7458      47.9013
   2091.7661       6.2170      57.6832      30.2823    -999.2500      99.3285      26.8554      22.3487       0.0720      20.2928       2.7673      47.9038
   2091.9187       6.2230      58.1467      29.9767    -999.2500     113.1369      30.2271      22.9824       0.0716      18.1107       2.7705      47.8384
   2092.0710       6.2350      56.2305      26.2614    -999.2500     134.7930      35.5628      23.2928       0.0730      17.1321       2.7555      47.7053
   2092.2234       6.2365      54.8584      22.6938    -999.2500     154.2271      40.6987      25.5161       0.0751      16.6819       2.7387      47.9112
   2092.3757       6.2275      54.0376      19.2733    -999.2500     171.4520      45.6361      29.6536       0.0780      17.0190       2.7202      48.4539
   2092.5281       6.2155      52.0639      17.7713    -999.2500     178.0079      47.9956      28.0670       0.0809      17.6929       2.7155      48.9228
   2092.6807       6.2005      48.9253      18.1835    -999.2500     173.9871      47.7997      20.7693       0.0838      20.4488       2.7245      49.3179
   2092.8330       6.2050      51.0625      18.6355    -999.2500     171.1094      48.6498      15.3444       0.0846      24.0719       2.7323      48.9355
   2092.9854       6.2290      58.5158      19.1273    -999.2500     169.3688      50.5405      11.7824       0.0835      26.5665       2.7388      47.7795
   2093.1377       6.2290      67.7688      19.6957    -999.2500     162.3337      50.1825      11.5352       0.0823      28.6037       2.7443      46.9201
   2093.2903       6.2050      78.8413      20.3404    -999.2500     150.0475      47.5941      14.5968       0.0811      28.7643       2.7488      46.3569
   2093.4426       6.2020      79.3103      21.3123    -999.2500     135.5013      43.5096      15.3738       0.0787      28.1847       2.7505      46.0379
   2093.5950       6.2200      69.0898      22.6097    -999.2500     118.7056      37.9361      13.8769       0.0750      28.9044       2.7495      45.9620
   2093.7473       6.2380      77.0041      24.4059    -999.2500      98.9475      31.3829      13.3102       0.0733      30.1268       2.7482      45.9240
   2093.8999       6.2560     103.2638      26.7003    -999.2500      76.2498      23.8577      13.6723       0.0735      32.0577       2.7467      45.9240
