#------------------------------------------------------------------------------
#
#   Created by  : [OpenWorks] Log Export Utility (LEXP)
#   Created on  : 2016-05-12 17:01:28
#   Project     : CANT971
#   User        : R5K
#   Interpreter : PEP
#
#------------------------------------------------------------------------------
~VERSION INFORMATION
VERS. 2.0 : CWLS Log ASCII Standard - version 2.0
WRAP.  NO : One line per depth step
~WELL INFORMATION
#MNEMONIC   .UNIT                                           VALUE :DESCRIPTION
#------------------------------------------------------------------------------
STRT        .M                                           350.5962 :START DEPTH
STOP        .M                                          2218.5630 :STOP DEPTH
STEP        .M                                             0.1524 :STEP
NULL        .                                           -999.2500 :NULL VALUE
COMP        .                                   PEMEX EXPL & PROD :COMPANY
WELL        .                                                  79 :WELL
FLD         .                                           CANTARELL :FIELD
LOC         .                                             UNKNOWN :LOCATION
CNTY        .                                      CD. DEL CARMEN :COUNTY
STAT        .                                            CAMPECHE :STATE
CTRY        .                                              MEXICO :COUNTRY
SRVC        .                                             UNKNOWN :SERVICE COMPANY
DATE        .                                             UNKNOWN :LOG DATE
UWI         .                                          3060000183 :UNIQUE WELL ID
XCOORD      .                                       602154.470000 :SURFACE X
YCOORD      .                                      2147172.410000 :SURFACE Y
LAT         .                                           19.417394 :LATITUDE
LON         .                                          -92.027010 :LONGITUDE
ELEV        .M                                            28.1700 :SURFACE ELEV
ELEV_TYPE   .                                                  KB :ELEV TYPE
~CURVE INFORMATION
#MNEMONIC.UNIT        API CODE       : CURVE DESCRIPTION
#------------------------------------------------------------------------------
DEPTH    .M                          : Measured Depth
CALI     .inches      UNKNOWN        : CALI:CALI-Load:rC:NONE:v0 (auto-composite)
DT       .us/ft       UNKNOWN        : DT:DT:rC:NONE:v0 (auto-composite)
GR       .UNKNOWN     UNKNOWN        : GR:GR-Load:rC:NONE:v0 (auto-composite)
ILD      .UNKNOWN     UNKNOWN        : ILD:ILD-Load:rC:NONE:v0 (auto-composite)
LLD      .UNKNOWN     UNKNOWN        : LLD:LLD-Load:rC:NONE:v0 (auto-composite)
LLS      .UNKNOWN     UNKNOWN        : LLS:LLS-Load:rC:NONE:v0 (auto-composite)
MSFL     .UNKNOWN     UNKNOWN        : MSFL:MSFL-Load:rC:NONE:v0 (auto-composite)
NPHI     .v/v_decimal UNKNOWN        : NPHI:NPHI:rC:NONE:v0 (auto-composite)
RG       .API         UNKNOWN        : RG:UNKNOWN:rC:NONE:v0 (auto-composite)
RHOB     .UNKNOWN     UNKNOWN        : RHOB:RHOB-Load:rC:NONE:v0 (auto-composite)
SP       .UNKNOWN     UNKNOWN        : SP:SP-Load:rC:NONE:v0 (auto-composite)
~A     DEPTH         CALI           DT           GR          ILD          LLD          LLS         MSFL         NPHI           RG         RHOB           SP
# ...
   1539.3162      13.2688    -999.2500      69.6794       1.2848    -999.2500    -999.2500    -999.2500       0.4230    -999.2500       2.1457      43.4280
   1539.4686      13.3063    -999.2500      70.7843       1.2783    -999.2500    -999.2500    -999.2500       0.4279    -999.2500       2.1452      43.4280
   1539.6210      13.3015    -999.2500      71.6487       1.2685    -999.2500    -999.2500    -999.2500       0.4295    -999.2500       2.1500      43.4981
   1539.7734      13.2545    -999.2500      72.2732       1.2555    -999.2500    -999.2500    -999.2500       0.4276    -999.2500       2.1600      43.6381
   1539.9258      13.2170    -999.2500      72.1622       1.2430    -999.2500    -999.2500    -999.2500       0.4273    -999.2500       2.1703      43.8014
   1540.0782      13.1890    -999.2500      71.3177       1.2310    -999.2500    -999.2500    -999.2500       0.4284    -999.2500       2.1808      43.9879
   1540.2306      13.1985    -999.2500      70.6339       1.2250    -999.2500    -999.2500    -999.2500       0.4305    -999.2500       2.1797      44.1979
   1540.3829      13.2455    -999.2500      70.1105       1.2250    -999.2500    -999.2500    -999.2500       0.4335    -999.2500       2.1672      44.4314
   1540.5354      13.4019    -999.2500      69.3835       1.2228    -999.2500    -999.2500    -999.2500       0.4360    -999.2500       2.1618      44.6724
   1540.6877      13.6674    -999.2500      68.4535       1.2183    -999.2500    -999.2500    -999.2500       0.4380    -999.2500       2.1633      44.9209
   1540.8402      13.7124    -999.2500      68.5640       1.2123    -999.2500    -999.2500    -999.2500       0.4367    -999.2500       2.1610      45.1073
   1540.9926      13.5374    -999.2500      69.7130       1.2048    -999.2500    -999.2500    -999.2500       0.4321    -999.2500       2.1550      45.2318
   1541.1450      13.4875    -999.2500      69.6970       1.1968    -999.2500    -999.2500    -999.2500       0.4323    -999.2500       2.1497      45.2007
   1541.2974      13.5625    -999.2500      68.5181       1.1883    -999.2500    -999.2500    -999.2500       0.4373    -999.2500       2.1452      45.0142
   1541.4498      13.6188    -999.2500      67.3691       1.1770    -999.2500    -999.2500    -999.2500       0.4366    -999.2500       2.1483      44.7967
   1541.6022      13.6563    -999.2500      66.2501       1.1630    -999.2500    -999.2500    -999.2500       0.4302    -999.2500       2.1588      44.5482
   1541.7546      13.6047    -999.2500      65.9723       1.1473    -999.2500    -999.2500    -999.2500       0.4233    -999.2500       2.1680      44.2991
   1541.9070      13.4641    -999.2500      66.5345       1.1298    -999.2500    -999.2500    -999.2500       0.4158    -999.2500       2.1760      44.0495
   1542.0594      13.3141    -999.2500      67.4345       1.1130    -999.2500    -999.2500    -999.2500       0.4105    -999.2500       2.1838      43.9485
   1542.2118      13.1546    -999.2500      68.6710       1.0970    -999.2500    -999.2500    -999.2500       0.4076    -999.2500       2.1913      43.9955
   1542.3641      13.0890    -999.2500      68.3119       1.0845    -999.2500    -999.2500    -999.2500       0.4079    -999.2500       2.1963      44.1202
   1542.5166      13.1170    -999.2500      66.3634       1.0755    -999.2500    -999.2500    -999.2500       0.4112    -999.2500       2.1988      44.3222
   1542.6689      13.1671    -999.2500      65.5786       1.0747    -999.2500    -999.2500    -999.2500       0.4167    -999.2500       2.1962      44.5009
   1542.8214      13.2391    -999.2500      65.9531       1.0822    -999.2500    -999.2500    -999.2500       0.4242    -999.2500       2.1887      44.6564
   1542.9738      13.2562    -999.2500      66.7405       1.0902    -999.2500    -999.2500    -999.2500       0.4237    -999.2500       2.1732      44.7806
   1543.1262      13.2187    -999.2500      67.9395       1.0987    -999.2500    -999.2500    -999.2500       0.4153    -999.2500       2.1497      44.8736
   1543.2786      13.2423    -999.2500      68.3785       1.1065    -999.2500    -999.2500    -999.2500       0.4120    -999.2500       2.1390      44.8967
   1543.4310      13.3268    -999.2500      68.0600       1.1135    -999.2500    -999.2500    -999.2500       0.4137    -999.2500       2.1410      44.8502
   1543.5834      13.5019    -999.2500      67.6980       1.1140    -999.2500    -999.2500    -999.2500       0.4116    -999.2500       2.1498      44.7960
   1543.7358      13.7674    -999.2500      67.2925       1.1080    -999.2500    -999.2500    -999.2500       0.4059    -999.2500       2.1653      44.7340
   1543.8882      13.7248    -999.2500      67.1648       1.0983    -999.2500    -999.2500    -999.2500       0.3981    -999.2500       2.1805      44.6251
   1544.0406      13.3748    -999.2500      67.3143       1.0848    -999.2500    -999.2500    -999.2500       0.3883    -999.2500       2.1955      44.4697
   1544.1930      13.2188    -999.2500      67.4140       1.0718    -999.2500    -999.2500    -999.2500       0.3857    -999.2500       2.2100      44.2751
   1544.3453      13.2563    -999.2500      67.4640       1.0593    -999.2500    -999.2500    -999.2500       0.3902    -999.2500       2.2240      44.0416
   1544.4978      13.2860    -999.2500      67.2515       1.0470    -999.2500    -999.2500    -999.2500       0.3973    -999.2500       2.2285      43.9250
   1544.6501      13.3080    -999.2500      66.7770       1.0350    -999.2500    -999.2500    -999.2500       0.4072    -999.2500       2.2235      43.9250
   1544.8026      13.4206    -999.2500      66.8400       1.0253    -999.2500    -999.2500    -999.2500       0.4093    -999.2500       2.2187      43.9250
   1544.9550      13.6236    -999.2500      67.4395       1.0178    -999.2500    -999.2500    -999.2500       0.4036    -999.2500       2.2142      43.9250
   1545.1074      13.6875    -999.2500      67.4140       1.0150    -999.2500    -999.2500    -999.2500       0.3993    -999.2500       2.2135      44.0186
   1545.2598      13.6125    -999.2500      66.7645       1.0170    -999.2500    -999.2500    -999.2500       0.3964    -999.2500       2.2165      44.2056
   1545.4122      13.5798    -999.2500      66.5025       1.0207    -999.2500    -999.2500    -999.2500       0.3959    -999.2500       2.2177      44.3768
   1545.5646      13.5893    -999.2500      66.6275       1.0262    -999.2500    -999.2500    -999.2500       0.3976    -999.2500       2.2172      44.5323
   1545.7170      13.6268    -999.2500      66.5121       1.0325    -999.2500    -999.2500    -999.2500       0.4032    -999.2500       2.2150      44.6488
   1545.8694      13.6923    -999.2500      66.1564       1.0395    -999.2500    -999.2500    -999.2500       0.4126    -999.2500       2.2110      44.7263
   1546.0219      13.6311    -999.2500      65.5632       1.0485    -999.2500    -999.2500    -999.2500       0.4160    -999.2500       2.2060      44.7728
   1546.1742      13.4436    -999.2500      64.7332       1.0595    -999.2500    -999.2500    -999.2500       0.4134    -999.2500       2.2000      44.7883
   1546.3265      13.3500    -999.2500      63.9743       1.0750    -999.2500    -999.2500    -999.2500       0.4124    -999.2500       2.1955      44.8193
   1546.4790      13.3500    -999.2500      63.2864       1.0950    -999.2500    -999.2500    -999.2500       0.4131    -999.2500       2.1925      44.8658
   1546.6313      13.3250    -999.2500      63.5436       1.1127    -999.2500    -999.2500    -999.2500       0.4108    -999.2500       2.1910      45.0525
   1546.7838      13.2750    -999.2500      64.7425       1.1282    -999.2500    -999.2500    -999.2500       0.4052    -999.2500       2.1910      45.3790
   1546.9362      13.3564    -999.2500      64.7155       1.1417    -999.2500    -999.2500    -999.2500       0.4051    -999.2500       2.1880      45.4719
   1547.0886      13.5689    -999.2500      63.4665       1.1532    -999.2500    -999.2500    -999.2500       0.4103    -999.2500       2.1820      45.3319
