#------------------------------------------------------------------------------
#
#   Created by  : [OpenWorks] Log Export Utility (LEXP)
#   Created on  : 2016-05-23 11:56:05
#   Project     : CANT971
#   User        : R5K
#   Interpreter : PEP
#
#------------------------------------------------------------------------------
~VERSION INFORMATION
VERS. 2.0 : CWLS Log ASCII Standard - version 2.0
WRAP.  NO : One line per depth step
~WELL INFORMATION
#MNEMONIC   .UNIT                                           VALUE :DESCRIPTION
#------------------------------------------------------------------------------
STRT        .M                                          1100.3549 :START DEPTH
STOP        .M                                          2766.5439 :STOP DEPTH
STEP        .M                                             0.1524 :STEP
NULL        .                                           -999.2500 :NULL VALUE
COMP        .                                   PEMEX EXPL & PROD :COMPANY
WELL        .                                                  43 :WELL
FLD         .                                           CANTARELL :FIELD
LOC         .                                             UNKNOWN :LOCATION
CNTY        .                                      CD. DEL CARMEN :COUNTY
STAT        .                                            CAMPECHE :STATE
CTRY        .                                              MEXICO :COUNTRY
SRVC        .                                             UNKNOWN :SERVICE COMPANY
DATE        .                                             UNKNOWN :LOG DATE
UWI         .                                          3060000465 :UNIQUE WELL ID
XCOORD      .                                       601717.960000 :SURFACE X
YCOORD      .                                      2142346.560000 :SURFACE Y
LAT         .                                           19.373808 :LATITUDE
LON         .                                          -92.031425 :LONGITUDE
ELEV        .M                                            24.0000 :SURFACE ELEV
ELEV_TYPE   .                                                  KB :ELEV TYPE
~CURVE INFORMATION
#MNEMONIC.UNIT        API CODE       : CURVE DESCRIPTION
#------------------------------------------------------------------------------
DEPTH    .M                          : Measured Depth
CAL      .inches      UNKNOWN        : CAL:UNKNOWN:rC:NONE:v0 (auto-composite)
CALI     .in          UNKNOWN        : CALI:UNKNOWN:rC:NONE:v0 (auto-composite)
CNL      .v/v_decimal UNKNOWN        : CNL:UNKNOWN:rC:NONE:v0 (auto-composite)
DT       .us/ft       UNKNOWN        : DT:DT:rC:NONE:v0 (auto-composite)
GR       .API         UNKNOWN        : GR:UNKNOWN:rC:NONE:v0 (auto-composite)
ILD      .ohmm        UNKNOWN        : ILD:UNKNOWN:rC:NONE:v0 (auto-composite)
ILM      .ohmm        UNKNOWN        : ILM:UNKNOWN:rC:NONE:v0 (auto-composite)
LLD      .ohmm        UNKNOWN        : LLD:UNKNOWN:rC:NONE:v0 (auto-composite)
LLS      .ohmm        UNKNOWN        : LLS:UNKNOWN:rC:NONE:v0 (auto-composite)
NPHI     .v/v_decimal UNKNOWN        : NPHI:UNKNOWN:rC:NONE:v0 (auto-composite)
PEF      .b/elec      UNKNOWN        : PEF:UNKNOWN:rC:NONE:v0 (auto-composite)
RHOB     .g/cm3       UNKNOWN        : RHOB:UNKNOWN:rC:NONE:v0 (auto-composite)
~A     DEPTH          CAL         CALI          CNL           DT           GR          ILD          ILM          LLD          LLS         NPHI          PEF         RHOB
# ...
   2439.0364    -999.2500      11.4567    -999.2500      55.3654      33.5359    -999.2500    -999.2500     243.0388     142.6670       3.3775       3.5646       2.7830
   2439.1890    -999.2500      11.4497    -999.2500      54.2695      31.3178    -999.2500    -999.2500     238.5252     141.6054       3.5250       3.6126       2.7885
   2439.3413    -999.2500      11.4527    -999.2500      53.3354      29.4426    -999.2500    -999.2500     231.3166     136.2885       3.6975       3.6619       2.7910
   2439.4937    -999.2500      11.5012    -999.2500      53.3519      29.1387    -999.2500    -999.2500     211.7545     111.4663       3.9848       3.7174       2.7800
   2439.6460    -999.2500      11.5511    -999.2500      53.5054      29.3207    -999.2500    -999.2500     190.7275      88.4621       4.4378       3.7731       2.7676
   2439.7983    -999.2500      11.6075    -999.2500      54.4698      31.7427    -999.2500    -999.2500     162.9458      73.8412       5.6543       3.8295       2.7486
   2439.9509    -999.2500      11.6378    -999.2500      55.3899      34.3140    -999.2500    -999.2500     135.9742      59.9913       6.8968       3.8600       2.7309
   2440.1033    -999.2500      11.5459    -999.2500      56.0502      37.5856    -999.2500    -999.2500     112.8017      49.7577       8.2612       3.7691       2.7189
   2440.2556    -999.2500      11.4839    -999.2500      56.9865      40.6711    -999.2500    -999.2500      90.6640      40.8264       9.3520       3.6539       2.7114
   2440.4080    -999.2500      11.5637    -999.2500      59.5579      42.8787    -999.2500    -999.2500      73.4081      38.0387       9.1520       3.4248       2.7249
   2440.5605    -999.2500      11.6503    -999.2500      62.1040      44.3101    -999.2500    -999.2500      60.2691      36.9072       8.8259       3.2356       2.7385
   2440.7129    -999.2500      11.7682    -999.2500      64.5010      42.2160    -999.2500    -999.2500      65.8282      43.2979       7.9278       3.2282       2.7525
   2440.8652    -999.2500      11.8494    -999.2500      66.1273      40.2756    -999.2500    -999.2500      72.5887      50.1372       7.0934       3.2131       2.7661
   2441.0176    -999.2500      11.7625    -999.2500      63.1847      39.0371    -999.2500    -999.2500      84.8381      59.0257       6.5501       3.1637       2.7775
   2441.1702    -999.2500      11.6711    -999.2500      60.6691      37.7322    -999.2500    -999.2500      97.9607      67.7479       6.1971       3.1219       2.7875
   2441.3225    -999.2500      11.5586    -999.2500      60.6696      36.1184    -999.2500    -999.2500     115.1403      75.6969       6.7284       3.1159       2.7905
   2441.4749    -999.2500      11.4809    -999.2500      60.6756      34.2001    -999.2500    -999.2500     123.9843      78.0427       7.2238       3.1572       2.7857
   2441.6272    -999.2500      11.5654    -999.2500      60.7146      30.8585    -999.2500    -999.2500      93.8693      54.2000       7.5516       3.4190       2.7442
   2441.7795    -999.2500      11.6644    -999.2500      61.0003      27.8081    -999.2500    -999.2500      67.7119      34.0563       7.8113       3.6467       2.7078
   2441.9321    -999.2500      11.8318    -999.2500      62.7409      26.1270    -999.2500    -999.2500      60.1619      31.3042       7.7501       3.7134       2.6953
   2442.0845    -999.2500      11.9993    -999.2500      64.9437      24.4477    -999.2500    -999.2500      53.4545      29.0106       7.8319       3.7689       2.6872
   2442.2368    -999.2500      12.1666    -999.2500      69.8560      22.7767    -999.2500    -999.2500      50.5611      28.7929       8.5610       3.7739       2.6992
   2442.3892    -999.2500      12.2563    -999.2500      74.0487      21.1978    -999.2500    -999.2500      48.1443      28.8669       9.2541       3.7599       2.7117
   2442.5417    -999.2500      11.9889    -999.2500      73.9917      20.0423    -999.2500    -999.2500      47.9219      30.2838       9.7814       3.6584       2.7267
   2442.6941    -999.2500      11.7690    -999.2500      73.4515      19.8909    -999.2500    -999.2500      48.1621      32.2263      10.1979       3.5847       2.7389
   2442.8464    -999.2500      11.7690    -999.2500      70.0750      24.3895    -999.2500    -999.2500      50.5446      36.6029      10.1014       3.6392       2.7384
   2442.9988    -999.2500      11.7509    -999.2500      66.5171      28.8299    -999.2500    -999.2500      54.7868      41.0441       9.9336       3.6839       2.7362
   2443.1514    -999.2500      11.6485    -999.2500      61.8874      32.9992    -999.2500    -999.2500      67.6919      45.7863       9.4332       3.6834       2.7262
   2443.3037    -999.2500      11.5640    -999.2500      58.0708      37.0441    -999.2500    -999.2500      80.3523      49.7499       8.8757       3.6537       2.7174
   2443.4561    -999.2500      11.5640    -999.2500      59.0319      40.4992    -999.2500    -999.2500      91.8531      50.0246       8.0479       3.4858       2.7139
   2443.6084    -999.2500      11.5726    -999.2500      59.7893      42.8667    -999.2500    -999.2500     105.3210      50.4740       7.3692       3.3482       2.7110
   2443.7607    -999.2500      11.6206    -999.2500      59.3416      40.2733    -999.2500    -999.2500     127.7608      51.7200       7.3702       3.3492       2.7110
   2443.9133    -999.2500      11.6799    -999.2500      58.9590      38.1451    -999.2500    -999.2500     146.1766      54.7130       7.3987       3.3877       2.7129
   2444.0657    -999.2500      11.7908    -999.2500      58.9590      38.1511    -999.2500    -999.2500     146.1296      65.7218       7.5537       3.5981       2.7234
   2444.2180    -999.2500      11.8817    -999.2500      58.9625      38.3146    -999.2500    -999.2500     144.9482      74.7484       7.7663       3.7709       2.7320
   2444.3704    -999.2500      11.8802    -999.2500      58.9865      39.2050    -999.2500    -999.2500     138.5311      74.6270       8.2452       3.7704       2.7320
   2444.5229    -999.2500      11.8506    -999.2500      59.2403      40.7246    -999.2500    -999.2500     129.3787      72.3951       8.6716       3.7619       2.7302
   2444.6753    -999.2500      11.6892    -999.2500      60.8471      45.1976    -999.2500    -999.2500     107.3867      60.2558       8.8515       3.7159       2.7197
   2444.8276    -999.2500      11.5564    -999.2500      62.1456      48.8858    -999.2500    -999.2500      88.3953      50.2453       9.0006       3.6673       2.7124
   2444.9800    -999.2500      11.5584    -999.2500      61.6159      48.8678    -999.2500    -999.2500      83.5735      50.2869       9.0041       3.6061       2.7204
   2445.1326    -999.2500      11.5896    -999.2500      61.1631      48.5697    -999.2500    -999.2500      79.6379      51.0366       9.0952       3.5560       2.7270
   2445.2849    -999.2500      11.7541    -999.2500      61.1636      46.9984    -999.2500    -999.2500      79.7319      55.0054       9.5845       3.5560       2.7270
   2445.4373    -999.2500      11.8786    -999.2500      61.1662      45.5976    -999.2500    -999.2500      81.3671      59.1454       9.9840       3.5561       2.7251
   2445.5896    -999.2500      11.8207    -999.2500      61.1817      44.9769    -999.2500    -999.2500      90.0504      64.0683       9.9730       3.5566       2.7146
   2445.7419    -999.2500      11.7731    -999.2500      61.2695      44.2688    -999.2500    -999.2500      99.7736      70.2970       9.8204       3.5664       2.7060
   2445.8945    -999.2500      11.7736    -999.2500      61.7831      43.1542    -999.2500    -999.2500     114.3328      82.5982       9.0093       3.6194       2.7060
   2446.0469    -999.2500      11.7838    -999.2500      62.2220      42.0415    -999.2500    -999.2500     130.9967      94.5721       8.1656       3.6634       2.7079
   2446.1992    -999.2500      11.8395    -999.2500      62.2220      40.9369    -999.2500    -999.2500     157.5072     105.0150       7.1699       3.6654       2.7184
