#------------------------------------------------------------------------------
#
#   Created by  : [OpenWorks] Log Export Utility (LEXP)
#   Created on  : 2016-05-23 11:57:04
#   Project     : CANT971
#   User        : R5K
#   Interpreter : PEP
#
#------------------------------------------------------------------------------
~VERSION INFORMATION
VERS. 2.0 : CWLS Log ASCII Standard - version 2.0
WRAP.  NO : One line per depth step
~WELL INFORMATION
#MNEMONIC   .UNIT                                           VALUE :DESCRIPTION
#------------------------------------------------------------------------------
STRT        .M                                           125.9451 :START DEPTH
STOP        .M                                          3005.5432 :STOP DEPTH
STEP        .M                                             0.1524 :STEP
NULL        .                                           -999.2500 :NULL VALUE
COMP        .                                   PEMEX EXPL & PROD :COMPANY
WELL        .                                                 66A :WELL
FLD         .                                           CANTARELL :FIELD
LOC         .                                             UNKNOWN :LOCATION
CNTY        .                                      CD. DEL CARMEN :COUNTY
STAT        .                                            CAMPECHE :STATE
CTRY        .                                              MEXICO :COUNTRY
SRVC        .                                             UNKNOWN :SERVICE COMPANY
DATE        .                                             UNKNOWN :LOG DATE
UWI         .                                          3060000173 :UNIQUE WELL ID
XCOORD      .                                       599692.990000 :SURFACE X
YCOORD      .                                      2143036.380000 :SURFACE Y
LAT         .                                           19.380143 :LATITUDE
LON         .                                          -92.050669 :LONGITUDE
ELEV        .M                                            26.7400 :SURFACE ELEV
ELEV_TYPE   .                                                  KB :ELEV TYPE
~CURVE INFORMATION
#MNEMONIC.UNIT        API CODE       : CURVE DESCRIPTION
#------------------------------------------------------------------------------
DEPTH    .M                          : Measured Depth
CALI     .UNKNOWN     UNKNOWN        : CALI:UNKNOWN:rC:NONE:v0 (auto-composite)
DT       .us/ft       UNKNOWN        : DT:DT:rC:NONE:v0 (auto-composite)
GR       .API         UNKNOWN        : GR:UNKNOWN:rC:NONE:v0 (auto-composite)
GR-ENT   .API         UNKNOWN        : GR-ENT:porosidad-entubado:rC:NONE:v0 (auto-composite)
GR-LWD   .UNKNOWN     UNKNOWN        : GR-LWD:GR-LWD:rC:NONE:v0 (auto-composite)
ILD      .UNKNOWN     UNKNOWN        : ILD:UNKNOWN:rC:NONE:v0 (auto-composite)
LLD      .UNKNOWN     UNKNOWN        : LLD:UNKNOWN:rC:NONE:v0 (auto-composite)
LLD-LWD  .UNKNOWN     UNKNOWN        : LLD-LWD:LLD-LWD:rC:NONE:v0 (auto-composite)
LLS      .UNKNOWN     UNKNOWN        : LLS:UNKNOWN:rC:NONE:v0 (auto-composite)
LLS-LWD  .UNKNOWN     UNKNOWN        : LLS-LWD:LLS-LWD:rC:NONE:v0 (auto-composite)
MSFL     .UNKNOWN     UNKNOWN        : MSFL:UNKNOWN:rC:NONE:v0 (auto-composite)
MSFL-LWD .UNKNOWN     UNKNOWN        : MSFL-LWD:MSFL-LWD:rC:NONE:v0 (auto-composite)
NPHI     .v/v_decimal UNKNOWN        : NPHI:PETROWORKS:rC:NONE:v1 
NPHI-ENT .UNKNOWN     UNKNOWN        : NPHI-ENT:porosidad-entubado:rC:NONE:v0 (auto-composite)
RHOB     .g/cm3       UNKNOWN        : RHOB:UNKNOWN:rC:NONE:v0 (auto-composite)
~A     DEPTH         CALI           DT           GR       GR-ENT       GR-LWD          ILD          LLD      LLD-LWD          LLS      LLS-LWD         MSFL     MSFL-LWD         NPHI     NPHI-ENT         RHOB
# ...
   2313.1899       5.9993      56.3753      41.3027      29.2138      75.8371    -999.2500      59.3844      52.3820      63.4535      89.3740      91.0032      60.8376       0.1113       0.1192       2.6696
   2313.3423       5.9713      54.6276      42.6677      28.6675      69.6763    -999.2500     118.1075      46.7153     122.8864      83.5308     137.7315      63.7544       0.0965       0.0986       2.6866
   2313.4946       5.9550      53.7396      45.1998      30.4715      54.2843    -999.2500     225.4156      44.7695     221.5954      86.5051     182.9842      75.4727       0.0847       0.0886       2.6950
   2313.6472       5.9550      54.0697      49.3965      37.9851      35.5687    -999.2500     402.0157      40.5576     376.3203      73.7943     226.1322      66.4501       0.0770       0.0740       2.7015
   2313.7996       5.9550      54.5516      56.3837      44.5171      31.4800    -999.2500     475.5177      33.4300     438.8093      53.1200     203.5462      48.2400       0.0733       0.0663       2.7055
   2313.9519       5.9550      55.2478      67.2865      51.1968      37.7266    -999.2500     404.3504      29.2092     371.8707      44.1628      88.7208      39.7122       0.0761       0.0613       2.7040
   2314.1042       5.9550      56.6851      75.9926      53.6535      58.2692    -999.2500     296.6392      24.3846     272.8316      34.2215      22.5668      30.5035       0.0868       0.0592       2.7019
   2314.2566       5.9550      59.1730      81.6052      50.5877      82.3640    -999.2500     137.4659      21.2938     128.5879      27.7298      24.9527      25.3969       0.1059       0.0650       2.6883
   2314.4092       5.9585      62.0707      80.4230      46.2708      97.1187    -999.2500      39.2230      21.2312      39.8011      24.0043      41.9840      22.6704       0.1245       0.0757       2.6762
   2314.5615       5.9670      65.5475      69.6381      40.8617      93.2795    -999.2500      27.0892      20.4529      29.3881      19.7019      79.7127      21.6072       0.1405       0.1019       2.6728
   2314.7139       5.9837      67.2123      60.9283      37.9210      82.4723    -999.2500      64.0601      20.9914      75.9987      15.8904     116.9553      17.1119       0.1421       0.1285       2.6767
   2314.8662       6.0117      66.3242      55.1614      37.0457      79.7153    -999.2500     170.6752      19.6714     203.4851      12.9546     153.5082      12.5343       0.1284       0.1437       2.6886
   2315.0188       6.0315      64.1868      52.0614      37.9023      92.4398    -999.2500     404.3700      16.5141     459.0922      10.8834     610.0047       9.3548       0.1076       0.1167       2.6980
   2315.1711       6.0400      60.2828      52.7824      38.9561     111.3065    -999.2500     820.1431      12.2452     898.2691       9.3928    1668.1910       7.5887       0.0799       0.0737       2.7225
   2315.3235       6.0346      57.3446      52.8372      38.6932     126.5845    -999.2500    1045.2565      12.7078    1134.0592      11.8811    4652.1406      10.3684       0.0644       0.0535       2.7278
   2315.4758       6.0096      55.7678      51.9591      37.4397     111.4843    -999.2500    1003.3681      14.4638    1085.0238      16.6100   10332.9521      14.6882       0.0637       0.0509       2.7242
   2315.6284       5.9867      54.7139      50.8319      34.1003      56.1160    -999.2500     962.7262      18.7080    1036.8710      28.4513   11128.5215      24.4714       0.0642       0.0543       2.7187
   2315.7808       5.9667      54.3998      49.3547      31.8150      34.4166    -999.2500     923.8361      23.6136     989.9583      48.5141    5058.3779      39.8424       0.0650       0.0620       2.7094
   2315.9331       5.9550      54.0199      46.4913      29.7286      30.4328    -999.2500     967.5507      25.7248    1020.9860      49.6274    1225.9508      42.2087       0.0638       0.0627       2.7153
   2316.0854       5.9550      53.5471      41.6599      28.6450      32.8320    -999.2500    1128.5431      27.5132    1162.6698      39.9101     570.5244      37.2873       0.0596       0.0574       2.7175
   2316.2378       5.9550      53.1199      39.2666      28.1837      31.3658    -999.2500    1522.6967      33.9500    1500.0828      38.2308     199.7457      40.8575       0.0545       0.0493       2.7410
   2316.3904       5.9550      52.7572      40.3471      28.9517      25.1703    -999.2500    2249.0627      40.5521    2116.3743      37.4557     234.5386      49.4945       0.0486       0.0460       2.7442
   2316.5427       5.9550      52.3891      41.9479      29.8960      26.4976    -999.2500    2650.3354      48.3482    2438.6365      22.2066     329.3440      26.6916       0.0454       0.0419       2.7412
   2316.6951       5.9550      52.0133      44.2734      30.7524      33.9558    -999.2500    2598.8657     193.9802    2351.4180     113.1260     507.7260      15.6535       0.0467       0.0405       2.7247
   2316.8474       5.9550      52.0487      45.0798      31.9463      58.7619    -999.2500    2318.0452     381.1594    2097.0627     178.4179     662.7595      10.2272       0.0489       0.0423       2.7269
   2317.0000       5.9550      52.6664      43.7629      32.2388      93.4900    -999.2500    1716.6821     210.5600    1609.1154      76.0600     785.1611       6.6700       0.0519       0.0450       2.7295
   2317.1523       5.9550      53.5983      43.1609      32.5628      72.4715    -999.2500    1385.3032      28.8452    1356.5952      16.2389    1404.3138      10.8439       0.0544       0.0466       2.7288
   2317.3047       5.9550      54.9737      43.5682      33.0930      56.3157    -999.2500    1435.1061      26.4714    1436.4673      28.3163    2724.8135      26.6206       0.0559       0.0463       2.7262
   2317.4570       5.9550      56.4437      43.7574      33.7989      49.3115    -999.2500    1581.3413      45.5598    1611.8511      60.6382    2934.7830      55.8069       0.0580       0.0465       2.7171
   2317.6096       5.9550      58.0478      43.6374      34.5520      43.5375    -999.2500    1864.2117      59.0157    1922.5659      87.4507    1571.2389      69.1565       0.0605       0.0480       2.7133
   2317.7620       5.9550      59.5329      43.7228      35.6293      43.4239    -999.2500    2231.5432      82.9398    2291.0076     168.4972     666.8684     141.3601       0.0639       0.0516       2.7114
   2317.9143       5.9550      60.8498      44.1001      35.5081      49.8333    -999.2500    2718.9753     103.3727    2741.5347     246.6653     415.4240     201.6347       0.0683       0.0542       2.7115
   2318.0667       5.9550      61.8674      44.5222      34.6893      45.1250    -999.2500    2826.7122     144.6882    2819.2468     449.6414     253.3917     270.7494       0.0731       0.0598       2.7087
   2318.2190       5.9550      62.4606      45.0082      33.9513      47.2112    -999.2500    2392.6106     160.0768    2364.9387     382.4089     218.9539     216.3126       0.0784       0.0661       2.6864
   2318.3716       5.9550      62.1367      45.5733      33.4429      54.6375    -999.2500    1934.3116     138.4332    1864.6008     200.5755     237.6467     108.3712       0.0831       0.0729       2.6740
   2318.5239       5.9550      60.5166      46.2495      34.0480      51.7902    -999.2500    1442.0387     159.7494    1299.6354     178.4479     330.9369     104.7287       0.0868       0.0762       2.6674
   2318.6763       5.9550      59.1379      47.2796      35.2473      46.0136    -999.2500    1110.6230     215.1517     975.0201     222.5864     426.3868     142.4842       0.0879       0.0807       2.6767
   2318.8286       5.9550      58.0993      48.8085      36.5317      37.5009    -999.2500    1005.8613     277.7526     989.0676     293.5267     524.8798     190.4798       0.0852       0.0815       2.6884
   2318.9812       5.9550      57.6727      49.6344      37.2622      28.8707    -999.2500    1026.8444     309.1480    1096.8853     380.2858     510.0749     199.1126       0.0827       0.0751       2.7040
