#------------------------------------------------------------------------------
#
#   Created by  : [OpenWorks] Log Export Utility (LEXP)
#   Created on  : 2016-05-23 11:56:24
#   Project     : CANT971
#   User        : R5K
#   Interpreter : PEP
#
#------------------------------------------------------------------------------
~VERSION INFORMATION
VERS. 2.0 : CWLS Log ASCII Standard - version 2.0
WRAP.  NO : One line per depth step
~WELL INFORMATION
#MNEMONIC   .UNIT                                           VALUE :DESCRIPTION
#------------------------------------------------------------------------------
STRT        .M                                           741.4294 :START DEPTH
STOP        .M                                          2768.5020 :STOP DEPTH
STEP        .M                                             0.1524 :STEP
NULL        .                                           -999.2500 :NULL VALUE
COMP        .                                             UNKNOWN :COMPANY
WELL        .                                                 470 :WELL
FLD         .                                             UNKNOWN :FIELD
LOC         .                                             UNKNOWN :LOCATION
CNTY        .                                             UNKNOWN :COUNTY
STAT        .                                             UNKNOWN :STATE
CTRY        .                                             UNKNOWN :COUNTRY
SRVC        .                                             UNKNOWN :SERVICE COMPANY
DATE        .                                             UNKNOWN :LOG DATE
UWI         .                                                 470 :UNIQUE WELL ID
XCOORD      .                                       598706.890000 :SURFACE X
YCOORD      .                                      2143306.000000 :SURFACE Y
LAT         .                                           19.382628 :LATITUDE
LON         .                                          -92.060044 :LONGITUDE
ELEV        .M                                             0.0000 :SURFACE ELEV
ELEV_TYPE   .                                                  NA :ELEV TYPE
~CURVE INFORMATION
#MNEMONIC.UNIT        API CODE       : CURVE DESCRIPTION
#------------------------------------------------------------------------------
DEPTH    .M                          : Measured Depth
CALI     .inches      UNKNOWN        : CALI:litodensidad:rC:NONE:v0 (auto-composite)
CGR      .API         UNKNOWN        : CGR:PETROWORKS:rC:NONE:v1 
DRHO     .g/cm3       UNKNOWN        : DRHO:litodensidad:rC:NONE:v0 (auto-composite)
DT       .us/ft       UNKNOWN        : DT:PETROWORKS:rC:NONE:v1 
GR       .API         UNKNOWN        : GR:PETROWORKS:rC:NONE:v8 
ILD      .ohm.m       UNKNOWN        : ILD:PETROWORKS:rC:NONE:v1 
ILM      .ohm.m       UNKNOWN        : ILM:PETROWORKS:rC:NONE:v1 
LLD      .ohm.m       UNKNOWN        : LLD:resistivos:rC:NONE:v0 (auto-composite)
LLS      .ohm.m       UNKNOWN        : LLS:resistivos:rC:NONE:v0 (auto-composite)
MSFL     .ohm.m       UNKNOWN        : MSFL:resistivos:rC:NONE:v0 (auto-composite)
NPHI     .v/v_decimal UNKNOWN        : NPHI:PETROWORKS:rC:NONE:v1 
PEF      .UNKNOWN     UNKNOWN        : PEF:litodensidad:rC:NONE:v0 (auto-composite)
POTA     .wtpercent   UNKNOWN        : POTA:PETROWORKS:rC:NONE:v1 
RHOB     .g/cm3       UNKNOWN        : RHOB:litodensidad:rC:NONE:v0 (auto-composite)
THOR     .ppm         UNKNOWN        : THOR:PETROWORKS:rC:NONE:v1 
URAN     .ppm         UNKNOWN        : URAN:PETROWORKS:rC:NONE:v1 
~A     DEPTH         CALI          CGR         DRHO           DT           GR          ILD          ILM          LLD          LLS         MSFL         NPHI          PEF         POTA         RHOB         THOR         URAN
# ...
   1745.1359    -999.2500       3.3650    -999.2500      85.5000       8.9689       1.9483       1.9624    -999.2500    -999.2500    -999.2500    -999.2500    -999.2500      -0.0002    -999.2500       0.9397       0.4327
   1745.2882    -999.2500       2.6829    -999.2500      84.1000       7.7799       1.9581       2.0057    -999.2500    -999.2500    -999.2500    -999.2500    -999.2500      -0.0006    -999.2500       0.9148       0.4543
   1745.4407    -999.2500       2.3561    -999.2500      84.0000       7.7887       1.9793       2.0327    -999.2500    -999.2500    -999.2500    -999.2500    -999.2500       0.0001    -999.2500       0.5621       0.8338
   1745.5930    -999.2500      -0.0846    -999.2500      84.0000       8.1422       1.9947       2.0476    -999.2500    -999.2500    -999.2500    -999.2500    -999.2500      -0.0002    -999.2500       0.0435       0.7496
   1745.7455    -999.2500       0.8991    -999.2500      83.1000       8.4457       2.0167       2.0800    -999.2500    -999.2500    -999.2500    -999.2500    -999.2500       0.0000    -999.2500       0.2088       0.7679
   1745.8978    -999.2500       1.7370    -999.2500      83.3000       7.3398       2.0737       2.1318    -999.2500    -999.2500    -999.2500    -999.2500    -999.2500       0.0001    -999.2500       0.4079       0.8659
   1746.0503    -999.2500       1.3562    -999.2500      83.1000       8.8471       2.0786       2.1535    -999.2500    -999.2500    -999.2500    -999.2500    -999.2500       0.0000    -999.2500       0.3347       0.7691
   1746.2026    -999.2500       1.9156    -999.2500      82.8000       9.1861       2.1171       2.1867    -999.2500    -999.2500    -999.2500    -999.2500    -999.2500       0.0005    -999.2500       0.2730       0.7363
   1746.3551    -999.2500       1.7070    -999.2500      82.6000      10.4205       2.1735       2.2047    -999.2500    -999.2500    -999.2500    -999.2500    -999.2500       0.0009    -999.2500       0.0291       0.6621
   1746.5074    -999.2500       3.8927    -999.2500      82.3000       9.2125       2.2401       2.2685    -999.2500    -999.2500    -999.2500    -999.2500    -999.2500       0.0018    -999.2500       0.2030       0.7259
   1746.6598    -999.2500       2.3290    -999.2500      81.3000       8.4982       2.3169       2.3535    -999.2500    -999.2500    -999.2500    -999.2500    -999.2500       0.0009    -999.2500       0.2116       0.6419
   1746.8123    -999.2500       1.4872    -999.2500      81.4000       8.5595       2.3598       2.4210    -999.2500    -999.2500    -999.2500    -999.2500    -999.2500       0.0005    -999.2500       0.1725       0.6798
   1746.9646    -999.2500       2.4456    -999.2500      80.7000       7.4586       2.4279       2.5459    -999.2500    -999.2500    -999.2500    -999.2500    -999.2500       0.0006    -999.2500       0.3589       0.7665
   1747.1171    -999.2500       2.5111    -999.2500      80.8000       7.9681       2.4990       2.6561    -999.2500    -999.2500    -999.2500    -999.2500    -999.2500       0.0001    -999.2500       0.5856       0.7992
   1747.2694    -999.2500       3.5811    -999.2500      80.4000       8.0379       2.5634       2.7178    -999.2500    -999.2500    -999.2500    -999.2500    -999.2500       0.0006    -999.2500       0.6332       0.8674
   1747.4219    -999.2500       3.0378    -999.2500      80.2000       8.8134       2.6227       2.8369    -999.2500    -999.2500    -999.2500    -999.2500    -999.2500       0.0004    -999.2500       0.5753       0.7869
   1747.5742    -999.2500       2.9172    -999.2500      80.8000       8.2663       2.6520       2.9580    -999.2500    -999.2500    -999.2500    -999.2500    -999.2500       0.0005    -999.2500       0.5284       0.6585
   1747.7267    -999.2500       3.7330    -999.2500      78.9000       8.8589       2.7413       3.0789    -999.2500    -999.2500    -999.2500    -999.2500    -999.2500       0.0011    -999.2500       0.4658       0.5754
   1747.8790    -999.2500       3.2849    -999.2500      78.4000       9.8486       2.7873       3.3438    -999.2500    -999.2500    -999.2500    -999.2500    -999.2500       0.0009    -999.2500       0.4534       0.6328
   1748.0315    -999.2500       1.9844    -999.2500      77.1000       8.8701       2.8612       3.5600    -999.2500    -999.2500    -999.2500    -999.2500    -999.2500       0.0004    -999.2500       0.3128       0.6555
   1748.1838    -999.2500       1.5816    -999.2500      77.0000       7.4272       2.8533       3.8776    -999.2500    -999.2500    -999.2500    -999.2500    -999.2500      -0.0003    -999.2500       0.5336       0.7647
   1748.3363    -999.2500       0.8449    -999.2500      76.3000       7.2009       2.9289       4.0496    -999.2500    -999.2500    -999.2500    -999.2500    -999.2500      -0.0007    -999.2500       0.4988       0.8097
   1748.4886    -999.2500       1.4080    -999.2500      74.4000       7.9549       2.9193       4.2804    -999.2500    -999.2500    -999.2500    -999.2500    -999.2500      -0.0004    -999.2500       0.5187       0.8971
   1748.6410    -999.2500       0.7008    -999.2500      75.8000       9.3958       2.8718       4.3486    -999.2500    -999.2500    -999.2500    -999.2500    -999.2500      -0.0007    -999.2500       0.4803       0.9505
   1748.7935    -999.2500      -0.1354    -999.2500      74.3000      13.7978       2.5674       4.2872    -999.2500    -999.2500    -999.2500    -999.2500    -999.2500      -0.0010    -999.2500       0.3694       0.9836
   1748.9458    -999.2500       0.8892    -999.2500      70.5000      15.8499       2.5241       3.6400    -999.2500    -999.2500    -999.2500    -999.2500    -999.2500      -0.0004    -999.2500       0.3995       1.0010
   1749.0983    -999.2500       1.7301    -999.2500      68.6000      18.1000       2.2763       3.0756    -999.2500    -999.2500    -999.2500    -999.2500    -999.2500      -0.0002    -999.2500       0.5117       0.9721
   1749.2506    -999.2500       1.7957    -999.2500      68.6000      20.2501       2.1965       2.3318    -999.2500    -999.2500    -999.2500    -999.2500    -999.2500       0.0001    -999.2500       0.4098       0.8471
   1749.4031    -999.2500       0.9050    -999.2500      66.6000      21.8266       1.8684       1.9127    -999.2500    -999.2500    -999.2500    -999.2500    -999.2500      -0.0001    -999.2500       0.2599       0.8259
   1749.5554    -999.2500      -0.2461    -999.2500      75.5000      21.0569       1.5697       1.5930    -999.2500    -999.2500    -999.2500    -999.2500    -999.2500      -0.0002    -999.2500       0.0241       0.8288
   1749.7079    -999.2500       0.6947    -999.2500      80.8000      22.2328       1.6833       1.4012    -999.2500    -999.2500    -999.2500    -999.2500    -999.2500       0.0004    -999.2500      -0.0048       0.9051
   1749.8602    -999.2500       0.0939    -999.2500      82.9000      25.0810       1.6091       1.5158    -999.2500    -999.2500    -999.2500    -999.2500    -999.2500       0.0002    -999.2500      -0.0462       0.9233
   1750.0127    -999.2500       1.5688    -999.2500      86.9000      25.3082       1.5779       1.4795    -999.2500    -999.2500    -999.2500    -999.2500    -999.2500       0.0005    -999.2500       0.1805       1.0326
   1750.1650    -999.2500       6.7255    -999.2500      82.7000      24.3147       1.4947       1.4028    -999.2500    -999.2500    -999.2500    -999.2500    -999.2500       0.0022    -999.2500       0.7322       0.8468
   1750.3174    -999.2500       8.2003    -999.2500      80.5000      23.3676       1.2910       1.2065    -999.2500    -999.2500    -999.2500    -999.2500    -999.2500       0.0024    -999.2500       1.0195       0.9159
   1750.4698    -999.2500       9.2832    -999.2500      79.3000      22.1366       1.8019       1.2051    -999.2500    -999.2500    -999.2500    -999.2500    -999.2500       0.0027    -999.2500       1.1671       0.9337
   1750.6222    -999.2500      13.1450    -999.2500      75.8000      22.0073       1.9599       1.3705    -999.2500    -999.2500    -999.2500    -999.2500    -999.2500       0.0044    -999.2500       1.4098       0.8373
