#------------------------------------------------------------------------------
#
#   Created by  : [OpenWorks] Log Export Utility (LEXP)
#   Created on  : 2016-05-23 11:52:56
#   Project     : CANT971
#   User        : R5K
#   Interpreter : PEP
#
#------------------------------------------------------------------------------
~VERSION INFORMATION
VERS. 2.0 : CWLS Log ASCII Standard - version 2.0
WRAP.  NO : One line per depth step
~WELL INFORMATION
#MNEMONIC   .UNIT                                           VALUE :DESCRIPTION
#------------------------------------------------------------------------------
STRT        .M                                           340.6189 :START DEPTH
STOP        .M                                          3243.0769 :STOP DEPTH
STEP        .M                                             0.1524 :STEP
NULL        .                                           -999.2500 :NULL VALUE
COMP        .                                   PEMEX EXPL & PROD :COMPANY
WELL        .                                                2098 :WELL
FLD         .                                           CANTARELL :FIELD
LOC         .                                             UNKNOWN :LOCATION
CNTY        .                                      CD. DEL CARMEN :COUNTY
STAT        .                                            CAMPECHE :STATE
CTRY        .                                              MEXICO :COUNTRY
SRVC        .                                             UNKNOWN :SERVICE COMPANY
DATE        .                                             UNKNOWN :LOG DATE
UWI         .                                          3060000229 :UNIQUE WELL ID
XCOORD      .                                       599692.800000 :SURFACE X
YCOORD      .                                      2143031.510000 :SURFACE Y
LAT         .                                           19.380099 :LATITUDE
LON         .                                          -92.050671 :LONGITUDE
ELEV        .M                                            26.7400 :SURFACE ELEV
ELEV_TYPE   .                                                  KB :ELEV TYPE
~CURVE INFORMATION
#MNEMONIC.UNIT        API CODE       : CURVE DESCRIPTION
#------------------------------------------------------------------------------
DEPTH    .M                          : Measured Depth
CALI     .inches      UNKNOWN        : CALI:litodensidad:rC:NONE:v0 (auto-composite)
CGR      .API         UNKNOWN        : CGR:Espectrometria:rC:NONE:v0 (auto-composite)
DRHO     .g/cm3       UNKNOWN        : DRHO:litodensidad:rC:NONE:v0 (auto-composite)
DT       .us/ft       UNKNOWN        : DT:DT-Load:rC:NONE:v0 (auto-composite)
GR       .API         UNKNOWN        : GR:GR-load:rC:NONE:v0 (auto-composite)
ILD      .UNKNOWN     UNKNOWN        : ILD:resistivos:rC:NONE:v0 (auto-composite)
LLD      .ohm.m       UNKNOWN        : LLD:resistivos:rC:NONE:v0 (auto-composite)
LLS      .UNKNOWN     UNKNOWN        : LLS:resistivos:rC:NONE:v0 (auto-composite)
MSFL     .UNKNOWN     UNKNOWN        : MSFL:resistivos:rC:NONE:v0 (auto-composite)
NPHI     .v/v_decimal UNKNOWN        : NPHI:porosidad:rC:NONE:v0 (auto-composite)
PEF      .UNKNOWN     UNKNOWN        : PEF:litodensidad:rC:NONE:v0 (auto-composite)
POTA     .UNKNOWN     UNKNOWN        : POTA:Espectrometria:rC:NONE:v0 (auto-composite)
RHOB     .UNKNOWN     UNKNOWN        : RHOB:litodensidad:rC:NONE:v0 (auto-composite)
THOR     .ppm         UNKNOWN        : THOR:Espectrometria:rC:NONE:v0 (auto-composite)
URAN     .ppm         UNKNOWN        : URAN:Espectrometria:rC:NONE:v0 (auto-composite)
~A     DEPTH         CALI          CGR         DRHO           DT           GR          ILD          LLD          LLS         MSFL         NPHI          PEF         POTA         RHOB         THOR         URAN
# ...
   2866.6489       8.7423    -999.2500       0.0130      57.1353      43.5517    -999.2500      17.4262      31.2437      20.8061       0.0588    -999.2500    -999.2500       2.6475    -999.2500    -999.2500
   2866.8013       8.7137    -999.2500       0.0140      56.4370      42.1202    -999.2500      26.5103      48.0135      55.4590       0.0542    -999.2500    -999.2500       2.6640    -999.2500    -999.2500
   2866.9536       8.6862    -999.2500       0.0153      55.7427      40.7483    -999.2500      35.2455      64.1107      88.4640       0.0498    -999.2500    -999.2500       2.6798    -999.2500    -999.2500
   2867.1060       8.6932    -999.2500       0.0238      55.1569      41.1191    -999.2500      34.8503      62.6081      78.4993       0.0516    -999.2500    -999.2500       2.6743    -999.2500    -999.2500
   2867.2585       8.7012    -999.2500       0.0319      54.6009      41.5958    -999.2500      34.3395      60.9064      69.0419       0.0532    -999.2500    -999.2500       2.6697    -999.2500    -999.2500
   2867.4109       8.7513    -999.2500       0.0299      54.8945      45.2517    -999.2500      30.8645      54.0998      73.1419       0.0497    -999.2500    -999.2500       2.6917    -999.2500    -999.2500
   2867.5632       8.7980    -999.2500       0.0280      55.1771      48.7847    -999.2500      27.6123      47.6598      77.7983       0.0464    -999.2500    -999.2500       2.7129    -999.2500    -999.2500
   2867.7156       8.7121    -999.2500       0.0285      55.1521      48.7157    -999.2500      30.2087      50.8430      97.0100       0.0469    -999.2500    -999.2500       2.7115    -999.2500    -999.2500
   2867.8682       8.6294    -999.2500       0.0291      55.1188      48.6374    -999.2500      32.6941      53.8869     114.6004       0.0475    -999.2500    -999.2500       2.7098    -999.2500    -999.2500
   2868.0205       8.6470    -999.2500       0.0331      54.8457      48.2930    -999.2500      32.3228      53.3512      88.7193       0.0516    -999.2500    -999.2500       2.7023    -999.2500    -999.2500
   2868.1729       8.6662    -999.2500       0.0369      54.5853      47.9382    -999.2500      31.9130      52.7502      63.9201       0.0556    -999.2500    -999.2500       2.6946    -999.2500    -999.2500
   2868.3252       8.7631    -999.2500       0.0334      54.6823      47.2744    -999.2500      30.4920      50.4318      67.5201       0.0555    -999.2500    -999.2500       2.6831    -999.2500    -999.2500
   2868.4778       8.8553    -999.2500       0.0303      54.7760      46.5996    -999.2500      29.0616      48.1030      72.6866       0.0554    -999.2500    -999.2500       2.6726    -999.2500    -999.2500
   2868.6301       8.7835    -999.2500       0.0393      54.7744      45.6061    -999.2500      27.3904      45.5047     119.9991       0.0562    -999.2500    -999.2500       2.6916    -999.2500    -999.2500
   2868.7825       8.7141    -999.2500       0.0477      54.7755      44.5614    -999.2500      25.7062      42.8826     165.0647       0.0569    -999.2500    -999.2500       2.7096    -999.2500    -999.2500
   2868.9348       8.7176    -999.2500       0.0402      54.8495      42.0059    -999.2500      23.6825      39.6349     150.9508       0.0557    -999.2500    -999.2500       2.6971    -999.2500    -999.2500
   2869.0872       8.7240    -999.2500       0.0330      54.9480      39.5402    -999.2500      21.7688      36.7624     136.0571       0.0545    -999.2500    -999.2500       2.6853    -999.2500    -999.2500
   2869.2397       8.8495    -999.2500       0.0330      55.7553      39.6662    -999.2500      22.7044      43.6009     100.1127       0.0550    -999.2500    -999.2500       2.6938    -999.2500    -999.2500
   2869.3921       8.9678    -999.2500       0.0331      56.5330      39.8095    -999.2500      23.7402      50.1865      66.3550       0.0556    -999.2500    -999.2500       2.7019    -999.2500    -999.2500
   2869.5444       8.8246    -999.2500       0.0356      56.4756      40.4682    -999.2500      27.4320      50.0635      90.3802       0.0605    -999.2500    -999.2500       2.6979    -999.2500    -999.2500
   2869.6968       8.6862    -999.2500       0.0379      56.4281      41.0826    -999.2500      30.7701      49.8700     112.8711       0.0658    -999.2500    -999.2500       2.6934    -999.2500    -999.2500
   2869.8494       8.6958    -999.2500       0.0364      56.6717      40.4119    -999.2500      24.9206      47.8474      93.8020       0.0781    -999.2500    -999.2500       2.6764    -999.2500    -999.2500
   2870.0017       8.7061    -999.2500       0.0347      56.9665      39.6575    -999.2500      19.2995      45.7022      75.4912       0.0903    -999.2500    -999.2500       2.6593    -999.2500    -999.2500
   2870.1541       8.7538    -999.2500       0.0272      58.7128      36.4098    -999.2500      19.7562      40.2962      77.2859       0.0963    -999.2500    -999.2500       2.6373    -999.2500    -999.2500
   2870.3064       8.7999    -999.2500       0.0196      60.4004      33.2730    -999.2500      20.2686      35.1276      78.6539       0.1023    -999.2500    -999.2500       2.6149    -999.2500    -999.2500
   2870.4590       8.7964    -999.2500       0.0086      60.3829      33.3645    -999.2500      22.2323      36.1460      68.9456       0.1086    -999.2500    -999.2500       2.5809    -999.2500    -999.2500
   2870.6113       8.7915    -999.2500      -0.0019      60.3567      33.4767    -999.2500      24.2088      37.2817      59.7136       0.1148    -999.2500    -999.2500       2.5481    -999.2500    -999.2500
   2870.7637       8.7303    -999.2500       0.0011      60.0841      34.2090    -999.2500      26.5113      41.4125      63.1524       0.1136    -999.2500    -999.2500       2.5501    -999.2500    -999.2500
   2870.9160       8.6713    -999.2500       0.0040      59.7925      34.9141    -999.2500      28.9064      45.5762      69.6926       0.1122    -999.2500    -999.2500       2.5523    -999.2500    -999.2500
   2871.0684       8.6838    -999.2500       0.0030      58.9708      34.8251    -999.2500      33.7217      50.6036     157.0230       0.1065    -999.2500    -999.2500       2.5618    -999.2500    -999.2500
   2871.2209       8.6976    -999.2500       0.0020      58.1572      34.7136    -999.2500      38.8084      55.9750     240.6402       0.1007    -999.2500    -999.2500       2.5714    -999.2500    -999.2500
   2871.3733       8.7643    -999.2500       0.0025      57.5740      33.9273    -999.2500      50.8447      70.1544     225.1375       0.0930    -999.2500    -999.2500       2.5839    -999.2500    -999.2500
   2871.5256       8.8288    -999.2500       0.0031      56.9994      33.1687    -999.2500      62.2620      83.6248     208.8256       0.0854    -999.2500    -999.2500       2.5964    -999.2500    -999.2500
   2871.6780       8.8203    -999.2500       0.0071      56.6635      33.2202    -999.2500      57.4422      78.4999     171.3687       0.0810    -999.2500    -999.2500       2.6079    -999.2500    -999.2500
   2871.8306       8.8098    -999.2500       0.0113      56.3299      33.2914    -999.2500      52.2831      72.8989     134.8030       0.0767    -999.2500    -999.2500       2.6193    -999.2500    -999.2500
   2871.9829       8.7181    -999.2500       0.0188      56.0598      33.9241    -999.2500      38.4070      55.0675     122.1048       0.0771    -999.2500    -999.2500       2.6278    -999.2500    -999.2500
   2872.1353       8.6292    -999.2500       0.0259      55.7857      34.5323    -999.2500      25.0467      37.9053     113.7330       0.0775    -999.2500    -999.2500       2.6363    -999.2500    -999.2500
   2872.2876       8.6372    -999.2500       0.0244      55.3999      34.4192    -999.2500      25.2557      38.3494     218.8129       0.0772    -999.2500    -999.2500       2.6453    -999.2500    -999.2500
   2872.4402       8.6468    -999.2500       0.0232      55.0286      34.2898    -999.2500      25.6487      38.9475     319.7607       0.0768    -999.2500    -999.2500       2.6546    -999.2500    -999.2500
