#------------------------------------------------------------------------------
#
#   Created by  : [OpenWorks] Log Export Utility (LEXP)
#   Created on  : 2016-05-23 11:53:49
#   Project     : CANT971
#   User        : R5K
#   Interpreter : PEP
#
#------------------------------------------------------------------------------
~VERSION INFORMATION
VERS. 2.0 : CWLS Log ASCII Standard - version 2.0
WRAP.  NO : One line per depth step
~WELL INFORMATION
#MNEMONIC   .UNIT                                           VALUE :DESCRIPTION
#------------------------------------------------------------------------------
STRT        .M                                           293.9797 :START DEPTH
STOP        .M                                          2713.7869 :STOP DEPTH
STEP        .M                                             0.1524 :STEP
NULL        .                                           -999.2500 :NULL VALUE
COMP        .                                   PEMEX EXPL & PROD :COMPANY
WELL        .                                                  28 :WELL
FLD         .                                           CANTARELL :FIELD
LOC         .                                             UNKNOWN :LOCATION
CNTY        .                                      CD. DEL CARMEN :COUNTY
STAT        .                                            CAMPECHE :STATE
CTRY        .                                              MEXICO :COUNTRY
SRVC        .                                             UNKNOWN :SERVICE COMPANY
DATE        .                                             UNKNOWN :LOG DATE
UWI         .                                          3060000156 :UNIQUE WELL ID
XCOORD      .                                       598450.720000 :SURFACE X
YCOORD      .                                      2145024.710000 :SURFACE Y
LAT         .                                           19.398172 :LATITUDE
LON         .                                          -92.062394 :LONGITUDE
ELEV        .M                                            26.5400 :SURFACE ELEV
ELEV_TYPE   .                                                  KB :ELEV TYPE
~CURVE INFORMATION
#MNEMONIC.UNIT        API CODE       : CURVE DESCRIPTION
#------------------------------------------------------------------------------
DEPTH    .M                          : Measured Depth
CALI     .inches      UNKNOWN        : CALI:Import:rC:NONE:v0 (auto-composite)
DRHO     .g/cm3       UNKNOWN        : DRHO:Import:rC:NONE:v0 (auto-composite)
DT       .us/ft       UNKNOWN        : DT:Import:rC:NONE:v0 (auto-composite)
GR       .API         UNKNOWN        : GR:Import:rC:NONE:v0 (auto-composite)
ILD      .ohm.m       UNKNOWN        : ILD:Import:rC:NONE:v0 (auto-composite)
LLD      .ohm.m       UNKNOWN        : LLD:Import:rC:NONE:v0 (auto-composite)
LLS      .ohm.m       UNKNOWN        : LLS:Import:rC:NONE:v0 (auto-composite)
MSFL     .ohm.m       UNKNOWN        : MSFL:Import:rC:NONE:v0 (auto-composite)
NPHI     .v/v_decimal UNKNOWN        : NPHI:Import:rC:NONE:v0 (auto-composite)
PEF      .b/elec      UNKNOWN        : PEF:Import:rC:NONE:v0 (auto-composite)
RHOB     .g/cm3       UNKNOWN        : RHOB:Import:rC:NONE:v0 (auto-composite)
~A     DEPTH         CALI         DRHO           DT           GR          ILD          LLD          LLS         MSFL         NPHI          PEF         RHOB
# ...
   1625.3461       6.0615    -999.2500    -999.2500      38.4540    -999.2500       1.0802       1.1078       1.5701       0.3566    -999.2500    -999.2500
   1625.4985       6.0620    -999.2500    -999.2500      39.3181    -999.2500       1.0100       1.0550       1.4640       0.3594    -999.2500    -999.2500
   1625.6509       6.0435    -999.2500    -999.2500      40.1770    -999.2500       1.0160       1.0585       1.4826       0.3664    -999.2500    -999.2500
   1625.8032       6.0250    -999.2500    -999.2500      40.7462    -999.2500       1.0220       1.0620       1.5010       0.3726    -999.2500    -999.2500
   1625.9557       6.0250    -999.2500    -999.2500      41.3120    -999.2500       1.0742       1.1192       1.5607       0.3725    -999.2500    -999.2500
   1626.1080       6.0250    -999.2500    -999.2500      41.1896    -999.2500       1.1260       1.1760       1.6200       0.3668    -999.2500    -999.2500
   1626.2605       6.0250    -999.2500    -999.2500      41.0680    -999.2500       1.1195       1.1539       1.4935       0.3506    -999.2500    -999.2500
   1626.4128       6.0250    -999.2500    -999.2500      40.0075    -999.2500       1.1130       1.1320       1.3680       0.3350    -999.2500    -999.2500
   1626.5653       6.0260    -999.2500    -999.2500      38.9530    -999.2500       1.0809       1.0607       1.3976       0.3314    -999.2500    -999.2500
   1626.7177       6.0270    -999.2500    -999.2500      39.0272    -999.2500       1.0490       0.9900       1.4270       0.3328    -999.2500    -999.2500
   1626.8701       6.0275    -999.2500    -999.2500      39.1010    -999.2500       0.9983       0.9308       1.2429       0.3376    -999.2500    -999.2500
   1627.0225       6.0280    -999.2500    -999.2500      39.5703    -999.2500       0.9480       0.8720       1.0600       0.3419    -999.2500    -999.2500
   1627.1749       6.0295    -999.2500    -999.2500      40.0370    -999.2500       0.8763       0.8800       1.1142       0.3411    -999.2500    -999.2500
   1627.3273       6.0310    -999.2500    -999.2500      40.9750    -999.2500       0.8050       0.8880       1.1680       0.3396    -999.2500    -999.2500
   1627.4797       6.0385    -999.2500    -999.2500      41.9080    -999.2500       0.8256       0.9417       1.5563       0.3407    -999.2500    -999.2500
   1627.6321       6.0460    -999.2500    -999.2500      42.8690    -999.2500       0.8460       0.9950       1.9420       0.3438    -999.2500    -999.2500
   1627.7844       6.0575    -999.2500    -999.2500      43.8250    -999.2500       1.0181       1.1531       1.9054       0.3509    -999.2500    -999.2500
   1627.9369       6.0690    -999.2500    -999.2500      45.9261    -999.2500       1.1890       1.3100       1.8690       0.3607    -999.2500    -999.2500
   1628.0892       6.0695    -999.2500    -999.2500      48.0150    -999.2500       1.1770       1.2939       1.7481       0.3756    -999.2500    -999.2500
   1628.2417       6.0700    -999.2500    -999.2500      47.9658    -999.2500       1.1650       1.2780       1.6280       0.3887    -999.2500    -999.2500
   1628.3940       6.0645    -999.2500    -999.2500      47.9170    -999.2500       1.1148       1.2213       1.5592       0.3915    -999.2500    -999.2500
   1628.5465       6.0590    -999.2500    -999.2500      47.6712    -999.2500       1.0650       1.1650       1.4910       0.3899    -999.2500    -999.2500
   1628.6989       6.0395    -999.2500    -999.2500      47.4270    -999.2500       0.9877       1.1289       1.3745       0.3847    -999.2500    -999.2500
   1628.8513       6.0200    -999.2500    -999.2500      47.0699    -999.2500       0.9110       1.0930       1.2590       0.3799    -999.2500    -999.2500
   1629.0037       6.0080    -999.2500    -999.2500      46.7150    -999.2500       0.9316       1.1382       1.3293       0.3800    -999.2500    -999.2500
   1629.1561       5.9960    -999.2500    -999.2500      46.1854    -999.2500       0.9520       1.1830       1.3990       0.3841    -999.2500    -999.2500
   1629.3085       5.9960    -999.2500    -999.2500      45.6590    -999.2500       1.2235       1.4204       1.9651       0.3965    -999.2500    -999.2500
   1629.4608       5.9960    -999.2500    -999.2500      45.6590    -999.2500       1.4930       1.6560       2.5270       0.4085    -999.2500    -999.2500
   1629.6133       5.9990    -999.2500    -999.2500      45.6590    -999.2500       1.4739       1.4638       2.1913       0.4106    -999.2500    -999.2500
   1629.7656       6.0020    -999.2500    -999.2500      45.7834    -999.2500       1.4550       1.2730       1.8580       0.4092    -999.2500    -999.2500
   1629.9181       6.0120    -999.2500    -999.2500      45.9070    -999.2500       1.2904       1.2996       1.8675       0.4058    -999.2500    -999.2500
   1630.0704       6.0220    -999.2500    -999.2500      46.5744    -999.2500       1.1270       1.3260       1.8770       0.4009    -999.2500    -999.2500
   1630.2229       6.0295    -999.2500    -999.2500      47.2380    -999.2500       1.1456       1.4775       2.1058       0.3936    -999.2500    -999.2500
   1630.3752       6.0370    -999.2500    -999.2500      47.0415    -999.2500       1.1640       1.6280       2.3330       0.3847    -999.2500    -999.2500
   1630.5277       6.0375    -999.2500    -999.2500      46.8460    -999.2500       1.2488       1.6124       2.0304       0.3728    -999.2500    -999.2500
   1630.6801       6.0380    -999.2500    -999.2500      44.8726    -999.2500       1.3330       1.5970       1.7300       0.3631    -999.2500    -999.2500
   1630.8325       6.0385    -999.2500    -999.2500      42.9100    -999.2500       1.3004       1.5448       1.7546       0.3634    -999.2500    -999.2500
   1630.9849       6.0390    -999.2500    -999.2500      42.9591    -999.2500       1.2680       1.4930       1.7790       0.3681    -999.2500    -999.2500
   1631.1373       6.0400    -999.2500    -999.2500      43.0080    -999.2500       1.3036       1.4554       1.7609       0.3781    -999.2500    -999.2500
   1631.2897       6.0410    -999.2500    -999.2500      44.0462    -999.2500       1.3390       1.4180       1.7430       0.3887    -999.2500    -999.2500
   1631.4420       6.0385    -999.2500    -999.2500      45.0790    -999.2500       1.3124       1.3277       1.6677       0.3958    -999.2500    -999.2500
   1631.5945       6.0360    -999.2500    -999.2500      44.6850    -999.2500       1.2860       1.2380       1.5930       0.4017    -999.2500    -999.2500
   1631.7468       6.0230    -999.2500    -999.2500      44.2930    -999.2500       1.2012       1.2495       1.4325       0.4067    -999.2500    -999.2500
   1631.8993       6.0100    -999.2500    -999.2500      44.4901    -999.2500       1.1170       1.2610       1.2730       0.4106    -999.2500    -999.2500
   1632.0516       5.9865    -999.2500    -999.2500      44.6860    -999.2500       1.1275       1.2580       1.3086       0.4112    -999.2500    -999.2500
   1632.2041       5.9630    -999.2500    -999.2500      45.4776    -999.2500       1.1380       1.2550       1.3440       0.4106    -999.2500    -999.2500
   1632.3564       5.9310    -999.2500    -999.2500      46.2640    -999.2500       1.1275       1.2299       1.3350       0.4089    -999.2500    -999.2500
   1632.5089       5.8990    -999.2500    -999.2500      46.0674    -999.2500       1.1170       1.2050       1.3260       0.4063    -999.2500    -999.2500
   1632.6613       5.9030    -999.2500    -999.2500      45.8720    -999.2500       1.1250       1.2100       1.2939       0.4014    -999.2500    -999.2500
   1632.8137       5.9070    -999.2500    -999.2500      46.4653    -999.2500       1.1330       1.2150       1.2620       0.3969    -999.2500    -999.2500
   1632.9661       5.9205    -999.2500    -999.2500      47.0550    -999.2500       1.1260       1.2085       1.2620       0.3960    -999.2500    -999.2500
   1633.1185       5.9340    -999.2500    -999.2500      46.8579    -999.2500       1.1190       1.2020       1.2620       0.3963    -999.2500    -999.2500
