#------------------------------------------------------------------------------
#
#   Created by  : [OpenWorks] Log Export Utility (LEXP)
#   Created on  : 2016-05-23 11:57:21
#   Project     : CANT971
#   User        : R5K
#   Interpreter : PEP
#
#------------------------------------------------------------------------------
~VERSION INFORMATION
VERS. 2.0 : CWLS Log ASCII Standard - version 2.0
WRAP.  NO : One line per depth step
~WELL INFORMATION
#MNEMONIC   .UNIT                                           VALUE :DESCRIPTION
#------------------------------------------------------------------------------
STRT        .M                                           117.7290 :START DEPTH
STOP        .M                                          2309.5459 :STOP DEPTH
STEP        .M                                             0.1524 :STEP
NULL        .                                           -999.2500 :NULL VALUE
COMP        .                                   PEMEX EXPL & PROD :COMPANY
WELL        .                                                  7A :WELL
FLD         .                                           CANTARELL :FIELD
LOC         .                                             UNKNOWN :LOCATION
CNTY        .                                      CD. DEL CARMEN :COUNTY
STAT        .                                            CAMPECHE :STATE
CTRY        .                                              MEXICO :COUNTRY
SRVC        .                                             UNKNOWN :SERVICE COMPANY
DATE        .                                             UNKNOWN :LOG DATE
UWI         .                                          3060000143 :UNIQUE WELL ID
XCOORD      .                                       603360.310000 :SURFACE X
YCOORD      .                                      2145096.320000 :SURFACE Y
LAT         .                                           19.398572 :LATITUDE
LON         .                                          -92.015639 :LONGITUDE
ELEV        .M                                            27.1400 :SURFACE ELEV
ELEV_TYPE   .                                                  KB :ELEV TYPE
~CURVE INFORMATION
#MNEMONIC.UNIT        API CODE       : CURVE DESCRIPTION
#------------------------------------------------------------------------------
DEPTH    .M                          : Measured Depth
CALI     .in          UNKNOWN        : CALI:resistivos:rC:NONE:v0 (auto-composite)
DRHO     .g/cm3       UNKNOWN        : DRHO:PETROWORKS:rC:NONE:v2 
DT       .us/ft       UNKNOWN        : DT:DT:rC:NONE:v0 (auto-composite)
GR       .API         UNKNOWN        : GR:UNKNOWN:rC:NONE:v0 (auto-composite)
ILD      .ohmm        UNKNOWN        : ILD:resistivos:rC:NONE:v0 (auto-composite)
LLD      .ohm.m       UNKNOWN        : LLD:UNKNOWN:rC:NONE:v0 (auto-composite)
LLS      .ohm.m       UNKNOWN        : LLS:UNKNOWN:rC:NONE:v0 (auto-composite)
MSFL     .ohm.m       UNKNOWN        : MSFL:UNKNOWN:rC:NONE:v0 (auto-composite)
NPHI     .v/v_decimal     UNKNOWN        : NPHI:PETROWORKS:rC:NONE:v1 
RHOB     .g/cm3       UNKNOWN        : RHOB:UNKNOWN:rC:NONE:v0 (auto-composite)
SN       .ohm.m       UNKNOWN        : SN:UNKNOWN:rC:NONE:v0 (auto-composite)
~A     DEPTH         CALI         DRHO           DT           GR          ILD          LLD          LLS         MSFL         NPHI         RHOB           SN
# ...
   1813.6362       7.0283       0.0768      88.2906      23.3068    -999.2500      63.9583      41.3331      40.1644       0.1316       2.5950    -999.2500
   1813.7886       7.0588       0.0762      97.3113      23.2543    -999.2500      73.5036      42.4062      38.6141       0.1259       2.6110    -999.2500
   1813.9410       7.0555       0.0759      97.3110      22.9773    -999.2500      77.6307      44.1755      38.1161       0.1216       2.6170    -999.2500
   1814.0934       7.0185       0.0765      88.3323      22.4747    -999.2500      76.3128      46.6444      38.6756       0.1179       2.6130    -999.2500
   1814.2458       7.0123       0.0770      84.4130      22.4031    -999.2500      75.6500      48.6115      43.9449       0.1160       2.6040    -999.2500
   1814.3982       7.0368       0.0769      85.5304      22.7675    -999.2500      75.6500      50.0708      53.9785       0.1149       2.5900    -999.2500
   1814.5507       7.0923       0.0766      91.7635      23.9297    -999.2500      77.0570      51.4022      54.4776       0.1132       2.5900    -999.2500
   1814.7030       7.1788       0.0758     103.0907      25.9019    -999.2500      79.8922      52.6035      45.2978       0.1111       2.6040    -999.2500
   1814.8553       7.2125       0.0751     108.5127      28.2138    -999.2500      88.0595      54.1177      34.1110       0.1105       2.6430    -999.2500
   1815.0078       7.1935       0.0745     108.0717      30.8642    -999.2500     101.5376      55.9434      20.9252       0.1105       2.7070    -999.2500
   1815.1602       7.1497       0.0739     101.5600      31.7707    -999.2500     124.0819      55.7754      15.8381       0.1064       2.7385    -999.2500
   1815.3126       7.0812       0.0731      89.0194      30.9344    -999.2500     155.6876      53.6147      18.8456       0.1003       2.7375    -999.2500
   1815.4650       7.0568       0.0724      83.1217      29.1802    -999.2500     169.3071      53.5721      29.1845       0.0980       2.7340    -999.2500
   1815.6174       7.0763       0.0719      83.8226      26.5023    -999.2500     164.8295      55.6607      46.8998       0.0975       2.7280    -999.2500
   1815.7698       7.1130       0.0724      91.3149      25.3236    -999.2500     153.8912      63.1587      62.0230       0.0976       2.7195    -999.2500
   1815.9222       7.1670       0.0753     105.5549      25.6583    -999.2500     136.4297      76.1185      74.5291       0.0981       2.7085    -999.2500
   1816.0746       7.2022       0.0796     111.6392      26.2699    -999.2500     113.6968      81.4977      66.1645       0.0989       2.6955    -999.2500
   1816.2271       7.2187       0.0871     109.6177      27.1628    -999.2500      85.6059      79.1723      36.5870       0.0998       2.6805    -999.2500
   1816.3794       7.2450       0.0940     104.9187      27.0120    -999.2500      71.7861      75.2366      22.6510       0.1042       2.6748    -999.2500
   1816.5319       7.2810       0.0995      97.5580      25.8235    -999.2500      72.1533      69.7002      24.2641       0.1102       2.6783    -999.2500
   1816.6842       7.3352       0.1022      89.2079      25.2967    -999.2500      74.3978      68.2327      40.5238       0.1120       2.6780    -999.2500
   1816.8365       7.4077       0.0989      79.8742      25.4321    -999.2500      78.5211      70.8371      71.4410       0.1116       2.6740    -999.2500
   1816.9890       7.4440       0.0939      75.9685      26.1992    -999.2500      85.1932      76.1537      80.5348       0.1089       2.6720    -999.2500
   1817.1414       7.4440       0.0850      77.4614      27.6005    -999.2500      94.4250      84.1940      67.7135       0.1051       2.6720    -999.2500
   1817.2938       7.4363       0.0775      82.7440      30.1268    -999.2500     101.2051      90.5248      61.9398       0.0987       2.6720    -999.2500
   1817.4462       7.4207       0.0727      91.7968      33.7902    -999.2500     105.5068      95.1273      63.2907       0.0910       2.6720    -999.2500
   1817.5986       7.3845       0.0690      95.4607      36.9974    -999.2500     106.1307      95.8201      63.2836       0.0887       2.6730    -999.2500
   1817.7510       7.3275       0.0677      93.7622      39.7419    -999.2500     103.0238      92.5468      61.8988       0.0893       2.6750    -999.2500
   1817.9034       7.2520       0.0667      90.6831      41.0474    -999.2500      92.3094      86.7221      54.1126       0.0925       2.6785    -999.2500
   1818.0558       7.1580       0.0663      86.2298      40.9204    -999.2500      74.0228      78.3577      39.9547       0.0971       2.6835    -999.2500
   1818.2083       7.1110       0.0661      83.0687      40.4551    -999.2500      65.1932      72.3852      35.8251       0.1019       2.6750    -999.2500
   1818.3606       7.1110       0.0662      81.1943      39.6518    -999.2500      65.8092      68.8016      41.7117       0.1068       2.6530    -999.2500
   1818.5131       7.1178       0.0664      78.5491      38.2193    -999.2500      67.7446      63.3466      43.9772       0.1161       2.6457    -999.2500
   1818.6654       7.1313       0.0668      75.1363      36.1542    -999.2500      71.0067      56.0098      42.6018       0.1277       2.6532    -999.2500
   1818.8177       7.1558       0.0672      69.5270      33.3208    -999.2500      76.7582      53.0499      40.2133       0.1304       2.6717    -999.2500
   1818.9702       7.1913       0.0673      61.7368      29.7123    -999.2500      85.0213      54.5062      36.8026       0.1283       2.7011    -999.2500
   1819.1226       7.2330       0.0670      58.3931      28.3457    -999.2500      96.8122      59.6196      30.6631       0.1287       2.7140    -999.2500
   1819.2750       7.2810       0.0661      59.4655      29.2562    -999.2500     112.1863      68.4476      21.7519       0.1302       2.7100    -999.2500
   1819.4274       7.2842       0.0649      59.5593      28.9306    -999.2500     127.0385      82.6020      18.7187       0.1335       2.7017    -999.2500
   1819.5798       7.2427       0.0633      58.6808      27.3769    -999.2500     141.3720     102.0478      21.5249       0.1378       2.6892    -999.2500
   1819.7322       7.2220       0.0618      54.5650      26.8076    -999.2500     149.5007     103.8535      46.0174       0.1385       2.6795    -999.2500
   1819.8846       7.2220       0.0605      47.2322      27.2227    -999.2500     151.4241      88.0182      92.1975       0.1372       2.6725    -999.2500
   1820.0370       7.2220       0.0595      45.6452      28.0708    -999.2500     165.9403      80.6473     106.2252       0.1338       2.6663    -999.2500
   1820.1895       7.2220       0.0589      49.7691      29.3548    -999.2500     193.1340      81.7978      87.8841       0.1292       2.6608    -999.2500
   1820.3418       7.2262       0.0584      59.0654      29.8186    -999.2500     206.0067      85.6346      63.0675       0.1247       2.6558    -999.2500
   1820.4943       7.2347       0.0581      73.5040      29.4539    -999.2500     204.4120      92.1852      31.7091       0.1202       2.6513    -999.2500
   1820.6466       7.2935       0.0579      91.8638      28.7169    -999.2500     189.9328      93.1836      12.1724       0.1205       2.6445    -999.2500
   1820.7990       7.4025       0.0578     114.1231      27.6013    -999.2500     162.3503      88.5357       4.6581       0.1233       2.6355    -999.2500
   1820.9514       7.7722       0.0579     124.7580      27.4903    -999.2500     126.8716      79.0273       1.0427       0.1339       2.6160    -999.2500
   1821.1038       8.4029       0.0580     123.8306      28.3786    -999.2500      83.5386      64.6842       1.3055       0.1486       2.5860    -999.2500
   1821.2562       8.7082       0.0582     116.8724      31.2122    -999.2500      53.7670      51.3847       2.6749       0.1683       2.5388    -999.2500
   1821.4086       8.6887       0.0582     103.9143      35.9936    -999.2500      37.5745      39.1299       5.1523       0.1909       2.4743    -999.2500
