#------------------------------------------------------------------------------
#
#   Created by  : [OpenWorks] Log Export Utility (LEXP)
#   Created on  : 2016-05-23 11:55:37
#   Project     : CANT971
#   User        : R5K
#   Interpreter : PEP
#
#------------------------------------------------------------------------------
~VERSION INFORMATION
VERS. 2.0 : CWLS Log ASCII Standard - version 2.0
WRAP.  NO : One line per depth step
~WELL INFORMATION
#MNEMONIC   .UNIT                                           VALUE :DESCRIPTION
#------------------------------------------------------------------------------
STRT        .M                                           299.0628 :START DEPTH
STOP        .M                                          2570.8896 :STOP DEPTH
STEP        .M                                             0.1524 :STEP
NULL        .                                           -999.2500 :NULL VALUE
COMP        .                                   PEMEX EXPL & PROD :COMPANY
WELL        .                                                  31 :WELL
FLD         .                                           CANTARELL :FIELD
LOC         .                                             UNKNOWN :LOCATION
CNTY        .                                      CD. DEL CARMEN :COUNTY
STAT        .                                            CAMPECHE :STATE
CTRY        .                                              MEXICO :COUNTRY
SRVC        .                                             UNKNOWN :SERVICE COMPANY
DATE        .                                             UNKNOWN :LOG DATE
UWI         .                                          3060000157 :UNIQUE WELL ID
XCOORD      .                                       599727.810000 :SURFACE X
YCOORD      .                                      2147216.930000 :SURFACE Y
LAT         .                                           19.417919 :LATITUDE
LON         .                                          -92.050118 :LONGITUDE
ELEV        .M                                            27.8000 :SURFACE ELEV
ELEV_TYPE   .                                                  KB :ELEV TYPE
~CURVE INFORMATION
#MNEMONIC.UNIT        API CODE       : CURVE DESCRIPTION
#------------------------------------------------------------------------------
DEPTH    .M                          : Measured Depth
CALI     .inches      UNKNOWN        : CALI:Import:rC:NONE:v0 (auto-composite)
DRHO     .g/cm3       UNKNOWN        : DRHO:Import:rC:NONE:v0 (auto-composite)
DT       .us/ft       UNKNOWN        : DT:Import:rC:NONE:v0 (auto-composite)
GR       .API         UNKNOWN        : GR:Import:rC:NONE:v0 (auto-composite)
ILD      .ohm.m       UNKNOWN        : ILD:Import:rC:NONE:v0 (auto-composite)
LLD      .ohm.m       UNKNOWN        : LLD:Import:rC:NONE:v0 (auto-composite)
LLS      .ohm.m       UNKNOWN        : LLS:Import:rC:NONE:v0 (auto-composite)
MSFL     .ohm.m       UNKNOWN        : MSFL:Import:rC:NONE:v0 (auto-composite)
NPHI     .v/v_decimal UNKNOWN        : NPHI:Import:rC:NONE:v0 (auto-composite)
RHOB     .g/cm3       UNKNOWN        : RHOB:Import:rC:NONE:v0 (auto-composite)
~A     DEPTH         CALI         DRHO           DT           GR          ILD          LLD          LLS         MSFL         NPHI         RHOB
# ...
   1698.7043    -999.2500    -999.2500      51.4580      29.1480    -999.2500    4630.9614    2292.5029    -999.2500       0.0355       2.7088
   1698.8568    -999.2500    -999.2500      51.4580      29.1480    -999.2500    4258.8257    2094.5522    -999.2500       0.0354       2.7273
   1699.0092    -999.2500    -999.2500      50.8668      29.8865    -999.2500    4201.5522    2065.0383    -999.2500       0.0357       2.7302
   1699.1616    -999.2500    -999.2500      49.4667      31.6323    -999.2500    4573.6885    2262.9890    -999.2500       0.0363       2.7116
   1699.3140    -999.2500    -999.2500      48.6888      33.5844    -999.2500    4625.3154    2293.0850    -999.2500       0.0370       2.7025
   1699.4664    -999.2500    -999.2500      48.7544      35.8146    -999.2500    4244.0020    2098.6606    -999.2500       0.0377       2.7060
   1699.6188    -999.2500    -999.2500      49.6280      37.0645    -999.2500    3968.6011    1953.4976    -999.2500       0.0393       2.7082
   1699.7712    -999.2500    -999.2500      51.5860      37.0075    -999.2500    3834.4419    1873.3862    -999.2500       0.0419       2.7087
   1699.9236    -999.2500    -999.2500      52.4077      36.6229    -999.2500    3571.0271    1724.6831    -999.2500       0.0447       2.7129
   1700.0760    -999.2500    -999.2500      51.7234      35.8056    -999.2500    3136.8796    1486.2606    -999.2500       0.0478       2.7219
   1700.2284    -999.2500    -999.2500      51.4859      34.9239    -999.2500    2893.4963    1352.8348    -999.2500       0.0506       2.7270
   1700.3809    -999.2500    -999.2500      51.8350      33.9583    -999.2500    2899.6997    1355.4445    -999.2500       0.0529       2.7270
   1700.5332    -999.2500    -999.2500      51.8194      33.4684    -999.2500    2946.2161    1419.1366    -999.2500       0.0564       2.7266
   1700.6855    -999.2500    -999.2500      51.3313      33.5930    -999.2500    3044.8064    1560.9645    -999.2500       0.0613       2.7256
   1700.8380    -999.2500    -999.2500      51.2740      34.3983    -999.2500    3197.7388    1639.6732    -999.2500       0.0640       2.7191
   1700.9904    -999.2500    -999.2500      51.7696      36.0744    -999.2500    3420.2026    1638.4043    -999.2500       0.0640       2.7056
   1701.1428    -999.2500    -999.2500      51.7886      38.2094    -999.2500    3544.5530    1625.2523    -999.2500       0.0640       2.6980
   1701.2952    -999.2500    -999.2500      51.2017      40.9241    -999.2500    3544.5530    1597.2340    -999.2500       0.0640       2.6980
   1701.4476    -999.2500    -999.2500      51.2037      41.2267    -999.2500    3645.2786    1594.2402    -999.2500       0.0619       2.6984
   1701.6000    -999.2500    -999.2500      51.9451      38.5110    -999.2500    3872.0498    1622.2585    -999.2500       0.0574       2.6994
   1701.7524    -999.2500    -999.2500      51.9850      37.7579    -999.2500    4509.6362    1740.1284    -999.2500       0.0531       2.7078
   1701.9048    -999.2500    -999.2500      51.1525      39.4298    -999.2500    5656.4614    1968.2992    -999.2500       0.0495       2.7253
   1702.0573    -999.2500    -999.2500      50.7605      41.5745    -999.2500    6232.9009    2061.6931    -999.2500       0.0475       2.7350
   1702.2096    -999.2500    -999.2500      50.9113      44.2977    -999.2500    6108.9629    1991.7223    -999.2500       0.0474       2.7350
   1702.3621    -999.2500    -999.2500      50.9068      44.5586    -999.2500    6097.0405    1985.3406    -999.2500       0.0461       2.7368
   1702.5144    -999.2500    -999.2500      50.7136      41.8344    -999.2500    6220.9292    2055.3113    -999.2500       0.0432       2.7408
   1702.6667    -999.2500    -999.2500      50.7883      39.4587    -999.2500    6442.4048    2144.4465    -999.2500       0.0418       2.7350
   1702.8192    -999.2500    -999.2500      51.1857      37.5004    -999.2500    6781.0854    2256.3762    -999.2500       0.0424       2.7175
   1702.9716    -999.2500    -999.2500      51.4020      36.4380    -999.2500    6965.0991    2316.8320    -999.2500       0.0484       2.7107
   1703.1240    -999.2500    -999.2500      51.4020      36.4380    -999.2500    6965.0991    2316.8320    -999.2500       0.0602       2.7168
   1703.2764    -999.2500    -999.2500      51.3395      36.8930    -999.2500    6767.8096    2274.7749    -999.2500       0.0612       2.7172
   1703.4288    -999.2500    -999.2500      51.2033      37.8826    -999.2500    6338.7471    2183.7847    -999.2500       0.0495       2.7112
   1703.5812    -999.2500    -999.2500      50.5626      38.3412    -999.2500    5927.0288    2084.2869    -999.2500       0.0473       2.7043
   1703.7336    -999.2500    -999.2500      49.3326      38.1840    -999.2500    5535.4961    1974.9827    -999.2500       0.0564       2.6963
   1703.8860    -999.2500    -999.2500      48.8799      36.2681    -999.2500    5110.3350    1834.7247    -999.2500       0.0616       2.6920
   1704.0385    -999.2500    -999.2500      49.3261      32.3310    -999.2500    4646.5303    1659.2373    -999.2500       0.0618       2.6920
   1704.1908    -999.2500    -999.2500      49.3558      32.0769    -999.2500    4616.5093    1648.7219    -999.2500       0.0607       2.6946
   1704.3433    -999.2500    -999.2500      48.9098      36.0156    -999.2500    5080.3145    1824.2094    -999.2500       0.0588       2.7001
   1704.4956    -999.2500    -999.2500      49.0239      36.2585    -999.2500    5118.1309    1915.0779    -999.2500       0.0567       2.6981
   1704.6479    -999.2500    -999.2500      49.7718      32.3469    -999.2500    4675.5317    1911.4321    -999.2500       0.0546       2.6875
   1704.8004    -999.2500    -999.2500      50.1606      30.6062    -999.2500    4558.7949    1909.4125    -999.2500       0.0529       2.6822
   1704.9528    -999.2500    -999.2500      50.1471      31.2830    -999.2500    4804.9517    1909.1862    -999.2500       0.0515       2.6827
   1705.1052    -999.2500    -999.2500      49.7301      31.4549    -999.2500    5023.3516    1899.1327    -999.2500       0.0474       2.6956
   1705.2576    -999.2500    -999.2500      48.8666      31.0698    -999.2500    5211.1299    1878.3416    -999.2500       0.0407       2.7221
   1705.4100    -999.2500    -999.2500      48.4243      30.8853    -999.2500    5479.7236    1961.3607    -999.2500       0.0371       2.7360
   1705.5624    -999.2500    -999.2500      48.4438      30.9193    -999.2500    5836.6440    2156.3904    -999.2500       0.0369       2.7360
   1705.7148    -999.2500    -999.2500      48.6840      31.1436    -999.2500    6015.9346    2254.3269    -999.2500       0.0371       2.7322
   1705.8672    -999.2500    -999.2500      49.1631      31.5733    -999.2500    6003.5151    2248.4775    -999.2500       0.0375       2.7241
   1706.0197    -999.2500    -999.2500      49.2702      32.3177    -999.2500    5438.9629    2040.5325    -999.2500       0.0389       2.7205
   1706.1720    -999.2500    -999.2500      48.9784      33.3975    -999.2500    4284.0713    1618.5768    -999.2500       0.0413       2.7215
   1706.3245    -999.2500    -999.2500      48.8280      33.9520    -999.2500    3690.0181    1402.8831    -999.2500       0.0425       2.7220
   1706.4768    -999.2500    -999.2500      48.8280      33.9520    -999.2500    3690.0181    1402.8831    -999.2500       0.0434       2.7220
   1706.6292    -999.2500    -999.2500      52.7665      34.8848    -999.2500    3795.0242    1525.8826    -999.2500       0.0568       2.7025
   1706.7816    -999.2500    -999.2500      60.8380      36.7933    -999.2500    4009.8657    1776.3070    -999.2500       0.0829       2.6624
   1706.9340    -999.2500    -999.2500      64.8614      38.0442    -999.2500    4111.4365    1900.6357    -999.2500       0.0967       2.6427
   1707.0864    -999.2500    -999.2500      64.6767      38.6159    -999.2500    4095.6318    1895.5493    -999.2500       0.0969       2.6442
