#------------------------------------------------------------------------------
#
#   Created by  : [OpenWorks] Log Export Utility (LEXP)
#   Created on  : 2016-05-23 11:57:02
#   Project     : CANT971
#   User        : R5K
#   Interpreter : PEP
#
#------------------------------------------------------------------------------
~VERSION INFORMATION
VERS. 2.0 : CWLS Log ASCII Standard - version 2.0
WRAP.  NO : One line per depth step
~WELL INFORMATION
#MNEMONIC   .UNIT                                           VALUE :DESCRIPTION
#------------------------------------------------------------------------------
STRT        .M                                           493.3184 :START DEPTH
STOP        .M                                          2467.0508 :STOP DEPTH
STEP        .M                                             0.1524 :STEP
NULL        .                                           -999.2500 :NULL VALUE
COMP        .                                   PEMEX EXPL & PROD :COMPANY
WELL        .                                                  63 :WELL
FLD         .                                           CANTARELL :FIELD
LOC         .                                             UNKNOWN :LOCATION
CNTY        .                                      CD. DEL CARMEN :COUNTY
STAT        .                                            CAMPECHE :STATE
CTRY        .                                              MEXICO :COUNTRY
SRVC        .                                             UNKNOWN :SERVICE COMPANY
DATE        .                                             UNKNOWN :LOG DATE
UWI         .                                          3060000615 :UNIQUE WELL ID
XCOORD      .                                       601716.240000 :SURFACE X
YCOORD      .                                      2142344.800000 :SURFACE Y
LAT         .                                           19.373792 :LATITUDE
LON         .                                          -92.031441 :LONGITUDE
ELEV        .M                                            24.0000 :SURFACE ELEV
ELEV_TYPE   .                                                  KB :ELEV TYPE
~CURVE INFORMATION
#MNEMONIC.UNIT        API CODE       : CURVE DESCRIPTION
#------------------------------------------------------------------------------
DEPTH    .M                          : Measured Depth
CALI     .inches      UNKNOWN        : CALI:Import:rC:NONE:v0 (auto-composite)
DRHO     .g/cm3       UNKNOWN        : DRHO:Import:rC:NONE:v0 (auto-composite)
DT       .us/ft       UNKNOWN        : DT:Import:rC:NONE:v0 (auto-composite)
GR       .API         UNKNOWN        : GR:Import:rC:NONE:v0 (auto-composite)
ILD      .ohm.m       UNKNOWN        : ILD:Import:rC:NONE:v0 (auto-composite)
ILM      .ohm.m       UNKNOWN        : ILM:Import:rC:NONE:v0 (auto-composite)
LLD      .ohm.m       UNKNOWN        : LLD:Import:rC:NONE:v0 (auto-composite)
LLS      .ohm.m       UNKNOWN        : LLS:Import:rC:NONE:v0 (auto-composite)
MSFL     .ohm.m       UNKNOWN        : MSFL:Import:rC:NONE:v0 (auto-composite)
NPHI     .v/v_decimal UNKNOWN        : NPHI:Import:rC:NONE:v0 (auto-composite)
PEF      .b/elec      UNKNOWN        : PEF:Import:rC:NONE:v0 (auto-composite)
RHOB     .g/cm3       UNKNOWN        : RHOB:Import:rC:NONE:v0 (auto-composite)
~A     DEPTH         CALI         DRHO           DT           GR          ILD          ILM          LLD          LLS         MSFL         NPHI          PEF         RHOB
# ...
   2175.8145       5.8045       0.0380      52.9251      29.7612    -999.2500    -999.2500     646.2570     448.0245     157.5572       0.0440       3.7890       2.7360
   2175.9668       5.7950       0.0400      52.8000      27.1880    -999.2500    -999.2500     677.7210     481.7120     170.5630       0.0422       3.7660       2.7360
   2176.1191       5.7625       0.0395      51.3008      25.8967    -999.2500    -999.2500     684.6335     498.9123     167.4346       0.0406       3.6596       2.7560
   2176.2715       5.7300       0.0390      49.8000      24.6020    -999.2500    -999.2500     691.5530     516.1300     164.3030       0.0404       3.5530       2.7760
   2176.4241       5.7100       0.0385      50.4541      29.4858    -999.2500    -999.2500     601.4441     452.0852     141.8399       0.0443       3.5175       2.8025
   2176.5764       5.6900       0.0380      51.1090      34.3830    -999.2500    -999.2500     511.2320     387.9670     119.3510       0.0501       3.4820       2.8290
   2176.7288       5.6850       0.0295      53.6029      46.5959    -999.2500    -999.2500     436.9946     331.0232     107.8393       0.0576       3.3196       2.7985
   2176.8811       5.6800       0.0210      56.1000      58.8440    -999.2500    -999.2500     362.6630     274.0070      96.3130       0.0633       3.1570       2.7680
   2177.0334       5.6800       0.0280      55.1272      57.3972    -999.2500    -999.2500     409.1306     300.6614     310.5069       0.0606       3.3129       2.7730
   2177.1860       5.6800       0.0350      54.1530      55.9460    -999.2500    -999.2500     455.6630     327.3530     525.0000       0.0551       3.4690       2.7780
   2177.3384       5.6800       0.0430      52.9189      50.2729    -999.2500    -999.2500     698.7252     473.7297     316.9627       0.0482       3.4580       2.7870
   2177.4907       5.6800       0.0510      51.6830      44.5820    -999.2500    -999.2500     942.1570     620.3290     108.6090       0.0417       3.4470       2.7960
   2177.6431       5.6800       0.0655      50.1428      38.0791    -999.2500    -999.2500     928.7535     612.0888     108.8913       0.0377       3.3925       2.8025
   2177.7957       5.6800       0.0800      48.6000      31.5550    -999.2500    -999.2500     915.3280     603.8350     109.1740       0.0351       3.3380       2.8090
   2177.9480       5.6800       0.0800      48.6415      35.4349    -999.2500    -999.2500     701.8018     461.3972     111.6573       0.0345       3.2696       2.8090
   2178.1003       5.6800       0.0800      48.6830      39.3280    -999.2500    -999.2500     487.8970     318.7070     114.1450       0.0349       3.2010       2.8090
   2178.2527       5.6800       0.0745      49.9613      39.3270    -999.2500    -999.2500     488.5014     319.1381     116.1036       0.0365       3.2020       2.8065
   2178.4053       5.6800       0.0690      51.2400      39.3260    -999.2500    -999.2500     489.1070     319.5700     118.0660       0.0380       3.2030       2.8040
   2178.5576       5.6800       0.0640      51.9449      39.2800    -999.2500    -999.2500     511.5143     335.6143     126.4151       0.0386       3.2410       2.7980
   2178.7100       5.6800       0.0590      52.6500      39.2340    -999.2500    -999.2500     533.9670     351.6910     134.7810       0.0381       3.2790       2.7920
   2178.8623       5.6840       0.0515      50.8755      35.9146    -999.2500    -999.2500     665.5435     432.9591     128.9053       0.0352       3.2985       2.7750
   2179.0146       5.6880       0.0440      49.1000      32.5880    -999.2500    -999.2500     797.4030     514.4020     123.0170       0.0321       3.3180       2.7580
   2179.1672       5.7539       0.0510      50.1746      29.7113    -999.2500    -999.2500     557.9875     354.1364     110.1636       0.0306       3.5767       2.7865
   2179.3196       5.8200       0.0580      51.2500      26.8280    -999.2500    -999.2500     318.4110     193.5060      97.2810       0.0334       3.8360       2.8150
   2179.4719       5.8085       0.0480      51.5499      27.3004    -999.2500    -999.2500     319.6375     194.2626     105.1465       0.0485       3.7261       2.7681
   2179.6243       5.7970       0.0380      51.8500      27.7740    -999.2500    -999.2500     320.8650     195.0210     113.0310       0.0634       3.6160       2.7210
   2179.7769       5.7975       0.0400      51.7500      29.6162    -999.2500    -999.2500     378.7332     232.9040     111.0319       0.0655       3.5715       2.7280
   2179.9292       5.7980       0.0420      51.6500      31.4630    -999.2500    -999.2500     436.6550     270.8220     109.0310       0.0621       3.5270       2.7350
   2180.0815       5.8120       0.0565      51.6905      32.8686    -999.2500    -999.2500     434.0854     269.3348     109.3338       0.0537       3.3056       2.7780
   2180.2339       5.8260       0.0710      51.7310      34.2780    -999.2500    -999.2500     431.5130     267.8460     109.6370       0.0457       3.0840       2.8210
   2180.3865       5.8245       0.0710      52.3861      39.5112    -999.2500    -999.2500     394.3598     246.0598     115.0988       0.0442       3.0845       2.8200
   2180.5388       5.8230       0.0710      53.0420      44.7590    -999.2500    -999.2500     357.1630     224.2480     120.5670       0.0460       3.0850       2.8190
   2180.6912       5.7970       0.0675      54.1453      58.2504    -999.2500    -999.2500     312.7798     196.3986     136.5546       0.0518       3.0925       2.8035
   2180.8435       5.7710       0.0640      55.2500      71.7810    -999.2500    -999.2500     268.3390     168.5130     152.5630       0.0580       3.1000       2.7880
   2180.9958       5.7615       0.0510      56.3992      77.3820    -999.2500    -999.2500     266.6252     164.8686     102.8665       0.0616       3.1305       2.7615
   2181.1484       5.7520       0.0380      57.5500      83.0000    -999.2500    -999.2500     264.9090     161.2190      53.0990       0.0626       3.1610       2.7350
   2181.3008       5.7600       0.0400      56.6292      76.5692    -999.2500    -999.2500     299.1794     175.3515      33.3273       0.0587       3.2040       2.7385
   2181.4531       5.7680       0.0420      55.7070      70.1180    -999.2500    -999.2500     333.5030     189.5060      13.5250       0.0540       3.2470       2.7420
   2181.6055       5.7710       0.0550      54.8527      60.4628    -999.2500    -999.2500     363.9654     199.8378      27.9384       0.0521       3.3189       2.7605
   2181.7581       5.7740       0.0680      53.9970      50.7760    -999.2500    -999.2500     394.4790     210.1870      42.3760       0.0514       3.3910       2.7790
   2181.9104       5.7865       0.0750      53.5235      45.9043    -999.2500    -999.2500     420.2133     208.5250     547.7323       0.0517       3.5149       2.7930
   2182.0627       5.7990       0.0820      53.0500      41.0160    -999.2500    -999.2500     445.9940     206.8600    1054.0000       0.0524       3.6390       2.8070
   2182.2151       5.7870       0.0665      53.6749      42.3192    -999.2500    -999.2500     419.2798     193.4449     731.5088       0.0534       3.4861       2.7955
   2182.3677       5.7750       0.0510      54.3000      43.6250    -999.2500    -999.2500     392.5140     180.0040     408.3950       0.0540       3.3330       2.7840
   2182.5200       5.8005       0.0380      54.0251      39.7230    -999.2500    -999.2500     370.7578     182.5719     248.5183       0.0533       3.2016       2.7700
   2182.6724       5.8260       0.0250      53.7500      35.8130    -999.2500    -999.2500     348.9570     185.1450      88.3130       0.0528       3.0700       2.7560
   2182.8247       5.8230       0.0325      53.8030      36.2465    -999.2500    -999.2500     339.7046     183.9893      91.9206       0.0542       3.0915       2.7570
   2182.9771       5.8200       0.0400      53.8560      36.6810    -999.2500    -999.2500     330.4320     182.8310      95.5360       0.0568       3.1130       2.7580
