#------------------------------------------------------------------------------
#
#   Created by  : [OpenWorks] Log Export Utility (LEXP)
#   Created on  : 2016-05-23 11:56:31
#   Project     : CANT971
#   User        : R5K
#   Interpreter : PEP
#
#------------------------------------------------------------------------------
~VERSION INFORMATION
VERS. 2.0 : CWLS Log ASCII Standard - version 2.0
WRAP.  NO : One line per depth step
~WELL INFORMATION
#MNEMONIC   .UNIT                                           VALUE :DESCRIPTION
#------------------------------------------------------------------------------
STRT        .M                                          1639.8856 :START DEPTH
STOP        .M                                          2789.8960 :STOP DEPTH
STEP        .M                                             0.1524 :STEP
NULL        .                                           -999.2500 :NULL VALUE
COMP        .                                             UNKNOWN :COMPANY
WELL        .                                                 477 :WELL
FLD         .                                             UNKNOWN :FIELD
LOC         .                                             UNKNOWN :LOCATION
CNTY        .                                             UNKNOWN :COUNTY
STAT        .                                             UNKNOWN :STATE
CTRY        .                                             UNKNOWN :COUNTRY
SRVC        .                                             UNKNOWN :SERVICE COMPANY
DATE        .                                             UNKNOWN :LOG DATE
UWI         .                                                 477 :UNIQUE WELL ID
XCOORD      .                                       598704.070000 :SURFACE X
YCOORD      .                                      2143268.860000 :SURFACE Y
LAT         .                                           19.382293 :LATITUDE
LON         .                                          -92.060073 :LONGITUDE
ELEV        .M                                             0.0000 :SURFACE ELEV
ELEV_TYPE   .                                                  KB :ELEV TYPE
~CURVE INFORMATION
#MNEMONIC.UNIT        API CODE       : CURVE DESCRIPTION
#------------------------------------------------------------------------------
DEPTH    .M                          : Measured Depth
CALI     .inches      UNKNOWN        : CALI:litodensidad:rC:NONE:v0 (auto-composite)
CGR      .API         UNKNOWN        : CGR:Espectrometria:rC:NONE:v0 (auto-composite)
DRHO     .g/cm3       UNKNOWN        : DRHO:litodensidad:rC:NONE:v0 (auto-composite)
DT       .us/ft       UNKNOWN        : DT:Sonico:rC:NONE:v0 (auto-composite)
GR       .API         UNKNOWN        : GR:Espectrometria:rC:NONE:v0 (auto-composite)
GR-LWD   .API         UNKNOWN        : GR-LWD:resistivos-LWD:rC:NONE:v0 (auto-composite)
LLD      .ohm.m       UNKNOWN        : LLD:resistivos:rC:NONE:v0 (auto-composite)
LLD-LWD  .ohm.m       UNKNOWN        : LLD-LWD:resistivos-LWD:rC:NONE:v0 (auto-composite)
LLS      .ohm.m       UNKNOWN        : LLS:resistivos:rC:NONE:v0 (auto-composite)
LLS-LWD  .ohm.m       UNKNOWN        : LLS-LWD:resistivos-LWD:rC:NONE:v0 (auto-composite)
MSFL     .ohm.m       UNKNOWN        : MSFL:resistivos:rC:NONE:v0 (auto-composite)
MSFL-LWD .ohm.m       UNKNOWN        : MSFL-LWD:resistivos-LWD:rC:NONE:v0 (auto-composite)
NPHI     .UNKNOWN     UNKNOWN        : NPHI:porosidad:rC:NONE:v0 (auto-composite)
PEF      .UNKNOWN     UNKNOWN        : PEF:litodensidad:rC:NONE:v0 (auto-composite)
POTA     .wtpercent   UNKNOWN        : POTA:PETROWORKS:rC:NONE:v1 
RHOB     .g/cm3       UNKNOWN        : RHOB:litodensidad:rC:NONE:v0 (auto-composite)
THOR     .ppm         UNKNOWN        : THOR:Espectrometria:rC:NONE:v0 (auto-composite)
URAN     .ppm         UNKNOWN        : URAN:Espectrometria:rC:NONE:v0 (auto-composite)
~A     DEPTH         CALI          CGR         DRHO           DT           GR       GR-LWD          LLD      LLD-LWD          LLS      LLS-LWD         MSFL     MSFL-LWD         NPHI          PEF         POTA         RHOB         THOR         URAN
# ...
   2716.1345       9.0207       7.1131       0.0616      50.0124      22.0278    -999.2500     411.8389    -999.2500     335.0341    -999.2500      27.8453    -999.2500       0.0572       3.4126       0.0033       2.7915       0.7207       1.6605
   2716.2869       8.8790       4.5016       0.0766      49.8601      21.0111    -999.2500     381.1358    -999.2500     308.0100    -999.2500      54.5923    -999.2500       0.0591       3.3885       0.0026       2.8008       0.2439       1.8380
   2716.4392       9.0128       5.2749       0.0763      50.1477      22.0337    -999.2500     349.7169    -999.2500     272.6833    -999.2500      75.0544    -999.2500       0.0602       3.3678       0.0035       2.7876       0.1115       1.8658
   2716.5916       9.1091       8.6684       0.0643      50.7642      25.0201    -999.2500     303.4791    -999.2500     247.4433    -999.2500      63.4510    -999.2500       0.0626       3.3457       0.0057       2.7628       0.1850       1.8205
   2716.7441       9.0666      12.9804       0.0473      51.4771      29.3010    -999.2500     229.8234    -999.2500     210.2363    -999.2500      21.9422    -999.2500       0.0671       3.3418       0.0081       2.7482       0.4506       1.8170
   2716.8965       8.9957      15.5781       0.0377      52.0023      32.8974    -999.2500     175.4524    -999.2500     159.6923    -999.2500      13.1808    -999.2500       0.0727       3.3629       0.0095       2.7473       0.6352       1.9282
   2717.0488       8.8201      14.8181       0.0381      52.0740      34.1035    -999.2500     155.3047    -999.2500     125.9397    -999.2500      15.6520    -999.2500       0.0759       3.3772       0.0091       2.7475       0.6118       2.1471
   2717.2012       8.7752      13.5785       0.0339      51.6971      33.8698    -999.2500     158.5125    -999.2500     110.7498    -999.2500      28.2270    -999.2500       0.0747       3.3620       0.0078       2.7377       0.7612       2.2591
   2717.3535       8.8388      13.9172       0.0178      50.8659      33.3351    -999.2500     178.3247    -999.2500     121.1463    -999.2500      44.9617    -999.2500       0.0704       3.3351       0.0073       2.7252       1.0469       2.1619
   2717.5061       8.9894      15.1293      -0.0019      50.0695      33.7290    -999.2500     195.7348    -999.2500     138.5322    -999.2500      61.4594    -999.2500       0.0663       3.3335       0.0078       2.7226       1.2133       2.0708
   2717.6584       9.0974      14.7334      -0.0072      49.7644      34.4249    -999.2500     202.8695    -999.2500     151.5340    -999.2500      72.5539    -999.2500       0.0642       3.3706       0.0083       2.7332       0.8735       2.1923
   2717.8108       9.0156      13.6870       0.0026      49.8007      35.5235    -999.2500     198.4077    -999.2500     151.3385    -999.2500      46.2067    -999.2500       0.0643       3.4159       0.0088       2.7482       0.3905       2.4311
   2717.9631       8.9344      14.0193       0.0171      49.8559      35.8328    -999.2500     182.0860    -999.2500     138.1530    -999.2500      44.1512    -999.2500       0.0657       3.4310       0.0092       2.7609       0.3430       2.4286
   2718.1157       8.7890      17.8020       0.0236      49.8976      36.4406    -999.2500     161.1607    -999.2500     117.3040    -999.2500      39.6607    -999.2500       0.0653       3.4216       0.0108       2.7671       0.7678       2.0751
   2718.2681       8.7789      21.3755       0.0199      50.0943      36.8528    -999.2500     146.7188    -999.2500     100.1580    -999.2500      41.5510    -999.2500       0.0634       3.4184       0.0123       2.7692       1.1891       1.7232
   2718.4204       8.8555      24.1027       0.0126      50.3381      37.3126    -999.2500     140.0687    -999.2500      90.4078    -999.2500      42.8319    -999.2500       0.0620       3.4358       0.0138       2.7702       1.3707       1.4707
   2718.5728       8.9648      23.2163       0.0053      50.3965      36.5510    -999.2500     138.1387    -999.2500      87.2307    -999.2500      54.5217    -999.2500       0.0611       3.4534       0.0134       2.7666       1.2575       1.4846
   2718.7253       8.9256      22.6556       0.0024      50.2661      34.9741    -999.2500     135.3976    -999.2500      86.3958    -999.2500      44.9553    -999.2500       0.0601       3.4593       0.0129       2.7626       1.2919       1.3715
   2718.8777       8.7559      19.9257       0.0032      50.0837      32.7922    -999.2500     134.7566    -999.2500      86.1791    -999.2500      42.0413    -999.2500       0.0577       3.4533       0.0114       2.7629       1.1184       1.4325
   2719.0300       8.7647      17.0461       0.0048      50.0421      31.0938    -999.2500     139.0405    -999.2500      91.2770    -999.2500      34.0614    -999.2500       0.0532       3.4401       0.0103       2.7713       0.7424       1.5639
   2719.1824       8.8240      13.5622       0.0032      50.6045      30.0477    -999.2500     152.8862    -999.2500     101.8019    -999.2500      32.6314    -999.2500       0.0478       3.4241       0.0090       2.7787       0.2625       1.8354
   2719.3347       8.8575      12.5344       0.0020      52.5221      30.1504    -999.2500     177.8520    -999.2500     119.8192    -999.2500      35.3632    -999.2500       0.0467       3.4222       0.0087       2.7864       0.0899       1.9613
   2719.4873       8.8061      11.6900       0.0008      55.5617      29.4504    -999.2500     198.9524    -999.2500     138.9044    -999.2500      48.0653    -999.2500       0.0531       3.4451       0.0081       2.7920       0.0969       1.9773
   2719.6396       8.7454      13.0623       0.0040      59.8011      28.7625    -999.2500     128.2395    -999.2500     148.1171    -999.2500      56.2644    -999.2500       0.0663       3.4780       0.0074       2.7844       0.7781       1.7479
   2719.7920       8.6359      15.2254       0.0152      65.4115      28.6735    -999.2500      65.1725    -999.2500     107.9631    -999.2500      17.4819    -999.2500       0.0835       3.4987       0.0071       2.7571       1.5051       1.4972
   2719.9443       8.6863      16.6649       0.0307      71.0117      28.7984    -999.2500      37.1549    -999.2500      63.4592    -999.2500      13.1084    -999.2500       0.0999       3.4857       0.0078       2.7194       1.6428       1.3508
   2720.0969       8.7749      17.3915       0.0323      75.0618      28.9867    -999.2500      25.7741    -999.2500      33.4233    -999.2500      10.3170    -999.2500       0.1041       3.4555       0.0083       2.6726       1.6361       1.2909
   2720.2493       8.7546      16.8129       0.0175      76.9643      28.7139    -999.2500      24.5701    -999.2500      20.4839    -999.2500       9.7915    -999.2500       0.0908       3.4305       0.0086       2.6449       1.3604       1.3250
   2720.4016       8.7133      15.5739       0.0041      77.7573      28.5979    -999.2500      27.2082    -999.2500      20.6560    -999.2500       8.3494    -999.2500       0.0730       3.4206       0.0082       2.6488       1.1570       1.4500
   2720.5540       8.6422      14.5882       0.0072      77.1763      29.3082    -999.2500      33.3466    -999.2500      23.9699    -999.2500      23.4035    -999.2500       0.0606       3.4353       0.0079       2.7079       1.0050       1.6388
   2720.7063       8.6137      14.6625       0.0132      72.9735      31.1960    -999.2500      46.6733    -999.2500      34.0566    -999.2500      71.1048    -999.2500       0.0556       3.4619       0.0077       2.7588       1.1054       1.8408
   2720.8589       8.6910      16.2433       0.0157      66.3463      33.3360    -999.2500      67.9166    -999.2500      49.6873    -999.2500      57.4434    -999.2500       0.0583       3.4904       0.0085       2.7729       1.2496       1.9030
   2721.0112       8.7093      18.2297       0.0125      62.8872      34.7285    -999.2500      93.2570    -999.2500      65.9367    -999.2500      50.4343    -999.2500       0.0632       3.5074       0.0094       2.7610       1.4594       1.8369
