#------------------------------------------------------------------------------
#
#   Created by  : [OpenWorks] Log Export Utility (LEXP)
#   Created on  : 2016-05-12 17:01:20
#   Project     : CANT971
#   User        : R5K
#   Interpreter : PEP
#
#------------------------------------------------------------------------------
~VERSION INFORMATION
VERS. 2.0 : CWLS Log ASCII Standard - version 2.0
WRAP.  NO : One line per depth step
~WELL INFORMATION
#MNEMONIC   .UNIT                                           VALUE :DESCRIPTION
#------------------------------------------------------------------------------
STRT        .M                                           993.9530 :START DEPTH
STOP        .M                                          2371.9539 :STOP DEPTH
STEP        .M                                             0.1524 :STEP
NULL        .                                           -999.2500 :NULL VALUE
COMP        .                                   PEMEX EXPL & PROD :COMPANY
WELL        .                                                  55 :WELL
FLD         .                                           CANTARELL :FIELD
LOC         .                                             UNKNOWN :LOCATION
CNTY        .                                      CD. DEL CARMEN :COUNTY
STAT        .                                            CAMPECHE :STATE
CTRY        .                                              MEXICO :COUNTRY
SRVC        .                                             UNKNOWN :SERVICE COMPANY
DATE        .                                             UNKNOWN :LOG DATE
UWI         .                                          3060000168 :UNIQUE WELL ID
XCOORD      .                                       602149.520000 :SURFACE X
YCOORD      .                                      2147170.290000 :SURFACE Y
LAT         .                                           19.417375 :LATITUDE
LON         .                                          -92.027057 :LONGITUDE
ELEV        .M                                            28.1700 :SURFACE ELEV
ELEV_TYPE   .                                                  KB :ELEV TYPE
~CURVE INFORMATION
#MNEMONIC.UNIT        API CODE       : CURVE DESCRIPTION
#------------------------------------------------------------------------------
DEPTH    .M                          : Measured Depth
CALI     .inches      UNKNOWN        : CALI:CALI-Load:rC:NONE:v0 (auto-composite)
DRHO     .UNKNOWN     UNKNOWN        : DRHO:DRHO-Load:rC:NONE:v0 (auto-composite)
DT       .us/ft       UNKNOWN        : DT:DT:rC:NONE:v0 (auto-composite)
GR       .UNKNOWN     UNKNOWN        : GR:GR-Load:rC:NONE:v0 (auto-composite)
ILD      .UNKNOWN     UNKNOWN        : ILD:ILD-Load:rC:NONE:v0 (auto-composite)
LLD      .UNKNOWN     UNKNOWN        : LLD:LLD-Load:rC:NONE:v0 (auto-composite)
LLS      .UNKNOWN     UNKNOWN        : LLS:LLS-Load:rC:NONE:v0 (auto-composite)
MSFL     .UNKNOWN     UNKNOWN        : MSFL:MSFL-Load:rC:NONE:v0 (auto-composite)
NPHI     .v/v_decimal UNKNOWN        : NPHI:NPHI:rC:NONE:v0 (auto-composite)
RHOB     .UNKNOWN     UNKNOWN        : RHOB:RHOB-Load:rC:NONE:v0 (auto-composite)
SP       .UNKNOWN     UNKNOWN        : SP:SP-Load:rC:NONE:v0 (auto-composite)
~A     DEPTH         CALI         DRHO           DT           GR          ILD          LLD          LLS         MSFL         NPHI         RHOB           SP
# ...
   1223.7722    -999.2500       0.0210    -999.2500      46.8400       1.2180    -999.2500    -999.2500    -999.2500      40.3900       2.2300     110.4120
   1223.9246    -999.2500       0.0200    -999.2500      46.2401       1.2180    -999.2500    -999.2500    -999.2500      40.1450       2.2250     110.4870
   1224.0770    -999.2500       0.0190    -999.2500      45.6400       1.2180    -999.2500    -999.2500    -999.2500      39.9000       2.2200     110.5620
   1224.2294    -999.2500       0.0145    -999.2500      46.5398       1.2180    -999.2500    -999.2500    -999.2500      40.7898       2.2215     110.6670
   1224.3818    -999.2500       0.0100    -999.2500      47.4400       1.2180    -999.2500    -999.2500    -999.2500      41.6800       2.2230     110.7720
   1224.5342    -999.2500       0.0020    -999.2500      47.3250       1.2210    -999.2500    -999.2500    -999.2500      41.3671       2.2265     110.8620
   1224.6866    -999.2500      -0.0060    -999.2500      47.2100       1.2240    -999.2500    -999.2500    -999.2500      41.0540       2.2300     110.9520
   1224.8390    -999.2500      -0.0060    -999.2500      46.6252       1.2380    -999.2500    -999.2500    -999.2500      39.9554       2.2315     111.1020
   1224.9915    -999.2500      -0.0060    -999.2500      46.0400       1.2520    -999.2500    -999.2500    -999.2500      38.8570       2.2330     111.2520
   1225.1438    -999.2500       0.0005    -999.2500      46.3149       1.2490    -999.2500    -999.2500    -999.2500      38.0482       2.2415     111.3275
   1225.2961    -999.2500       0.0070    -999.2500      46.5900       1.2460    -999.2500    -999.2500    -999.2500      37.2400       2.2500     111.4030
   1225.4486    -999.2500       0.0060    -999.2500      46.4900       1.2475    -999.2500    -999.2500    -999.2500      38.3704       2.2450     111.5289
   1225.6010    -999.2500       0.0050    -999.2500      46.3900       1.2490    -999.2500    -999.2500    -999.2500      39.5000       2.2400     111.6550
   1225.7534    -999.2500       0.0015    -999.2500      46.6459       1.2565    -999.2500    -999.2500    -999.2500      39.3630       2.2400     111.7589
   1225.9058    -999.2500      -0.0020    -999.2500      46.9020       1.2640    -999.2500    -999.2500    -999.2500      39.2260       2.2400     111.8630
   1226.0582    -999.2500      -0.0040    -999.2500      48.5701       1.2785    -999.2500    -999.2500    -999.2500      38.4078       2.2350     111.9065
   1226.2106    -999.2500      -0.0060    -999.2500      50.2400       1.2930    -999.2500    -999.2500    -999.2500      37.5900       2.2300     111.9500
   1226.3630    -999.2500      -0.0055    -999.2500      50.0406       1.3140    -999.2500    -999.2500    -999.2500      37.7045       2.2300     111.8661
   1226.5154    -999.2500      -0.0050    -999.2500      49.8410       1.3350    -999.2500    -999.2500    -999.2500      37.8190       2.2300     111.7820
   1226.6678    -999.2500       0.0055    -999.2500      47.4912       1.3520    -999.2500    -999.2500    -999.2500      38.9196       2.2285     111.3211
   1226.8202    -999.2500       0.0160    -999.2500      45.1400       1.3690    -999.2500    -999.2500    -999.2500      40.0200       2.2270     110.8600
   1226.9727    -999.2500       0.0100    -999.2500      45.5650       1.4065    -999.2500    -999.2500    -999.2500      39.7075       2.2135     110.8600
   1227.1250    -999.2500       0.0040    -999.2500      45.9900       1.4440    -999.2500    -999.2500    -999.2500      39.3950       2.2000     110.8600
   1227.2773    -999.2500       0.0085    -999.2500      45.9700       1.4865    -999.2500    -999.2500    -999.2500      38.1125       2.2025     110.8600
   1227.4298    -999.2500       0.0130    -999.2500      45.9500       1.5290    -999.2500    -999.2500    -999.2500      36.8300       2.2050     110.8600
   1227.5822    -999.2500       0.0030    -999.2500      44.7701       1.5175    -999.2500    -999.2500    -999.2500      33.8702       2.2195     110.7400
   1227.7346    -999.2500      -0.0070    -999.2500      43.5900       1.5060    -999.2500    -999.2500    -999.2500      30.9100       2.2340     110.6200
   1227.8870    -999.2500       0.0025    -999.2500      44.2149       1.4745    -999.2500    -999.2500    -999.2500      31.8424       2.2570     110.6360
   1228.0394    -999.2500       0.0120    -999.2500      44.8400       1.4430    -999.2500    -999.2500    -999.2500      32.7750       2.2800     110.6520
   1228.1918    -999.2500       0.0120    -999.2500      44.6020       1.4250    -999.2500    -999.2500    -999.2500      37.8665       2.2400     110.7610
   1228.3442    -999.2500       0.0120    -999.2500      44.3640       1.4070    -999.2500    -999.2500    -999.2500      42.9600       2.2000     110.8700
   1228.4966    -999.2500       0.0085    -999.2500      43.6612       1.3645    -999.2500    -999.2500    -999.2500      42.5331       2.2055     111.1094
   1228.6490    -999.2500       0.0050    -999.2500      42.9580       1.3220    -999.2500    -999.2500    -999.2500      42.1060       2.2110     111.3490
   1228.8014    -999.2500      -0.0255    -999.2500      42.0968       1.2480    -999.2500    -999.2500    -999.2500      39.6808       2.2500     111.5619
   1228.9539    -999.2500      -0.0560    -999.2500      41.2350       1.1740    -999.2500    -999.2500    -999.2500      37.2560       2.2890     111.7750
   1229.1062    -999.2500      -0.0535    -999.2500      38.3586       1.1825    -999.2500    -999.2500    -999.2500      33.7065       2.3645     111.8625
   1229.2585    -999.2500      -0.0510    -999.2500      35.4800       1.1910    -999.2500    -999.2500    -999.2500      30.1600       2.4400     111.9500
   1229.4110    -999.2500      -0.0430    -999.2500      35.5050       1.2245    -999.2500    -999.2500    -999.2500      30.1900       2.3850     111.9340
   1229.5634    -999.2500      -0.0350    -999.2500      35.5300       1.2580    -999.2500    -999.2500    -999.2500      30.2200       2.3300     111.9180
   1229.7158    -999.2500      -0.0325    -999.2500      35.3051       1.2865    -999.2500    -999.2500    -999.2500      28.2444       2.3900     111.7946
   1229.8682    -999.2500      -0.0300    -999.2500      35.0800       1.3150    -999.2500    -999.2500    -999.2500      26.2700       2.4500     111.6710
   1230.0206    -999.2500      -0.0240    -999.2500      35.1470       1.3245    -999.2500    -999.2500    -999.2500      26.4935       2.4485     111.3857
   1230.1730    -999.2500      -0.0180    -999.2500      35.2140       1.3340    -999.2500    -999.2500    -999.2500      26.7170       2.4470     111.1000
   1230.3254    -999.2500       0.0020    -999.2500      35.8631       1.3325    -999.2500    -999.2500    -999.2500      28.3138       2.4165     111.1000
   1230.4778    -999.2500       0.0220    -999.2500      36.5130       1.3310    -999.2500    -999.2500    -999.2500      29.9100       2.3860     111.1000
   1230.6302    -999.2500       0.0160    -999.2500      38.4934       1.3215    -999.2500    -999.2500    -999.2500      33.1998       2.2731     110.9800
   1230.7826    -999.2500       0.0100    -999.2500      40.4750       1.3120    -999.2500    -999.2500    -999.2500      36.4890       2.1600     110.8600
   1230.9351    -999.2500       0.0100    -999.2500      43.5076       1.2925    -999.2500    -999.2500    -999.2500      38.0231       2.1600     110.8755
   1231.0874    -999.2500       0.0100    -999.2500      46.5400       1.2730    -999.2500    -999.2500    -999.2500      39.5570       2.1600     110.8910
   1231.2397    -999.2500       0.0065    -999.2500      46.4670       1.2505    -999.2500    -999.2500    -999.2500      40.3355       2.1550     111.0325
   1231.3922    -999.2500       0.0030    -999.2500      46.3940       1.2280    -999.2500    -999.2500    -999.2500      41.1140       2.1500     111.1740
   1231.5446    -999.2500       0.0040    -999.2500      45.8171       1.2120    -999.2500    -999.2500    -999.2500      41.8269       2.1540     111.4730
