#------------------------------------------------------------------------------
#
#   Created by  : [OpenWorks] Log Export Utility (LEXP)
#   Created on  : 2015-10-01 09:50:16
#   Project     : CANT971
#   User        : R5K
#   Interpreter : PEP
#
#------------------------------------------------------------------------------
~VERSION INFORMATION
VERS. 2.0 : CWLS Log ASCII Standard - version 2.0
WRAP.  NO : One line per depth step
~WELL INFORMATION
#MNEMONIC   .UNIT                                           VALUE :DESCRIPTION
#------------------------------------------------------------------------------
STRT        .M                                           352.7300 :START DEPTH
STOP        .M                                          2346.8840 :STOP DEPTH
STEP        .M                                             0.1524 :STEP
NULL        .                                           -999.2500 :NULL VALUE
COMP        .                                   PEMEX EXPL & PROD :COMPANY
WELL        .                                        CANTARELL-64 :WELL
FLD         .                                           CANTARELL :FIELD
LOC         .                                             UNKNOWN :LOCATION
CNTY        .                                      CD. DEL CARMEN :COUNTY
STAT        .                                            CAMPECHE :STATE
CTRY        .                                              MEXICO :COUNTRY
SRVC        .                                             UNKNOWN :SERVICE COMPANY
DATE        .                                             UNKNOWN :LOG DATE
UWI         .                                          3060000172 :UNIQUE WELL ID
XCOORD      .                                       599695.280000 :SURFACE X
YCOORD      .                                      2143036.290000 :SURFACE Y
LAT         .                                           19.380142 :LATITUDE
LON         .                                          -92.050647 :LONGITUDE
ELEV        .M                                            26.7400 :SURFACE ELEV
ELEV_TYPE   .                                                  KB :ELEV TYPE
~CURVE INFORMATION
#MNEMONIC.UNIT        API CODE       : CURVE DESCRIPTION
#------------------------------------------------------------------------------
DEPTH    .M                          : Measured Depth
CALI     .inches      UNKNOWN        : CALI:UNKNOWN:rC:NONE:v0 (auto-composite)
DRHO     .g/cm3       UNKNOWN        : DRHO:UNKNOWN:rC:NONE:v0 (auto-composite)
DT       .us/ft       UNKNOWN        : DT:DT:rC:NONE:v0 (auto-composite)
GR       .API         UNKNOWN        : GR:GR-Load:rC:NONE:v0 (auto-composite)
ILD      .ohm.m       UNKNOWN        : ILD:ILD-Load:rC:NONE:v0 (auto-composite)
LLD      .ohm.m       UNKNOWN        : LLD:UNKNOWN:rC:NONE:v0 (auto-composite)
LLS      .ohm.m       UNKNOWN        : LLS:UNKNOWN:rC:NONE:v0 (auto-composite)
MSFL     .ohm.m       UNKNOWN        : MSFL:UNKNOWN:rC:NONE:v0 (auto-composite)
NPHI     .v/v_decimal UNKNOWN        : NPHI:NPHI:rC:NONE:v0 (auto-composite)
PEF      .b/elec      UNKNOWN        : PEF:UNKNOWN:rC:NONE:v0 (auto-composite)
RHOB     .g/cm3       UNKNOWN        : RHOB:RHOB-Load:rC:NONE:v0 (auto-composite)
~A     DEPTH        CALI         DRHO           DT           GR          ILD          LLD          LLS         MSFL         NPHI          PEF         RHOB
# ...
   1874.2916      6.1483      -0.7034      83.2937      35.8877    -999.2500       1.1326       0.1482       0.1162      28.8903      49.1623       2.1987 
   1874.4441      6.1664      -0.6733      85.6207      38.2006    -999.2500       1.0477       0.1452       0.1099      29.1723      41.3450       2.1702 
   1874.5964      6.1865      -0.6442      87.0260      40.8327    -999.2500       0.9560       0.1422       0.1053      29.6738      33.1623       2.1560 
   1874.7489      6.2033      -0.6128      87.5210      43.7801    -999.2500       0.9930       0.1300       0.1050      30.3908      30.5216       2.1560 
   1874.9012      6.2198      -0.5812      89.4608      45.1783    -999.2500       1.0406       0.1169       0.1050      30.6960      28.3370       2.1585 
   1875.0536      6.2219      -0.5422      92.8282      45.0458    -999.2500       1.7977       0.1221       0.1316      30.5970      23.1583       2.1635 
   1875.2061      6.2229      -0.5026      97.2988      44.4788    -999.2500       2.6087       0.1286       0.1601      30.1560      17.7525       2.1793 
   1875.3584      6.2230      -0.4724     102.8599      43.4838    -999.2500       3.6967       0.1449       0.1882      29.3790      16.3951       2.2058 
   1875.5109      6.2230      -0.4428     104.1020      42.5906    -999.2500       4.8043       0.1620       0.2163      28.5869      15.3226       2.2326 
   1875.6632      6.2230      -0.4283     101.0881      41.7976    -999.2500       5.2955       0.1616       0.2185      27.7799      15.1897       2.2596 
   1875.8157      6.2230      -0.4147     100.9756      40.2440    -999.2500       5.7473       0.1601       0.2190      27.0856      15.1170       2.2891 
   1875.9680      6.2311      -0.3898     103.7230      37.9405    -999.2500      62.1532       0.1515       0.2427      26.5019      13.8200       2.3211 
   1876.1205      6.2396      -0.3643     117.1881      36.8124    -999.2500     121.7957       0.1425       0.2677      25.7950      12.4523       2.3367 
   1876.2728      6.2638      -0.3463     141.2198      36.8429    -999.2500     225.4901       0.1806       0.3347      24.9675       9.1424       2.3362 
   1876.4253      6.2889      -0.3288     172.4023      37.9301    -999.2500     331.5000       0.2212       0.4039      24.1325       5.7305       2.3224 
   1876.5776      6.3638      -0.3582     210.6366      40.0596    -999.2500     196.8268       0.3897       0.6120      23.2900       4.2361       2.2954 
   1876.7300      6.4409      -0.3897     231.7887      41.0422    -999.2500      50.9729       0.5641       0.8265      22.6730       2.8307       2.1184 
   1876.8824      7.0358      -0.2446     236.0905      40.8937    -999.2500      23.5004       0.3972       0.8466      22.2770       2.5887       1.7929 
   1877.0348      7.6520      -0.0922     259.0125      40.2922    -999.2500       0.9153       0.2162       0.8586      20.7757       2.3946       1.6451 
   1877.1873      8.2115       0.0108     300.3062      39.2438    -999.2500      29.1278       0.3379       0.8154      18.1908       2.6689       1.6731 
   1877.3396      8.7691       0.1121     450.0904      38.8060    -999.2500      59.1340       0.4702       0.7703      16.2352       2.9597       1.8707 
   1877.4921      8.9092       0.1096     706.9448      38.9710    -999.2500     400.9199       2.3290       0.8109      14.8968       3.4179       2.2361 
   1877.6444      9.0370       0.1041     941.6376      39.5811    -999.2500     751.8722       4.2385       0.8540      12.8172       3.8810       2.4062 
   1877.7969      9.0439       0.0932    1154.4535      40.6306    -999.2500     892.1544       8.1257       1.9876      10.0108       3.7501       2.3827 
   1877.9492      9.0479       0.0822    1260.1545      41.3087    -999.2500    1027.2965      12.0611       3.1478       8.6833       3.6047       2.2786 
   1878.1017      9.3138       0.0603    1260.0901      41.6202    -999.2500     742.8951      13.9759       4.6905       8.8068       3.1989       2.0946 
   1878.2540      9.5880       0.0380    1259.6454      42.7261    -999.2500     446.9650      15.8770       6.2600       9.4386       2.7830       1.8739 
   1878.4065     10.1264       0.0434    1258.8254      44.6165    -999.2500     230.9874      11.5148       6.1111      10.5690       2.5044       1.6169 
   1878.5588     10.6760       0.0490    1259.1971      45.4526    -999.2500      10.4780       7.0610       5.9590      12.3984       2.2200       1.4950 
   1878.7112     11.6703       0.0545    1260.7461      45.2471    -999.2500      10.2074       6.8466       6.1500      14.9138       2.0817       1.5070 
   1878.8636     12.6750       0.0600    1260.9453      44.1163    -999.2500       9.9340       6.6300       6.3430      18.2852       1.9420       1.5549 
   1879.0160     13.4187       0.0480    1259.8109      42.0710    -999.2500       9.6289       6.6175       6.7636      22.4971       2.1791       1.6384 
   1879.1685     14.1620       0.0360    1259.9825      41.1066    -999.2500       9.3240       6.6050       7.1840      24.3111       2.4160       1.7340 
   1879.3208     13.0751       0.0370    1261.4451      41.2071    -999.2500       9.2290       5.9439       7.0035      23.7701       3.2103       1.8415 
   1879.4733     12.0000       0.0380    1273.7872      42.2819    -999.2500       9.1350       5.2900       6.8250      21.5021       3.9960       2.0535 
   1879.6256     11.1516       0.0324    1296.8511      44.3168    -999.2500       9.3957       5.3132       6.0180      17.5378       3.9728       2.3691 
   1879.7781     10.3221       0.0269    1307.6113      45.2618    -999.2500       9.6515       5.3359       5.2240      15.9984       3.9491       2.5232 
   1879.9304     10.4053       0.0158    1306.2439      45.1323    -999.2500       9.6916       5.3304       4.9238      16.8417       3.8814       2.5177 
   1880.0829     10.4883       0.0049    1300.5684      45.1284    -999.2500       9.7312       5.3247       4.6372      17.1178       3.8186       2.4979 
   1880.2352     10.5580      -0.0021    1290.6451      45.2484    -999.2500       9.7438       5.3107       5.0915      16.8383       4.0151       2.4639 
   1880.3877     10.6242      -0.0089    1274.8938      45.7264    -999.2500       9.7666       5.3131       5.5385      15.7313       4.2143       2.4503 
   1880.5400     10.5495      -0.0064    1253.3945      46.5573    -999.2500      10.2164       5.9920       5.6849      13.8134       4.5227       2.4568 
   1880.6924     10.4757      -0.0039    1198.8230      46.8497    -999.2500      10.6618       6.7452       5.8850      11.8015       4.8237       2.4811 
   1880.8448     10.4321       0.0001    1111.6267      46.6107    -999.2500      10.9646       9.9678       7.8687       9.6976       4.8818       2.5231 
   1880.9972     10.3919       0.0040     896.3328      45.7471    -999.2500      11.2243      13.2452       9.8014       8.1947       4.9338       2.5616 
   1881.1497     10.4475       0.0035     554.6420      44.2671    -999.2500      10.2601      18.0791      10.2853       7.2813       4.8115       2.5966 
   1881.3020     10.5042       0.0031     404.1930      42.9633    -999.2500       9.4420      22.5554      10.6744       6.6695       4.7007       2.6130 
   1881.4545     10.5839       0.0046     442.4938      41.8333    -999.2500      12.1766      18.3387       8.7611       6.3535       4.8707       2.6110 
   1881.6068     10.6653       0.0062     577.3854      40.4123    -999.2500      14.7925      14.3172       6.9034       6.3444       5.0285       2.6027 
   1881.7593     10.7826       0.0097     807.6332      38.7038    -999.2500      14.8928      14.4325       6.2243       6.6364       4.9293       2.5882 
   1881.9116     10.8996       0.0127     985.6009      36.7944    -999.2500      15.0443      14.5884       5.5871       6.7361       4.8219       2.5735 
   1882.0641     11.0124       0.0062    1111.9440      34.6865    -999.2500      16.1749      15.5205       5.7495       6.6471       4.5597       2.5585 
