#------------------------------------------------------------------------------
#
#   Created by  : [OpenWorks] Log Export Utility (LEXP)
#   Created on  : 2016-05-23 11:52:51
#   Project     : CANT971
#   User        : R5K
#   Interpreter : PEP
#
#------------------------------------------------------------------------------
~VERSION INFORMATION
VERS. 2.0 : CWLS Log ASCII Standard - version 2.0
WRAP.  NO : One line per depth step
~WELL INFORMATION
#MNEMONIC   .UNIT                                           VALUE :DESCRIPTION
#------------------------------------------------------------------------------
STRT        .M                                           691.4386 :START DEPTH
STOP        .M                                          2836.4685 :STOP DEPTH
STEP        .M                                             0.1524 :STEP
NULL        .                                           -999.2500 :NULL VALUE
COMP        .                                   PEMEX EXPL & PROD :COMPANY
WELL        .                                                2094 :WELL
FLD         .                                           CANTARELL :FIELD
LOC         .                                             UNKNOWN :LOCATION
CNTY        .                                      CD. DEL CARMEN :COUNTY
STAT        .                                            CAMPECHE :STATE
CTRY        .                                              MEXICO :COUNTRY
SRVC        .                                             UNKNOWN :SERVICE COMPANY
DATE        .                                             UNKNOWN :LOG DATE
UWI         .                                          3060000525 :UNIQUE WELL ID
XCOORD      .                                       601711.170000 :SURFACE X
YCOORD      .                                      2142342.970000 :SURFACE Y
LAT         .                                           19.373776 :LATITUDE
LON         .                                          -92.031490 :LONGITUDE
ELEV        .M                                            24.0000 :SURFACE ELEV
ELEV_TYPE   .                                                  KB :ELEV TYPE
~CURVE INFORMATION
#MNEMONIC.UNIT        API CODE       : CURVE DESCRIPTION
#------------------------------------------------------------------------------
DEPTH    .M                          : Measured Depth
CALI     .in          UNKNOWN        : CALI:registros:rC:NONE:v0 (auto-composite)
DRHO     .g/cm3       UNKNOWN        : DRHO:registros:rC:NONE:v0 (auto-composite)
DT       .us/ft       UNKNOWN        : DT:registros:rC:NONE:v0 (auto-composite)
GR       .API         UNKNOWN        : GR:registros:rC:NONE:v0 (auto-composite)
ILD      .ohm.m       UNKNOWN        : ILD:registros:rC:NONE:v0 (auto-composite)
ILM      .ohm.m       UNKNOWN        : ILM:registros:rC:NONE:v0 (auto-composite)
LLD      .ohm.m       UNKNOWN        : LLD:registros:rC:NONE:v0 (auto-composite)
LLS      .ohm.m       UNKNOWN        : LLS:registros:rC:NONE:v0 (auto-composite)
MSFL     .ohm.m       UNKNOWN        : MSFL:registros:rC:NONE:v0 (auto-composite)
NPHI     .v/v_decimal UNKNOWN        : NPHI:registros:rC:NONE:v0 (auto-composite)
PEF      .b/elec      UNKNOWN        : PEF:registros:rC:NONE:v0 (auto-composite)
RHOB     .g/cm3       UNKNOWN        : RHOB:registros:rC:NONE:v0 (auto-composite)
~A     DEPTH         CALI         DRHO           DT           GR          ILD          ILM          LLD          LLS         MSFL         NPHI          PEF         RHOB
# ...
   2351.9890       8.6775       0.0510      53.2745      41.5394    -999.2500    -999.2500    2817.7170    1235.6707     816.6931       0.0789       3.1095       2.6635
   2352.1414       8.6784       0.0517      52.9048      41.5160    -999.2500    -999.2500    3588.7739    1512.4821    1457.0000       0.0803       3.1143       2.6618
   2352.2937       8.6620       0.0540      53.0503      42.2372    -999.2500    -999.2500    4784.0420    1712.9504    1362.3967       0.0814       3.1724       2.6680
   2352.4463       8.6524       0.0577      52.9525      42.9530    -999.2500    -999.2500    5968.4780    1911.6021    1268.5000       0.0812       3.2501       2.6764
   2352.5986       8.6739       0.0630      51.8480      42.5229    -999.2500    -999.2500    5505.5132    1835.2837    1635.5989       0.0737       3.3139       2.6815
   2352.7510       8.6926       0.0709      50.8124      42.0960    -999.2500    -999.2500    5046.6831    1759.6470    2000.0000       0.0661       3.3297       2.6713
   2352.9033       8.6741       0.0825      50.9176      41.8451    -999.2500    -999.2500    3937.7612    1491.0901    1918.4828       0.0657       3.2617       2.6331
   2353.0559       8.6728       0.0988      51.4907      41.5960    -999.2500    -999.2500    2838.6130    1224.9000    1837.5540       0.0672       3.1822       2.5951
   2353.2083       8.7444       0.1210      51.8734      41.3797    -999.2500    -999.2500    2511.2007    1108.8512    1508.9415       0.0733       3.1640       2.5855
   2353.3606       8.8160       0.1397      52.3746      41.1650    -999.2500    -999.2500    2186.6311     993.8100    1182.6620       0.0793       3.2032       2.6030
   2353.5129       8.8146       0.1455      53.3070      40.1014    -999.2500    -999.2500    2305.0059    1125.3192     921.4870       0.0801       3.2978       2.6469
   2353.6653       8.7864       0.1404      54.1658      39.0470    -999.2500    -999.2500    2422.3669    1255.7020     662.1320       0.0800       3.3892       2.6897
   2353.8179       8.7775       0.1260      54.4455      39.0616    -999.2500    -999.2500    2419.6479    1254.9061     548.2123       0.0792       3.4180       2.7035
   2353.9702       8.7802       0.1084      54.4060      39.0760    -999.2500    -999.2500    2416.9519    1254.1169     435.0730       0.0778       3.3986       2.6990
   2354.1226       8.7875       0.0935      54.2954      39.5635    -999.2500    -999.2500    2330.8560    1228.4944     263.1619       0.0731       3.3436       2.6865
   2354.2749       8.7946       0.0872      54.0837      40.0470    -999.2500    -999.2500    2245.4761    1203.0850      92.4060       0.0688       3.2820       2.6757
   2354.4275       8.7970       0.0955      53.7374      38.7331    -999.2500    -999.2500    1998.3307    1140.1123     100.6788       0.0703       3.2426       2.6765
   2354.5798       8.8013       0.1043      53.0650      37.4300    -999.2500    -999.2500    1753.2080    1077.6550     108.8970       0.0732       3.2511       2.6832
   2354.7322       8.8145       0.0995      51.8616      35.8963    -999.2500    -999.2500    1806.8699    1143.4895     500.1637       0.0780       3.3353       2.6905
   2354.8845       8.8351       0.0911      50.8224      34.3750    -999.2500    -999.2500    1860.0990    1208.7930     888.8990       0.0829       3.3914       2.6854
   2355.0371       8.8620       0.0890      50.6467      35.1807    -999.2500    -999.2500    1780.8375    1188.4950     986.8229       0.0865       3.3137       2.6546
   2355.1895       8.8959       0.0920      51.0387      35.9800    -999.2500    -999.2500    1702.2050    1168.3580    1084.1250       0.0876       3.2493       2.6303
   2355.3418       8.9379       0.0990      51.7279      36.4212    -999.2500    -999.2500    1517.0208    1071.0573     623.7316       0.0766       3.3468       2.6455
   2355.4941       8.9715       0.1123      52.4774      36.8590    -999.2500    -999.2500    1333.2841     974.5170     166.9370       0.0654       3.4792       2.6711
   2355.6465       8.9795       0.1345      53.0558      35.6985    -999.2500    -999.2500    1270.3868     975.4039     334.7383       0.0644       3.5205       2.6785
   2355.7991       8.9605       0.1615      53.4206      34.5470    -999.2500    -999.2500    1207.9730     976.2840     501.2500       0.0672       3.5020       2.6723
   2355.9514       8.9116       0.1895      53.5200      34.6991    -999.2500    -999.2500    1220.5942     993.0113     497.6674       0.0803       3.4526       2.6565
   2356.1038       8.8570       0.2113      53.3874      34.8500    -999.2500    -999.2500    1233.1200    1009.6120     494.1120       0.0986       3.3520       2.6347
   2356.2561       8.8205       0.2195      53.0445      37.1209    -999.2500    -999.2500    1455.7775    1080.3309     446.3785       0.1347       3.1773       2.6100
   2356.4087       8.7802       0.2135      52.2705      39.3750    -999.2500    -999.2500    1676.4240    1150.4110     399.0000       0.1634       3.0693       2.6074
   2356.5610       8.7132       0.1920      50.8223      39.1968    -999.2500    -999.2500    1829.1632    1207.8964     951.1654       0.1364       3.1732       2.6529
   2356.7134       8.6417       0.1561      50.2898      39.0200    -999.2500    -999.2500    1980.5430    1264.8700    1499.2900       0.0998       3.3374       2.7079
   2356.8657       8.5881       0.1060      52.3034      38.2246    -999.2500    -999.2500    2078.4495    1369.1379    1672.2240       0.0693       3.4125       2.7340
   2357.0183       8.5566       0.0603      54.3125      37.4350    -999.2500    -999.2500    2175.4961    1472.4900    1843.9150       0.0442       3.4392       2.7413
   2357.1707       8.5530       0.0375      53.7736      36.8780    -999.2500    -999.2500    2324.5022    1588.3101    1905.6553       0.0419       3.4560       2.7390
   2357.3230       8.5571       0.0309      53.0778      36.3250    -999.2500    -999.2500    2472.2190    1703.1281    1966.9590       0.0439       3.4617       2.7342
   2357.4753       8.5490       0.0345      54.6031      35.8324    -999.2500    -999.2500    2004.0514    1402.3140    1983.5370       0.0452       3.4545       2.7340
   2357.6277       8.5402       0.0398      54.6762      35.3440    -999.2500    -999.2500    1539.8790    1104.0670    2000.0000       0.0458       3.4094       2.7350
   2357.7803       8.5420       0.0385      49.5446      36.2774    -999.2500    -999.2500    1057.6771     756.8096    1630.8584       0.0442       3.2987       2.7340
   2357.9326       8.5498       0.0352      45.4640      37.2030    -999.2500    -999.2500     579.5270     412.4700    1264.2340       0.0426       3.1680       2.7385
   2358.0850       8.5595       0.0345      48.7502      36.1125    -999.2500    -999.2500     518.9099     376.6581     670.4356       0.0430       3.0617       2.7565
   2358.2373       8.5679       0.0354      55.4311      35.0310    -999.2500    -999.2500     458.7950     341.1430      80.6090       0.0446       2.9991       2.7713
   2358.3899       8.5720       0.0370      61.7702      35.1520    -999.2500    -999.2500     777.3462     589.1943     967.2167       0.0506       3.0029       2.7660
   2358.5422       8.5788       0.0417      68.8909      35.2720    -999.2500    -999.2500    1093.3000     835.2230    1848.0000       0.0573       3.0285       2.7518
   2358.6946       8.5955       0.0520      77.9601      36.5476    -999.2500    -999.2500    1206.0480     946.8139    1444.3724       0.0631       3.0325       2.7390
   2358.8469       8.6225       0.0660      85.9774      37.8130    -999.2500    -999.2500    1317.8900    1057.5081    1043.3440       0.0682       3.0538       2.7296
   2358.9995       8.6609       0.0820      89.9015      38.0911    -999.2500    -999.2500    1041.9404     823.1653     963.4194       0.0710       3.1328       2.7255
   2359.1519       8.6965       0.0973      90.7522      38.3670    -999.2500    -999.2500     768.1720     590.6750     884.0000       0.0739       3.2247       2.7167
