#------------------------------------------------------------------------------
#
#   Created by  : [OpenWorks] Log Export Utility (LEXP)
#   Created on  : 2016-05-23 11:50:56
#   Project     : CANT971
#   User        : R5K
#   Interpreter : PEP
#
#------------------------------------------------------------------------------
~VERSION INFORMATION
VERS. 2.0 : CWLS Log ASCII Standard - version 2.0
WRAP.  NO : One line per depth step
~WELL INFORMATION
#MNEMONIC   .UNIT                                           VALUE :DESCRIPTION
#------------------------------------------------------------------------------
STRT        .M                                           679.7040 :START DEPTH
STOP        .M                                          2836.1641 :STOP DEPTH
STEP        .M                                             0.1524 :STEP
NULL        .                                           -999.2500 :NULL VALUE
COMP        .                                   PEMEX EXPL & PROD :COMPANY
WELL        .                                                1044 :WELL
FLD         .                                           CANTARELL :FIELD
LOC         .                                             UNKNOWN :LOCATION
CNTY        .                                      CD. DEL CARMEN :COUNTY
STAT        .                                            CAMPECHE :STATE
CTRY        .                                              MEXICO :COUNTRY
SRVC        .                                             UNKNOWN :SERVICE COMPANY
DATE        .                                             UNKNOWN :LOG DATE
UWI         .                                          3060000497 :UNIQUE WELL ID
XCOORD      .                                       596164.320000 :SURFACE X
YCOORD      .                                      2150609.730000 :SURFACE Y
LAT         .                                           19.448753 :LATITUDE
LON         .                                          -92.083884 :LONGITUDE
ELEV        .M                                            30.0000 :SURFACE ELEV
ELEV_TYPE   .                                                  KB :ELEV TYPE
~CURVE INFORMATION
#MNEMONIC.UNIT        API CODE       : CURVE DESCRIPTION
#------------------------------------------------------------------------------
DEPTH    .M                          : Measured Depth
CALI     .inches      UNKNOWN        : CALI:litodensidad:rC:NONE:v0 (auto-composite)
DRHO     .g/cm3       UNKNOWN        : DRHO:litodensidad:rC:NONE:v0 (auto-composite)
DT       .us/ft       UNKNOWN        : DT:DT:rC:NONE:v0 (auto-composite)
GR       .API         UNKNOWN        : GR:UNKNOWN:rC:NONE:v0 (auto-composite)
ILD      .ohm.m       UNKNOWN        : ILD:UNKNOWN:rC:NONE:v0 (auto-composite)
ILM      .ohm.m       UNKNOWN        : ILM:UNKNOWN:rC:NONE:v0 (auto-composite)
LLD      .ohm.m       UNKNOWN        : LLD:UNKNOWN:rC:NONE:v0 (auto-composite)
LLS      .ohm.m       UNKNOWN        : LLS:UNKNOWN:rC:NONE:v0 (auto-composite)
MSFL     .ohm.m       UNKNOWN        : MSFL:UNKNOWN:rC:NONE:v0 (auto-composite)
NPHI     .v/v_decimal UNKNOWN        : NPHI:NPHI:rC:NONE:v0 (auto-composite)
PEF      .b/elec      UNKNOWN        : PEF:UNKNOWN:rC:NONE:v0 (auto-composite)
RHOB     .g/cm3       UNKNOWN        : RHOB:UNKNOWN:rC:NONE:v0 (auto-composite)
~A     DEPTH         CALI         DRHO           DT           GR          ILD          ILM          LLD          LLS         MSFL         NPHI          PEF         RHOB
# ...
   2830.3728       6.9440       0.0850      85.0000    -999.2500    -999.2500    -999.2500       3.3689       3.6535       3.2496       0.4018       3.2810       2.2220
   2830.5251       6.9210       0.0835      85.0000    -999.2500    -999.2500    -999.2500       3.3714       3.6560       3.2496       0.4019       3.2620       2.2140
   2830.6775       6.8980       0.0820      85.0000    -999.2500    -999.2500    -999.2500       3.3739       3.6586       3.2497       0.4020       3.2430       2.2060
   2830.8301       6.8980       0.0740      85.0030    -999.2500    -999.2500    -999.2500       3.3765       3.6622       3.2488       0.4021       3.2525       2.2060
   2830.9824       6.8980       0.0660      85.0060    -999.2500    -999.2500    -999.2500       3.3790       3.6658       3.2480       0.4022       3.2620       2.2060
   2831.1348       6.8955       0.0665      85.0230    -999.2500    -999.2500    -999.2500       3.3847       3.6683       3.2456       0.4022       3.3020       2.2085
   2831.2871       6.8930       0.0670      85.0400    -999.2500    -999.2500    -999.2500       3.3904       3.6708       3.2432       0.4023       3.3420       2.2110
   2831.4397       6.8765       0.0690      85.0200    -999.2500    -999.2500    -999.2500       3.3988       3.6746       3.2395       0.4024       3.3710       2.2110
   2831.5920       6.8600       0.0710      85.0000    -999.2500    -999.2500    -999.2500       3.4071       3.6785       3.2358       0.4026       3.4000       2.2110
   2831.7444       6.8280       0.0690      85.0035    -999.2500    -999.2500    -999.2500       3.4160       3.6865       3.2319       0.4029       3.4575       2.2100
   2831.8967       6.7960       0.0670      85.0070    -999.2500    -999.2500    -999.2500       3.4250       3.6946       3.2280       0.4031       3.5150       2.2090
   2832.0491       6.7720       0.0670      85.0275    -999.2500    -999.2500    -999.2500       3.4350       3.7247       3.2248       0.4034       3.5045       2.2030
   2832.2017       6.7480       0.0670      85.0480    -999.2500    -999.2500    -999.2500       3.4450       3.7549       3.2216       0.4036       3.4940       2.1970
   2832.3540       6.7465       0.0690      89.4213    -999.2500    -999.2500    -999.2500       3.5012       3.9395       3.2189       0.4036       3.4535       2.1980
   2832.5063       6.7450       0.0710      93.7960    -999.2500    -999.2500    -999.2500       3.5574       4.1244       3.2162       0.4036       3.4130       2.1990
   2832.6587       6.7415       0.0710      90.3623    -999.2500    -999.2500    -999.2500       4.0744       5.9042       3.2138       0.4036       3.3875       2.2010
   2832.8113       6.7380       0.0710      86.9270    -999.2500    -999.2500    -999.2500       4.5925       7.6877       3.2114       0.4037       3.3620       2.2030
   2832.9636       6.5566       0.0715      83.4645    -999.2500    -999.2500    -999.2500       5.6176      12.0301       3.2098       0.4053       3.3505       2.2040
   2833.1160       6.3750       0.0720      80.0000    -999.2500    -999.2500    -999.2500       6.6434      16.3751       3.2081       0.4070       3.3390       2.2050
   2833.2683       6.4550       0.0785      80.0000    -999.2500    -999.2500    -999.2500       6.9127      19.3054       3.2084       0.4201       3.3225       2.2080
   2833.4209       6.5350       0.0850      80.0000    -999.2500    -999.2500    -999.2500       7.1822      22.2377       3.2086       0.4331       3.3060       2.2110
   2833.5732       6.4685       0.0845      80.0000    -999.2500    -999.2500    -999.2500       6.7382      24.3232       3.2121       0.4291       3.3105       2.2105
   2833.7256       6.4020       0.0840      80.0000    -999.2500    -999.2500    -999.2500       6.2938      26.4104       3.2157       0.4251       3.3150       2.2100
   2833.8779       6.3515       0.0810      80.0000    -999.2500    -999.2500    -999.2500      24.4179      29.8474       3.2215       0.4252       3.3315       2.2070
   2834.0303       6.3010       0.0780      80.0000    -999.2500    -999.2500    -999.2500      42.5592      33.2876       3.2273       0.4254       3.3480       2.2040
   2834.1829       6.3010       0.0785      80.0000    -999.2500    -999.2500    -999.2500     138.7402      34.2015       3.2341       0.4257       3.3415       2.2045
   2834.3352       6.3010       0.0790      80.0000    -999.2500    -999.2500    -999.2500     235.0246      35.1164       3.2409       0.4261       3.3350       2.2050
   2834.4875       6.2585       0.0770      80.0000    -999.2500    -999.2500    -999.2500     413.1918      33.0456       3.2489       0.4204       3.2635       2.2040
   2834.6399       6.2160       0.0750      80.0000    -999.2500    -999.2500    -999.2500     591.5727      30.9723       3.2568       0.4147       3.1920       2.2030
   2834.7925       6.2445       0.0420      80.0000    -999.2500    -999.2500    -999.2500     772.1409      25.8537       3.2695       0.4015       2.7838       2.2280
   2834.9448       6.2730       0.0090      80.0000    -999.2500    -999.2500    -999.2500     952.9487      20.7283       3.2823       0.3884       2.3750       2.2530
   2835.0972       6.1366       0.0045      80.0000    -999.2500    -999.2500    -999.2500    1090.6346      13.1322       3.3064       0.3692       2.6873       2.2515
   2835.2495       6.0000       0.0000      80.0000    -999.2500    -999.2500    -999.2500    1228.5204       5.5251       3.3305       0.3500       3.0000       2.2500
   2835.4021       6.0000       0.0000      80.0000    -999.2500    -999.2500    -999.2500    1268.0126       2.8547       3.3721       0.3500       3.0000       2.2500
   2835.5544       6.0000       0.0000      80.0000    -999.2500    -999.2500    -999.2500    1307.5670       0.1800       3.4138       0.3500       3.0000       2.2500
   2835.7068       6.0000       0.0000      80.0000    -999.2500    -999.2500    -999.2500    1307.5670       0.1800       3.4609       0.3500       3.0000       2.2500
   2835.8591       6.0000       0.0000      80.0000    -999.2500    -999.2500    -999.2500    1307.5670       0.1800       3.5080       0.3500       3.0000       2.2500
   2836.0115       6.0000       0.0000      80.0000    -999.2500    -999.2500    -999.2500    1307.5670       0.1800       3.5989       0.3500       3.0000       2.2500
   2836.1641       6.0000       0.0000      80.0000    -999.2500    -999.2500    -999.2500    1307.5670       0.1800       3.6900       0.3500       3.0000       2.2500
