#------------------------------------------------------------------------------
#
#   Created by  : [OpenWorks] Log Export Utility (LEXP)
#   Created on  : 2016-05-12 17:01:19
#   Project     : CANT971
#   User        : R5K
#   Interpreter : PEP
#
#------------------------------------------------------------------------------
~VERSION INFORMATION
VERS. 2.0 : CWLS Log ASCII Standard - version 2.0
WRAP.  NO : One line per depth step
~WELL INFORMATION
#MNEMONIC   .UNIT                                           VALUE :DESCRIPTION
#------------------------------------------------------------------------------
STRT        .M                                           300.0760 :START DEPTH
STOP        .M                                          2081.9368 :STOP DEPTH
STEP        .M                                             0.1524 :STEP
NULL        .                                           -999.2500 :NULL VALUE
COMP        .                                   PEMEX EXPL & PROD :COMPANY
WELL        .                                                  37 :WELL
FLD         .                                           CANTARELL :FIELD
LOC         .                                             UNKNOWN :LOCATION
CNTY        .                                      CD. DEL CARMEN :COUNTY
STAT        .                                            CAMPECHE :STATE
CTRY        .                                              MEXICO :COUNTRY
SRVC        .                                             UNKNOWN :SERVICE COMPANY
DATE        .                                             UNKNOWN :LOG DATE
UWI         .                                          3060000160 :UNIQUE WELL ID
XCOORD      .                                       602154.560000 :SURFACE X
YCOORD      .                                      2147169.070000 :SURFACE Y
LAT         .                                           19.417364 :LATITUDE
LON         .                                          -92.027009 :LONGITUDE
ELEV        .M                                            28.1700 :SURFACE ELEV
ELEV_TYPE   .                                                  KB :ELEV TYPE
~CURVE INFORMATION
#MNEMONIC.UNIT        API CODE       : CURVE DESCRIPTION
#------------------------------------------------------------------------------
DEPTH    .M                          : Measured Depth
CALI     .inches      UNKNOWN        : CALI:Import:rC:NONE:v0 (auto-composite)
DRHO     .g/cm3       UNKNOWN        : DRHO:Import:rC:NONE:v0 (auto-composite)
DT       .us/ft       UNKNOWN        : DT:Import:rC:NONE:v0 (auto-composite)
GR       .API         UNKNOWN        : GR:Import:rC:NONE:v0 (auto-composite)
ILD      .ohm.m       UNKNOWN        : ILD:Import:rC:NONE:v0 (auto-composite)
NPHI     .v/v_decimal UNKNOWN        : NPHI:Import:rC:NONE:v0 (auto-composite)
RHOB     .g/cm3       UNKNOWN        : RHOB:Import:rC:NONE:v0 (auto-composite)
~A     DEPTH         CALI         DRHO           DT           GR          ILD         NPHI         RHOB
# ...
   2060.2959       6.1390      -0.0130      54.5450      22.3890    1505.3750       9.3590       2.5860
   2060.4485       6.1911      -0.0055      53.5858      23.2403    1505.5411       8.6473       2.6295
   2060.6008       6.2430       0.0020      52.6270      24.0900    1505.7070       7.9370       2.6730
   2060.7532       6.1910       0.0010      51.6969      24.7891    1555.6089       7.5887       2.7035
   2060.9055       6.1390       0.0000      50.7670      25.4870    1605.4210       7.2410       2.7340
   2061.0581       6.1390      -0.0045      51.3120      25.0872    1105.2665       7.4512       2.7405
   2061.2104       6.1390      -0.0090      51.8570      24.6880     605.9480       7.6610       2.7470
   2061.3628       6.1910      -0.0010      52.5715      23.8874    1091.4370       7.4508       2.7410
   2061.5151       6.2430       0.0070      53.2860      23.0880    1576.1760       7.2410       2.7350
   2061.6675       6.1910       0.0055      53.2130      23.8886    1540.7504       7.2515       2.7325
   2061.8201       6.1390       0.0040      53.1400      24.6880    1505.3750       7.2620       2.7300
   2061.9724       6.1910       0.0075      53.4390      23.8875    1526.4331       7.5117       2.7140
   2062.1248       6.2430       0.0110      53.7380      23.0880    1547.4640       7.7610       2.6980
   2062.2771       6.1910       0.0055      53.5674      23.9885     962.9786       7.3503       2.7120
   2062.4297       6.1390       0.0000      53.3970      24.8880     379.1770       6.9400       2.7260
   2062.5820       6.1910       0.0020      52.9578      24.1376     439.4084       6.9810       2.7380
   2062.7344       6.2430       0.0040      52.5190      23.3880     499.5770       7.0220       2.7500
   2062.8867       6.1910       0.0015      52.5955      23.4410     380.9940       7.6218       2.7315
   2063.0393       6.1390      -0.0010      52.6720      23.4940     262.5200       8.2210       2.7130
   2063.1917       6.1911      -0.0065      53.2412      25.2922     956.6896       7.4796       2.7145
   2063.3440       6.2430      -0.0120      53.8100      27.0860    1650.3090       6.7400       2.7160
   2063.4963       6.1909      -0.0105      54.7213      26.9353    1635.2365       6.8001       2.6800
   2063.6487       6.1390      -0.0090      55.6320      26.7850    1620.1740       6.8600       2.6440
   2063.8013       6.1911      -0.0030      56.0276      25.5852    1583.7800       6.7098       2.6590
   2063.9536       6.2430       0.0030      56.4230      24.3880    1547.4640       6.5600       2.6740
   2064.1060       6.2430       0.0050      55.1467      26.2889    1561.8345       6.6005       2.6930
   2064.2583       6.2430       0.0070      53.8710      28.1860    1576.1760       6.6410       2.7120
   2064.4109       6.2430       0.0015      54.2180      27.7826    1328.4862       6.8717       2.6930
   2064.5632       6.2430      -0.0040      54.5650      27.3800    1081.2650       7.1020       2.6740
   2064.7156       6.1910      -0.0190      54.9595      25.5324    1314.5704       7.3817       2.6380
   2064.8679       6.1390      -0.0340      55.3540      23.6880    1547.4640       7.6610       2.6020
   2065.0205       6.1910      -0.0215      55.6520      24.2385    1099.4569       8.4026       2.6235
   2065.1729       6.2430      -0.0090      55.9500      24.7880     652.1850       9.1430       2.6450
   2065.3252       6.2430      -0.0140      56.3220      23.9874    1038.9158       9.5933       2.6395
   2065.4775       6.2430      -0.0190      56.6940      23.1880    1425.0610      10.0430       2.6340
   2065.6299       6.1910      -0.0330      57.8034      23.3881    1500.6710      11.3229       2.5680
   2065.7825       6.1390      -0.0470      58.9130      23.5880    1576.1760      12.6010       2.5020
   2065.9348       6.1910      -0.0370      58.8400      21.9380    1102.1095      12.5590       2.5205
   2066.0872       6.2430      -0.0270      58.7670      20.2900     628.6420      12.5170       2.5390
   2066.2395       6.1910      -0.0220      57.8555      22.7429    1139.7666      10.4468       2.5820
   2066.3921       6.1390      -0.0170      56.9450      25.1930    1650.3090       8.3790       2.6250
   2066.5444       6.1390      -0.0125      54.9545      26.1900    1613.2238       8.1194       2.6205
   2066.6968       6.1390      -0.0080      52.9660      27.1860    1576.1760       7.8600       2.6160
   2066.8491       6.1910      -0.0005      52.3547      26.5837    1576.1760       7.6804       2.6640
   2067.0017       6.2430       0.0070      51.7440      25.9820    1576.1760       7.5010       2.7120
   2067.1541       6.1909      -0.0020      52.4638      25.0839    1590.8041       7.5325       2.7085
   2067.3064       6.1390      -0.0110      53.1830      24.1880    1605.4210       7.5640       2.7050
   2067.4587       6.1390      -0.0095      54.4629      26.3895    1590.7938       8.6437       2.6705
   2067.6111       6.1390      -0.0080      55.7420      28.5860    1576.1760       9.7210       2.6360
   2067.7637       6.1390       0.0020      55.2764      27.4843    1613.2816       9.6900       2.6430
   2067.9160       6.1390       0.0120      54.8110      26.3850    1650.3090       9.6590       2.6500
   2068.0684       6.1390       0.0070      55.4811      25.1353    1627.8427       9.1085       2.6475
   2068.2207       6.1390       0.0020      56.1510      23.8880    1605.4210       8.5590       2.6450
   2068.3733       6.1390       0.0035      57.9702      23.7879    1590.7849       8.1992       2.6635
   2068.5256       6.1390       0.0050      59.7890      23.6880    1576.1760       7.8400       2.6820
   2068.6780       6.1390       0.0025      58.5864      24.0388    1590.8112       7.5803       2.6955
   2068.8303       6.1390       0.0000      57.3840      24.3890    1605.4210       7.3210       2.7090
   2068.9829       6.1390       0.0005      57.5340      25.3388    1590.7867       7.4111       2.7020
   2069.1353       6.1390       0.0010      57.6840      26.2870    1576.1760       7.5010       2.6950
   2069.2876       6.1390      -0.0025      58.8179      25.9868    1576.1760       7.6511       2.6810
   2069.4399       6.1390      -0.0060      59.9520      25.6870    1576.1760       7.8010       2.6670
   2069.5923       6.1390       0.0115      59.8530      26.7913    1561.8103       7.6609       2.6930
   2069.7449       6.1390       0.0290      59.7540      27.8940    1547.4640       7.5210       2.7190
   2069.8972       6.1390       0.0145      58.8717      29.4405    1492.5757       7.8712       2.7180
   2070.0496       6.1390       0.0000      57.9890      30.9850    1437.7550       8.2210       2.7170
   2070.2019       6.1390       0.0010      56.9569      33.5349    1492.6399       8.1810       2.7075
   2070.3545       6.1390       0.0020      55.9260      36.0820    1547.4640       8.1410       2.6980
   2070.5068       6.1910       0.0035      55.6344      35.0320    1532.8489       8.5112       2.6890
   2070.6592       6.2430       0.0050      55.3430      33.9830    1518.2480       8.8810       2.6800
   2070.8115       6.1910       0.0040      56.5525      35.0330    1261.3174       8.6599       2.6640
   2070.9639       6.1390       0.0030      57.7610      36.0820    1004.6070       8.4390       2.6480
   2071.1165       6.1395       0.0130      57.5869      34.7264    1117.4775       8.1697       2.6710
   2071.2688       6.1400       0.0230      57.4130      33.3740    1230.0850       7.9010       2.6940
   2071.4211       6.1916       0.0175      56.5562      31.7777    1388.9496       8.3915       2.6795
   2071.5735       6.2430       0.0120      55.7000      30.1850    1547.4640       8.8810       2.6650
   2071.7261       6.2430       0.0150      57.8985      32.6861    1561.8350       9.1413       2.6570
   2071.8784       6.2430       0.0180      60.0960      35.1820    1576.1760       9.4010       2.6490
