#------------------------------------------------------------------------------
#
#   Created by  : [OpenWorks] Log Export Utility (LEXP)
#   Created on  : 2016-05-23 11:57:21
#   Project     : CANT971
#   User        : R5K
#   Interpreter : PEP
#
#------------------------------------------------------------------------------
~VERSION INFORMATION
VERS. 2.0 : CWLS Log ASCII Standard - version 2.0
WRAP.  NO : One line per depth step
~WELL INFORMATION
#MNEMONIC   .UNIT                                           VALUE :DESCRIPTION
#------------------------------------------------------------------------------
STRT        .M                                           117.7290 :START DEPTH
STOP        .M                                          2309.5459 :STOP DEPTH
STEP        .M                                             0.1524 :STEP
NULL        .                                           -999.2500 :NULL VALUE
COMP        .                                   PEMEX EXPL & PROD :COMPANY
WELL        .                                                  7A :WELL
FLD         .                                           CANTARELL :FIELD
LOC         .                                             UNKNOWN :LOCATION
CNTY        .                                      CD. DEL CARMEN :COUNTY
STAT        .                                            CAMPECHE :STATE
CTRY        .                                              MEXICO :COUNTRY
SRVC        .                                             UNKNOWN :SERVICE COMPANY
DATE        .                                             UNKNOWN :LOG DATE
UWI         .                                          3060000143 :UNIQUE WELL ID
XCOORD      .                                       603360.310000 :SURFACE X
YCOORD      .                                      2145096.320000 :SURFACE Y
LAT         .                                           19.398572 :LATITUDE
LON         .                                          -92.015639 :LONGITUDE
ELEV        .M                                            27.1400 :SURFACE ELEV
ELEV_TYPE   .                                                  KB :ELEV TYPE
~CURVE INFORMATION
#MNEMONIC.UNIT        API CODE       : CURVE DESCRIPTION
#------------------------------------------------------------------------------
DEPTH    .M                          : Measured Depth
CALI     .in          UNKNOWN        : CALI:resistivos:rC:NONE:v0 (auto-composite)
DRHO     .g/cm3       UNKNOWN        : DRHO:PETROWORKS:rC:NONE:v2 
DT       .us/ft       UNKNOWN        : DT:DT:rC:NONE:v0 (auto-composite)
GR       .API         UNKNOWN        : GR:UNKNOWN:rC:NONE:v0 (auto-composite)
ILD      .ohmm        UNKNOWN        : ILD:resistivos:rC:NONE:v0 (auto-composite)
LLD      .ohm.m       UNKNOWN        : LLD:UNKNOWN:rC:NONE:v0 (auto-composite)
LLS      .ohm.m       UNKNOWN        : LLS:UNKNOWN:rC:NONE:v0 (auto-composite)
MSFL     .ohm.m       UNKNOWN        : MSFL:UNKNOWN:rC:NONE:v0 (auto-composite)
NPHI     .v/v_decimal     UNKNOWN        : NPHI:PETROWORKS:rC:NONE:v1 
RHOB     .g/cm3       UNKNOWN        : RHOB:UNKNOWN:rC:NONE:v0 (auto-composite)
SN       .ohm.m       UNKNOWN        : SN:UNKNOWN:rC:NONE:v0 (auto-composite)
~A     DEPTH         CALI         DRHO           DT           GR          ILD          LLD          LLS         MSFL         NPHI         RHOB           SN
# ...
   2091.0042       6.8890       0.0804      66.5421      17.6667    -999.2500     247.1776     215.0057     135.2842       0.1455       2.6003    -999.2500
   2091.1565       6.8890       0.0802      67.6105      18.1800    -999.2500     215.0954     180.2347     115.3933       0.1461       2.5948    -999.2500
   2091.3091       6.8995       0.0799      68.0230      18.7636    -999.2500     187.4944     154.6650      95.2503       0.1465       2.5840    -999.2500
   2091.4614       6.9205       0.0782      67.7861      19.4178    -999.2500     164.3868     138.3221      74.8544       0.1461       2.5680    -999.2500
   2091.6138       6.9759       0.0766      67.3461      19.8098    -999.2500     154.9568     126.0806      51.8184       0.1448       2.5751    -999.2500
   2091.7661       7.0654       0.0748      66.7043      19.9363    -999.2500     159.3784     117.9926      26.1085       0.1426       2.6056    -999.2500
   2091.9187       7.1072       0.0731      65.9829      20.1649    -999.2500     164.0768     117.9597      14.8726       0.1392       2.6205    -999.2500
   2092.0710       7.1017       0.0724      65.1827      20.4973    -999.2500     169.0567     126.1128      18.3457       0.1365       2.6195    -999.2500
   2092.2234       7.0852       0.0718      64.8237      21.0588    -999.2500     168.1815     129.2140      27.1784       0.1344       2.6162    -999.2500
   2092.3757       7.0577       0.0727      64.9007      21.8479    -999.2500     161.4869     127.2938      41.3383       0.1328       2.6107    -999.2500
   2092.5283       7.0242       0.0735      64.5604      22.7925    -999.2500     158.3855     124.3966      47.7317       0.1317       2.6150    -999.2500
   2092.6807       6.9847       0.0747      63.8066      23.8922    -999.2500     158.8679     120.5249      46.3789       0.1290       2.6290    -999.2500
   2092.8330       6.9392       0.0759      62.7289      24.2072    -999.2500     167.7578     113.7589      39.8648       0.1244       2.6527    -999.2500
   2092.9854       6.8877       0.0778      61.3310      23.7319    -999.2500     185.1163     104.0776      28.1518       0.1177       2.6862    -999.2500
   2093.1377       6.8429       0.0800      60.8558      22.9293    -999.2500     212.0504     104.0156      22.6987       0.1087       2.6898    -999.2500
   2093.2903       6.8049       0.0843      61.2954      21.7958    -999.2500     248.6631     113.6764      23.5728       0.1017       2.6633    -999.2500
   2093.4426       6.7990       0.0882      62.1282      20.6435    -999.2500     278.1837     129.6035      25.4276       0.0967       2.6515    -999.2500
   2093.5950       6.8250       0.0884      63.3497      19.4723    -999.2500     300.5110     151.8863      28.2770       0.0950       2.6545    -999.2500
   2093.7473       6.8508       0.0884      63.8088      19.1033    -999.2500     301.1262     161.9501      43.8363       0.0968       2.6678    -999.2500
   2093.8999       6.8763       0.0867      63.5117      19.5303    -999.2500     280.2025     159.8927      72.0041       0.0994       2.6913    -999.2500
   2094.0522       6.8890       0.0851      62.9607      20.3627    -999.2500     253.8740     154.2338      81.9758       0.1028       2.7020    -999.2500
   2094.2046       6.8890       0.0843      62.1586      21.6011    -999.2500     222.1307     144.9668      73.7179       0.1066       2.7000    -999.2500
   2094.3569       6.8757       0.0835      61.0119      21.9576    -999.2500     194.7866     134.6685      65.3441       0.1107       2.6965    -999.2500
   2094.5095       6.8492       0.0834      59.5234      21.4273    -999.2500     171.8650     123.3334      56.8538       0.1157       2.6915    -999.2500
   2094.6619       6.8214       0.0830      58.1532      20.7018    -999.2500     148.3631     113.7136      62.0616       0.1216       2.6897    -999.2500
   2094.8142       6.7924       0.0812      56.9003      19.7795    -999.2500     124.2758     105.8244      81.0882       0.1254       2.6912    -999.2500
   2094.9666       6.7833       0.0793      57.1577      18.8307    -999.2500     113.7828      97.3623      86.9457       0.1268       2.6967    -999.2500
   2095.1189       6.7938       0.0770      58.9148      17.8550    -999.2500     117.1396      88.3167      79.3868       0.1244       2.7062    -999.2500
   2095.2715       6.8131       0.0747      58.5361      16.9144    -999.2500     132.5059      85.5917      71.1570       0.1177       2.7183    -999.2500
   2095.4238       6.8411       0.0729      56.0427      16.0088    -999.2500     159.8391      89.1646      62.2589       0.1101       2.7328    -999.2500
   2095.5762       6.8635       0.0712      55.3272      15.5560    -999.2500     204.4392      95.1734      75.1522       0.1013       2.7393    -999.2500
   2095.7285       6.8805       0.0702      56.3780      15.5560    -999.2500     266.3045     103.6177     109.8347       0.0934       2.7378    -999.2500
   2095.8811       6.8742       0.0692      58.2021      15.2788    -999.2500     348.2106     121.5910     113.0936       0.0865       2.7335    -999.2500
   2096.0334       6.8447       0.0686      60.7921      14.7235    -999.2500     450.2249     149.1250      84.8235       0.0809       2.7265    -999.2500
   2096.1858       6.7961       0.0681      61.2766      14.4440    -999.2500     493.0913     162.0106      83.1277       0.0770       2.7190    -999.2500
   2096.3381       6.7286       0.0679      59.6818      14.4440    -999.2500     476.0232     160.0530     108.3598       0.0755       2.7110    -999.2500
   2096.4907       6.7123       0.0678      59.4547      14.5773    -999.2500     436.3645     153.5278     108.2893       0.0767       2.7035    -999.2500
   2096.6431       6.7468       0.0680      60.5832      14.8460    -999.2500     373.7354     142.3584      82.4907       0.0815       2.6965    -999.2500
   2096.7954       6.7981       0.0683      62.6430      15.7525    -999.2500     313.8669     130.6606      54.0093       0.0902       2.6885    -999.2500
   2096.9478       6.8661       0.0688      65.6232      17.2934    -999.2500     256.7441     118.4373      22.8598       0.1009       2.6795    -999.2500
   2097.1001       6.9208       0.0692      66.9114      19.3532    -999.2500     212.6242     107.8187       9.4086       0.1138       2.6608    -999.2500
   2097.2527       6.9623       0.0693      66.5217      21.9311    -999.2500     181.4806      98.8013      13.6194       0.1275       2.6323    -999.2500
   2097.4050       6.9908       0.0693      66.4072      23.0953    -999.2500     151.3459      91.5392      24.2992       0.1421       2.5851    -999.2500
   2097.5574       7.0063       0.0690      66.5646      22.8349    -999.2500     122.2280      86.0460      41.4988       0.1597       2.5192    -999.2500
   2097.7097       7.0569       0.0685      67.3644      22.4871    -999.2500     109.5349      77.6499      45.7290       0.1808       2.4487    -999.2500
   2097.8623       7.1424       0.0676      68.8014      22.0508    -999.2500     113.4527      66.3178      36.8428       0.2024       2.3738    -999.2500
   2098.0146       7.1672       0.0667      72.8313      21.3754    -999.2500     125.0687      62.0986      27.7757       0.2243       2.3171    -999.2500
   2098.1670       7.1317       0.0657      79.4260      20.4573    -999.2500     144.4970      65.0979      18.5251       0.2359       2.2790    -999.2500
   2098.3193       7.0638       0.0648      81.0874      20.1125    -999.2500     175.0526      70.7924      17.4134       0.2352       2.2828    -999.2500
   2098.4719       6.9638       0.0648      77.8522      20.3368    -999.2500     216.6528      79.1621      24.3803       0.2251       2.3283    -999.2500
   2098.6243       6.9253       0.0650      71.7622      20.8888    -999.2500     232.4293      87.2039      34.4200       0.2037       2.3947    -999.2500
   2098.7766       6.9478       0.0663      62.8471      21.7694    -999.2500     222.3196      94.9171      47.5398       0.1847       2.4821    -999.2500
