#------------------------------------------------------------------------------
#
#   Created by  : [OpenWorks] Log Export Utility (LEXP)
#   Created on  : 2016-05-23 11:55:46
#   Project     : CANT971
#   User        : R5K
#   Interpreter : PEP
#
#------------------------------------------------------------------------------
~VERSION INFORMATION
VERS. 2.0 : CWLS Log ASCII Standard - version 2.0
WRAP.  NO : One line per depth step
~WELL INFORMATION
#MNEMONIC   .UNIT                                           VALUE :DESCRIPTION
#------------------------------------------------------------------------------
STRT        .M                                           325.5260 :START DEPTH
STOP        .M                                          2414.9299 :STOP DEPTH
STEP        .M                                             0.1524 :STEP
NULL        .                                           -999.2500 :NULL VALUE
COMP        .                                   PEMEX EXPL & PROD :COMPANY
WELL        .                                                   4 :WELL
FLD         .                                           CANTARELL :FIELD
LOC         .                                             UNKNOWN :LOCATION
CNTY        .                                      CD. DEL CARMEN :COUNTY
STAT        .                                            CAMPECHE :STATE
CTRY        .                                              MEXICO :COUNTRY
SRVC        .                                             UNKNOWN :SERVICE COMPANY
DATE        .                                             UNKNOWN :LOG DATE
UWI         .                                          3060000140 :UNIQUE WELL ID
XCOORD      .                                       598455.270000 :SURFACE X
YCOORD      .                                      2145027.190000 :SURFACE Y
LAT         .                                           19.398194 :LATITUDE
LON         .                                          -92.062351 :LONGITUDE
ELEV        .M                                            26.5400 :SURFACE ELEV
ELEV_TYPE   .                                                  KB :ELEV TYPE
~CURVE INFORMATION
#MNEMONIC.UNIT        API CODE       : CURVE DESCRIPTION
#------------------------------------------------------------------------------
DEPTH    .M                          : Measured Depth
CALI     .inches      UNKNOWN        : CALI:Import:rC:NONE:v0 (auto-composite)
CGR      .API         UNKNOWN        : CGR:Import:rC:NONE:v0 (auto-composite)
DRHO     .g/cm3       UNKNOWN        : DRHO:Import:rC:NONE:v0 (auto-composite)
DT       .us/ft       UNKNOWN        : DT:Import:rC:NONE:v0 (auto-composite)
GR       .API         UNKNOWN        : GR:Import:rC:NONE:v0 (auto-composite)
ILD      .ohm.m       UNKNOWN        : ILD:Import:rC:NONE:v0 (auto-composite)
LLD      .ohm.m       UNKNOWN        : LLD:Import:rC:NONE:v0 (auto-composite)
LLS      .ohm.m       UNKNOWN        : LLS:Import:rC:NONE:v0 (auto-composite)
MSFL     .ohm.m       UNKNOWN        : MSFL:Import:rC:NONE:v0 (auto-composite)
NPHI     .v/v_decimal UNKNOWN        : NPHI:Import:rC:NONE:v0 (auto-composite)
POTA     .wtpercent   UNKNOWN        : POTA:Import:rC:NONE:v0 (auto-composite)
RHOB     .g/cm3       UNKNOWN        : RHOB:Import:rC:NONE:v0 (auto-composite)
THOR     .ppm         UNKNOWN        : THOR:Import:rC:NONE:v0 (auto-composite)
URAN     .ppm         UNKNOWN        : URAN:Import:rC:NONE:v0 (auto-composite)
~A     DEPTH         CALI          CGR         DRHO           DT           GR          ILD          LLD          LLS         MSFL         NPHI         POTA         RHOB         THOR         URAN
# ...
   2226.5637       8.9750    -999.2500      -0.0010      53.6440      34.8900    -999.2500    3552.9529    1022.7210     270.4790       0.0833    -999.2500       2.6810    -999.2500    -999.2500
   2226.7161       9.0511    -999.2500      -0.0035      53.2141      34.2222    -999.2500    3483.8167     978.7459     340.1210       0.0789    -999.2500       2.6890    -999.2500    -999.2500
   2226.8684       9.1270    -999.2500      -0.0060      52.7860      33.5560    -999.2500    3414.8440     934.8750     409.5980       0.0739    -999.2500       2.6970    -999.2500    -999.2500
   2227.0208       9.0759    -999.2500      -0.0045      53.0255      34.5601    -999.2500    3487.0806     952.8611     313.8457       0.0739    -999.2500       2.7025    -999.2500    -999.2500
   2227.1731       9.0250    -999.2500      -0.0030      53.2640      35.5620    -999.2500    3559.1550     970.8070     218.3080       0.0750    -999.2500       2.7080    -999.2500    -999.2500
   2227.3257       8.9659    -999.2500      -0.0065      54.3976      35.9254    -999.2500    3737.9033    1004.1198     130.6862       0.0826    -999.2500       2.6805    -999.2500    -999.2500
   2227.4780       8.9070    -999.2500      -0.0100      55.5270      36.2880    -999.2500    3916.2729    1037.3621      43.2500       0.0916    -999.2500       2.6530    -999.2500    -999.2500
   2227.6304       8.9245    -999.2500      -0.0145      56.1251      36.4507    -999.2500    4183.7134    1105.0374      64.3045       0.0993    -999.2500       2.6215    -999.2500    -999.2500
   2227.7827       8.9420    -999.2500      -0.0190      56.7210      36.6130    -999.2500    4450.6211    1172.5780      85.3170       0.1068    -999.2500       2.5900    -999.2500    -999.2500
   2227.9353       9.0036    -999.2500      -0.0150      56.3719      36.0385    -999.2500    4814.3999    1315.7977     108.4186       0.1020    -999.2500       2.6070    -999.2500    -999.2500
   2228.0876       9.0650    -999.2500      -0.0110      56.0240      35.4650    -999.2500    5177.4990    1458.7500     131.4770       0.0945    -999.2500       2.6240    -999.2500    -999.2500
   2228.2400       9.0610    -999.2500      -0.0090      56.4642      34.5117    -999.2500    4803.0298    1402.9635      89.2563       0.0965    -999.2500       2.6345    -999.2500    -999.2500
   2228.3923       9.0570    -999.2500      -0.0070      56.9030      33.5600    -999.2500    4429.2119    1347.2740      47.1090       0.1005    -999.2500       2.6450    -999.2500    -999.2500
   2228.5449       9.0005    -999.2500      -0.0085      57.8448      32.2264    -999.2500    3934.8328    1242.9352      55.8351       0.1106    -999.2500       2.6415    -999.2500    -999.2500
   2228.6973       8.9440    -999.2500      -0.0100      58.7820      30.8950    -999.2500    3441.2529    1138.7650      64.5470       0.1219    -999.2500       2.6380    -999.2500    -999.2500
   2228.8496       9.0016    -999.2500      -0.0100      59.6530      29.8367    -999.2500    3045.3948    1034.4222      61.8805       0.1238    -999.2500       2.6390    -999.2500    -999.2500
   2229.0020       9.0590    -999.2500      -0.0100      60.5200      28.7800    -999.2500    2650.7600     930.2350      59.2180       0.1236    -999.2500       2.6400    -999.2500    -999.2500
   2229.1543       9.1546    -999.2500      -0.0090      60.1592      28.8611    -999.2500    2000.2734     723.0530      39.6511       0.1319    -999.2500       2.6305    -999.2500    -999.2500
   2229.3069       9.2500    -999.2500      -0.0080      59.8000      28.9420    -999.2500    1351.7140     516.1540      20.1110       0.1420    -999.2500       2.6210    -999.2500    -999.2500
   2229.4592       9.2009    -999.2500      -0.0085      59.0919      29.3347    -999.2500    1135.2411     444.2269      12.0130       0.1593    -999.2500       2.5960    -999.2500    -999.2500
   2229.6116       9.1520    -999.2500      -0.0090      58.3870      29.7270    -999.2500     919.3830     372.3890       3.9250       0.1781    -999.2500       2.5710    -999.2500    -999.2500
   2229.7639       8.9998    -999.2500      -0.0120      58.8821      30.5950    -999.2500    1083.0154     444.2466       5.6940       0.1727    -999.2500       2.5890    -999.2500    -999.2500
   2229.9165       8.8480    -999.2500      -0.0150      59.3750      31.4620    -999.2500    1246.2040     516.0240       7.4610       0.1619    -999.2500       2.6070    -999.2500    -999.2500
   2230.0688       8.8680    -999.2500      -0.0135      60.1762      32.8292    -999.2500    1416.1345     618.7545      40.2870       0.1509    -999.2500       2.6135    -999.2500    -999.2500
   2230.2212       8.8880    -999.2500      -0.0120      60.9740      34.1950    -999.2500    1585.6250     721.2190      73.0280       0.1398    -999.2500       2.6200    -999.2500    -999.2500
   2230.3735       9.0532    -999.2500      -0.0110      61.3703      36.4570    -999.2500    1459.1569     671.5013     241.3462       0.1278    -999.2500       2.6220    -999.2500    -999.2500
   2230.5259       9.2180    -999.2500      -0.0100      61.7650      38.7170    -999.2500    1333.0000     621.9060     409.2500       0.1156    -999.2500       2.6240    -999.2500    -999.2500
   2230.6785       9.4963    -999.2500      -0.0130      62.4849      38.0913    -999.2500    1460.0815     668.8814     331.8625       0.1026    -999.2500       2.6205    -999.2500    -999.2500
   2230.8308       9.7740    -999.2500      -0.0160      63.2020      37.4670    -999.2500    1586.8660     715.7470     254.6560       0.0894    -999.2500       2.6170    -999.2500    -999.2500
   2230.9832       9.6133    -999.2500      -0.0200      63.1554      35.1785    -999.2500    1942.8580     835.9594     323.2789       0.0871    -999.2500       2.6150    -999.2500    -999.2500
   2231.1355       9.4530    -999.2500      -0.0240      63.1090      32.8950    -999.2500    2298.0630     955.9060     391.7500       0.0874    -999.2500       2.6130    -999.2500    -999.2500
   2231.2881       9.2793    -999.2500      -0.0300      64.6233      31.1857    -999.2500    1888.7137     818.0887     315.6776       0.0875    -999.2500       2.5885    -999.2500    -999.2500
   2231.4404       9.1060    -999.2500      -0.0360      66.1320      29.4800    -999.2500    1480.2190     680.5590     239.7640       0.0877    -999.2500       2.5640    -999.2500    -999.2500
   2231.5928       9.1731    -999.2500      -0.0255      66.9269      28.6787    -999.2500    1491.1512     625.6632     174.6432       0.0836    -999.2500       2.5915    -999.2500    -999.2500
   2231.7451       9.2400    -999.2500      -0.0150      67.7190      27.8790    -999.2500    1502.0620     570.8750     109.6500       0.0786    -999.2500       2.6190    -999.2500    -999.2500
   2231.8977       9.2986    -999.2500       0.0010      66.9400      29.8603    -999.2500    1982.4697     700.9870      67.8031       0.0795    -999.2500       2.6746    -999.2500    -999.2500
   2232.0500       9.3570    -999.2500       0.0170      66.1650      31.8380    -999.2500    2461.9951     830.8600      26.0330       0.0817    -999.2500       2.7300    -999.2500    -999.2500
   2232.2024       9.1762    -999.2500       0.0125      63.3446      32.7328    -999.2500    2843.9417     911.6761      34.5993       0.0901    -999.2500       2.7090    -999.2500    -999.2500
   2232.3547       8.9960    -999.2500       0.0080      60.5380      33.6260    -999.2500    3225.2351     992.3540      43.1510       0.1001    -999.2500       2.6880    -999.2500    -999.2500
   2232.5071       9.0521    -999.2500      -0.0045      59.6830      33.2502    -999.2500    3724.1201    1106.8378      84.3557       0.1041    -999.2500       2.6339    -999.2500    -999.2500
   2232.6597       9.1080    -999.2500      -0.0170      58.8320      32.8750    -999.2500    4222.2139    1221.1400     125.4950       0.1067    -999.2500       2.5800    -999.2500    -999.2500
   2232.8120       9.2162    -999.2500      -0.0170      59.0625      33.6260    -999.2500    6869.1577    1829.3888     201.8737       0.0989    -999.2500       2.5945    -999.2500    -999.2500
