#------------------------------------------------------------------------------
#
#   Created by  : [OpenWorks] Log Export Utility (LEXP)
#   Created on  : 2016-05-23 11:51:27
#   Project     : CANT971
#   User        : R5K
#   Interpreter : PEP
#
#------------------------------------------------------------------------------
~VERSION INFORMATION
VERS. 2.0 : CWLS Log ASCII Standard - version 2.0
WRAP.  NO : One line per depth step
~WELL INFORMATION
#MNEMONIC   .UNIT                                           VALUE :DESCRIPTION
#------------------------------------------------------------------------------
STRT        .M                                           294.1315 :START DEPTH
STOP        .M                                          1758.8479 :STOP DEPTH
STEP        .M                                             0.1524 :STEP
NULL        .                                           -999.2500 :NULL VALUE
COMP        .                                   PEMEX EXPL & PROD :COMPANY
WELL        .                                                1084 :WELL
FLD         .                                           CANTARELL :FIELD
LOC         .                                             UNKNOWN :LOCATION
CNTY        .                                      CD. DEL CARMEN :COUNTY
STAT        .                                            CAMPECHE :STATE
CTRY        .                                              MEXICO :COUNTRY
SRVC        .                                             UNKNOWN :SERVICE COMPANY
DATE        .                                             UNKNOWN :LOG DATE
UWI         .                                          3060000213 :UNIQUE WELL ID
XCOORD      .                                       596992.320000 :SURFACE X
YCOORD      .                                      2148289.820000 :SURFACE Y
LAT         .                                           19.427749 :LATITUDE
LON         .                                          -92.076116 :LONGITUDE
ELEV        .M                                            27.5000 :SURFACE ELEV
ELEV_TYPE   .                                                  KB :ELEV TYPE
~CURVE INFORMATION
#MNEMONIC.UNIT        API CODE       : CURVE DESCRIPTION
#------------------------------------------------------------------------------
DEPTH    .M                          : Measured Depth
CALI     .in          UNKNOWN        : CALI:registros:rC:NONE:v0 (auto-composite)
DRHO     .g/cm3       UNKNOWN        : DRHO:registros:rC:NONE:v0 (auto-composite)
DT       .us/ft       UNKNOWN        : DT:registros:rC:NONE:v0 (auto-composite)
GR       .api         UNKNOWN        : GR:registros:rC:NONE:v0 (auto-composite)
ILD      .ohmm        UNKNOWN        : ILD:registros:rC:NONE:v0 (auto-composite)
NPHI     .v/v_decimal UNKNOWN        : NPHI:registros:rC:NONE:v0 (auto-composite)
RHOB     .g/cm3       UNKNOWN        : RHOB:registros:rC:NONE:v0 (auto-composite)
~A     DEPTH         CALI         DRHO           DT           GR          ILD         NPHI         RHOB
# ...
   1103.8326      15.1180       0.2465     155.8374      65.3011       1.4985       0.5249       2.2415
   1103.9851      15.1500       0.2500     157.4100      65.4620       1.4970       0.5149       2.2430
   1104.1375      15.1245       0.2450     156.4891      66.0416       1.4855       0.5050       2.2465
   1104.2899      15.0990       0.2400     155.5710      66.6200       1.4740       0.4933       2.2500
   1104.4423      14.9447       0.2415     151.7235      67.1908       1.4470       0.4753       2.2475
   1104.5947      14.7900       0.2430     147.8870      67.7600       1.4200       0.4528       2.2450
   1104.7471      15.1396       0.2480     143.4522      67.7585       1.4225       0.4215       2.2325
   1104.8995      15.4900       0.2530     139.0330      67.7570       1.4250       0.3872       2.2200
   1105.0519      15.1204       0.2565     136.2772      67.6033       1.4340       0.3521       2.2215
   1105.2043      14.7500       0.2600     133.5330      67.4500       1.4430       0.3158       2.2230
   1105.3567      15.0546       0.2615     132.9804      68.1809       1.4490       0.2763       2.2290
   1105.5092      15.3600       0.2630     132.4300      68.9100       1.4550       0.2448       2.2350
   1105.6615      15.3520       0.2665     132.9921      68.5496       1.4775       0.2441       2.2425
   1105.8138      15.3440       0.2700     133.5520      68.1900       1.5000       0.2556       2.2500
   1105.9663      15.3180       0.2700     135.5258      67.0687       1.4900       0.2777       2.2450
   1106.1187      15.2920       0.2700     137.4920      65.9500       1.4800       0.2983       2.2400
   1106.2711      14.9162       0.2700     138.9853      65.9890       1.4815       0.3028       2.2400
   1106.4235      14.5400       0.2700     140.4730      66.0280       1.4830       0.3026       2.2400
   1106.5759      14.6249       0.2650     141.0811      66.2878       1.4880       0.3019       2.2450
   1106.7283      14.7100       0.2600     141.6870      66.5470       1.4930       0.3011       2.2500
   1106.8807      15.0293       0.2600     142.3767      67.7096       1.4965       0.2999       2.2450
   1107.0331      15.3490       0.2600     143.0640      68.8700       1.5000       0.2985       2.2400
   1107.1855      15.5683       0.2600     144.7348      68.6388       1.5000       0.2966       2.2400
   1107.3379      15.7880       0.2600     146.4000      68.4080       1.5000       0.2943       2.2400
   1107.4904      15.8175       0.2550     146.0049      66.1272       1.5000       0.2911       2.2350
   1107.6427      15.8470       0.2500     145.6110      63.8500       1.5000       0.2876       2.2300
   1107.7950      15.9984       0.2515     144.0316      64.3063       1.5015       0.2836       2.2315
   1107.9475      16.1500       0.2530     142.4570      64.7620       1.5030       0.2787       2.2330
   1108.0999      16.1445       0.2565     140.4906      66.4193       1.5080       0.2715       2.2405
   1108.2523      16.1390       0.2600     138.5300      68.0730       1.5130       0.2633       2.2480
   1108.4047      16.1065       0.2585     139.0765      69.0804       1.5180       0.2540       2.2590
   1108.5571      16.0740       0.2570     139.6210      70.0850       1.5230       0.2425       2.2700
   1108.7095      16.0181       0.2485     141.5897      70.3328       1.5280       0.2237       2.2650
   1108.8619      15.9620       0.2400     143.5500      70.5800       1.5330       0.1944       2.2600
   1109.0143      15.8811       0.2425     142.8586      69.5487       1.5380       0.1343       2.2600
   1109.1667      15.8000       0.2450     142.1700      68.5200       1.5430    -999.2500       2.2600
   1109.3191      15.8000       0.2550     142.4821      68.9555       1.5465    -999.2500       2.2615
   1109.4716      15.8000       0.2650     142.7930      69.3900       1.5500    -999.2500       2.2630
   1109.6239      15.8280       0.2725     144.3045      69.3885       1.5515    -999.2500       2.2680
   1109.7762      15.8560       0.2800     145.8100      69.3870       1.5530    -999.2500       2.2730
   1109.9287      16.0204       0.2785     144.9564      69.1888       1.5565    -999.2500       2.2765
   1110.0811      16.1850       0.2770     144.1060      68.9910       1.5600    -999.2500       2.2800
   1110.2335      16.5123       0.2635     139.3943      68.3318       1.5615    -999.2500       2.2900
   1110.3859      16.8400       0.2500     134.7000      67.6740       1.5630    -999.2500       2.3000
   1110.5383      17.1328       0.2600     134.9579      67.0414       1.5690    -999.2500       2.2975
   1110.6907      17.4260       0.2700     135.2150      66.4100       1.5750    -999.2500       2.2950
   1110.8431      17.4730       0.2650     136.4541      66.4836       1.5900    -999.2500       2.2835
   1110.9955      17.5200       0.2600     137.6890      66.5570       1.6050    -999.2500       2.2720
   1111.1479      17.5929       0.2600     139.2971      67.2076       1.6370    -999.2500       2.2560
   1111.3003      17.6660       0.2600     140.9000      67.8570       1.6690    -999.2500       2.2400
   1111.4528      17.7939       0.2585     137.5998      70.0652       1.7080    -999.2500       2.2450
   1111.6051      17.9220       0.2570     134.3100      72.2700       1.7470    -999.2500       2.2500
   1111.7574      17.9510       0.2485     134.6260      71.7967       1.7990    -999.2500       2.2300
   1111.9099      17.9800       0.2400     134.9410      71.3240       1.8510    -999.2500       2.2100
   1112.0623      17.9800       0.2415     138.0751      69.6629       1.9005    -999.2500       2.2100
   1112.2147      17.9800       0.2430     141.2000      68.0040       1.9500    -999.2500       2.2100
   1112.3671      17.9815       0.2490     140.7667      66.8824       1.9450    -999.2500       2.2125
   1112.5195      17.9830       0.2550     140.3350      65.7630       1.9400    -999.2500       2.2150
   1112.6719      17.9865       0.2625     134.4099      65.2043       1.9400    -999.2500       2.2280
   1112.8243      17.9900       0.2700     128.5100      64.6470       1.9400    -999.2500       2.2410
   1112.9767      17.9925       0.2700     128.8096      64.1669       1.9415    -999.2500       2.2555
   1113.1292      17.9950       0.2700     129.1080      63.6880       1.9430    -999.2500       2.2700
   1113.2815      18.0270       0.2750     135.6070      62.2172       1.9520    -999.2500       2.2725
   1113.4340      18.0590       0.2800     142.0800      60.7500       1.9610    -999.2500       2.2750
   1113.5863      18.1374       0.2785     141.5485      61.0403       1.9910    -999.2500       2.2925
   1113.7386      18.2160       0.2770     141.0190      61.3300       2.0210    -999.2500       2.3100
   1113.8911      18.2630       0.2635     137.7203      61.1798       2.0800    -999.2500       2.3000
   1114.0435      18.3100       0.2500     134.4340      61.0300       2.1390    -999.2500       2.2900
   1114.1959      18.2800       0.2525     129.2761      61.1061       2.2045    -999.2500       2.2900
   1114.3483      18.2500       0.2550     124.1370      61.1820       2.2700    -999.2500       2.2900
   1114.5007      18.2690       0.2625     122.9314      61.4337       2.2660    -999.2500       2.2885
   1114.6531      18.2880       0.2700     121.7300      61.6850       2.2620    -999.2500       2.2870
   1114.8055      18.4289       0.2700     121.7811      61.9327       2.2455    -999.2500       2.2685
   1114.9579      18.5700       0.2700     121.8320      62.1800       2.2290    -999.2500       2.2500
   1115.1104      18.4051       0.2700     122.7800      62.0209       2.2080    -999.2500       2.2515
   1115.2627      18.2400       0.2700     123.7250      61.8620       2.1870    -999.2500       2.2530
   1115.4152      18.2815       0.2715     127.0577      61.0819       2.1595    -999.2500       2.2580
