#------------------------------------------------------------------------------
#
#   Created by  : [OpenWorks] Log Export Utility (LEXP)
#   Created on  : 2016-05-23 11:50:37
#   Project     : CANT971
#   User        : R5K
#   Interpreter : PEP
#
#------------------------------------------------------------------------------
~VERSION INFORMATION
VERS. 2.0 : CWLS Log ASCII Standard - version 2.0
WRAP.  NO : One line per depth step
~WELL INFORMATION
#MNEMONIC   .UNIT                                           VALUE :DESCRIPTION
#------------------------------------------------------------------------------
STRT        .M                                           690.6770 :START DEPTH
STOP        .M                                          3400.6538 :STOP DEPTH
STEP        .M                                             0.1524 :STEP
NULL        .                                           -999.2500 :NULL VALUE
COMP        .                                   PEMEX EXPL & PROD :COMPANY
WELL        .                                                1024 :WELL
FLD         .                                           CANTARELL :FIELD
LOC         .                                             UNKNOWN :LOCATION
CNTY        .                                      CD. DEL CARMEN :COUNTY
STAT        .                                            CAMPECHE :STATE
CTRY        .                                              MEXICO :COUNTRY
SRVC        .                                             UNKNOWN :SERVICE COMPANY
DATE        .                                             UNKNOWN :LOG DATE
UWI         .                                          3060000490 :UNIQUE WELL ID
XCOORD      .                                       596162.640000 :SURFACE X
YCOORD      .                                      2150611.280000 :SURFACE Y
LAT         .                                           19.448767 :LATITUDE
LON         .                                          -92.083900 :LONGITUDE
ELEV        .M                                            30.0000 :SURFACE ELEV
ELEV_TYPE   .                                                  KB :ELEV TYPE
~CURVE INFORMATION
#MNEMONIC.UNIT        API CODE       : CURVE DESCRIPTION
#------------------------------------------------------------------------------
DEPTH    .M                          : Measured Depth
CALI     .inches      UNKNOWN        : CALI:registros:rC:NONE:v0 (auto-composite)
DRHO     .g/cm3       UNKNOWN        : DRHO:registros:rC:NONE:v0 (auto-composite)
DT       .us/ft       UNKNOWN        : DT:registros:rC:NONE:v0 (auto-composite)
GR       .API         UNKNOWN        : GR:registros:rC:NONE:v0 (auto-composite)
ILD      .ohm.m       UNKNOWN        : ILD:registros:rC:NONE:v0 (auto-composite)
ILM      .ohm.m       UNKNOWN        : ILM:registros:rC:NONE:v0 (auto-composite)
LLD      .ohm.m       UNKNOWN        : LLD:registros:rC:NONE:v0 (auto-composite)
LLS      .ohm.m       UNKNOWN        : LLS:registros:rC:NONE:v0 (auto-composite)
MSFL     .ohm.m       UNKNOWN        : MSFL:registros:rC:NONE:v0 (auto-composite)
NPHI     .v/v_decimal UNKNOWN        : NPHI:registros:rC:NONE:v0 (auto-composite)
PEF      .b/elec      UNKNOWN        : PEF:registros:rC:NONE:v0 (auto-composite)
RHOB     .g/cm3       UNKNOWN        : RHOB:registros:rC:NONE:v0 (auto-composite)
~A     DEPTH         CALI         DRHO           DT           GR          ILD          ILM          LLD          LLS         MSFL         NPHI          PEF         RHOB
# ...
   3338.7793       8.3280       0.0030      53.9060      35.6740    -999.2500    -999.2500    1033.3149     659.5830     205.2920       0.0773       3.1160       2.7040
   3338.9319       8.3570       0.0055      55.8454      33.9776    -999.2500    -999.2500     969.0569     626.8753     250.6600       0.0769       3.1794       2.7015
   3339.0842       8.3860       0.0080      57.7900      32.2930    -999.2500    -999.2500     904.6260     594.1320     296.1500       0.0782       3.2430       2.6990
   3339.2366       8.3935       0.0085      60.6689      31.2690    -999.2500    -999.2500     705.9855     464.2278     293.9032       0.0806       3.3354       2.6830
   3339.3889       8.4010       0.0090      63.5560      30.2520    -999.2500    -999.2500     506.7850     334.1660     291.6500       0.0843       3.4280       2.6670
   3339.5415       8.4679       0.0125      64.3413      30.2826    -999.2500    -999.2500     523.3351     347.9058     203.3449       0.0898       3.4275       2.6096
   3339.6938       8.5350       0.0160      65.1290      30.3130    -999.2500    -999.2500     539.9340     361.6640     114.7800       0.0982       3.4270       2.5520
   3339.8462       8.5320       0.0285      67.1199      30.6155    -999.2500    -999.2500     629.9368     431.1187     117.2447       0.1115       3.3970       2.5550
   3339.9985       8.5290       0.0410      69.1170      30.9160    -999.2500    -999.2500     720.2160     500.6750     119.7170       0.1224       3.3670       2.5580
   3340.1511       8.5000       0.0385      71.1777      33.1426    -999.2500    -999.2500     874.1650     618.8215     107.9778       0.1234       3.2687       2.5765
   3340.3035       8.4710       0.0360      73.2450      35.3550    -999.2500    -999.2500    1028.6060     737.1560      96.2010       0.1180       3.1700       2.5950
   3340.4558       8.4081       0.0275      72.3016      35.2582    -999.2500    -999.2500     988.3578     705.3363     104.6050       0.1083       3.1990       2.6384
   3340.6082       8.3450       0.0190      71.3550      35.1620    -999.2500    -999.2500     947.9760     673.4620     113.0370       0.1003       3.2280       2.6820
   3340.7605       8.3470       0.0115      68.4136      34.9032    -999.2500    -999.2500     845.6204     581.1246     137.8077       0.1004       3.2165       2.6710
   3340.9131       8.3490       0.0040      65.4620      34.6460    -999.2500    -999.2500     742.9120     488.6170     162.6240       0.1032       3.2050       2.6600
   3341.0654       8.3570       0.0000      62.4219      35.8020    -999.2500    -999.2500     802.6477     525.1286     183.9480       0.1041       3.2679       2.6625
   3341.2178       8.3650      -0.0040      59.3710      36.9510    -999.2500    -999.2500     862.5970     561.7120     205.3140       0.1039       3.3310       2.6650
   3341.3701       8.3875      -0.0075      56.3421      39.6334    -999.2500    -999.2500    1344.3086     853.6638     303.8793       0.1033       3.3295       2.6715
   3341.5227       8.4100      -0.0110      53.3020      42.3000    -999.2500    -999.2500    1827.8020    1146.2271     402.6510       0.1013       3.3280       2.6780
   3341.6750       8.6502      -0.0100      53.3549      41.9024    -999.2500    -999.2500    1799.2701    1125.1404     390.9695       0.0969       3.3170       2.6765
   3341.8274       8.8910      -0.0090      53.4080      41.5070    -999.2500    -999.2500    1770.6290    1104.0070     379.2620       0.0929       3.3060       2.6750
   3341.9797       8.8515      -0.0030      53.8160      42.0153    -999.2500    -999.2500    1556.5641     963.3560     304.0078       0.0923       3.2900       2.6700
   3342.1321       8.8120       0.0030      54.2250      42.5200    -999.2500    -999.2500    1341.9969     822.3750     228.5770       0.0946       3.2740       2.6650
   3342.2847       8.5913       0.0030      55.0335      42.4743    -999.2500    -999.2500    1363.2163     843.8872     239.1874       0.0998       3.2311       2.6590
   3342.4370       8.3700       0.0030      55.8440      42.4290    -999.2500    -999.2500    1384.4880     865.4180     249.8240       0.1046       3.1880       2.6530
   3342.5894       8.3725       0.0030      56.5251      41.5620    -999.2500    -999.2500    1586.7032    1060.6852     291.6986       0.1056       3.0702       2.6605
   3342.7417       8.3750       0.0030      57.2080      40.7010    -999.2500    -999.2500    1789.4440    1256.1460     333.6820       0.1042       2.9520       2.6680
   3342.8943       8.3715       0.0065      56.9978      38.6695    -999.2500    -999.2500    1671.4496    1181.8226     399.2463       0.1011       2.9999       2.6890
   3343.0466       8.3680       0.0100      56.7870      36.6520    -999.2500    -999.2500    1553.1340    1107.4160     464.9890       0.0969       3.0480       2.7100
   3343.1990       8.3455       0.0240      56.9907      35.0747    -999.2500    -999.2500    1260.8511     911.1475     432.4808       0.0918       3.0215       2.6990
   3343.3513       8.3230       0.0380      57.1950      33.5080    -999.2500    -999.2500     967.7350     714.6350     399.8800       0.0888       2.9950       2.6880
   3343.5039       8.3814       0.0660      58.5994      32.1620    -999.2500    -999.2500     766.0923     565.2943     316.1964       0.0910       3.0065       2.6526
   3343.6562       8.4400       0.0940      60.0080      30.8250    -999.2500    -999.2500     563.8500     415.7490     232.2640       0.0996       3.0180       2.6170
   3343.8086       8.4295       0.0895      63.7791      29.7059    -999.2500    -999.2500     598.3021     442.4720     187.5434       0.1168       3.0624       2.6280
   3343.9609       8.4190       0.0850      67.5620      28.5940    -999.2500    -999.2500     632.8610     469.2350     142.6840       0.1326       3.1070       2.6390
   3344.1133       8.3591       0.0695      66.4902      27.9725    -999.2500    -999.2500     784.2878     586.5759     183.0903       0.1370       3.1684       2.6759
   3344.2659       8.2990       0.0540      65.4150      27.3550    -999.2500    -999.2500     936.2030     704.1070     223.6270       0.1350       3.2300       2.7130
   3344.4182       8.3010       0.0305      59.6277      27.6238    -999.2500    -999.2500    1301.5952     973.5782     223.2456       0.1305       3.2944       2.7055
   3344.5706       8.3030       0.0070      53.8210      27.8910    -999.2500    -999.2500    1668.2130    1243.5200     222.8630       0.1244       3.3590       2.6980
   3344.7229       8.3310       0.0075      53.8465      29.5782    -999.2500    -999.2500    1634.4158    1201.0463     211.3578       0.1171       3.3505       2.6566
   3344.8755       8.3590       0.0080      53.8720      31.2550    -999.2500    -999.2500    1600.5010    1158.4930     199.8310       0.1112       3.3420       2.6150
   3345.0278       8.3455       0.0075      54.1750      31.2124    -999.2500    -999.2500    1477.8372     949.3065     172.5468       0.1095       3.3160       2.6190
   3345.1802       8.3320       0.0070      54.4790      31.1700    -999.2500    -999.2500    1354.7310     739.7020     145.2080       0.1097       3.2900       2.6230
   3345.3325       8.2781       0.0040      55.2710      30.6520    -999.2500    -999.2500    1235.4858     743.1793     152.2160       0.1095       3.2660       2.6340
   3345.4851       8.2240       0.0010      56.0660      30.1370    -999.2500    -999.2500    1115.7960     746.6640     159.2390       0.1087       3.2420       2.6450
   3345.6375       8.2325       0.0010      56.0435      30.2634    -999.2500    -999.2500    1171.7146     808.8416     198.4869       0.1071       3.2475       2.6510
   3345.7898       8.2410       0.0010      56.0210      30.3890    -999.2500    -999.2500    1227.8490     871.1590     237.8230       0.1047       3.2530       2.6570
   3345.9421       8.2755       0.0025      55.5076      30.9013    -999.2500    -999.2500    1453.8713    1106.5642     223.8990       0.1013       3.2695       2.6600
