#------------------------------------------------------------------------------
#
#   Created by  : [OpenWorks] Log Export Utility (LEXP)
#   Created on  : 2016-05-12 17:01:19
#   Project     : CANT971
#   User        : R5K
#   Interpreter : PEP
#
#------------------------------------------------------------------------------
~VERSION INFORMATION
VERS. 2.0 : CWLS Log ASCII Standard - version 2.0
WRAP.  NO : One line per depth step
~WELL INFORMATION
#MNEMONIC   .UNIT                                           VALUE :DESCRIPTION
#------------------------------------------------------------------------------
STRT        .M                                           300.0760 :START DEPTH
STOP        .M                                          2081.9368 :STOP DEPTH
STEP        .M                                             0.1524 :STEP
NULL        .                                           -999.2500 :NULL VALUE
COMP        .                                   PEMEX EXPL & PROD :COMPANY
WELL        .                                                  37 :WELL
FLD         .                                           CANTARELL :FIELD
LOC         .                                             UNKNOWN :LOCATION
CNTY        .                                      CD. DEL CARMEN :COUNTY
STAT        .                                            CAMPECHE :STATE
CTRY        .                                              MEXICO :COUNTRY
SRVC        .                                             UNKNOWN :SERVICE COMPANY
DATE        .                                             UNKNOWN :LOG DATE
UWI         .                                          3060000160 :UNIQUE WELL ID
XCOORD      .                                       602154.560000 :SURFACE X
YCOORD      .                                      2147169.070000 :SURFACE Y
LAT         .                                           19.417364 :LATITUDE
LON         .                                          -92.027009 :LONGITUDE
ELEV        .M                                            28.1700 :SURFACE ELEV
ELEV_TYPE   .                                                  KB :ELEV TYPE
~CURVE INFORMATION
#MNEMONIC.UNIT        API CODE       : CURVE DESCRIPTION
#------------------------------------------------------------------------------
DEPTH    .M                          : Measured Depth
CALI     .inches      UNKNOWN        : CALI:Import:rC:NONE:v0 (auto-composite)
DRHO     .g/cm3       UNKNOWN        : DRHO:Import:rC:NONE:v0 (auto-composite)
DT       .us/ft       UNKNOWN        : DT:Import:rC:NONE:v0 (auto-composite)
GR       .API         UNKNOWN        : GR:Import:rC:NONE:v0 (auto-composite)
ILD      .ohm.m       UNKNOWN        : ILD:Import:rC:NONE:v0 (auto-composite)
NPHI     .v/v_decimal UNKNOWN        : NPHI:Import:rC:NONE:v0 (auto-composite)
RHOB     .g/cm3       UNKNOWN        : RHOB:Import:rC:NONE:v0 (auto-composite)
~A     DEPTH         CALI         DRHO           DT           GR          ILD         NPHI         RHOB
# ...
   1966.4176       6.2430       0.0190      87.5610      73.3630      10.6140      26.3020       2.3890
   1966.5699       6.2430       0.0145      85.7911      73.0558      10.0156      24.9311       2.4105
   1966.7224       6.2430       0.0100      84.0250      72.7490       9.4180      23.5620       2.4320
   1966.8748       6.2430       0.0015      83.5098      63.4052       8.6991      22.8616       2.4525
   1967.0272       6.2430      -0.0070      82.9960      54.0730       7.9810      22.1620       2.4730
   1967.1796       6.2430       0.0000      85.1464      56.3853       6.9359      22.6670       2.4880
   1967.3320       6.2430       0.0070      87.2910      58.6950       5.8920      23.1710       2.5030
   1967.4844       6.2430       0.0155      90.3474      65.4355       5.1822      25.5431       2.4975
   1967.6368       6.2430       0.0240      93.3960      72.1640       4.4730      27.9090       2.4920
   1967.7892       6.2430       0.0120      97.8039      71.4631       3.8727      30.0181       2.4695
   1967.9415       6.2430       0.0000     102.2010      70.7640       3.2730      32.1220       2.4470
   1968.0940       6.2685       0.0080     101.6283      67.7595       3.2735      31.4207       2.4405
   1968.2463       6.2940       0.0160     101.0570      64.7620       3.2740      30.7210       2.4340
   1968.3988       6.2685       0.0140      95.9359      63.2598       3.4821      29.8776       2.4460
   1968.5511       6.2430       0.0120      90.8260      61.7610       3.6900      29.0360       2.4580
   1968.7036       6.2685       0.0185      86.6637      59.5612       4.3217      26.8943       2.4825
   1968.8560       6.2940       0.0250      82.5100      57.3660       4.9520      24.7570       2.5070
   1969.0084       6.2685       0.0185      78.6242      55.9156       5.7388      22.7450       2.5215
   1969.1608       6.2430       0.0120      74.7460      54.4680       6.5240      20.7370       2.5360
   1969.3132       6.2430       0.0040      73.3707      52.5653       7.6405      19.0374       2.5445
   1969.4656       6.2430      -0.0040      71.9980      50.6660       8.7550      17.3410       2.5530
   1969.6180       6.2685       0.0060      73.7245      46.4689       9.3550      18.3529       2.5500
   1969.7704       6.2940       0.0160      75.4480      42.2790       9.9540      19.3630       2.5470
   1969.9227       6.2685       0.0150      75.8688      42.9791       9.1934      19.6928       2.5365
   1970.0752       6.2430       0.0140      76.2890      43.6780       8.4340      20.0220       2.5260
   1970.2275       6.2430       0.0190      77.5739      39.8272       7.9942      20.0936       2.5205
   1970.3800       6.2430       0.0240      78.8570      35.9820       7.5550      20.1650       2.5150
   1970.5323       6.1909       0.0180      82.7226      36.3362       7.8067      22.8253       2.4880
   1970.6848       6.1390       0.0120      86.5800      36.6900       8.0580      25.4820       2.4610
   1970.8372       6.1911      -0.0035      85.0198      40.7865       8.6554      21.1589       2.4755
   1970.9896       6.2430      -0.0190      83.4640      44.8780       9.2520      16.8410       2.4900
   1971.1420       6.1909      -0.0105      76.4777      44.2664      11.3731      17.3039       2.5180
   1971.2944       6.1390      -0.0020      69.5100      43.6560      13.4920      17.7660       2.5460
   1971.4468       6.1911      -0.0090      70.9403      38.1129      16.8516      18.8048       2.5340
   1971.5992       6.2430      -0.0160      72.3670      32.5840      20.2080      19.8410       2.5220
   1971.7516       6.2430      -0.0105      72.2914      32.2836      23.2918      18.2791       2.5530
   1971.9039       6.2430      -0.0050      72.2160      31.9840      26.3730      16.7210       2.5840
   1972.0564       6.2430       0.0050      69.1910      31.9795      25.3211      16.8211       2.5995
   1972.2087       6.2430       0.0150      66.1730      31.9750      24.2700      16.9210       2.6150
   1972.3612       6.2430       0.0040      66.2726      28.6774      22.6129      16.6797       2.6220
   1972.5135       6.2430      -0.0070      66.3720      25.3870      20.9580      16.4390       2.6290
   1972.6660       6.2430      -0.0035      67.1398      26.6878      23.4275      15.9295       2.6320
   1972.8184       6.2430       0.0000      67.9060      27.9860      25.8920      15.4210       2.6350
   1972.9708       6.1909       0.0055      69.8273      27.4860      23.6103      16.1427       2.6270
   1973.1232       6.1390       0.0110      71.7450      26.9870      21.3330      16.8630       2.6190
   1973.2756       6.1910      -0.0030      72.9286      28.9918      16.9791      17.4235       2.5920
   1973.4280       6.2430      -0.0170      74.1100      30.9930      12.6330      17.9830       2.5650
   1973.5804       6.1910      -0.0095      75.9135      34.5935      10.9391      18.6751       2.5570
   1973.7328       6.1390      -0.0020      77.7140      38.1880       9.2480      19.3660       2.5490
   1973.8851       6.1911       0.0135      81.0356      41.8969       8.8402      21.1154       2.5080
   1974.0376       6.2430       0.0290      84.3520      45.6000       8.4330      22.8620       2.4670
   1974.1899       6.1909       0.0160      86.7477      52.3478       7.4768      22.1015       2.4805
   1974.3424       6.1390       0.0030      89.1400      59.0860       6.5220      21.3420       2.4940
   1974.4948       6.1390       0.0075      98.1755      62.6288       6.9718      27.2758       2.5240
   1974.6472       6.1390       0.0120     107.1920      66.1670       7.4210      33.2020       2.5540
   1974.7996       6.1390       0.0290     105.3279      66.3696       8.6442      31.4235       2.5470
   1974.9520       6.1390       0.0460     103.4690      66.5720       9.8660      29.6470       2.5400
   1975.1044       6.1135       0.0245      89.5080      68.8701      11.4964      23.3917       2.5725
   1975.2568       6.0880       0.0030      75.5840      71.1640      13.1250      17.1480       2.6050
   1975.4092       6.1135       0.0080      71.2781      61.9399      18.1673      14.1708       2.6360
   1975.5616       6.1390       0.0130      66.9830      52.7390      23.2050      11.2010       2.6670
   1975.7140       6.1911       0.0020      63.8613      41.7453      30.3048      11.7041       2.6585
   1975.8663       6.2430      -0.0090      60.7470      30.7780      37.3990      12.2060       2.6500
   1976.0188       6.2430       0.0020      65.0469      29.3304      27.2340      14.6903       2.5644
   1976.1711       6.2430       0.0130      69.3370      27.8860      17.0840      17.1690       2.4790
   1976.3236       6.2430       0.0035      76.5277      34.7504      11.1977      18.5900       2.5140
   1976.4760       6.2430      -0.0060      83.7030      41.6000       5.3240      20.0080       2.5490
   1976.6284       6.1654       0.0290      90.4558      49.6436       4.2970      23.9785       2.5375
   1976.7808       6.0880       0.0640      97.1950      57.6710       3.2720      27.9410       2.5260
   1976.9332       6.1135       0.0510     104.3853      60.1829       2.8661      34.7584       2.4724
   1977.0856       6.1390       0.0380     111.5620      62.6900       2.4610      41.5630       2.4190
   1977.2380       6.1135       0.0455     116.6540      70.3468       2.2173      41.4224       2.3449
   1977.3904       6.0880       0.0530     121.7370      77.9900       1.9740      41.2820       2.2710
   1977.5428       6.1135       0.0480     118.5804      85.0778       2.1311      40.2997       2.2955
   1977.6952       6.1390       0.0430     115.4290      92.1540       2.2880      39.3190       2.3200
   1977.8475       6.1390       0.0245     109.9859      90.3036       2.7974      35.9780       2.3716
   1978.0000       6.1390       0.0060     104.5510      88.4560       3.3060      32.6420       2.4230
