#------------------------------------------------------------------------------
#
#   Created by  : [OpenWorks] Log Export Utility (LEXP)
#   Created on  : 2016-05-23 11:50:52
#   Project     : CANT971
#   User        : R5K
#   Interpreter : PEP
#
#------------------------------------------------------------------------------
~VERSION INFORMATION
VERS. 2.0 : CWLS Log ASCII Standard - version 2.0
WRAP.  NO : One line per depth step
~WELL INFORMATION
#MNEMONIC   .UNIT                                           VALUE :DESCRIPTION
#------------------------------------------------------------------------------
STRT        .M                                           540.4100 :START DEPTH
STOP        .M                                          3242.0049 :STOP DEPTH
STEP        .M                                             0.1524 :STEP
NULL        .                                           -999.2500 :NULL VALUE
COMP        .                                   PEMEX EXPL & PROD :COMPANY
WELL        .                                                1041 :WELL
FLD         .                                           CANTARELL :FIELD
LOC         .                                             UNKNOWN :LOCATION
CNTY        .                                      CD. DEL CARMEN :COUNTY
STAT        .                                            CAMPECHE :STATE
CTRY        .                                              MEXICO :COUNTRY
SRVC        .                                             UNKNOWN :SERVICE COMPANY
DATE        .                                             UNKNOWN :LOG DATE
UWI         .                                          3060000494 :UNIQUE WELL ID
XCOORD      .                                       596162.660000 :SURFACE X
YCOORD      .                                      2150607.940000 :SURFACE Y
LAT         .                                           19.448736 :LATITUDE
LON         .                                          -92.083900 :LONGITUDE
ELEV        .M                                            30.0000 :SURFACE ELEV
ELEV_TYPE   .                                                  KB :ELEV TYPE
~CURVE INFORMATION
#MNEMONIC.UNIT        API CODE       : CURVE DESCRIPTION
#------------------------------------------------------------------------------
DEPTH    .M                          : Measured Depth
CALI     .inches      UNKNOWN        : CALI:litodensidad:rC:NONE:v0 (auto-composite)
DRHO     .g/cm3      UNKNOWN        : DRHO:DRHO-Load:rC:NONE:v0 (auto-composite)
DT       .us/ft       UNKNOWN        : DT:DT:rC:NONE:v0 (auto-composite)
GR       .API         UNKNOWN        : GR:GR-Load:rC:NONE:v0 (auto-composite)
ILD      .ohmm        UNKNOWN        : ILD:ILD-Load:rC:NONE:v0 (auto-composite)
ILM      .ohmm        UNKNOWN        : ILM:ILM-Load:rC:NONE:v0 (auto-composite)
LLD      .ohmm        UNKNOWN        : LLD:LLD-Load:rC:NONE:v0 (auto-composite)
LLS      .ohmm        UNKNOWN        : LLS:LLS-Load:rC:NONE:v0 (auto-composite)
MSFL     .ohmm        UNKNOWN        : MSFL:MSFL-Load:rC:NONE:v0 (auto-composite)
NPHI     .v/v_decimal UNKNOWN        : NPHI:NPHI-Load:rC:NONE:v0 (auto-composite)
PEF      .b/elec      UNKNOWN        : PEF:PEF-Load:rC:NONE:v0 (auto-composite)
RHOB     .g/cm3       UNKNOWN        : RHOB:RHOB-Load:rC:NONE:v0 (auto-composite)
~A     DEPTH         CALI         DRHO           DT           GR          ILD          ILM          LLD          LLS         MSFL         NPHI          PEF         RHOB
# ...
   3203.1428       6.4521    -999.2500    -999.2500      12.2724    -999.2500    -999.2500    2302.4614    2652.2124    1195.9860       0.0733    -999.2500    -999.2500
   3203.2952       6.3533    -999.2500    -999.2500      12.0852    -999.2500    -999.2500    2381.8008    2701.5344     962.1838       0.0737    -999.2500    -999.2500
   3203.4475       6.2674    -999.2500    -999.2500      13.0032    -999.2500    -999.2500    1989.2754    2220.2617     833.7554       0.0747    -999.2500    -999.2500
   3203.5999       6.2894    -999.2500    -999.2500      13.5350    -999.2500    -999.2500    1647.7279    1813.8793     876.1293       0.0763    -999.2500    -999.2500
   3203.7524       6.3743    -999.2500    -999.2500      13.6152    -999.2500    -999.2500    1569.4069    1734.4418    1117.4519       0.0763    -999.2500    -999.2500
   3203.9048       6.4208    -999.2500    -999.2500      14.1366    -999.2500    -999.2500    1510.0306    1664.7266     888.1089       0.0760    -999.2500    -999.2500
   3204.0571       6.3789    -999.2500    -999.2500      14.3049    -999.2500    -999.2500    1646.3901    1797.4791     896.4420       0.0747    -999.2500    -999.2500
   3204.2095       6.2967    -999.2500    -999.2500      14.6552    -999.2500    -999.2500    1663.1974    1827.0939     740.0853       0.0727    -999.2500    -999.2500
   3204.3621       6.3011    -999.2500    -999.2500      14.2126    -999.2500    -999.2500    1553.2197    1711.8502     737.3062       0.0707    -999.2500    -999.2500
   3204.5144       6.3852    -999.2500    -999.2500      14.3890    -999.2500    -999.2500    1480.5707    1591.1973     624.5263       0.0700    -999.2500    -999.2500
   3204.6667       6.4351    -999.2500    -999.2500      15.0107    -999.2500    -999.2500    1072.5217    1103.6531     744.8069       0.0713    -999.2500    -999.2500
   3204.8191       6.3744    -999.2500    -999.2500      15.1917    -999.2500    -999.2500     623.3671     610.6013     578.1580       0.0733    -999.2500    -999.2500
   3204.9717       6.2850    -999.2500    -999.2500      14.4545    -999.2500    -999.2500     364.6137     347.6732     389.1334       0.0753    -999.2500    -999.2500
   3205.1240       6.2859    -999.2500    -999.2500      13.6526    -999.2500    -999.2500     237.1510     224.3206     211.7273       0.0767    -999.2500    -999.2500
   3205.2764       6.4249    -999.2500    -999.2500      13.9813    -999.2500    -999.2500     206.3722     194.0711     450.0780       0.0797    -999.2500    -999.2500
   3205.4287       6.5123    -999.2500    -999.2500      14.3648    -999.2500    -999.2500     229.5041     214.0412     283.7493       0.0843    -999.2500    -999.2500
   3205.5811       6.4044    -999.2500    -999.2500      14.8163    -999.2500    -999.2500     278.3060     256.7433     316.7258       0.0873    -999.2500    -999.2500
   3205.7336       6.2893    -999.2500    -999.2500      14.3759    -999.2500    -999.2500     504.3824     445.0407     225.6566       0.0827    -999.2500    -999.2500
   3205.8860       6.2653    -999.2500    -999.2500      14.5427    -999.2500    -999.2500     855.9349     752.1536     364.9847       0.0760    -999.2500    -999.2500
   3206.0383       6.3410    -999.2500    -999.2500      14.6983    -999.2500    -999.2500    1010.5507     881.6185     646.7661       0.0727    -999.2500    -999.2500
   3206.1907       6.3931    -999.2500    -999.2500      14.7581    -999.2500    -999.2500    1014.1641     864.7499     565.8195       0.0700    -999.2500    -999.2500
   3206.3433       6.3496    -999.2500    -999.2500      14.5835    -999.2500    -999.2500     934.2999     776.6461     585.3352       0.0683    -999.2500    -999.2500
   3206.4956       6.2910    -999.2500    -999.2500      13.8809    -999.2500    -999.2500     803.1628     648.7271     381.0153       0.0667    -999.2500    -999.2500
   3206.6479       6.2707    -999.2500    -999.2500      14.2923    -999.2500    -999.2500     695.0103     541.7437     335.7466       0.0653    -999.2500    -999.2500
   3206.8003       6.3384    -999.2500    -999.2500      14.0168    -999.2500    -999.2500     683.0280     512.9454     305.7606       0.0637    -999.2500    -999.2500
   3206.9529       6.4196    -999.2500    -999.2500      13.7447    -999.2500    -999.2500     724.6293     523.2563     498.9541       0.0637    -999.2500    -999.2500
   3207.1052       6.4167    -999.2500    -999.2500      12.9914    -999.2500    -999.2500     769.1607     524.7189     444.4006       0.0633    -999.2500    -999.2500
   3207.2576       6.3617    -999.2500    -999.2500      12.5290    -999.2500    -999.2500     719.4344     459.8706     455.5188       0.0643    -999.2500    -999.2500
   3207.4099       6.3209    -999.2500    -999.2500      12.5561    -999.2500    -999.2500     346.5668     215.6327     451.0767       0.0670    -999.2500    -999.2500
   3207.5623       6.3385    -999.2500    -999.2500      11.8902    -999.2500    -999.2500     132.6221      86.0154     337.8426       0.0733    -999.2500    -999.2500
   3207.7148       6.4997    -999.2500    -999.2500      11.5867    -999.2500    -999.2500     101.3725      71.5692     131.0669       0.0866    -999.2500    -999.2500
   3207.8672       6.6012    -999.2500    -999.2500      11.3551    -999.2500    -999.2500      92.4426      70.9428     273.4398       0.1065    -999.2500    -999.2500
   3208.0195       6.5623    -999.2500    -999.2500      11.0245    -999.2500    -999.2500     135.5411     101.3335     151.5131       0.1200    -999.2500    -999.2500
   3208.1719       6.4220    -999.2500    -999.2500      11.4235    -999.2500    -999.2500     193.6987     145.0448     120.3994       0.1230    -999.2500    -999.2500
   3208.3245       6.3256    -999.2500    -999.2500      13.0913    -999.2500    -999.2500     139.7873     106.8254     108.3870       0.1237    -999.2500    -999.2500
   3208.4768       6.3388    -999.2500    -999.2500      17.1199    -999.2500    -999.2500      75.3364      58.1659     290.7515       0.1273    -999.2500    -999.2500
   3208.6292       6.4548    -999.2500    -999.2500      23.9947    -999.2500    -999.2500      47.8442      36.7013     268.6988       0.1283    -999.2500    -999.2500
   3208.7815       6.5103    -999.2500    -999.2500      32.3593    -999.2500    -999.2500      29.1272      22.1166      87.2083       0.1287    -999.2500    -999.2500
   3208.9341       6.3591    -999.2500    -999.2500      43.2557    -999.2500    -999.2500      17.7055      12.9948     205.8442       0.1283    -999.2500    -999.2500
   3209.0864       6.2777    -999.2500    -999.2500      59.2244    -999.2500    -999.2500      12.0989       8.5951     103.3292       0.1280    -999.2500    -999.2500
   3209.2388       6.2980    -999.2500    -999.2500      77.8780    -999.2500    -999.2500       8.9510       6.3019       4.0338       0.1293    -999.2500    -999.2500
   3209.3911       6.4540    -999.2500    -999.2500      90.0866    -999.2500    -999.2500       7.7238       5.4249       2.3980       0.1307    -999.2500    -999.2500
   3209.5435       6.7024    -999.2500    -999.2500      89.0604    -999.2500    -999.2500       8.1823       5.7543       3.9356       0.1297    -999.2500    -999.2500
   3209.6960       6.6288    -999.2500    -999.2500      75.7622    -999.2500    -999.2500      11.4833       8.0645      12.1743       0.1277    -999.2500    -999.2500
   3209.8484       6.4558    -999.2500    -999.2500      59.5001    -999.2500    -999.2500      22.0463      15.6028      71.2236       0.1257    -999.2500    -999.2500
   3210.0007       6.4021    -999.2500    -999.2500      45.6279    -999.2500    -999.2500      43.1833      29.4291      51.7960       0.1257    -999.2500    -999.2500
   3210.1531       6.3869    -999.2500    -999.2500      40.3239    -999.2500    -999.2500      65.7075      41.0560      54.1824       0.1260    -999.2500    -999.2500
   3210.3057       6.3823    -999.2500    -999.2500      39.5850    -999.2500    -999.2500      70.5620      41.9720      30.3751       0.1260    -999.2500    -999.2500
