#------------------------------------------------------------------------------
#
#   Created by  : [OpenWorks] Log Export Utility (LEXP)
#   Created on  : 2016-05-23 11:50:52
#   Project     : CANT971
#   User        : R5K
#   Interpreter : PEP
#
#------------------------------------------------------------------------------
~VERSION INFORMATION
VERS. 2.0 : CWLS Log ASCII Standard - version 2.0
WRAP.  NO : One line per depth step
~WELL INFORMATION
#MNEMONIC   .UNIT                                           VALUE :DESCRIPTION
#------------------------------------------------------------------------------
STRT        .M                                           540.4100 :START DEPTH
STOP        .M                                          3242.0049 :STOP DEPTH
STEP        .M                                             0.1524 :STEP
NULL        .                                           -999.2500 :NULL VALUE
COMP        .                                   PEMEX EXPL & PROD :COMPANY
WELL        .                                                1041 :WELL
FLD         .                                           CANTARELL :FIELD
LOC         .                                             UNKNOWN :LOCATION
CNTY        .                                      CD. DEL CARMEN :COUNTY
STAT        .                                            CAMPECHE :STATE
CTRY        .                                              MEXICO :COUNTRY
SRVC        .                                             UNKNOWN :SERVICE COMPANY
DATE        .                                             UNKNOWN :LOG DATE
UWI         .                                          3060000494 :UNIQUE WELL ID
XCOORD      .                                       596162.660000 :SURFACE X
YCOORD      .                                      2150607.940000 :SURFACE Y
LAT         .                                           19.448736 :LATITUDE
LON         .                                          -92.083900 :LONGITUDE
ELEV        .M                                            30.0000 :SURFACE ELEV
ELEV_TYPE   .                                                  KB :ELEV TYPE
~CURVE INFORMATION
#MNEMONIC.UNIT        API CODE       : CURVE DESCRIPTION
#------------------------------------------------------------------------------
DEPTH    .M                          : Measured Depth
CALI     .inches      UNKNOWN        : CALI:litodensidad:rC:NONE:v0 (auto-composite)
DRHO     .g/cm3      UNKNOWN        : DRHO:DRHO-Load:rC:NONE:v0 (auto-composite)
DT       .us/ft       UNKNOWN        : DT:DT:rC:NONE:v0 (auto-composite)
GR       .API         UNKNOWN        : GR:GR-Load:rC:NONE:v0 (auto-composite)
ILD      .ohmm        UNKNOWN        : ILD:ILD-Load:rC:NONE:v0 (auto-composite)
ILM      .ohmm        UNKNOWN        : ILM:ILM-Load:rC:NONE:v0 (auto-composite)
LLD      .ohmm        UNKNOWN        : LLD:LLD-Load:rC:NONE:v0 (auto-composite)
LLS      .ohmm        UNKNOWN        : LLS:LLS-Load:rC:NONE:v0 (auto-composite)
MSFL     .ohmm        UNKNOWN        : MSFL:MSFL-Load:rC:NONE:v0 (auto-composite)
NPHI     .v/v_decimal UNKNOWN        : NPHI:NPHI-Load:rC:NONE:v0 (auto-composite)
PEF      .b/elec      UNKNOWN        : PEF:PEF-Load:rC:NONE:v0 (auto-composite)
RHOB     .g/cm3       UNKNOWN        : RHOB:RHOB-Load:rC:NONE:v0 (auto-composite)
~A     DEPTH         CALI         DRHO           DT           GR          ILD          ILM          LLD          LLS         MSFL         NPHI          PEF         RHOB
# ...
   2493.5684    -999.2500       0.0510      89.9780      40.4550    -999.2500    -999.2500       4.6630       3.1200       3.0220       0.2085       3.9270       2.5300
   2493.7207    -999.2500       0.0500      90.2060      40.4230    -999.2500    -999.2500       4.6940       3.1600       3.0750       0.2097       3.8070       2.5290
   2493.8733    -999.2500       0.0490      90.4340      40.3910    -999.2500    -999.2500       4.7250       3.2010       3.1290       0.2108       3.6880       2.5290
   2494.0256    -999.2500       0.0450      90.8240      40.9120    -999.2500    -999.2500       4.6530       3.1440       3.1110       0.2198       3.6900       2.5190
   2494.1780    -999.2500       0.0400      91.2140      41.4340    -999.2500    -999.2500       4.5830       3.0890       3.0920       0.2288       3.6930       2.5080
   2494.3303    -999.2500       0.0300      93.2820      41.3120    -999.2500    -999.2500       4.4400       3.0180       3.0690       0.2327       3.6940       2.5070
   2494.4827    -999.2500       0.0300      93.2820      41.1910    -999.2500    -999.2500       4.4400       3.0180       3.0690       0.2327       3.6950       2.5070
   2494.6353    -999.2500       0.0330      91.5960      39.0280    -999.2500    -999.2500       4.4800       3.1000       3.4920       0.2211       3.7580       2.5140
   2494.7876    -999.2500       0.0350      89.9130      36.8680    -999.2500    -999.2500       4.5200       3.1840       3.9730       0.2096       3.8200       2.5210
   2494.9399    -999.2500       0.0430      86.7180      34.0480    -999.2500    -999.2500       4.6410       3.3380       4.0430       0.2018       4.0160       2.5050
   2495.0923    -999.2500       0.0510      83.5230      34.0480    -999.2500    -999.2500       4.7650       3.4990       4.1140       0.1940       4.2110       2.4900
   2495.2449    -999.2500       0.0760      77.1190      34.5030    -999.2500    -999.2500       4.9570       3.7160       4.4090       0.1851       4.2650       2.4820
   2495.3972    -999.2500       0.1000      70.7250      34.9560    -999.2500    -999.2500       5.1570       3.9460       4.7250       0.1761       4.3180       2.4750
   2495.5496    -999.2500       0.1440      73.9100      37.4920    -999.2500    -999.2500       5.0460       3.8380       5.5710       0.1808       4.1390       2.4700
   2495.7019    -999.2500       0.1440      77.0950      40.0270    -999.2500    -999.2500       4.9370       3.7320       5.5710       0.1855       3.9600       2.4650
   2495.8545    -999.2500       0.1430      87.7290      43.8800    -999.2500    -999.2500       4.6320       3.3790       4.8870       0.2106       3.8130       2.4610
   2496.0068    -999.2500       0.1420      98.3460      47.7260    -999.2500    -999.2500       4.3470       3.0590       4.2880       0.2357       3.6670       2.4580
   2496.1592    -999.2500       0.1190     106.9400      50.3160    -999.2500    -999.2500       4.1910       2.9210       2.1220       0.2568       3.6350       2.4620
   2496.3115    -999.2500       0.0970     106.9400      52.9050    -999.2500    -999.2500       4.0410       2.7880       2.1220       0.2780       3.6040       2.4620
   2496.4639    -999.2500       0.0620      88.3320      54.7760    -999.2500    -999.2500       3.7460       2.7450       2.2680       0.2894       3.4710       2.4230
   2496.6165    -999.2500       0.0280      69.6950      56.6500    -999.2500    -999.2500       3.4720       2.7010       2.4250       0.3008       3.3380       2.3830
   2496.7688    -999.2500       0.0070      80.8140      63.1450    -999.2500    -999.2500       2.8080       2.3170       2.1110       0.3258       3.2690       2.3440
   2496.9211    -999.2500       0.0070      91.9340      63.1450    -999.2500    -999.2500       2.8080       2.3170       1.8380       0.3258       3.2690       2.3040
   2497.0735    -999.2500       0.0070      96.0850      62.0100    -999.2500    -999.2500       2.8700       2.3400       1.7460       0.3181       3.2710       2.3020
   2497.2261    -999.2500       0.0080     100.2420      60.8740    -999.2500    -999.2500       2.9330       2.3640       1.6580       0.3104       3.2740       2.2990
   2497.3784    -999.2500       0.0110      89.8260      57.2170    -999.2500    -999.2500       3.1460       2.5740       1.6970       0.2809       3.5210       2.3230
   2497.5308    -999.2500       0.0140      79.4110      53.5600    -999.2500    -999.2500       3.3740       2.8030       1.7380       0.2514       3.7680       2.3470
   2497.6831    -999.2500       0.0350      72.8440      47.3740    -999.2500    -999.2500       3.9280       3.2300       3.1600       0.2072       4.0190       2.4120
   2497.8357    -999.2500       0.0550      66.2670      41.1780    -999.2500    -999.2500       4.5740       3.7240       5.7520       0.1630       4.2710       2.4770
   2497.9880    -999.2500       0.0880      68.8640      37.3140    -999.2500    -999.2500       5.1320       4.0990      11.8430       0.1495       4.2810       2.5210
   2498.1404    -999.2500       0.1220      71.4620      33.4490    -999.2500    -999.2500       5.7580       4.5110      24.3860       0.1360       4.2910       2.5650
   2498.2927    -999.2500       0.1560      75.9580      34.4210    -999.2500    -999.2500       5.6360       4.3940      27.0630       0.1551       4.1970       2.5610
   2498.4451    -999.2500       0.1900      80.4540      35.3930    -999.2500    -999.2500       5.5160       4.2800      27.0630       0.1742       4.1030       2.5610
   2498.5977    -999.2500       0.2020      82.3700      37.2860    -999.2500    -999.2500       5.0440       3.9510      11.9630       0.1880       4.0310       2.5650
   2498.7500    -999.2500       0.2130      84.2830      39.1750    -999.2500    -999.2500       4.6140       3.6480       5.2950       0.2018       3.9590       2.5690
   2498.9023    -999.2500       0.1770      84.9780      40.9910    -999.2500    -999.2500       4.4210       3.6900       3.4260       0.2087       3.8770       2.5820
   2499.0547    -999.2500       0.1420      85.6740      40.9910    -999.2500    -999.2500       4.4210       3.7330       3.4260       0.2156       3.7950       2.5820
   2499.2073    -999.2500       0.0960      85.8940      40.0990    -999.2500    -999.2500       4.7270       4.0750       3.7620       0.2185       3.7510       2.5640
   2499.3596    -999.2500       0.0500      86.1130      39.2080    -999.2500    -999.2500       5.0540       4.4480       4.1300       0.2213       3.7070       2.5470
   2499.5120    -999.2500       0.0280      84.2960      42.2560    -999.2500    -999.2500       4.9680       4.4470       3.3830       0.2213       3.8430       2.5110
   2499.6643    -999.2500       0.0280      82.4790      42.2560    -999.2500    -999.2500       4.8840       4.4460       3.3830       0.2213       3.9790       2.5110
   2499.8169    -999.2500       0.0370      80.6300      41.1320    -999.2500    -999.2500       4.7450       4.4240       4.2490       0.2089       4.0780       2.5170
   2499.9692    -999.2500       0.0460      78.7850      40.0100    -999.2500    -999.2500       4.6100       4.4010       5.3360       0.1966       4.1770       2.5240
   2500.1216    -999.2500       0.0610      77.5820      36.0720    -999.2500    -999.2500       5.5160       5.1210       5.8270       0.1702       4.2630       2.5210
   2500.2739    -999.2500       0.0770      76.3790      32.1340    -999.2500    -999.2500       6.5990       5.9570       6.3640       0.1439       4.2630       2.5190
   2500.4263    -999.2500       0.0990      75.8510      29.5360    -999.2500    -999.2500       8.1550       7.0450       8.2320       0.1290       4.1680       2.5180
   2500.5789    -999.2500       0.1210      75.3210      26.9340    -999.2500    -999.2500      10.0820       8.3330      10.6520       0.1140       4.0720       2.5160
   2500.7312    -999.2500       0.1450      74.5490      27.8010    -999.2500    -999.2500      10.3710       8.5170      12.1430       0.1297       3.9510       2.5450
