#------------------------------------------------------------------------------
#
#   Created by  : [OpenWorks] Log Export Utility (LEXP)
#   Created on  : 2016-05-23 11:53:36
#   Project     : CANT971
#   User        : R5K
#   Interpreter : PEP
#
#------------------------------------------------------------------------------
~VERSION INFORMATION
VERS. 2.0 : CWLS Log ASCII Standard - version 2.0
WRAP.  NO : One line per depth step
~WELL INFORMATION
#MNEMONIC   .UNIT                                           VALUE :DESCRIPTION
#------------------------------------------------------------------------------
STRT        .M                                           940.3716 :START DEPTH
STOP        .M                                          3167.2405 :STOP DEPTH
STEP        .M                                             0.1524 :STEP
NULL        .                                           -999.2500 :NULL VALUE
COMP        .                                   PEMEX EXPL & PROD :COMPANY
WELL        .                                                  24 :WELL
FLD         .                                           CANTARELL :FIELD
LOC         .                                             UNKNOWN :LOCATION
CNTY        .                                      CD. DEL CARMEN :COUNTY
STAT        .                                            CAMPECHE :STATE
CTRY        .                                              MEXICO :COUNTRY
SRVC        .                                             UNKNOWN :SERVICE COMPANY
DATE        .                                             UNKNOWN :LOG DATE
UWI         .                                          3060000153 :UNIQUE WELL ID
XCOORD      .                                       598455.290000 :SURFACE X
YCOORD      .                                      2145024.750000 :SURFACE Y
LAT         .                                           19.398172 :LATITUDE
LON         .                                          -92.062351 :LONGITUDE
ELEV        .M                                            26.5400 :SURFACE ELEV
ELEV_TYPE   .                                                  KB :ELEV TYPE
~CURVE INFORMATION
#MNEMONIC.UNIT        API CODE       : CURVE DESCRIPTION
#------------------------------------------------------------------------------
DEPTH    .M                          : Measured Depth
CALI     .inches      UNKNOWN        : CALI:Import:rC:NONE:v0 (auto-composite)
DRHO     .g/cm3       UNKNOWN        : DRHO:Import:rC:NONE:v0 (auto-composite)
DT       .us/ft       UNKNOWN        : DT:Import:rC:NONE:v0 (auto-composite)
GR       .API         UNKNOWN        : GR:Import:rC:NONE:v0 (auto-composite)
ILD      .ohm.m       UNKNOWN        : ILD:Import:rC:NONE:v0 (auto-composite)
LLD      .ohm.m       UNKNOWN        : LLD:Import:rC:NONE:v0 (auto-composite)
LLS      .ohm.m       UNKNOWN        : LLS:Import:rC:NONE:v0 (auto-composite)
MSFL     .ohm.m       UNKNOWN        : MSFL:Import:rC:NONE:v0 (auto-composite)
NPHI     .v/v_decimal UNKNOWN        : NPHI:Import:rC:NONE:v0 (auto-composite)
RHOB     .g/cm3       UNKNOWN        : RHOB:Import:rC:NONE:v0 (auto-composite)
~A     DEPTH         CALI         DRHO           DT           GR          ILD          LLD          LLS         MSFL         NPHI         RHOB
# ...
   2536.3044    -999.2500    -999.2500    -999.2500      45.7902    -999.2500      69.9760      90.0890      73.6526       0.1963    -999.2500
   2536.4568    -999.2500    -999.2500    -999.2500      38.1612    -999.2500      46.4035      71.2769      89.8700       0.1714    -999.2500
   2536.6091    -999.2500    -999.2500    -999.2500      35.5019    -999.2500      57.1133      79.9362      82.7208       0.1256    -999.2500
   2536.7615    -999.2500    -999.2500    -999.2500      33.0944    -999.2500      67.8685      87.2853      74.9636       0.0848    -999.2500
   2536.9141    -999.2500    -999.2500    -999.2500      32.7645    -999.2500      78.9992      83.8168      62.1861       0.0751    -999.2500
   2537.0664    -999.2500    -999.2500    -999.2500      32.6602    -999.2500      91.0302      82.8501      49.7818       0.0728    -999.2500
   2537.2188    -999.2500    -999.2500    -999.2500      34.4351    -999.2500     110.5608     102.7252      40.4865       0.0817    -999.2500
   2537.3711    -999.2500    -999.2500    -999.2500      36.3418    -999.2500     125.8231     117.8430      31.9540       0.0934    -999.2500
   2537.5237    -999.2500    -999.2500    -999.2500      39.2855    -999.2500     107.4860      95.5126      29.4256       0.1091    -999.2500
   2537.6760    -999.2500    -999.2500    -999.2500      41.5091    -999.2500      92.3866      77.3821      29.4436       0.1257    -999.2500
   2537.8284    -999.2500    -999.2500    -999.2500      38.0139    -999.2500     102.9956      92.5993      49.6812       0.1432    -999.2500
   2537.9807    -999.2500    -999.2500    -999.2500      34.8271    -999.2500     115.2839     111.7291      72.9120       0.1558    -999.2500
   2538.1333    -999.2500    -999.2500    -999.2500      34.1519    -999.2500     141.2451     162.7136     120.5135       0.1482    -999.2500
   2538.2856    -999.2500    -999.2500    -999.2500      33.8570    -999.2500     171.5352     221.0486     175.1559       0.1382    -999.2500
   2538.4380    -999.2500    -999.2500    -999.2500      36.6858    -999.2500     237.3837     339.7654     287.6374       0.1298    -999.2500
   2538.5903    -999.2500    -999.2500    -999.2500      39.1180    -999.2500     302.4628     460.8180     404.1247       0.1224    -999.2500
   2538.7427    -999.2500    -999.2500    -999.2500      38.2631    -999.2500     361.1640     601.2317     553.8152       0.1176    -999.2500
   2538.8953    -999.2500    -999.2500    -999.2500      37.4449    -999.2500     405.5519     702.4536     663.0023       0.1124    -999.2500
   2539.0476    -999.2500    -999.2500    -999.2500      36.9141    -999.2500     337.8154     496.6623     454.9039       0.1042    -999.2500
   2539.2000    -999.2500    -999.2500    -999.2500      36.2027    -999.2500     282.7392     316.5274     272.2285       0.0957    -999.2500
   2539.3523    -999.2500    -999.2500    -999.2500      34.0422    -999.2500     329.3281     342.4207     293.7067       0.0886    -999.2500
   2539.5049    -999.2500    -999.2500    -999.2500      31.9055    -999.2500     386.3419     385.6117     329.9875       0.0811    -999.2500
   2539.6572    -999.2500    -999.2500    -999.2500      29.9623    -999.2500     527.8113     568.9360     486.1880       0.0717    -999.2500
   2539.8096    -999.2500    -999.2500    -999.2500      28.1523    -999.2500     683.8548     753.6457     643.2730       0.0632    -999.2500
   2539.9619    -999.2500    -999.2500    -999.2500      27.4306    -999.2500     959.0179     949.6780     807.5865       0.0588    -999.2500
   2540.1145    -999.2500    -999.2500    -999.2500      26.7542    -999.2500    1206.7122    1117.7716     934.1863       0.0569    -999.2500
   2540.2668    -999.2500    -999.2500    -999.2500      26.4511    -999.2500    1227.8796    1055.4634     749.7736       0.0633    -999.2500
   2540.4192    -999.2500    -999.2500    -999.2500      26.2843    -999.2500    1219.4421     979.5572     575.0356       0.0718    -999.2500
   2540.5715    -999.2500    -999.2500    -999.2500      27.2710    -999.2500     960.4763     788.5793     482.1676       0.0850    -999.2500
   2540.7239    -999.2500    -999.2500    -999.2500      28.2580    -999.2500     709.7184     598.3832     385.4926       0.0986    -999.2500
   2540.8765    -999.2500    -999.2500    -999.2500      29.2465    -999.2500     524.5489     414.4341     258.3965       0.1114    -999.2500
   2541.0288    -999.2500    -999.2500    -999.2500      30.2807    -999.2500     350.6620     243.0387     141.4030       0.1202    -999.2500
   2541.1812    -999.2500    -999.2500    -999.2500      31.6826    -999.2500     267.7258     172.8401     105.8468       0.1129    -999.2500
   2541.3335    -999.2500    -999.2500    -999.2500      32.9862    -999.2500     190.7264     108.2918      72.4307       0.1058    -999.2500
   2541.4861    -999.2500    -999.2500    -999.2500      33.4901    -999.2500     162.0078      89.6963      56.4184       0.1081    -999.2500
   2541.6384    -999.2500    -999.2500    -999.2500      33.8965    -999.2500     135.4684      72.7898      42.2627       0.1117    -999.2500
   2541.7908    -999.2500    -999.2500    -999.2500      33.4902    -999.2500     127.1105      69.9755      43.5956       0.1162    -999.2500
   2541.9431    -999.2500    -999.2500    -999.2500      32.9195    -999.2500     120.4959      68.1588      45.5095       0.1184    -999.2500
   2542.0957    -999.2500    -999.2500    -999.2500      30.9651    -999.2500     128.5578      74.7411      52.3149       0.1109    -999.2500
   2542.2480    -999.2500    -999.2500    -999.2500      28.9817    -999.2500     136.8365      81.5992      59.1793       0.1006    -999.2500
   2542.4004    -999.2500    -999.2500    -999.2500      26.7682    -999.2500     146.8397      90.6508      66.5131       0.0841    -999.2500
   2542.5527    -999.2500    -999.2500    -999.2500      24.9744    -999.2500     157.2029     100.7694      74.1857       0.0682    -999.2500
   2542.7051    -999.2500    -999.2500    -999.2500      26.5480    -999.2500     170.4546     119.4469      84.5759       0.0577    -999.2500
   2542.8577    -999.2500    -999.2500    -999.2500      28.7035    -999.2500     180.6666     135.2674      93.1667       0.0506    -999.2500
   2543.0100    -999.2500    -999.2500    -999.2500      35.6465    -999.2500     165.8730     127.5858      86.9544       0.0548    -999.2500
   2543.1624    -999.2500    -999.2500    -999.2500      42.0434    -999.2500     154.6569     123.3203      82.8555       0.0599    -999.2500
   2543.3147    -999.2500    -999.2500    -999.2500      43.9070    -999.2500     173.1361     147.4116      96.2998       0.0641    -999.2500
   2543.4673    -999.2500    -999.2500    -999.2500      45.4379    -999.2500     196.3191     175.5381     112.0668       0.0668    -999.2500
   2543.6196    -999.2500    -999.2500    -999.2500      44.3584    -999.2500     256.4011     235.3192     146.0546       0.0644    -999.2500
   2543.7720    -999.2500    -999.2500    -999.2500      43.5927    -999.2500     324.6030     309.4858     187.3895       0.0643    -999.2500
   2543.9243    -999.2500    -999.2500    -999.2500      45.3106    -999.2500     457.0542     497.4796     286.8599       0.0766    -999.2500
   2544.0767    -999.2500    -999.2500    -999.2500      46.3834    -999.2500     582.5267     676.1437     382.9091       0.0910    -999.2500
   2544.2292    -999.2500    -999.2500    -999.2500      42.2222    -999.2500     651.3815     779.1172     451.2021       0.1080    -999.2500
   2544.3816    -999.2500    -999.2500    -999.2500      38.2367    -999.2500     686.3888     838.5123     491.7814       0.1232    -999.2500
   2544.5339    -999.2500    -999.2500    -999.2500      35.6893    -999.2500     444.3463     541.2062     305.5174       0.1285    -999.2500
   2544.6863    -999.2500    -999.2500    -999.2500      33.3719    -999.2500     225.1541     269.8659     137.8238       0.1275    -999.2500
