#------------------------------------------------------------------------------
#
#   Created by  : [OpenWorks] Log Export Utility (LEXP)
#   Created on  : 2016-05-23 11:51:57
#   Project     : CANT971
#   User        : R5K
#   Interpreter : PEP
#
#------------------------------------------------------------------------------
~VERSION INFORMATION
VERS. 2.0 : CWLS Log ASCII Standard - version 2.0
WRAP. YES : Mulitple lines per depth step
~WELL INFORMATION
#MNEMONIC   .UNIT                                           VALUE :DESCRIPTION
#------------------------------------------------------------------------------
STRT        .M                                           782.8787 :START DEPTH
STOP        .M                                          2966.0088 :STOP DEPTH
STEP        .M                                             0.1524 :STEP
NULL        .                                           -999.2500 :NULL VALUE
COMP        .                                   PEMEX EXPL & PROD :COMPANY
WELL        .                                                 178 :WELL
FLD         .                                           CANTARELL :FIELD
LOC         .                                             UNKNOWN :LOCATION
CNTY        .                                      CD. DEL CARMEN :COUNTY
STAT        .                                            CAMPECHE :STATE
CTRY        .                                              MEXICO :COUNTRY
SRVC        .                                             UNKNOWN :SERVICE COMPANY
DATE        .                                             UNKNOWN :LOG DATE
UWI         .                                          3060000702 :UNIQUE WELL ID
XCOORD      .                                       602144.590000 :SURFACE X
YCOORD      .                                      2147185.340000 :SURFACE Y
LAT         .                                           19.417512 :LATITUDE
LON         .                                          -92.027103 :LONGITUDE
ELEV        .M                                            28.1700 :SURFACE ELEV
ELEV_TYPE   .                                                  KB :ELEV TYPE
~CURVE INFORMATION
#MNEMONIC.UNIT        API CODE       : CURVE DESCRIPTION
#------------------------------------------------------------------------------
DEPTH    .M                          : Measured Depth
CALI     .inches      UNKNOWN        : CALI:registros:rC:NONE:v0 (auto-composite)
CGR      .API         UNKNOWN        : CGR:registros:rC:NONE:v0 (auto-composite)
DRHO     .g/cm3       UNKNOWN        : DRHO:registros:rC:NONE:v0 (auto-composite)
DT       .UNKNOWN     UNKNOWN        : DT:registros:rC:NONE:v0 (auto-composite)
GR       .API         UNKNOWN        : GR:registros:rC:NONE:v0 (auto-composite)
GR-LWD   .UNKNOWN     UNKNOWN        : GR-LWD:registros:rC:NONE:v0 (auto-composite)
ILD      .ohm.m       UNKNOWN        : ILD:registros:rC:NONE:v0 (auto-composite)
ILM      .ohm.m       UNKNOWN        : ILM:registros:rC:NONE:v0 (auto-composite)
LLD      .ohm.m       UNKNOWN        : LLD:registros:rC:NONE:v0 (auto-composite)
LLD-LWD  .UNKNOWN     UNKNOWN        : LLD-LWD:registros:rC:NONE:v0 (auto-composite)
LLS      .ohm.m       UNKNOWN        : LLS:registros:rC:NONE:v0 (auto-composite)
LLS-LWD  .UNKNOWN     UNKNOWN        : LLS-LWD:registros:rC:NONE:v0 (auto-composite)
MSFL     .ohm.m       UNKNOWN        : MSFL:registros:rC:NONE:v0 (auto-composite)
MSFL-LWD .UNKNOWN     UNKNOWN        : MSFL-LWD:registros:rC:NONE:v0 (auto-composite)
NPHI     .v/v_decimal UNKNOWN        : NPHI:registros:rC:NONE:v0 (auto-composite)
PEF      .b/elec      UNKNOWN        : PEF:registros:rC:NONE:v0 (auto-composite)
POTA     .wtpercent   UNKNOWN        : POTA:registros:rC:NONE:v0 (auto-composite)
RHOB     .g/cm3       UNKNOWN        : RHOB:registros:rC:NONE:v0 (auto-composite)
THOR     .ppm         UNKNOWN        : THOR:registros:rC:NONE:v0 (auto-composite)
URAN     .ppm         UNKNOWN        : URAN:registros:rC:NONE:v0 (auto-composite)
~A
# ...
   1786.1279
      11.5198       5.1654      -0.5900      56.3369      30.0883    -999.2500
    -999.2500    -999.2500     242.6850    -999.2500     140.8399    -999.2500
      11.1621    -999.2500       0.0597      15.1664       0.0018       2.1580
       0.9500       3.6883
   1786.2803
      11.6287       4.9847      -0.6020      56.4980      29.7871    -999.2500
    -999.2500    -999.2500     220.7965    -999.2500     131.7003    -999.2500
      28.8020    -999.2500       0.0583      15.0470       0.0018       2.0966
       0.9250       3.7412
   1786.4327
      11.7270       4.8445      -0.6120      56.6516      29.5780    -999.2500
    -999.2500    -999.2500     199.2287    -999.2500     122.7020    -999.2500
      43.3347    -999.2500       0.0576      14.9636       0.0018       2.0368
       0.9043       3.7908
   1786.5851
      11.7020       5.1734      -0.5990      56.7216      30.4541    -999.2500
    -999.2500    -999.2500     181.1852    -999.2500     115.2583    -999.2500
      22.2380    -999.2500       0.0591      15.2938       0.0019       1.9968
       0.9322       3.8008
   1786.7375
      11.6641       5.5166      -0.5896      56.7862      31.3317    -999.2500
    -999.2500    -999.2500     165.6682    -999.2500     109.0527    -999.2500
       4.3983    -999.2500       0.0609      15.5710       0.0020       1.9530
       0.9613       3.8076
   1786.8899
      11.4788       6.0077      -0.6216      56.7887      32.1793    -999.2500
    -999.2500    -999.2500     179.1419    -999.2500     117.0621    -999.2500
      23.9461    -999.2500       0.0620      15.2358       0.0021       1.8660
       1.0018       3.7776
   1787.0424
      11.3098       6.4462      -0.6513      56.7867      32.9372    -999.2500
    -999.2500    -999.2500     197.3839    -999.2500     127.7525    -999.2500
      51.8959    -999.2500       0.0635      14.9376       0.0022       1.7817
       1.0358       3.7535
   1787.1947
      11.3323       6.2631      -0.6553      56.7337      32.6376    -999.2500
    -999.2500    -999.2500     270.6719    -999.2500     169.3973    -999.2500
     176.8214    -999.2500       0.0667      15.0691       0.0023       1.7277
       0.9958       3.7976
   1787.3472
      11.3578       6.0712      -0.6559      56.6720      32.3874    -999.2500
    -999.2500    -999.2500     337.8534    -999.2500     207.3364    -999.2500
     288.6679    -999.2500       0.0701      15.2009       0.0023       1.6930
       0.9512       3.8442
   1787.4995
      11.4177       5.7881      -0.6168      56.5099      32.7072    -999.2500
    -999.2500    -999.2500     334.8357    -999.2500     202.6635    -999.2500
     250.0435    -999.2500       0.0727      15.3364       0.0023       1.8795
       0.8542       3.9217
   1787.6520
      11.4713       5.5301      -0.5796      56.3565      32.9709    -999.2500
    -999.2500    -999.2500     330.7185    -999.2500     196.8682    -999.2500
     207.1577    -999.2500       0.0732      15.4280       0.0023       2.0559
       0.7631       3.9940
   1787.8043
      11.4498       5.5692      -0.5626      56.3000      32.5780    -999.2500
    -999.2500    -999.2500     313.8937    -999.2500     178.0938    -999.2500
     114.9593    -999.2500       0.0679      15.0172       0.0024       2.1169
       0.7401       4.0071
   1787.9567
      11.4259       5.6150      -0.5467      56.2499      32.2623    -999.2500
    -999.2500    -999.2500     303.9131    -999.2500     162.4417    -999.2500
      36.8178    -999.2500       0.0620      14.6488       0.0025       2.1734
       0.7208       4.0202
   1788.1091
      11.3744       5.7394      -0.5432      56.2739      32.8591    -999.2500
    -999.2500    -999.2500     372.3297    -999.2500     182.6357    -999.2500
     119.3234    -999.2500       0.0577      14.7708       0.0025       2.1779
       0.7433       4.0347
   1788.2615
      11.3281       5.8627      -0.5396      56.2955      33.4754    -999.2500
    -999.2500    -999.2500     443.6362    -999.2500     204.1762    -999.2500
     190.6885    -999.2500       0.0549      14.8690       0.0025       2.1815
       0.7686       4.0499
   1788.4139
      11.3421       5.9712      -0.5341      56.2890      34.2760    -999.2500
    -999.2500    -999.2500     546.8589    -999.2500     240.7840    -999.2500
     134.5304    -999.2500       0.0556      14.6951       0.0025       2.1755
       0.8260       4.0739
   1788.5663
      11.3568       6.0811      -0.5294      56.2810      34.9502    -999.2500
    -999.2500    -999.2500     646.9323    -999.2500     275.9127    -999.2500
      94.5266    -999.2500       0.0565      14.5512       0.0024       2.1706
       0.8821       4.0907
   1788.7188
      11.3799       6.2064      -0.5349      56.2560      34.1312    -999.2500
    -999.2500    -999.2500     709.0307    -999.2500     293.4222    -999.2500
     239.6581    -999.2500       0.0555      14.7536       0.0024       2.1786
       0.9211       4.0248
   1788.8711
      11.4022       6.3382      -0.5409      56.2306      33.3473    -999.2500
    -999.2500    -999.2500     772.0239    -999.2500     311.8622    -999.2500
     388.3068    -999.2500       0.0542      14.9113       0.0025       2.1861
       0.9578       3.9563
   1789.0236
      11.4167       6.5400      -0.5519      56.2011      32.9593    -999.2500
    -999.2500    -999.2500     844.0535    -999.2500     340.6241    -999.2500
     576.8585    -999.2500       0.0530      14.5540       0.0026       2.1876
       0.9678       3.8604
   1789.1759
      11.4299       6.7198      -0.5616      56.1720      32.5528    -999.2500
    -999.2500    -999.2500     912.4274    -999.2500     368.3430    -999.2500
     727.2041    -999.2500       0.0520      14.2554       0.0027       2.1886
       0.9742       3.7687
   1789.3284
      11.4284       6.6429      -0.5571      56.1475      31.9304    -999.2500
    -999.2500    -999.2500     937.3343    -999.2500     383.4889    -999.2500
     438.3542    -999.2500       0.0514      14.6311       0.0027       2.1831
       0.9403       3.7278
   1789.4807
      11.4267       6.5629      -0.5533      56.1240      31.4140    -999.2500
    -999.2500    -999.2500     954.4559    -999.2500     395.4238    -999.2500
     176.6077    -999.2500       0.0510      14.9920       0.0027       2.1777
       0.9033       3.6885
   1789.6332
      11.4227       6.4490      -0.5568      56.1110      32.1498    -999.2500
    -999.2500    -999.2500     881.6017    -999.2500     370.1381    -999.2500
     227.7215    -999.2500       0.0509      15.1768       0.0027       2.1737
       0.8335       3.6706
   1789.7855
      11.4170       6.3070      -0.5608      56.0991      32.6357    -999.2500
    -999.2500    -999.2500     805.2091    -999.2500     342.9849    -999.2500
     264.6224    -999.2500       0.0510      15.3264       0.0027       2.1698
       0.7624       3.6503
   1789.9379
      11.3920       5.8487      -0.5713      56.1006      30.1590    -999.2500
    -999.2500    -999.2500     689.2761    -999.2500     294.7613    -999.2500
     138.6863    -999.2500       0.0517      15.0717       0.0027       2.1668
       0.6810       3.6044
   1790.0903
      11.3666       5.4158      -0.5823      56.1023      27.9228    -999.2500
    -999.2500    -999.2500     583.9319    -999.2500     251.1100    -999.2500
      24.5822    -999.2500       0.0524      14.8589       0.0027       2.1634
       0.6038       3.5649
   1790.2427
      11.3366       5.2901      -0.5977      56.1063      28.5414    -999.2500
    -999.2500    -999.2500     599.3845    -999.2500     259.6367    -999.2500
      45.4891    -999.2500       0.0529      15.1301       0.0026       2.1554
       0.5768       3.6004
   1790.3951
      11.3078       5.1608      -0.6112      56.1112      29.1991    -999.2500
    -999.2500    -999.2500     617.0514    -999.2500     270.1967    -999.2500
      86.8304    -999.2500       0.0536      15.3720       0.0025       2.1472
       0.5502       3.6421
