#------------------------------------------------------------------------------
#
#   Created by  : [OpenWorks] Log Export Utility (LEXP)
#   Created on  : 2016-05-23 11:50:56
#   Project     : CANT971
#   User        : R5K
#   Interpreter : PEP
#
#------------------------------------------------------------------------------
~VERSION INFORMATION
VERS. 2.0 : CWLS Log ASCII Standard - version 2.0
WRAP.  NO : One line per depth step
~WELL INFORMATION
#MNEMONIC   .UNIT                                           VALUE :DESCRIPTION
#------------------------------------------------------------------------------
STRT        .M                                           679.7040 :START DEPTH
STOP        .M                                          2836.1641 :STOP DEPTH
STEP        .M                                             0.1524 :STEP
NULL        .                                           -999.2500 :NULL VALUE
COMP        .                                   PEMEX EXPL & PROD :COMPANY
WELL        .                                                1044 :WELL
FLD         .                                           CANTARELL :FIELD
LOC         .                                             UNKNOWN :LOCATION
CNTY        .                                      CD. DEL CARMEN :COUNTY
STAT        .                                            CAMPECHE :STATE
CTRY        .                                              MEXICO :COUNTRY
SRVC        .                                             UNKNOWN :SERVICE COMPANY
DATE        .                                             UNKNOWN :LOG DATE
UWI         .                                          3060000497 :UNIQUE WELL ID
XCOORD      .                                       596164.320000 :SURFACE X
YCOORD      .                                      2150609.730000 :SURFACE Y
LAT         .                                           19.448753 :LATITUDE
LON         .                                          -92.083884 :LONGITUDE
ELEV        .M                                            30.0000 :SURFACE ELEV
ELEV_TYPE   .                                                  KB :ELEV TYPE
~CURVE INFORMATION
#MNEMONIC.UNIT        API CODE       : CURVE DESCRIPTION
#------------------------------------------------------------------------------
DEPTH    .M                          : Measured Depth
CALI     .inches      UNKNOWN        : CALI:litodensidad:rC:NONE:v0 (auto-composite)
DRHO     .g/cm3       UNKNOWN        : DRHO:litodensidad:rC:NONE:v0 (auto-composite)
DT       .us/ft       UNKNOWN        : DT:DT:rC:NONE:v0 (auto-composite)
GR       .API         UNKNOWN        : GR:UNKNOWN:rC:NONE:v0 (auto-composite)
ILD      .ohm.m       UNKNOWN        : ILD:UNKNOWN:rC:NONE:v0 (auto-composite)
ILM      .ohm.m       UNKNOWN        : ILM:UNKNOWN:rC:NONE:v0 (auto-composite)
LLD      .ohm.m       UNKNOWN        : LLD:UNKNOWN:rC:NONE:v0 (auto-composite)
LLS      .ohm.m       UNKNOWN        : LLS:UNKNOWN:rC:NONE:v0 (auto-composite)
MSFL     .ohm.m       UNKNOWN        : MSFL:UNKNOWN:rC:NONE:v0 (auto-composite)
NPHI     .v/v_decimal UNKNOWN        : NPHI:NPHI:rC:NONE:v0 (auto-composite)
PEF      .b/elec      UNKNOWN        : PEF:UNKNOWN:rC:NONE:v0 (auto-composite)
RHOB     .g/cm3       UNKNOWN        : RHOB:UNKNOWN:rC:NONE:v0 (auto-composite)
~A     DEPTH         CALI         DRHO           DT           GR          ILD          ILM          LLD          LLS         MSFL         NPHI          PEF         RHOB
# ...
   2464.6128       8.7270       0.0190      69.2460     107.5130    -999.2500    -999.2500      24.5122      24.1418      28.6050       0.1616       3.4640       2.5720
   2464.7651       8.7270       0.0170      66.7658     116.4061    -999.2500    -999.2500      24.4980      24.1949      29.7488       0.1432       3.4061       2.5910
   2464.9175       8.7270       0.0150      64.2790     125.2800    -999.2500    -999.2500      24.4839      24.2482      30.8956       0.1247       3.3480       2.6100
   2465.0701       8.7270       0.0175      67.5075     121.1433    -999.2500    -999.2500      25.5051      25.1812      33.3952       0.1358       3.2486       2.6025
   2465.2224       8.7270       0.0200      70.7450     117.0150    -999.2500    -999.2500      26.5292      26.1167      35.9017       0.1470       3.1490       2.5950
   2465.3748       8.7270       0.0175      70.5303     122.6284    -999.2500    -999.2500      27.4738      26.9853      37.6176       0.1779       3.2344       2.5670
   2465.5271       8.7270       0.0150      70.3150     128.2310    -999.2500    -999.2500      28.4212      27.8565      39.3386       0.2088       3.3200       2.5390
   2465.6797       8.7270       0.0120      68.7683     127.3397    -999.2500    -999.2500      28.4480      27.9091      39.0720       0.1932       3.3110       2.5505
   2465.8320       8.7270       0.0090      67.2170     126.4500    -999.2500    -999.2500      28.4750      27.9619      38.8047       0.1776       3.3020       2.5620
   2465.9844       8.7270       0.0040      69.6512     123.8869    -999.2500    -999.2500      27.5493      27.1726      36.9905       0.1946       3.3664       2.5405
   2466.1367       8.7270      -0.0010      72.0930     121.3280    -999.2500    -999.2500      26.6208      26.3808      35.1706       0.2117       3.4310       2.5190
   2466.2891       8.7270      -0.0045      72.0511     119.2324    -999.2500    -999.2500      25.9068      25.8025      34.0235       0.2029       3.4859       2.5285
   2466.4417       8.7270      -0.0080      72.0090     117.1400    -999.2500    -999.2500      25.1905      25.2222      32.8727       0.1941       3.5410       2.5380
   2466.5940       8.7270      -0.0065      71.1849     116.3975    -999.2500    -999.2500      25.6218      25.6873      33.2201       0.1770       3.4591       2.5505
   2466.7463       8.7270      -0.0050      70.3580     115.6560    -999.2500    -999.2500      26.0545      26.1540      33.5687       0.1599       3.3770       2.5630
   2466.8987       8.7270      -0.0010      69.3270     112.1072    -999.2500    -999.2500      27.2856      27.3338      35.2551       0.1604       3.2316       2.5715
   2467.0513       8.7270       0.0030      68.2940     108.5630    -999.2500    -999.2500      28.5191      28.5159      36.9447       0.1609       3.0860       2.5800
   2467.2036       8.7270       0.0065      67.8824     100.6591    -999.2500    -999.2500      28.9683      28.9311      38.1961       0.1659       3.1200       2.5855
   2467.3560       8.7270       0.0100      67.4700      92.7770    -999.2500    -999.2500      29.4184      29.3471      39.4500       0.1709       3.1540       2.5910
   2467.5083       8.7270       0.0110      66.2838      93.9255    -999.2500    -999.2500      28.5257      28.4621      38.9698       0.1642       3.1365       2.5975
   2467.6609       8.7270       0.0120      65.0950      95.0710    -999.2500    -999.2500      27.6311      27.5752      38.4887       0.1574       3.1190       2.6040
   2467.8132       8.7275       0.0150      65.4181      98.0242    -999.2500    -999.2500      26.0904      26.0352      38.4606       0.1472       3.1280       2.6190
   2467.9656       8.7280       0.0180      65.7420     100.9700    -999.2500    -999.2500      24.5460      24.4916      38.4325       0.1370       3.1370       2.6340
   2468.1179       8.7445       0.0160      65.6936      99.7791    -999.2500    -999.2500      23.7416      23.6423      41.4198       0.1380       3.1305       2.6295
   2468.2703       8.7610       0.0140      65.6450      98.5910    -999.2500    -999.2500      22.9352      22.7909      44.4143       0.1391       3.1240       2.6250
   2468.4229       8.7770       0.0155      65.0547      95.5696    -999.2500    -999.2500      22.6689      22.5103      45.5427       0.1365       3.1070       2.6290
   2468.5752       8.7930       0.0170      64.4630      92.5550    -999.2500    -999.2500      22.4019      22.2291      46.6739       0.1340       3.0900       2.6330
   2468.7275       8.8329       0.0155      63.3924      90.2055    -999.2500    -999.2500      22.0705      21.9853      46.2347       0.1279       3.1080       2.6320
   2468.8799       8.8730       0.0140      62.3190      87.8610    -999.2500    -999.2500      21.7382      21.7409      45.7944       0.1218       3.1260       2.6310
   2469.0325       8.8645       0.0120      61.1172      91.9501    -999.2500    -999.2500      21.3405      21.4539      42.1202       0.1125       3.1794       2.6430
   2469.1848       8.8560       0.0100      59.9120      96.0310    -999.2500    -999.2500      20.9417      21.1662      38.4357       0.1032       3.2330       2.6550
   2469.3372       8.8081       0.0090      58.7357     102.2804    -999.2500    -999.2500      20.8530      21.1919      34.8860       0.0921       3.2210       2.6840
   2469.4895       8.7600       0.0080      57.5560     108.5180    -999.2500    -999.2500      20.7641      21.2177      31.3259       0.0810       3.2090       2.7130
   2469.6421       8.7645       0.0070      57.8995     107.9535    -999.2500    -999.2500      21.2153      21.7688      30.6679       0.0847       3.1556       2.7100
   2469.7944       8.7690       0.0060      58.2440     107.3900    -999.2500    -999.2500      21.6678      22.3217      30.0079       0.0885       3.1020       2.7070
   2469.9468       8.7675       0.0050      57.9754     103.5839    -999.2500    -999.2500      23.0668      23.8063      31.1968       0.0969       3.1045       2.6870
   2470.0991       8.7660       0.0040      57.7060      99.7840    -999.2500    -999.2500      24.4703      25.2955      32.3895       0.1054       3.1070       2.6670
   2470.2515       8.7465       0.0030      57.5143     107.9131    -999.2500    -999.2500      27.6134      28.6226      38.3373       0.1007       3.1245       2.6685
   2470.4041       8.7270       0.0020      57.3220     116.0300    -999.2500    -999.2500      30.7670      31.9607      44.3047       0.0960       3.1420       2.6700
   2470.5564       8.7270       0.0060      57.4593     112.2754    -999.2500    -999.2500      36.9853      38.6003      56.8178       0.0908       3.1265       2.6840
   2470.7087       8.7270       0.0100      57.5970     108.5260    -999.2500    -999.2500      43.2250      45.2627      69.3738       0.0855       3.1110       2.6980
   2470.8611       8.7160       0.0095      57.4961      93.1874    -999.2500    -999.2500      51.8105      54.7416      79.6395       0.0825       3.1470       2.6905
   2471.0137       8.7050       0.0090      57.3950      77.8680    -999.2500    -999.2500      60.4127      64.2391      89.9251       0.0796       3.1830       2.6830
   2471.1660       8.6840       0.0075      56.7791      80.0480    -999.2500    -999.2500      68.0907      73.1007     100.1252       0.0771       3.1515       2.6885
   2471.3184       8.6630       0.0060      56.1620      82.2220    -999.2500    -999.2500      75.7845      81.9806     110.3465       0.0747       3.1200       2.6940
   2471.4707       8.6865       0.0065      54.8639      89.8509    -999.2500    -999.2500      75.9256      82.9094     114.3312       0.0709       3.0770       2.7190
   2471.6233       8.7100       0.0070      53.5630      97.4600    -999.2500    -999.2500      76.0670      83.8403     118.3246       0.0671       3.0340       2.7440
   2471.7756       8.7000       0.0070      53.5830     109.9114    -999.2500    -999.2500      68.6943      76.3841     116.4946       0.0651       3.0595       2.7400
