#------------------------------------------------------------------------------
#
#   Created by  : [OpenWorks] Log Export Utility (LEXP)
#   Created on  : 2016-05-23 11:50:15
#   Project     : CANT971
#   User        : R5K
#   Interpreter : PEP
#
#------------------------------------------------------------------------------
~VERSION INFORMATION
VERS. 2.0 : CWLS Log ASCII Standard - version 2.0
WRAP.  NO : One line per depth step
~WELL INFORMATION
#MNEMONIC   .UNIT                                           VALUE :DESCRIPTION
#------------------------------------------------------------------------------
STRT        .M                                          2144.1199 :START DEPTH
STOP        .M                                          3100.2776 :STOP DEPTH
STEP        .M                                             0.1524 :STEP
NULL        .                                           -999.2500 :NULL VALUE
COMP        .                                   PEMEX EXPL & PROD :COMPANY
WELL        .                                               1004D :WELL
FLD         .                                           CANTARELL :FIELD
LOC         .                                             UNKNOWN :LOCATION
CNTY        .                                      CD. DEL CARMEN :COUNTY
STAT        .                                            CAMPECHE :STATE
CTRY        .                                              MEXICO :COUNTRY
SRVC        .                                             UNKNOWN :SERVICE COMPANY
DATE        .                                             UNKNOWN :LOG DATE
UWI         .                                               1004D :UNIQUE WELL ID
XCOORD      .                                       594534.600000 :SURFACE X
YCOORD      .                                      2142053.350000 :SURFACE Y
LAT         .                                           19.371510 :LATITUDE
LON         .                                          -92.099834 :LONGITUDE
ELEV        .M                                            30.0000 :SURFACE ELEV
ELEV_TYPE   .                                                  KB :ELEV TYPE
~CURVE INFORMATION
#MNEMONIC.UNIT        API CODE       : CURVE DESCRIPTION
#------------------------------------------------------------------------------
DEPTH    .M                          : Measured Depth
CALI     .in          UNKNOWN        : CALI:litodensidad:rC:NONE:v0 (auto-composite)
DRHO     .g/cm3       UNKNOWN        : DRHO:litodensidad:rC:NONE:v0 (auto-composite)
DT       .us/ft       UNKNOWN        : DT:DT-Load:rC:NONE:v0 (auto-composite)
GR       .API         UNKNOWN        : GR:TMDL:rC:NONE:v0 (auto-composite)
GR-LWD   .API         UNKNOWN        : GR-LWD:PETROWORKS:rC:NONE:v1 
ILD-LWD  .ohm.m       UNKNOWN        : ILD-LWD:resistivos-LWD:rC:NONE:v0 (auto-composite)
ILM-LWD  .ohm.m       UNKNOWN        : ILM-LWD:resistivos-LWD:rC:NONE:v0 (auto-composite)
LLD-LWD  .ohm.m       UNKNOWN        : LLD-LWD:resistivos-LWD:rC:NONE:v0 (auto-composite)
LLS      .ohm.m       UNKNOWN        : LLS:resistivos:rC:NONE:v0 (auto-composite)
LLS-LWD  .ohm.m       UNKNOWN        : LLS-LWD:resistivos-LWD:rC:NONE:v0 (auto-composite)
MSFL     .ohm.m       UNKNOWN        : MSFL:resistivos:rC:NONE:v0 (auto-composite)
MSFL-LWD .ohm.m       UNKNOWN        : MSFL-LWD:resistivos-LWD:rC:NONE:v0 (auto-composite)
NPHI     .v/v_decimal UNKNOWN        : NPHI:PETROWORKS:rC:NONE:v2 
PEF      .b/elec      UNKNOWN        : PEF:litodensidad:rC:NONE:v0 (auto-composite)
RHOB     .g/cm3       UNKNOWN        : RHOB:litodensidad:rC:NONE:v0 (auto-composite)
~A     DEPTH         CALI         DRHO           DT           GR       GR-LWD      ILD-LWD      ILM-LWD      LLD-LWD          LLS      LLS-LWD         MSFL     MSFL-LWD         NPHI          PEF         RHOB
# ...
   2500.7358       3.7845      -0.6202    -999.2500    -999.2500      30.5024    -999.2500    -999.2500       6.9946       0.1019       6.3482       0.1000       8.1336       0.0137      10.0000       1.0006
   2500.8882       3.7845      -0.6756    -999.2500    -999.2500      27.0016    -999.2500    -999.2500      19.4989       0.1007      22.5619       0.1010      23.1382       0.0144      10.0000       0.9681
   2501.0408       3.7845      -0.6974    -999.2500    -999.2500      27.7661    -999.2500    -999.2500      10.5375       0.1031      11.2518       0.0979       7.6010       0.0146      10.0000       0.9943
   2501.1931       3.7845      -0.6360    -999.2500    -999.2500      31.1871    -999.2500    -999.2500       2.8808       0.1053       2.7876       0.0909       3.2248       0.0151      10.0000       1.0272
   2501.3455       3.7845      -0.6344    -999.2500    -999.2500      35.4263    -999.2500    -999.2500       3.6068       0.1049       3.7582       0.0847       3.5518       0.0177      10.0000       1.0087
   2501.4978       3.7845      -0.6379    -999.2500    -999.2500      37.3900    -999.2500    -999.2500       4.4157       0.1019       4.1550       0.0861       3.7041       0.0186      10.0000       0.9927
   2501.6504       3.7845      -0.6836    -999.2500    -999.2500      38.7737    -999.2500    -999.2500       3.1957       0.1064       3.1579       0.0921       2.8950       0.0199      10.0000       0.9514
   2501.8027       3.7845      -0.6641    -999.2500    -999.2500      39.6274    -999.2500    -999.2500       4.4583       0.0969       4.0627       0.0948       3.7567       0.0199      10.0000       0.9461
   2501.9551       3.7939      -0.6460    -999.2500    -999.2500      40.1089    -999.2500    -999.2500       3.3689       0.1077       3.4304       0.0924       3.5556       0.0234      10.0000       0.9446
   2502.1074       3.7864      -0.6381    -999.2500    -999.2500      39.3784    -999.2500    -999.2500       3.1264       0.1011       3.1713       0.0866       3.1471       0.0272      10.0000       1.0268
   2502.2598       3.7845      -0.6498    -999.2500    -999.2500      37.8497    -999.2500    -999.2500       3.9517       0.1056       3.9164       0.0868       3.5456       0.0282      10.0000       1.0912
   2502.4124       3.7845      -0.6365    -999.2500    -999.2500      37.0615    -999.2500    -999.2500       2.9393       0.1009       3.0844       0.0856       3.3830       0.0207      10.0000       1.1335
   2502.5647       3.7845      -0.6468    -999.2500    -999.2500      36.5312    -999.2500    -999.2500       3.4581       0.1037       3.6758       0.0879       3.4228       0.0136      10.0000       1.0513
   2502.7170       3.7845      -0.6516    -999.2500    -999.2500      36.2669    -999.2500    -999.2500       3.0510       0.1006       3.1915       0.0935       3.0544       0.0129      10.0000       1.0414
   2502.8694       3.7845      -0.6650    -999.2500    -999.2500      34.6624    -999.2500    -999.2500       4.1504       0.0992       4.4070       0.0982       4.0882       0.0186      10.0000       1.1081
   2503.0220       3.7845      -0.6391    -999.2500    -999.2500      34.6011    -999.2500    -999.2500       4.4637       0.1040       4.4926       0.0999       4.2918       0.0363      10.0000       1.3267
   2503.1743       3.7845      -0.0496    -999.2500    -999.2500      36.4117    -999.2500    -999.2500       4.4926       0.1040       4.5810       0.0983       4.1876       0.0717      10.0000       2.1408
   2503.3267       3.7845       0.7591    -999.2500    -999.2500      39.1198    -999.2500    -999.2500       3.6405       0.0983       3.6660       0.0960       3.4099       0.1110      10.0000       3.1737
   2503.4790       3.7845       1.5683    -999.2500    -999.2500      39.9280    -999.2500    -999.2500       3.6236       0.1000       3.6170       0.0925       3.3802       0.1158      10.0000       4.1504
   2503.6316       3.7845       1.8168    -999.2500    -999.2500      39.0938    -999.2500    -999.2500       4.1846       0.0985       4.1266       0.0890       4.0223       0.1002      10.0000       4.4908
   2503.7839       3.7939       1.8074    -999.2500    -999.2500      38.3168    -999.2500    -999.2500       3.7951       0.1036       3.7486       0.0872       3.7627       0.0827      10.0000       4.5328
   2503.9363       3.7864       1.7887    -999.2500    -999.2500      37.7374    -999.2500    -999.2500       4.8368       0.1012       4.7746       0.0894       4.5388       0.0909      10.0000       4.5240
   2504.0886       3.7845       1.7742    -999.2500    -999.2500      37.6803    -999.2500    -999.2500       4.4125       0.1015       4.1646       0.0905       3.9645       0.1070      10.0000       4.5128
   2504.2410       3.7845       1.7971    -999.2500    -999.2500      36.7877    -999.2500    -999.2500       4.9929       0.0985       5.0456       0.0896       5.8701       0.1166      10.0000       4.5473
   2504.3936       3.7845       1.7903    -999.2500    -999.2500      34.2224    -999.2500    -999.2500      14.4522       0.1096      13.8528       0.0846      13.7510       0.1200      10.0000       4.5918
   2504.5459       3.7845       1.7848    -999.2500    -999.2500      32.8005    -999.2500    -999.2500      12.2833       0.1074      11.8345       0.0804      12.8115       0.1084      10.0000       4.6250
   2504.6982       3.7845       1.7502    -999.2500    -999.2500      35.1737    -999.2500    -999.2500       9.0823       0.1014      10.2536       0.0762       8.0861       0.0907      10.0000       4.6288
   2504.8506       3.7845       1.6999    -999.2500    -999.2500      40.8783    -999.2500    -999.2500       6.7134       0.1005       7.4465       0.0730       8.3838       0.0644      10.0000       4.6288
   2505.0032       3.7845       1.6383    -999.2500    -999.2500      48.1049    -999.2500    -999.2500       9.6938       0.1011      10.5375       0.0727       9.3673       0.0482      10.0000       4.6288
   2505.1555       3.7845       1.5995    -999.2500    -999.2500      53.5265    -999.2500    -999.2500       4.0457       0.1004       4.0436       0.0746       3.6574       0.0432      10.0000       4.6288
   2505.3079       3.7845       1.5888    -999.2500    -999.2500      52.5512    -999.2500    -999.2500       8.1418       0.1039       7.0265       0.0778       6.1621       0.0483      10.0000       4.6288
   2505.4602       3.7845       1.5741    -999.2500    -999.2500      42.8257    -999.2500    -999.2500      65.3345       0.1017      79.6014       0.0783      35.8702       0.0516      10.0000       4.6288
   2505.6128       3.7939       1.5812    -999.2500    -999.2500      29.3848    -999.2500    -999.2500     109.5011       0.1067     105.1928       0.0805      58.9548       0.0533      10.0000       4.6288
   2505.7651       3.7864       1.5699    -999.2500    -999.2500      20.4824    -999.2500    -999.2500      50.3021       0.1063      62.2705       0.0829      41.7503       0.0523      10.0000       4.6288
   2505.9175       3.7845       1.5825    -999.2500    -999.2500      17.4862    -999.2500    -999.2500     195.4009       0.1072     164.7332       0.0869      96.9840       0.0508      10.0000       4.6288
   2506.0698       3.7845       1.5817    -999.2500    -999.2500      16.9490    -999.2500    -999.2500     147.6853       0.1059     133.7667       0.0896      80.7968       0.0494      10.0000       4.5738
   2506.2222       3.7845       1.6000    -999.2500    -999.2500      16.3504    -999.2500    -999.2500     165.6177       0.1033     157.5820       0.0923     111.2353       0.0472      10.0000       4.4081
   2506.3748       3.7845       1.6817    -999.2500    -999.2500      17.1570    -999.2500    -999.2500      83.3965       0.1157      95.1701       0.0922      62.8948       0.0426      10.0000       4.2616
   2506.5271       3.7845       1.6518    -999.2500    -999.2500      18.3978    -999.2500    -999.2500     165.9983       0.1057     172.0004       0.0890     116.4075       0.0396      10.0000       4.0739
