#------------------------------------------------------------------------------
#
#   Created by  : [OpenWorks] Log Export Utility (LEXP)
#   Created on  : 2016-05-23 11:51:18
#   Project     : CANT971
#   User        : R5K
#   Interpreter : PEP
#
#------------------------------------------------------------------------------
~VERSION INFORMATION
VERS. 2.0 : CWLS Log ASCII Standard - version 2.0
WRAP.  NO : One line per depth step
~WELL INFORMATION
#MNEMONIC   .UNIT                                           VALUE :DESCRIPTION
#------------------------------------------------------------------------------
STRT        .M                                           690.7880 :START DEPTH
STOP        .M                                          2950.1179 :STOP DEPTH
STEP        .M                                             0.1524 :STEP
NULL        .                                           -999.2500 :NULL VALUE
COMP        .                                   PEMEX EXPL & PROD :COMPANY
WELL        .                                                1066 :WELL
FLD         .                                           CANTARELL :FIELD
LOC         .                                             UNKNOWN :LOCATION
CNTY        .                                      CD. DEL CARMEN :COUNTY
STAT        .                                            CAMPECHE :STATE
CTRY        .                                              MEXICO :COUNTRY
SRVC        .                                             UNKNOWN :SERVICE COMPANY
DATE        .                                             UNKNOWN :LOG DATE
UWI         .                                          3060000505 :UNIQUE WELL ID
XCOORD      .                                       596157.670000 :SURFACE X
YCOORD      .                                      2150605.920000 :SURFACE Y
LAT         .                                           19.448718 :LATITUDE
LON         .                                          -92.083948 :LONGITUDE
ELEV        .M                                            30.0000 :SURFACE ELEV
ELEV_TYPE   .                                                  KB :ELEV TYPE
~CURVE INFORMATION
#MNEMONIC.UNIT        API CODE       : CURVE DESCRIPTION
#------------------------------------------------------------------------------
DEPTH    .M                          : Measured Depth
CALI     .inches      UNKNOWN        : CALI:litodensidad:rC:NONE:v0 (auto-composite)
DRHO     .g/cm3       UNKNOWN        : DRHO:litodensidad:rC:NONE:v0 (auto-composite)
DT       .us/ft       UNKNOWN        : DT:DT:rC:NONE:v0 (auto-composite)
GR       .API         UNKNOWN        : GR:UNKNOWN:rC:NONE:v0 (auto-composite)
ILD      .ohmm        UNKNOWN        : ILD:UNKNOWN:rC:NONE:v0 (auto-composite)
ILM      .ohmm        UNKNOWN        : ILM:UNKNOWN:rC:NONE:v0 (auto-composite)
LLD      .ohmm        UNKNOWN        : LLD:UNKNOWN:rC:NONE:v0 (auto-composite)
LLS      .ohmm        UNKNOWN        : LLS:UNKNOWN:rC:NONE:v0 (auto-composite)
MSFL     .ohmm        UNKNOWN        : MSFL:UNKNOWN:rC:NONE:v0 (auto-composite)
NPHI     .v/v_decimal UNKNOWN        : NPHI:PETROWORKS:rC:NONE:v2 
PEF      .b/elec      UNKNOWN        : PEF:litodensidad:rC:NONE:v0 (auto-composite)
RHOB     .g/cm3       UNKNOWN        : RHOB:litodensidad:rC:NONE:v0 (auto-composite)
~A     DEPTH         CALI         DRHO           DT           GR          ILD          ILM          LLD          LLS         MSFL         NPHI          PEF         RHOB
# ...
   2790.2505       8.6495       0.0034      50.6631      26.3048       0.2000       0.2000      66.9123      77.1499       6.8847       0.0604       3.5421       2.8358
   2790.4028       8.6365       0.0039      51.0042      32.9111       0.2000       0.2000      54.9905      61.9469       7.5566       0.0597       3.5491       2.8383
   2790.5552       8.6330       0.0044      52.2663      44.3884       0.2000       0.2000      40.1453      44.5537       8.2530       0.0601       3.5765       2.8375
   2790.7075       8.6330       0.0049      53.8676      58.1814       0.2000       0.2000      26.2830      28.4692       8.7251       0.0620       3.6115       2.8355
   2790.8601       8.6363       0.0083      58.1903      81.5627       0.2000       0.2000      16.4904      17.8037       8.2684       0.0676       3.6155       2.8234
   2791.0125       8.6408       0.0128      63.5198     102.9669       0.2000       0.2000       8.2153       8.8029       7.6218       0.0777       3.6080       2.8074
   2791.1648       8.6416       0.0140      71.4952     116.4662       0.2000       0.2000       6.0075       6.4583       6.2166       0.0962       3.5609       2.7659
   2791.3171       8.6411       0.0140      80.4458     126.8513       0.2000       0.2000       4.5293       4.8636       5.3111       0.1177       3.4989       2.7149
   2791.4697       8.6381       0.0129      82.2058     124.5911       0.2000       0.2000       6.0134       6.3142       6.4353       0.1451       3.2185       2.5882
   2791.6221       8.6341       0.0114      81.3040     120.6231       0.2000       0.2000       7.7918       8.0587       7.7173       0.1684       2.8567       2.4332
   2791.7744       8.6330       0.0114      76.7384     109.9567       0.2000       0.2000      10.7245      10.9564       9.6190       0.1845       2.7609       2.3914
   2791.9268       8.6330       0.0119      70.8218     100.6918       0.2000       0.2000      13.1005      13.2348      11.3682       0.1945       2.7649       2.3919
   2792.0793       8.6352       0.0153      69.2433      96.9534       0.2000       0.2000      13.2810      13.0709      12.5158       0.1861       2.9383       2.4022
   2792.2317       8.6382       0.0198      69.2588      95.9584       0.2000       0.2000      12.7781      12.3176      13.4140       0.1744       3.1748       2.4162
   2792.3840       8.6510       0.0254      69.7771     105.4196       0.2000       0.2000       9.6705       9.3183      13.3608       0.1567       3.2273       2.4578
   2792.5364       8.6675       0.0314      70.4808     114.7380       0.2000       0.2000       7.0435       6.7471      12.8382       0.1407       3.2114       2.5098
   2792.6887       8.6873       0.0319      72.9320     123.5302       0.2000       0.2000       6.1880       5.7538      10.5850       0.1353       3.1247       2.5218
   2792.8413       8.7083       0.0304      76.0257     130.6142       0.2000       0.2000       5.6375       5.0383       8.8033       0.1341       3.0117       2.5188
   2792.9937       8.7187       0.0238      76.4940     131.3071       0.2000       0.2000       6.2276       5.3622       8.7858       0.1419       2.9883       2.4987
   2793.1460       8.7252       0.0153      75.9928     129.3264       0.2000       0.2000       6.8054       5.7086       8.8257       0.1514       2.9983       2.4722
   2793.2983       8.7274       0.0134      74.0965     117.6676       0.2000       0.2000       7.3383       6.1363       9.0739       0.1623       3.0385       2.4701
   2793.4509       8.7279       0.0139      71.6871     107.1034       0.2000       0.2000       7.8014       6.5265       9.1911       0.1705       3.0900       2.4771
   2793.6033       8.7324       0.0151      68.1703     100.3753       0.2000       0.2000       8.0193       6.7854       8.8493       0.1696       3.0567       2.5052
   2793.7556       8.7384       0.0166      64.2443      95.4145       0.2000       0.2000       8.2886       7.0521       8.4103       0.1637       2.9917       2.5412
   2793.9080       8.7549       0.0195      63.2216      96.6785       0.2000       0.2000       8.7388       7.3464       7.6291       0.1492       2.9900       2.6012
   2794.0605       8.7754       0.0230      63.2676      98.8748       0.2000       0.2000       8.7708       7.3268       6.9660       0.1328       3.0120       2.6703
   2794.2129       8.7959       0.0273      64.1071     104.2517       0.2000       0.2000       7.3761       6.2361       6.7058       0.1150       3.0788       2.6828
   2794.3652       8.8164       0.0318      65.2400     110.3794       0.2000       0.2000       5.9889       5.1445       6.3505       0.1014       3.1623       2.6743
   2794.5176       8.8398       0.0436      69.8155     119.1051       0.2000       0.2000       4.6281       4.0494       5.6662       0.0950       3.1042       2.6210
   2794.6699       8.8643       0.0581      75.6589     126.1653       0.2000       0.2000       3.6647       3.2605       5.0094       0.0934       2.9932       2.5510
   2794.8225       8.9180       0.0686      77.0052     127.6418       0.2000       0.2000       4.0332       3.4976       4.4453       0.1035       2.9754       2.5367
   2794.9749       8.9824       0.0775      76.6875     127.8616       0.2000       0.2000       4.4514       3.7844       4.0009       0.1153       2.9924       2.5432
   2795.1272       9.0338       0.0782      75.7088     123.9968       0.2000       0.2000       5.0312       4.2322       3.9455       0.1301       3.0501       2.5825
   2795.2795       9.0804       0.0757      74.4863     121.0614       0.2000       0.2000       5.3247       4.4675       3.8943       0.1452       3.1232       2.6340
   2795.4321       9.1068       0.0663      75.0087     121.1611       0.2000       0.2000       4.6834       4.0091       3.8572       0.1596       3.2023       2.6462
   2795.5845       9.1258       0.0543      76.1772     121.9827       0.2000       0.2000       4.0283       3.5239       3.7645       0.1751       3.2838       2.6437
   2795.7368       9.1608       0.0546      81.6366     125.1109       0.2000       0.2000       3.3288       2.9528       3.4937       0.1931       3.3355       2.6350
   2795.8892       9.2018       0.0596      88.6787     127.9089       0.2000       0.2000       2.7490       2.4674       3.1839       0.2122       3.3760       2.6240
   2796.0415       9.2720       0.0606      90.5176     129.6836       0.2000       0.2000       2.5401       2.2475       2.7531       0.2330       3.3939       2.6134
   2796.1941       9.3530       0.0601      90.4447     130.7361       0.2000       0.2000       2.4052       2.0881       2.3681       0.2533       3.4034       2.6028
   2796.3464       9.3593       0.0513      90.2456     129.5393       0.2000       0.2000       2.5004       2.1171       2.1260       0.2712       3.4293       2.5898
   2796.4988       9.3378       0.0393      90.0000     128.4335       0.2000       0.2000       2.5412       2.1255       1.9549       0.2848       3.4613       2.5758
   2796.6511       9.3331       0.0378      89.5857     127.6031       0.2000       0.2000       2.4174       2.0710       1.9989       0.2915       3.4853       2.5800
   2796.8037       9.3346       0.0403      89.1095     124.4262       0.2000       0.2000       2.3873       2.1143       2.0267       0.2974       3.5063       2.5910
   2796.9561       9.3346       0.0406      86.9460     114.0630       0.2000       0.2000       2.6445       2.4567       2.0051       0.3040       3.5440       2.5867
   2797.1084       9.3341       0.0401      84.1595     100.9847       0.2000       0.2000       3.2518       3.1003       2.0348       0.3092       3.5880       2.5767
   2797.2607       9.3089       0.0385      78.6150      79.8338       0.2000       0.2000       4.9001       4.6391       2.2167       0.3121       3.7336       2.5813
   2797.4133       9.2744       0.0365      72.0558      60.5246       0.2000       0.2000       7.4367       7.0420       2.5513       0.3102       3.9172       2.5913
