#------------------------------------------------------------------------------
#
#   Created by  : [OpenWorks] Log Export Utility (LEXP)
#   Created on  : 2016-05-23 11:52:02
#   Project     : CANT971
#   User        : R5K
#   Interpreter : PEP
#
#------------------------------------------------------------------------------
~VERSION INFORMATION
VERS. 2.0 : CWLS Log ASCII Standard - version 2.0
WRAP.  NO : One line per depth step
~WELL INFORMATION
#MNEMONIC   .UNIT                                           VALUE :DESCRIPTION
#------------------------------------------------------------------------------
STRT        .M                                           300.3808 :START DEPTH
STOP        .M                                          2575.7129 :STOP DEPTH
STEP        .M                                             0.1524 :STEP
NULL        .                                           -999.2500 :NULL VALUE
COMP        .                                   PEMEX EXPL & PROD :COMPANY
WELL        .                                                  19 :WELL
FLD         .                                           CANTARELL :FIELD
LOC         .                                             UNKNOWN :LOCATION
CNTY        .                                      CD. DEL CARMEN :COUNTY
STAT        .                                            CAMPECHE :STATE
CTRY        .                                              MEXICO :COUNTRY
SRVC        .                                             UNKNOWN :SERVICE COMPANY
DATE        .                                             UNKNOWN :LOG DATE
UWI         .                                          3060000151 :UNIQUE WELL ID
XCOORD      .                                       603362.598000 :SURFACE X
YCOORD      .                                      2145096.350000 :SURFACE Y
LAT         .                                           19.398572 :LATITUDE
LON         .                                          -92.015617 :LONGITUDE
ELEV        .M                                            27.1400 :SURFACE ELEV
ELEV_TYPE   .                                                  KB :ELEV TYPE
~CURVE INFORMATION
#MNEMONIC.UNIT        API CODE       : CURVE DESCRIPTION
#------------------------------------------------------------------------------
DEPTH    .M                          : Measured Depth
CALI     .inches      UNKNOWN        : CALI:Import:rC:NONE:v0 (auto-composite)
DRHO     .g/cm3       UNKNOWN        : DRHO:Import:rC:NONE:v0 (auto-composite)
DT       .us/ft       UNKNOWN        : DT:Import:rC:NONE:v0 (auto-composite)
GR       .API         UNKNOWN        : GR:Import:rC:NONE:v0 (auto-composite)
ILD      .ohm.m       UNKNOWN        : ILD:Import:rC:NONE:v0 (auto-composite)
LLD      .ohm.m       UNKNOWN        : LLD:Import:rC:NONE:v0 (auto-composite)
LLS      .ohm.m       UNKNOWN        : LLS:Import:rC:NONE:v0 (auto-composite)
NPHI     .v/v_decimal UNKNOWN        : NPHI:Import:rC:NONE:v0 (auto-composite)
RHOB     .g/cm3       UNKNOWN        : RHOB:RHOB-Load:rC:NONE:v0 (auto-composite)
~A     DEPTH         CALI         DRHO           DT           GR          ILD          LLD          LLS         NPHI         RHOB
# ...
   2520.8489       5.9119       0.0355    -999.2500      54.3755       0.0010       8.0356       8.3713       0.3632       2.3538
   2521.0012       5.8220       0.0140    -999.2500      53.5920       0.0010       4.1190       7.4370       0.3436       2.2950
   2521.1536       5.8000       0.0155    -999.2500      55.3069       0.0010       5.0456       5.3335       0.3164       2.3146
   2521.3059       5.7780       0.0170    -999.2500      57.0150       0.0010       5.9700       3.2350       0.2855       2.3340
   2521.4585       5.7780       0.0165    -999.2500      54.4215       0.0010       7.0788       3.6014       0.2543       2.3952
   2521.6108       5.7780       0.0160    -999.2500      51.8380       0.0010       8.1850       3.9670       0.2239       2.4560
   2521.7632       5.7094       0.0205    -999.2500      48.0334       0.0010       8.4203       4.9445       0.1952       2.5076
   2521.9155       5.6410       0.0250    -999.2500      44.2430       0.0010       8.6550       5.9200       0.1725       2.5590
   2522.0681       5.5984       0.0375    -999.2500      47.0941       0.0010       9.9718       5.6878       0.1605       2.5811
   2522.2205       5.5560       0.0500    -999.2500      49.9350       0.0010      11.2860       5.4560       0.1562       2.6030
   2522.3728       5.5820       0.0580    -999.2500      48.4189       0.0010      10.0974       6.7032       0.1570       2.6125
   2522.5251       5.6080       0.0660    -999.2500      46.9080       0.0010       8.9110       7.9480       0.1582       2.6220
   2522.6775       5.6731       0.0495    -999.2500      41.6407       0.0010       7.9346       7.5867       0.1553       2.6401
   2522.8301       5.7380       0.0330    -999.2500      36.3910       0.0010       6.9600       7.2260       0.1512       2.6580
   2522.9824       5.7570       0.0480    -999.2500      31.8897       0.0010       8.6352       6.2177       0.1486       2.6530
   2523.1348       5.7760       0.0630    -999.2500      27.4030       0.0010      10.3050       5.2110       0.1476       2.6480
   2523.2871       5.7770       0.0885    -999.2500      25.2642       0.0010      13.8785      10.0466       0.1486       2.6214
   2523.4397       5.7780       0.1140    -999.2500      23.1320       0.0010      17.4410      14.8750       0.1511       2.5950
   2523.5920       5.7615       0.0940    -999.2500      19.6458       0.0010      15.4370      12.2362       0.1549       2.6075
   2523.7444       5.7450       0.0740    -999.2500      16.1700       0.0010      13.4390       9.6010       0.1605       2.6200
   2523.8967       5.6554       0.0795    -999.2500      14.6809       0.0010      38.7796      18.4010       0.1687       2.6360
   2524.0493       5.5660       0.0850    -999.2500      13.1960       0.0010      64.0480      27.1900       0.1746       2.6520
   2524.2017       5.5139       0.1115    -999.2500      15.2543       0.0010     152.2142      69.8397       0.1736       2.6360
   2524.3540       5.4620       0.1380    -999.2500      17.3070       0.0010     240.1400     112.3730       0.1710       2.6200
   2524.5063       5.4530       0.1325    -999.2500      18.9116       0.0010     185.6627     152.5032       0.1722       2.5829
   2524.6587       5.4440       0.1270    -999.2500      20.5120       0.0010     131.3270     192.5290       0.1741       2.5460
   2524.8113       5.4440       0.0864    -999.2500      22.6722       0.0010      76.0510     131.4474       0.1736       2.5520
   2524.9636       5.4440       0.0460    -999.2500      24.8270       0.0010      20.9120      70.5170       0.1684       2.5580
   2525.1160       5.4565       0.0585    -999.2500      28.5293       0.0010      31.6927      46.8993       0.1558       2.6001
   2525.2683       5.4690       0.0710    -999.2500      32.2170       0.0010      42.4480      23.3370       0.1438       2.6420
   2525.4209       5.5466       0.0825    -999.2500      36.7301       0.0010      52.2925      30.7998       0.1402       2.6520
   2525.5732       5.6240       0.0940    -999.2500      41.2260       0.0010      62.1150      38.2460       0.1457       2.6620
   2525.7256       5.6891       0.0670    -999.2500      46.7011       0.0010      49.5818      46.7404       0.1616       2.6139
   2525.8779       5.7540       0.0400    -999.2500      52.1560       0.0010      37.0750      55.2170       0.1801       2.5660
   2526.0305       5.7660       0.0260    -999.2500      51.8665       0.0010      28.4805      44.4409       0.1933       2.4617
   2526.1829       5.7780       0.0120    -999.2500      51.5780       0.0010      19.9030      33.6860       0.1959       2.3580
   2526.3352       5.6969       0.0310    -999.2500      45.8256       0.0010      14.0881      24.5265       0.1816       2.3796
   2526.4875       5.6160       0.0500    -999.2500      40.0930       0.0010       8.2840      15.3840       0.1600       2.4010
   2526.6399       5.7482       0.0655    -999.2500      34.5713       0.0010       9.8058      10.6734       0.1403       2.4491
   2526.7925       5.8800       0.0810    -999.2500      29.0680       0.0010      11.3250       5.9710       0.1247       2.4970
   2526.9448       5.7773       0.0945    -999.2500      27.9662       0.0010      24.9142       7.9596       0.1160       2.4860
   2527.0972       5.6750       0.1080    -999.2500      26.8680       0.0010      38.4600       9.9450       0.1137       2.4750
   2527.2495       5.5037       0.1275    -999.2500      28.1940       0.0010      57.7261      20.7340       0.1181       2.4660
   2527.4021       5.3330       0.1470    -999.2500      29.5160       0.0010      76.9330      31.5070       0.1275       2.4570
   2527.5544       5.2369       0.1585    -999.2500      27.8991       0.0010      70.9372      50.7820       0.1404       2.4490
   2527.7068       5.1410       0.1700    -999.2500      26.2870       0.0010      64.9590      70.0310       0.1556       2.4410
   2527.8591       5.1265       0.1870    -999.2500      25.3567       0.0010      65.4156      74.9095       0.1722       2.4240
   2528.0117       5.1120       0.2040    -999.2500      24.4290       0.0010      65.8710      79.7820       0.1872       2.4070
   2528.1641       5.0900       0.1835    -999.2500      23.7401       0.0010     115.8108      83.8009       0.1973       2.4125
   2528.3164       5.0680       0.1630    -999.2500      23.0530       0.0010     165.6160      87.8090       0.1975       2.4180
   2528.4688       4.9443       0.1500    -999.2500      22.6385       0.0010     265.6115     124.0040       0.1815       2.4300
   2528.6211       4.8210       0.1370    -999.2500      22.2250       0.0010     365.3500     160.1060       0.1644       2.4420
   2528.7737       4.7109       0.1335    -999.2500      24.3211       0.0010     305.7841     256.8408       0.1607       2.4495
   2528.9260       4.6010       0.1300    -999.2500      26.4120       0.0010     246.3640     353.3390       0.1624       2.4570
   2529.0784       4.5785       0.1140    -999.2500      28.1008       0.0010     196.3175     252.7033       0.1625       2.4735
   2529.2307       4.5560       0.0980    -999.2500      29.7830       0.0010     146.3870     152.3010       0.1607       2.4900
   2529.3833       4.5560       0.0910    -999.2500      30.2374       0.0010     160.7818     162.3716       0.1564       2.5015
   2529.5356       4.5560       0.0840    -999.2500      30.6900       0.0010     175.1450     172.4200       0.1514       2.5130
   2529.6880       4.5560       0.0910    -999.2500      28.9263       0.0010     238.3799     231.9821       0.1473       2.5040
   2529.8403       4.5560       0.0980    -999.2500      27.1690       0.0010     301.4840     291.4210       0.1445       2.4950
   2529.9929       4.5550       0.1110    -999.2500      27.3408       0.0010     344.6815     309.7924       0.1437       2.4815
   2530.1453       4.5540       0.1240    -999.2500      27.5120       0.0010     387.7950     328.1280       0.1441       2.4680
