#------------------------------------------------------------------------------
#
#   Created by  : [OpenWorks] Log Export Utility (LEXP)
#   Created on  : 2016-05-23 11:57:01
#   Project     : CANT971
#   User        : R5K
#   Interpreter : PEP
#
#------------------------------------------------------------------------------
~VERSION INFORMATION
VERS. 2.0 : CWLS Log ASCII Standard - version 2.0
WRAP.  NO : One line per depth step
~WELL INFORMATION
#MNEMONIC   .UNIT                                           VALUE :DESCRIPTION
#------------------------------------------------------------------------------
STRT        .M                                           485.8514 :START DEPTH
STOP        .M                                          3526.5361 :STOP DEPTH
STEP        .M                                             0.1524 :STEP
NULL        .                                           -999.2500 :NULL VALUE
COMP        .                                   PEMEX EXPL & PROD :COMPANY
WELL        .                                                  62 :WELL
FLD         .                                           CANTARELL :FIELD
LOC         .                                             UNKNOWN :LOCATION
CNTY        .                                      CD. DEL CARMEN :COUNTY
STAT        .                                            CAMPECHE :STATE
CTRY        .                                              MEXICO :COUNTRY
SRVC        .                                             UNKNOWN :SERVICE COMPANY
DATE        .                                             UNKNOWN :LOG DATE
UWI         .                                          3060000468 :UNIQUE WELL ID
XCOORD      .                                       601711.280000 :SURFACE X
YCOORD      .                                      2142346.320000 :SURFACE Y
LAT         .                                           19.373806 :LATITUDE
LON         .                                          -92.031488 :LONGITUDE
ELEV        .M                                            24.0000 :SURFACE ELEV
ELEV_TYPE   .                                                  KB :ELEV TYPE
~CURVE INFORMATION
#MNEMONIC.UNIT        API CODE       : CURVE DESCRIPTION
#------------------------------------------------------------------------------
DEPTH    .M                          : Measured Depth
CALI     .inches      UNKNOWN        : CALI:editado:rC:NONE:v0 (auto-composite)
DRHO     .g/cm3       UNKNOWN        : DRHO:editado:rC:NONE:v0 (auto-composite)
DT       .us/ft       UNKNOWN        : DT:editado:rC:NONE:v0 (auto-composite)
GR       .API         UNKNOWN        : GR:editado:rC:NONE:v0 (auto-composite)
ILD      .ohm.m       UNKNOWN        : ILD:editado:rC:NONE:v0 (auto-composite)
ILM      .ohm.m       UNKNOWN        : ILM:editado:rC:NONE:v0 (auto-composite)
LLD      .ohm.m       UNKNOWN        : LLD:editado:rC:NONE:v0 (auto-composite)
LLS      .ohm.m       UNKNOWN        : LLS:editado:rC:NONE:v0 (auto-composite)
MSFL     .ohm.m       UNKNOWN        : MSFL:editado:rC:NONE:v0 (auto-composite)
NPHI     .v/v_decimal UNKNOWN        : NPHI:editado:rC:NONE:v0 (auto-composite)
PEF      .b/elec      UNKNOWN        : PEF:editado:rC:NONE:v0 (auto-composite)
RHOB     .g/cm3       UNKNOWN        : RHOB:editado:rC:NONE:v0 (auto-composite)
~A     DEPTH         CALI         DRHO           DT           GR          ILD          ILM          LLD          LLS         MSFL         NPHI          PEF         RHOB
# ...
   2731.6179       8.7780      -0.0170      52.8850      40.2430    -999.2500    -999.2500      93.6990      84.9190      64.3430       0.0351       4.1750       2.8000
   2731.7703       8.7780      -0.0165      52.8369      40.1568    -999.2500    -999.2500      91.5343      82.6034      65.9022       0.0349       4.3331       2.7835
   2731.9226       8.7780      -0.0160      52.7890      40.0710    -999.2500    -999.2500      89.3820      80.3010      67.4500       0.0366       4.4900       2.7670
   2732.0750       8.7780      -0.0140      52.2269      40.3781    -999.2500    -999.2500      89.7540      80.5537      64.0945       0.0395       4.4177       2.7675
   2732.2273       8.7780      -0.0120      51.6670      40.6840    -999.2500    -999.2500      90.1240      80.8050      60.7630       0.0420       4.3460       2.7680
   2732.3799       8.7971      -0.0040      51.7633      41.3433    -999.2500    -999.2500      96.7676      83.4502      48.3258       0.0420       4.3781       2.7715
   2732.5322       8.8160       0.0040      51.8590      42.0000    -999.2500    -999.2500     103.3750      86.0810      35.9760       0.0406       4.4100       2.7750
   2732.6846       8.8491       0.0030      52.0410      39.6907    -999.2500    -999.2500     103.0760      90.2333      39.3085       0.0384       4.3894       2.7845
   2732.8369       8.8820       0.0020      52.2220      37.3900    -999.2500    -999.2500     102.7790      94.3570      42.6180       0.0360       4.3690       2.7940
   2732.9895       8.8298      -0.0045      52.1573      37.6567    -999.2500    -999.2500      98.6590      91.2420     111.3514       0.0339       4.1839       2.7935
   2733.1418       8.7780      -0.0110      52.0930      37.9220    -999.2500    -999.2500      94.5670      88.1480     179.6190       0.0333       4.0000       2.7930
   2733.2942       8.7780      -0.0110      51.7206      38.5882    -999.2500    -999.2500      86.9411      81.5405     118.3802       0.0360       4.0231       2.7900
   2733.4465       8.7780      -0.0110      51.3500      39.2510    -999.2500    -999.2500      79.3660      74.9770      57.5490       0.0376       4.0460       2.7870
   2733.5991       8.7780      -0.0110      50.6733      39.8139    -999.2500    -999.2500      71.4356      67.6887      73.6676       0.0333       4.1017       2.7825
   2733.7515       8.7780      -0.0110      50.0000      40.3740    -999.2500    -999.2500      63.5570      60.4480      89.6810       0.0311       4.1570       2.7780
   2733.9038       8.7996      -0.0110      50.1088      41.1328    -999.2500    -999.2500      64.4042      61.1111      85.4931       0.0405       4.2418       2.7690
   2734.0562       8.8210      -0.0110      50.2170      41.8880    -999.2500    -999.2500      65.2460      61.7700      81.3320       0.0510       4.3260       2.7600
   2734.2085       8.8551      -0.0110      50.7954      40.3334    -999.2500    -999.2500      72.3347      68.1606      70.4291       0.0525       4.3170       2.7495
   2734.3611       8.8890      -0.0110      51.3710      38.7860    -999.2500    -999.2500      79.3790      74.5110      59.6120       0.0496       4.3080       2.7390
   2734.5134       8.8805      -0.0095      52.6038      35.7731    -999.2500    -999.2500      94.4850      88.2623      73.9641       0.0444       4.0923       2.7716
   2734.6658       8.8720      -0.0080      53.8310      32.7740    -999.2500    -999.2500     109.4980     101.9290      88.2050       0.0383       3.8780       2.8040
   2734.8181       8.8248      -0.0045      53.4020      31.4686    -999.2500    -999.2500     123.3402     113.7225      86.7379       0.0321       3.9156       2.8035
   2734.9707       8.7780      -0.0010      52.9750      30.1690    -999.2500    -999.2500     137.0990     125.4450      85.2820       0.0266       3.9530       2.8030
   2735.1230       8.7780       0.0025      51.8631      29.6970    -999.2500    -999.2500     152.3927     137.9394      68.5699       0.0230       4.1882       2.7985
   2735.2754       8.7780       0.0060      50.7560      29.2270    -999.2500    -999.2500     167.5960     150.3600      51.9830       0.0210       4.4220       2.7940
   2735.4277       8.7785      -0.0025      49.5475      28.3196    -999.2500    -999.2500     180.7741     161.3578      64.8309       0.0215       4.3317       2.7970
   2735.5803       8.7790      -0.0110      48.3440      27.4160    -999.2500    -999.2500     193.8760     172.2920      77.5840       0.0223       4.2420       2.8000
   2735.7327       8.8342      -0.0110      48.4602      27.5092    -999.2500    -999.2500     205.3500     183.2645     124.7323       0.0215       4.0518       2.7985
   2735.8850       8.8890      -0.0110      48.5760      27.6020    -999.2500    -999.2500     216.7590     194.1750     171.5390       0.0203       3.8630       2.7970
   2736.0374       8.8780      -0.0105      48.7328      28.2147    -999.2500    -999.2500     215.0523     193.4400     164.4523       0.0200       3.9097       2.8000
   2736.1897       8.8670      -0.0100      48.8890      28.8250    -999.2500    -999.2500     213.3550     192.7090     157.4160       0.0200       3.9560       2.8030
   2736.3423       8.8223      -0.0060      48.8088      30.1651    -999.2500    -999.2500     206.0041     188.0504     125.0884       0.0200       4.1261       2.8100
   2736.4946       8.7780      -0.0020      48.7290      31.5000    -999.2500    -999.2500     198.6930     183.4170      92.9870       0.0201       4.2950       2.8170
   2736.6470       8.7780      -0.0035      48.5305      29.6601    -999.2500    -999.2500     187.0595     174.4984     127.8203       0.0206       4.1590       2.8125
   2736.7993       8.7780      -0.0050      48.3330      27.8270    -999.2500    -999.2500     175.5060     165.6410     162.4140       0.0214       4.0240       2.8080
   2736.9519       8.7780      -0.0080      48.3591      27.8972    -999.2500    -999.2500     165.7250     157.7960     149.0374       0.0229       4.2287       2.7980
   2737.1042       8.7780      -0.0110      48.3850      27.9670    -999.2500    -999.2500     156.0100     150.0040     135.7510       0.0248       4.4320       2.7880
   2737.2566       8.7780      -0.0110      48.6732      28.3760    -999.2500    -999.2500     149.7332     143.3229     118.5711       0.0269       4.3823       2.7810
   2737.4089       8.7780      -0.0110      48.9600      28.7830    -999.2500    -999.2500     143.4980     136.6860     101.5050       0.0284       4.3330       2.7740
   2737.5615       8.7780      -0.0095      49.5058      29.4983    -999.2500    -999.2500     140.0659     136.7527      94.8313       0.0281       4.3596       2.7755
   2737.7139       8.7780      -0.0080      50.0490      30.2100    -999.2500    -999.2500     136.6560     136.8190      88.2010       0.0271       4.3860       2.7770
   2737.8662       8.7780      -0.0085      50.7933      31.1282    -999.2500    -999.2500     137.9185     138.4953      88.2010       0.0256       4.4713       2.7810
   2738.0186       8.7780      -0.0090      51.5340      32.0420    -999.2500    -999.2500     139.1730     140.1610      88.2010       0.0241       4.5560       2.7850
   2738.1709       8.7233      -0.0130      51.4443      33.7575    -999.2500    -999.2500     143.0311     144.3812     100.8270       0.0229       4.5084       2.7900
   2738.3235       8.6690      -0.0170      51.3550      35.4650    -999.2500    -999.2500     146.8650     148.5750     113.3540       0.0218       4.4610       2.7950
   2738.4758       8.6981      -0.0155      51.0663      34.6692    -999.2500    -999.2500     153.1663     155.0358     107.9738       0.0209       4.2298       2.7990
   2738.6282       8.7270      -0.0140      50.7790      33.8770    -999.2500    -999.2500     159.4290     161.4570     102.6350       0.0202       4.0000       2.8030
   2738.7805       8.8083      -0.0125      50.2604      32.1236    -999.2500    -999.2500     164.9791     168.4625     105.8106       0.0200       4.0201       2.8055
