#------------------------------------------------------------------------------
#
#   Created by  : [OpenWorks] Log Export Utility (LEXP)
#   Created on  : 2016-05-23 11:56:05
#   Project     : CANT971
#   User        : R5K
#   Interpreter : PEP
#
#------------------------------------------------------------------------------
~VERSION INFORMATION
VERS. 2.0 : CWLS Log ASCII Standard - version 2.0
WRAP.  NO : One line per depth step
~WELL INFORMATION
#MNEMONIC   .UNIT                                           VALUE :DESCRIPTION
#------------------------------------------------------------------------------
STRT        .M                                          1100.3549 :START DEPTH
STOP        .M                                          2766.5439 :STOP DEPTH
STEP        .M                                             0.1524 :STEP
NULL        .                                           -999.2500 :NULL VALUE
COMP        .                                   PEMEX EXPL & PROD :COMPANY
WELL        .                                                  43 :WELL
FLD         .                                           CANTARELL :FIELD
LOC         .                                             UNKNOWN :LOCATION
CNTY        .                                      CD. DEL CARMEN :COUNTY
STAT        .                                            CAMPECHE :STATE
CTRY        .                                              MEXICO :COUNTRY
SRVC        .                                             UNKNOWN :SERVICE COMPANY
DATE        .                                             UNKNOWN :LOG DATE
UWI         .                                          3060000465 :UNIQUE WELL ID
XCOORD      .                                       601717.960000 :SURFACE X
YCOORD      .                                      2142346.560000 :SURFACE Y
LAT         .                                           19.373808 :LATITUDE
LON         .                                          -92.031425 :LONGITUDE
ELEV        .M                                            24.0000 :SURFACE ELEV
ELEV_TYPE   .                                                  KB :ELEV TYPE
~CURVE INFORMATION
#MNEMONIC.UNIT        API CODE       : CURVE DESCRIPTION
#------------------------------------------------------------------------------
DEPTH    .M                          : Measured Depth
CAL      .inches      UNKNOWN        : CAL:UNKNOWN:rC:NONE:v0 (auto-composite)
CALI     .in          UNKNOWN        : CALI:UNKNOWN:rC:NONE:v0 (auto-composite)
CNL      .v/v_decimal UNKNOWN        : CNL:UNKNOWN:rC:NONE:v0 (auto-composite)
DT       .us/ft       UNKNOWN        : DT:DT:rC:NONE:v0 (auto-composite)
GR       .API         UNKNOWN        : GR:UNKNOWN:rC:NONE:v0 (auto-composite)
ILD      .ohmm        UNKNOWN        : ILD:UNKNOWN:rC:NONE:v0 (auto-composite)
ILM      .ohmm        UNKNOWN        : ILM:UNKNOWN:rC:NONE:v0 (auto-composite)
LLD      .ohmm        UNKNOWN        : LLD:UNKNOWN:rC:NONE:v0 (auto-composite)
LLS      .ohmm        UNKNOWN        : LLS:UNKNOWN:rC:NONE:v0 (auto-composite)
NPHI     .v/v_decimal UNKNOWN        : NPHI:UNKNOWN:rC:NONE:v0 (auto-composite)
PEF      .b/elec      UNKNOWN        : PEF:UNKNOWN:rC:NONE:v0 (auto-composite)
RHOB     .g/cm3       UNKNOWN        : RHOB:UNKNOWN:rC:NONE:v0 (auto-composite)
~A     DEPTH          CAL         CALI          CNL           DT           GR          ILD          ILM          LLD          LLS         NPHI          PEF         RHOB
# ...
   2695.0684    -999.2500       8.7780    -999.2500      84.1081     110.9339    -999.2500    -999.2500      76.0926      76.1460       9.7277       4.4456       2.5155
   2695.2209    -999.2500       8.7780    -999.2500      87.0227     122.8562    -999.2500    -999.2500      66.0164      66.3662      12.7194       4.4546       2.4795
   2695.3733    -999.2500       8.7780    -999.2500      89.5065     129.8417    -999.2500    -999.2500      56.4894      57.6134      15.7692       4.4786       2.4480
   2695.5256    -999.2500       8.7780    -999.2500      89.4615     114.2154    -999.2500    -999.2500      49.4774      53.5647      19.0847       4.5710       2.4370
   2695.6780    -999.2500       8.7771    -999.2500      89.0359     100.7283    -999.2500    -999.2500      44.3711      50.3535      21.3440       4.6271       2.4276
   2695.8306    -999.2500       8.7721    -999.2500      86.3604      97.0962    -999.2500    -999.2500      48.0446      51.0012      18.7367       4.5158       2.4256
   2695.9829    -999.2500       8.7591    -999.2500      83.5761      93.4473    -999.2500    -999.2500      51.2507      52.3517      16.2563       4.4347       2.4293
   2696.1353    -999.2500       8.7085    -999.2500      80.1526      89.7189    -999.2500    -999.2500      52.2671      56.9950      14.3700       4.4953       2.4594
   2696.2876    -999.2500       8.6670    -999.2500      77.2299      86.7262    -999.2500    -999.2500      53.4374      60.0694      12.9567       4.5331       2.4862
   2696.4399    -999.2500       8.6670    -999.2500      77.2709      87.0526    -999.2500    -999.2500      55.3026      56.0641      13.6774       4.4677       2.4982
   2696.5925    -999.2500       8.6660    -999.2500      77.6741      87.9720    -999.2500    -999.2500      57.9809      52.6030      14.5023       4.3897       2.5101
   2696.7449    -999.2500       8.6605    -999.2500      80.2075      91.5831    -999.2500    -999.2500      64.3496      51.6117      15.7997       4.2554       2.5216
   2696.8972    -999.2500       8.6471    -999.2500      82.5319      95.5767    -999.2500    -999.2500      70.8495      51.4422      16.7812       4.1711       2.5293
   2697.0496    -999.2500       8.5971    -999.2500      83.6178     101.3362    -999.2500    -999.2500      77.9554      55.0652      16.3049       4.3175       2.5198
   2697.2021    -999.2500       8.5560    -999.2500      84.8578     105.7863    -999.2500    -999.2500      83.6543      59.9570      16.0965       4.4385       2.5128
   2697.3545    -999.2500       8.5560    -999.2500      87.0056     104.1575    -999.2500    -999.2500      82.8206      70.7399      17.1321       4.4415       2.5173
   2697.5068    -999.2500       8.5560    -999.2500      88.1953     103.0419    -999.2500    -999.2500      79.8296      77.5113      17.7731       4.4527       2.5195
   2697.6592    -999.2500       8.5560    -999.2500      83.7772     104.3229    -999.2500    -999.2500      66.7632      65.5489      16.5716       4.5022       2.5110
   2697.8118    -999.2500       8.5560    -999.2500      80.0009     104.5850    -999.2500    -999.2500      56.2171      55.5306      15.4893       4.5310       2.5029
   2697.9641    -999.2500       8.5560    -999.2500      80.0074     100.0611    -999.2500    -999.2500      57.5112      54.6454      14.9668       4.4629       2.4963
   2698.1165    -999.2500       8.5560    -999.2500      80.4269      96.8917    -999.2500    -999.2500      58.4831      54.6357      14.7227       4.3817       2.4960
   2698.2688    -999.2500       8.5560    -999.2500      83.2657      99.9159    -999.2500    -999.2500      57.9818      58.6300      15.7523       4.2408       2.5240
   2698.4211    -999.2500       8.5560    -999.2500      84.9899     102.4458    -999.2500    -999.2500      56.8455      61.9327      16.7755       4.1360       2.5449
   2698.5737    -999.2500       8.5560    -999.2500      80.1392     102.7022    -999.2500    -999.2500      52.7882      62.0541      17.7696       4.1975       2.5329
   2698.7261    -999.2500       8.5547    -999.2500      75.9994     100.8649    -999.2500    -999.2500      49.3560      60.1021      18.0910       4.2651       2.5218
   2698.8784    -999.2500       8.5472    -999.2500      76.0294      89.3404    -999.2500    -999.2500      48.8157      48.5561      15.3002       4.3616       2.5148
   2699.0308    -999.2500       8.5324    -999.2500      76.6182      79.9918    -999.2500    -999.2500      50.0897      40.6693      13.2007       4.4426       2.5081
   2699.1833    -999.2500       8.4840    -999.2500      80.5077      80.7708    -999.2500    -999.2500      59.8083      49.8140      14.3189       4.4516       2.5031
   2699.3357    -999.2500       8.4440    -999.2500      83.8256      83.0010    -999.2500    -999.2500      67.6154      59.7401      15.3475       4.4700       2.5007
   2699.4880    -999.2500       8.4440    -999.2500      83.7886      92.1012    -999.2500    -999.2500      66.3735      73.3659      15.9527       4.5332       2.5108
   2699.6404    -999.2500       8.4440    -999.2500      83.4383     100.4911    -999.2500    -999.2500      65.9243      82.6589      16.1330       4.5981       2.5143
   2699.7930    -999.2500       8.4440    -999.2500      81.2355     105.6433    -999.2500    -999.2500      69.0885      72.2044      14.3768       4.6711       2.4883
   2699.9453    -999.2500       8.4440    -999.2500      78.8711     108.5462    -999.2500    -999.2500      73.6872      64.9696      12.8911       4.7056       2.4708
   2700.0977    -999.2500       8.4440    -999.2500      75.5576     101.1364    -999.2500    -999.2500      84.8629      72.4954      12.6457       4.5636       2.4923
   2700.2500    -999.2500       8.4554    -999.2500      72.7276      93.9921    -999.2500    -999.2500      96.5003      82.3990      12.7189       4.4423       2.5137
   2700.4023    -999.2500       8.5193    -999.2500      72.7596      88.0724    -999.2500    -999.2500     110.2673     103.2688      14.2615       4.4158       2.5347
   2700.5549    -999.2500       8.5803    -999.2500      73.0820      82.7320    -999.2500    -999.2500     122.0597     121.1525      15.7146       4.3678       2.5491
   2700.7073    -999.2500       8.6278    -999.2500      75.1121      80.1086    -999.2500    -999.2500     124.5901     125.0303      16.7482       4.2189       2.5326
   2700.8596    -999.2500       8.6655    -999.2500      77.7060      79.4422    -999.2500    -999.2500     123.4357     128.4746      17.9345       4.0907       2.5146
   2701.0120    -999.2500       8.6570    -999.2500      83.6392      88.0094    -999.2500    -999.2500     104.8948     129.8735      19.8418       4.0601       2.4895
   2701.1646    -999.2500       8.6415    -999.2500      88.7081      96.6937    -999.2500    -999.2500      87.9972     126.4573      21.4967       4.0582       2.4707
   2701.3169    -999.2500       8.5945    -999.2500      88.6881     105.9097    -999.2500    -999.2500      78.5648     101.1678      22.0050       4.1866       2.4802
   2701.4692    -999.2500       8.5560    -999.2500      87.4316     111.7897    -999.2500    -999.2500      70.5697      78.7832      21.7769       4.3289       2.4931
   2701.6216    -999.2500       8.5560    -999.2500      78.9372     102.4257    -999.2500    -999.2500      69.1425      69.6730      18.1844       4.5341       2.5216
   2701.7742    -999.2500       8.5560    -999.2500      71.6793      93.2054    -999.2500    -999.2500      69.0861      64.6319      14.8837       4.6883       2.5454
   2701.9265    -999.2500       8.5560    -999.2500      71.7088      84.6526    -999.2500    -999.2500      75.3999      78.5005      12.9396       4.6053       2.5479
   2702.0789    -999.2500       8.5560    -999.2500      72.6225      78.0809    -999.2500    -999.2500      79.0767      88.4552      11.5799       4.5288       2.5471
   2702.2312    -999.2500       8.5560    -999.2500      78.7174      80.7703    -999.2500    -999.2500      70.4269      80.1148      12.9528       4.4823       2.5306
