#------------------------------------------------------------------------------
#
#   Created by  : [OpenWorks] Log Export Utility (LEXP)
#   Created on  : 2016-05-23 11:55:51
#   Project     : CANT971
#   User        : R5K
#   Interpreter : PEP
#
#------------------------------------------------------------------------------
~VERSION INFORMATION
VERS. 2.0 : CWLS Log ASCII Standard - version 2.0
WRAP.  NO : One line per depth step
~WELL INFORMATION
#MNEMONIC   .UNIT                                           VALUE :DESCRIPTION
#------------------------------------------------------------------------------
STRT        .M                                           490.1183 :START DEPTH
STOP        .M                                          2794.5586 :STOP DEPTH
STEP        .M                                             0.1524 :STEP
NULL        .                                           -999.2500 :NULL VALUE
COMP        .                                   PEMEX EXPL & PROD :COMPANY
WELL        .                                                  41 :WELL
FLD         .                                           CANTARELL :FIELD
LOC         .                                             UNKNOWN :LOCATION
CNTY        .                                      CD. DEL CARMEN :COUNTY
STAT        .                                            CAMPECHE :STATE
CTRY        .                                              MEXICO :COUNTRY
SRVC        .                                             UNKNOWN :SERVICE COMPANY
DATE        .                                             UNKNOWN :LOG DATE
UWI         .                                          3060000463 :UNIQUE WELL ID
XCOORD      .                                       601713.000000 :SURFACE X
YCOORD      .                                      2142348.040000 :SURFACE Y
LAT         .                                           19.373822 :LATITUDE
LON         .                                          -92.031472 :LONGITUDE
ELEV        .M                                            24.0000 :SURFACE ELEV
ELEV_TYPE   .                                                  KB :ELEV TYPE
~CURVE INFORMATION
#MNEMONIC.UNIT        API CODE       : CURVE DESCRIPTION
#------------------------------------------------------------------------------
DEPTH    .M                          : Measured Depth
CALI     .inches      UNKNOWN        : CALI:Import:rC:NONE:v0 (auto-composite)
DRHO     .g/cm3       UNKNOWN        : DRHO:Import:rC:NONE:v0 (auto-composite)
DT       .us/ft       UNKNOWN        : DT:Import:rC:NONE:v0 (auto-composite)
GR       .API         UNKNOWN        : GR:Import:rC:NONE:v0 (auto-composite)
ILD      .ohm.m       UNKNOWN        : ILD:Import:rC:NONE:v0 (auto-composite)
LLD      .ohm.m       UNKNOWN        : LLD:Import:rC:NONE:v0 (auto-composite)
LLS      .ohm.m       UNKNOWN        : LLS:Import:rC:NONE:v0 (auto-composite)
NPHI     .v/v_decimal UNKNOWN        : NPHI:Import:rC:NONE:v0 (auto-composite)
PEF      .b/elec      UNKNOWN        : PEF:Import:rC:NONE:v0 (auto-composite)
RHOB     .g/cm3       UNKNOWN        : RHOB:Import:rC:NONE:v0 (auto-composite)
~A     DEPTH         CALI         DRHO           DT           GR          ILD          LLD          LLS         NPHI          PEF         RHOB
# ...
   2273.8079       8.6700       0.0210    -999.2500      52.2610    -999.2500      48.5600      38.4940       0.0565       3.9500       2.7760
   2273.9602       8.6205       0.0205    -999.2500      50.7709    -999.2500      52.3992      40.6133       0.0560       3.8195       2.7830
   2274.1128       8.5710       0.0200    -999.2500      49.2830    -999.2500      56.2390      42.7330       0.0556       3.6890       2.7900
   2274.2651       8.5130       0.0260    -999.2500      46.6773    -999.2500      61.8941      49.8664       0.0537       3.7170       2.8110
   2274.4175       8.4550       0.0320    -999.2500      44.0750    -999.2500      67.5510      57.0020       0.0528       3.7450       2.8320
   2274.5698       8.4475       0.0375    -999.2500      42.1774    -999.2500      71.3497      56.6936       0.0560       3.6710       2.8175
   2274.7222       8.4400       0.0430    -999.2500      40.2820    -999.2500      75.1500      56.3850       0.0622       3.5970       2.8030
   2274.8748       8.3920       0.0540    -999.2500      42.5037    -999.2500      63.7207      47.0831       0.0710       3.4620       2.7895
   2275.0271       8.3440       0.0650    -999.2500      44.7230    -999.2500      52.2850      37.7760       0.0797       3.3270       2.7760
   2275.1794       8.3370       0.0810    -999.2500      44.7095    -999.2500      42.6438      32.8522       0.0853       3.2245       2.7600
   2275.3318       8.3300       0.0970    -999.2500      44.6960    -999.2500      32.9960      27.9250       0.0880       3.1220       2.7440
   2275.4844       8.3300       0.1040    -999.2500      40.1572    -999.2500      34.6337      25.9303       0.0875       3.1455       2.7370
   2275.6367       8.3300       0.1110    -999.2500      35.6220    -999.2500      36.2700      23.9340       0.0865       3.1690       2.7300
   2275.7891       8.3300       0.0950    -999.2500      31.4721    -999.2500      42.2160      24.1154       0.0872       3.2355       2.7300
   2275.9414       8.3300       0.0790    -999.2500      27.3250    -999.2500      48.1580      24.2970       0.0899       3.3020       2.7300
   2276.0940       8.3300       0.0605    -999.2500      26.4888    -999.2500      47.8694      29.9090       0.0953       3.4765       2.7395
   2276.2463       8.3300       0.0420    -999.2500      25.6530    -999.2500      47.5810      35.5270       0.0995       3.6510       2.7490
   2276.3987       8.3300       0.0370    -999.2500      26.1136    -999.2500      43.8367      36.0192       0.0986       3.6190       2.7570
   2276.5510       8.3300       0.0320    -999.2500      26.5740    -999.2500      40.0940      36.5120       0.0935       3.5870       2.7650
   2276.7034       8.3300       0.0365    -999.2500      26.6370    -999.2500      35.4003      30.9562       0.0846       3.5440       2.7720
   2276.8560       8.3300       0.0410    -999.2500      26.7000    -999.2500      30.7080      25.4020       0.0742       3.5010       2.7790
   2277.0083       8.3300       0.0425    -999.2500      25.9633    -999.2500      22.6138      19.4680       0.0645       3.6870       2.7860
   2277.1606       8.3300       0.0440    -999.2500      25.2280    -999.2500      14.5210      13.5350       0.0565       3.8730       2.7930
   2277.3130       8.3300       0.0470    -999.2500      24.8367    -999.2500      15.4475      16.2451       0.0513       3.9815       2.7965
   2277.4656       8.3300       0.0500    -999.2500      24.4460    -999.2500      16.3740      18.9550       0.0483       4.0900       2.8000
   2277.6179       8.3375       0.0470    -999.2500      24.4165    -999.2500      25.9936      29.3976       0.0468       4.2860       2.7930
   2277.7703       8.3450       0.0440    -999.2500      24.3870    -999.2500      35.6140      39.8410       0.0454       4.4820       2.7860
   2277.9226       8.3900       0.0440    -999.2500      24.3435    -999.2500      51.0199      50.2519       0.0427       4.6630       2.7650
   2278.0752       8.4350       0.0440    -999.2500      24.3000    -999.2500      66.4290      60.6650       0.0398       4.8440       2.7440
   2278.2275       8.4375       0.0440    -999.2500      24.3275    -999.2500      66.1315      61.6668       0.0381       4.7200       2.7195
   2278.3799       8.4400       0.0440    -999.2500      24.3550    -999.2500      65.8340      62.6690       0.0382       4.5960       2.6950
   2278.5322       8.4400       0.0380    -999.2500      24.4170    -999.2500      59.9563      60.7249       0.0408       4.3436       2.6800
   2278.6846       8.4400       0.0320    -999.2500      24.4790    -999.2500      54.0760      58.7800       0.0443       4.0910       2.6650
   2278.8372       8.4400       0.0270    -999.2500      24.4395    -999.2500      59.2640      57.1505       0.0472       4.1080       2.6575
   2278.9895       8.4400       0.0220    -999.2500      24.4000    -999.2500      64.4550      55.5200       0.0495       4.1250       2.6500
   2279.1418       8.4400       0.0275    -999.2500      24.4110    -999.2500      52.8061      49.6181       0.0513       4.3549       2.6605
   2279.2942       8.4400       0.0330    -999.2500      24.4220    -999.2500      41.1490      43.7120       0.0530       4.5850       2.6710
   2279.4468       8.4400       0.0450    -999.2500      24.9092    -999.2500      36.5582      38.2803       0.0551       4.4154       2.6820
   2279.5991       8.4400       0.0570    -999.2500      25.3960    -999.2500      31.9710      32.8440       0.0577       4.2460       2.6930
   2279.7515       8.4400       0.0620    -999.2500      26.0312    -999.2500      30.8226      30.0234       0.0613       4.2180       2.6950
   2279.9038       8.4400       0.0670    -999.2500      26.6660    -999.2500      29.6750      27.2000       0.0649       4.1900       2.6970
   2280.0564       8.4400       0.0640    -999.2500      25.7493    -999.2500      30.4657      27.2000       0.0674       4.3510       2.6810
   2280.2087       8.4400       0.0610    -999.2500      24.8330    -999.2500      31.2560      27.2000       0.0703       4.5120       2.6650
   2280.3611       8.4400       0.0515    -999.2500      24.0408    -999.2500      30.6179      27.0805       0.0750       4.4685       2.6520
   2280.5134       8.4400       0.0420    -999.2500      23.2490    -999.2500      29.9800      26.9610       0.0795       4.4250       2.6390
   2280.6658       8.4400       0.0325    -999.2500      23.0725    -999.2500      28.4353      25.7833       0.0820       4.7625       2.6295
   2280.8184       8.4400       0.0230    -999.2500      22.8960    -999.2500      26.8910      24.6060       0.0810       5.1000       2.6200
   2280.9707       8.4400       0.0220    -999.2500      23.6226    -999.2500      24.8404      23.3894       0.0747       5.2750       2.6200
   2281.1230       8.4400       0.0210    -999.2500      24.3480    -999.2500      22.7900      22.1730       0.0662       5.4500       2.6200
   2281.2754       8.4400       0.0345    -999.2500      24.4105    -999.2500      22.1070      21.3725       0.0590       5.5390       2.6235
   2281.4280       8.4400       0.0480    -999.2500      24.4730    -999.2500      21.4240      20.5720       0.0541       5.6280       2.6270
   2281.5803       8.4400       0.0255    -999.2500      25.5193    -999.2500      22.3000      20.8125       0.0530       5.5305       2.6335
   2281.7327       8.4400       0.0030    -999.2500      26.5640    -999.2500      23.1760      21.0530       0.0551       5.4330       2.6400
   2281.8850       8.4300       0.0015    -999.2500      27.1644    -999.2500      23.6984      21.8739       0.0599       5.2495       2.6360
   2282.0376       8.4200       0.0000    -999.2500      27.7640    -999.2500      24.2210      22.6950       0.0637       5.0660       2.6320
   2282.1899       8.3750       0.0035    -999.2500      28.0177    -999.2500      25.3573      23.8833       0.0624       5.0070       2.6420
