#------------------------------------------------------------------------------
#
#   Created by  : [OpenWorks] Log Export Utility (LEXP)
#   Created on  : 2016-05-23 11:56:46
#   Project     : CANT971
#   User        : R5K
#   Interpreter : PEP
#
#------------------------------------------------------------------------------
~VERSION INFORMATION
VERS. 2.0 : CWLS Log ASCII Standard - version 2.0
WRAP.  NO : One line per depth step
~WELL INFORMATION
#MNEMONIC   .UNIT                                           VALUE :DESCRIPTION
#------------------------------------------------------------------------------
STRT        .M                                           170.6880 :START DEPTH
STOP        .M                                          2221.8396 :STOP DEPTH
STEP        .M                                             0.1524 :STEP
NULL        .                                           -999.2500 :NULL VALUE
COMP        .                                   PEMEX EXPL & PROD :COMPANY
WELL        .                                                  51 :WELL
FLD         .                                           CANTARELL :FIELD
LOC         .                                             UNKNOWN :LOCATION
CNTY        .                                      CD. DEL CARMEN :COUNTY
STAT        .                                            CAMPECHE :STATE
CTRY        .                                              MEXICO :COUNTRY
SRVC        .                                             UNKNOWN :SERVICE COMPANY
DATE        .                                             UNKNOWN :LOG DATE
UWI         .                                          3060000165 :UNIQUE WELL ID
XCOORD      .                                       599727.990000 :SURFACE X
YCOORD      .                                      2147220.270000 :SURFACE Y
LAT         .                                           19.417949 :LATITUDE
LON         .                                          -92.050116 :LONGITUDE
ELEV        .M                                            27.8000 :SURFACE ELEV
ELEV_TYPE   .                                                  KB :ELEV TYPE
~CURVE INFORMATION
#MNEMONIC.UNIT        API CODE       : CURVE DESCRIPTION
#------------------------------------------------------------------------------
DEPTH    .M                          : Measured Depth
CAL      .inches      UNKNOWN        : CAL:CAL-Load:rC:NONE:v0 (auto-composite)
DRHO     .UNKNOWN     UNKNOWN        : DRHO:DRHO-Load:rC:NONE:v0 (auto-composite)
DT       .us/ft       UNKNOWN        : DT:DT:rC:NONE:v0 (auto-composite)
GR       .UNKNOWN     UNKNOWN        : GR:GR-Load:rC:NONE:v0 (auto-composite)
ILD      .UNKNOWN     UNKNOWN        : ILD:ILD-Load:rC:NONE:v0 (auto-composite)
NPHI     .v/v_decimal UNKNOWN        : NPHI:NPHI:rC:NONE:v0 (auto-composite)
RHOB     .UNKNOWN     UNKNOWN        : RHOB:RHOB-Load:rC:NONE:v0 (auto-composite)
SN       .UNKNOWN     UNKNOWN        : SN:SN-Load:rC:NONE:v0 (auto-composite)
~A     DEPTH          CAL         DRHO           DT           GR          ILD         NPHI         RHOB           SN
# ...
    233.7816      15.1940      -0.0160     171.0530    -999.2500       0.8720    -999.2500       2.1290       0.8620
    233.9340      15.2040      -0.0135     175.6549    -999.2500       0.8770    -999.2500       2.1205       0.8630
    234.0864      15.2140      -0.0110     180.2570    -999.2500       0.8820    -999.2500       2.1120       0.8640
    234.2388      15.2615      -0.0095     177.6141    -999.2500       0.8915    -999.2500       2.1190       0.8700
    234.3912      15.3090      -0.0080     174.9710    -999.2500       0.9010    -999.2500       2.1260       0.8760
    234.5436      15.3760      -0.0225     172.2845    -999.2500       0.9120    -999.2500       2.1375       0.8840
    234.6960      15.4430      -0.0370     169.5980    -999.2500       0.9230    -999.2500       2.1490       0.8920
    234.8484      15.5125      -0.0445     175.7670    -999.2500       0.9380    -999.2500       2.1525       0.9030
    235.0008      15.5820      -0.0520     181.9360    -999.2500       0.9530    -999.2500       2.1560       0.9140
    235.1532      15.6100      -0.0485     180.2140    -999.2500       0.9710    -999.2500       2.1680       0.9245
    235.3056      15.6380      -0.0450     178.4920    -999.2500       0.9890    -999.2500       2.1800       0.9350
    235.4580      15.5500      -0.0315     176.6920    -999.2500       1.0070    -999.2500       2.2020       0.9475
    235.6104      15.4620      -0.0180     174.8920    -999.2500       1.0250    -999.2500       2.2240       0.9600
    235.7628      15.2034       0.0010     172.5345    -999.2500       1.0410    -999.2500       2.2400       0.9735
    235.9152      14.9450       0.0200     170.1770    -999.2500       1.0570    -999.2500       2.2560       0.9870
    236.0676      14.7509       0.0140     161.9460    -999.2500       1.0760    -999.2500       2.2735       0.9965
    236.2200      14.5570       0.0080     153.7150    -999.2500       1.0950    -999.2500       2.2910       1.0060
    236.3724      14.4400      -0.0000     155.6365    -999.2500       1.1110    -999.2500       2.2775       1.0205
    236.5248      14.3230      -0.0080     157.5580    -999.2500       1.1270    -999.2500       2.2640       1.0350
    236.6772      14.3455      -0.0080     161.6674    -999.2500       1.1380    -999.2500       2.2500       1.0450
    236.8296      14.3680      -0.0080     165.7770    -999.2500       1.1490    -999.2500       2.2360       1.0550
    236.9820      14.4055      -0.0010     168.8915    -999.2500       1.1455    -999.2500       2.2430       1.0620
    237.1344      14.4430       0.0060     172.0060    -999.2500       1.1420    -999.2500       2.2500       1.0690
    237.2868      14.4360       0.0030     175.3210    -999.2500       1.1505    -999.2500       2.2540       1.0680
    237.4392      14.4290       0.0000     178.6360    -999.2500       1.1590    -999.2500       2.2580       1.0670
    237.5916      14.3460       0.0090     173.5701    -999.2500       1.1895    -999.2500       2.2610       1.0590
    237.7440      14.2630       0.0180     168.5040    -999.2500       1.2200    -999.2500       2.2640       1.0510
    237.8964      14.1280       0.0095     162.6854    -999.2500       1.2300    -999.2500       2.2805       1.0630
    238.0488      13.9930       0.0010     156.8670    -999.2500       1.2400    -999.2500       2.2970       1.0750
    238.2012      14.1781      -0.0130     157.8270    -999.2500       1.2135    -999.2500       2.2845       1.0935
    238.3536      14.3630      -0.0270     158.7870    -999.2500       1.1870    -999.2500       2.2720       1.1120
    238.5060      14.4835      -0.0160     160.0295    -999.2500       1.1360    -999.2500       2.2495       1.1200
    238.6584      14.6040      -0.0050     161.2720    -999.2500       1.0850    -999.2500       2.2270       1.1280
    238.8108      14.6395      -0.0075     164.6869    -999.2500       1.0580    -999.2500       2.2355       1.1105
    238.9632      14.6750      -0.0100     168.1020    -999.2500       1.0310    -999.2500       2.2440       1.0930
    239.1156      14.6950      -0.0190     173.9403    -999.2500       1.0240    -999.2500       2.2300       1.0590
    239.2680      14.7150      -0.0280     179.7790    -999.2500       1.0170    -999.2500       2.2160       1.0250
    239.4204      14.7570      -0.0315     183.2210    -999.2500       1.0140    -999.2500       2.1945       1.0055
    239.5728      14.7990      -0.0350     186.6630    -999.2500       1.0110    -999.2500       2.1730       0.9860
    239.7252      14.8120      -0.0360     185.8690    -999.2500       1.0115    -999.2500       2.1770       0.9730
    239.8776      14.8250      -0.0370     185.0750    -999.2500       1.0120    -999.2500       2.1810       0.9600
    240.0300      14.8355      -0.0300     184.3305    -999.2500       1.0150    -999.2500       2.1885       0.9490
    240.1824      14.8460      -0.0230     183.5860    -999.2500       1.0180    -999.2500       2.1960       0.9380
    240.3348      14.8390      -0.0190     179.3589    -999.2500       1.0195    -999.2500       2.2105       0.9395
    240.4872      14.8320      -0.0150     175.1320    -999.2500       1.0210    -999.2500       2.2250       0.9410
    240.6396      14.8075      -0.0160     172.1910    -999.2500       1.0215    -999.2500       2.2195       0.9420
    240.7920      14.7830      -0.0170     169.2500    -999.2500       1.0220    -999.2500       2.2140       0.9430
    240.9444      14.6780      -0.0230     167.5400    -999.2500       1.0225    -999.2500       2.2150       0.9455
    241.0968      14.5730      -0.0290     165.8300    -999.2500       1.0230    -999.2500       2.2160       0.9480
    241.2492      14.5930      -0.0360     163.2585    -999.2500       1.0275    -999.2500       2.2285       0.9495
    241.4016      14.6130      -0.0430     160.6870    -999.2500       1.0320    -999.2500       2.2410       0.9510
    241.5540      14.6060      -0.0395     159.5535    -999.2500       1.0370    -999.2500       2.2285       0.9520
    241.7064      14.5990      -0.0360     158.4200    -999.2500       1.0420    -999.2500       2.2160       0.9530
    241.8588      14.5525      -0.0335     156.3630    -999.2500       1.0480    -999.2500       2.2170       0.9565
    242.0112      14.5060      -0.0310     154.3060    -999.2500       1.0540    -999.2500       2.2180       0.9600
    242.1636      14.4720      -0.0295     154.3060    -999.2500       1.0635    -999.2500       2.2225       0.9630
    242.3160      14.4380      -0.0280     154.3060    -999.2500       1.0730    -999.2500       2.2270       0.9660
    242.4684      14.4780      -0.0220     154.9710    -999.2500       1.0775    -999.2500       2.2285       0.9670
    242.6208      14.5180      -0.0160     155.6360    -999.2500       1.0820    -999.2500       2.2300       0.9680
    242.7732      14.5145      -0.0025     157.1875    -999.2500       1.0795    -999.2500       2.2345       0.9710
    242.9256      14.5110       0.0110     158.7390    -999.2500       1.0770    -999.2500       2.2390       0.9740
    243.0780      14.4990      -0.0010     158.4435    -999.2500       1.0715    -999.2500       2.2370       0.9755
    243.2304      14.4870      -0.0130     158.1480    -999.2500       1.0660    -999.2500       2.2350       0.9770
    243.3828      14.4320      -0.0065     160.4135    -999.2500       1.0695    -999.2500       2.2275       0.9795
    243.5352      14.3770       0.0000     162.6790    -999.2500       1.0730    -999.2500       2.2200       0.9820
    243.6876      14.3455      -0.0060     156.7691    -999.2500       1.0805    -999.2500       2.2435       0.9900
    243.8400      14.3140      -0.0120     150.8590    -999.2500       1.0880    -999.2500       2.2670       0.9980
    243.9924      14.2805      -0.0080     154.7384    -999.2500       1.0990    -999.2500       2.2625       1.0195
    244.1448      14.2470      -0.0040     158.6180    -999.2500       1.1100    -999.2500       2.2580       1.0410
