#------------------------------------------------------------------------------
#
#   Created by  : [OpenWorks] Log Export Utility (LEXP)
#   Created on  : 2016-05-23 11:57:27
#   Project     : CANT971
#   User        : R5K
#   Interpreter : PEP
#
#------------------------------------------------------------------------------
~VERSION INFORMATION
VERS. 2.0 : CWLS Log ASCII Standard - version 2.0
WRAP.  NO : One line per depth step
~WELL INFORMATION
#MNEMONIC   .UNIT                                           VALUE :DESCRIPTION
#------------------------------------------------------------------------------
STRT        .M                                           813.0000 :START DEPTH
STOP        .M                                          2589.2219 :STOP DEPTH
STEP        .M                                             0.1524 :STEP
NULL        .                                           -999.2500 :NULL VALUE
COMP        .                                   PEMEX EXPL & PROD :COMPANY
WELL        .                                                  84 :WELL
FLD         .                                           CANTARELL :FIELD
LOC         .                                             UNKNOWN :LOCATION
CNTY        .                                      CD. DEL CARMEN :COUNTY
STAT        .                                            CAMPECHE :STATE
CTRY        .                                              MEXICO :COUNTRY
SRVC        .                                             UNKNOWN :SERVICE COMPANY
DATE        .                                             UNKNOWN :LOG DATE
UWI         .                                          3060000616 :UNIQUE WELL ID
XCOORD      .                                       601709.550000 :SURFACE X
YCOORD      .                                      2142344.590000 :SURFACE Y
LAT         .                                           19.373791 :LATITUDE
LON         .                                          -92.031505 :LONGITUDE
ELEV        .M                                            24.0000 :SURFACE ELEV
ELEV_TYPE   .                                                  KB :ELEV TYPE
~CURVE INFORMATION
#MNEMONIC.UNIT        API CODE       : CURVE DESCRIPTION
#------------------------------------------------------------------------------
DEPTH    .M                          : Measured Depth
CALI     .in          UNKNOWN        : CALI:UNKNOWN:rC:NONE:v0 (auto-composite)
DRHO     .g/cm3       UNKNOWN        : DRHO:UNKNOWN:rC:NONE:v0 (auto-composite)
DT       .us/ft       UNKNOWN        : DT:DT:rC:NONE:v0 (auto-composite)
ILD      .ohmm        UNKNOWN        : ILD:UNKNOWN:rC:NONE:v0 (auto-composite)
ILM      .ohmm        UNKNOWN        : ILM:UNKNOWN:rC:NONE:v0 (auto-composite)
LLD      .ohmm        UNKNOWN        : LLD:UNKNOWN:rC:NONE:v0 (auto-composite)
LLS      .ohmm        UNKNOWN        : LLS:UNKNOWN:rC:NONE:v0 (auto-composite)
MSFL     .ohmm        UNKNOWN        : MSFL:UNKNOWN:rC:NONE:v0 (auto-composite)
NPHI     .v/v_decimal UNKNOWN        : NPHI:NPHI:rC:NONE:v0 (auto-composite)
PEF      .b/elec      UNKNOWN        : PEF:UNKNOWN:rC:NONE:v0 (auto-composite)
RG       .UNKNOWN     UNKNOWN        : RG:UNKNOWN:rC:NONE:v0 (auto-composite)
RHOB     .g/cm3       UNKNOWN        : RHOB:UNKNOWN:rC:NONE:v0 (auto-composite)
~A     DEPTH         CALI         DRHO           DT          ILD          ILM          LLD          LLS         MSFL         NPHI          PEF           RG         RHOB
# ...
   1164.1296       0.0000      -0.1000    -999.2500       0.6019       0.6411       0.0000       0.0000       0.0000    -999.2500       0.0000      49.2257       0.0000
   1164.2820       0.0000      -0.1000    -999.2500       0.6009       0.6421       0.0000       0.0000       0.0000    -999.2500       0.0000      50.8236       0.0000
   1164.4344       0.0000      -0.1000    -999.2500       0.6007       0.6433       0.0000       0.0000       0.0000    -999.2500       0.0000      52.2712       0.0000
   1164.5868       0.0000      -0.1000    -999.2500       0.6102       0.6473       0.0000       0.0000       0.0000    -999.2500       0.0000      51.6763       0.0000
   1164.7393       0.0000      -0.1000    -999.2500       0.6205       0.6523       0.0000       0.0000       0.0000    -999.2500       0.0000      51.0928       0.0000
   1164.8916       0.0000      -0.1000    -999.2500       0.6405       0.6698       0.0000       0.0000       0.0000    -999.2500       0.0000      50.6541       0.0000
   1165.0439       0.0000      -0.1000    -999.2500       0.6597       0.6873       0.0000       0.0000       0.0000    -999.2500       0.0000      50.0820       0.0000
   1165.1964       0.0000      -0.1000    -999.2500       0.6687       0.7039       0.0000       0.0000       0.0000    -999.2500       0.0000      47.9511       0.0000
   1165.3488       0.0000      -0.1000    -999.2500       0.6775       0.7186       0.0000       0.0000       0.0000    -999.2500       0.0000      46.1216       0.0000
   1165.5012       0.0000      -0.1000    -999.2500       0.6841       0.7136       0.0000       0.0000       0.0000    -999.2500       0.0000      47.5625       0.0000
   1165.6536       0.0000      -0.1000    -999.2500       0.6912       0.7094       0.0000       0.0000       0.0000    -999.2500       0.0000      48.9043       0.0000
   1165.8060       0.0000      -0.1000    -999.2500       0.7042       0.7139       0.0000       0.0000       0.0000    -999.2500       0.0000      49.2332       0.0000
   1165.9584       0.0000      -0.1000    -999.2500       0.7160       0.7188       0.0000       0.0000       0.0000    -999.2500       0.0000      49.4925       0.0000
   1166.1108       0.0000      -0.1000    -999.2500       0.7165       0.7273       0.0000       0.0000       0.0000    -999.2500       0.0000      49.0855       0.0000
   1166.2632       0.0000      -0.1000    -999.2500       0.7168       0.7350       0.0000       0.0000       0.0000    -999.2500       0.0000      48.6395       0.0000
   1166.4156       0.0000      -0.1000    -999.2500       0.7148       0.7356       0.0000       0.0000       0.0000    -999.2500       0.0000      47.8403       0.0000
   1166.5680       0.0000      -0.1000    -999.2500       0.7132       0.7358       0.0000       0.0000       0.0000    -999.2500       0.0000      47.1365       0.0000
   1166.7205       0.0000      -0.1000    -999.2500       0.7152       0.7338       0.0000       0.0000       0.0000    -999.2500       0.0000      47.2463       0.0000
   1166.8728       0.0000      -0.1000    -999.2500       0.7153       0.7296       0.0000       0.0000       0.0000    -999.2500       0.0000      47.1830       0.0000
   1167.0251       0.0000      -0.1000    -999.2500       0.6997       0.7075       0.0000       0.0000       0.0000    -999.2500       0.0000      45.7266       0.0000
   1167.1776       0.0000      -0.1000    -999.2500       0.6835       0.6857       0.0000       0.0000       0.0000    -999.2500       0.0000      44.5752       0.0000
   1167.3300       0.0000      -0.1000    -999.2500       0.6614       0.6662       0.0000       0.0000       0.0000    -999.2500       0.0000      45.7655       0.0000
   1167.4824       0.0000      -0.1000    -999.2500       0.6392       0.6465       0.0000       0.0000       0.0000    -999.2500       0.0000      46.8574       0.0000
   1167.6348       0.0000      -0.1000    -999.2500       0.6156       0.6254       0.0000       0.0000       0.0000    -999.2500       0.0000      47.2335       0.0000
   1167.7872       0.0000      -0.1000    -999.2500       0.5934       0.6062       0.0000       0.0000       0.0000    -999.2500       0.0000      47.2454       0.0000
   1167.9396       0.0000      -0.1000    -999.2500       0.5809       0.5997       0.0000       0.0000       0.0000    -999.2500       0.0000      44.7394       0.0000
   1168.0920       0.0000      -0.1000    -999.2500       0.5689       0.5933       0.0000       0.0000       0.0000    -999.2500       0.0000      42.6216       0.0000
   1168.2444       0.0000      -0.1000    -999.2500       0.5609       0.5883       0.0000       0.0000       0.0000    -999.2500       0.0000      43.0764       0.0000
   1168.3969       0.0000      -0.1000    -999.2500       0.5536       0.5835       0.0000       0.0000       0.0000    -999.2500       0.0000      43.6638       0.0000
   1168.5492       0.0000      -0.1000    -999.2500       0.5506       0.5794       0.0000       0.0000       0.0000    -999.2500       0.0000      45.0892       0.0000
   1168.7017       0.0000      -0.1000    -999.2500       0.5474       0.5754       0.0000       0.0000       0.0000    -999.2500       0.0000      46.6839       0.0000
   1168.8540       0.0000      -0.1000    -999.2500       0.5428       0.5714       0.0000       0.0000       0.0000    -999.2500       0.0000      49.2996       0.0000
   1169.0063       0.0000      -0.1000    -999.2500       0.5369       0.5662       0.0000       0.0000       0.0000    -999.2500       0.0000      51.7198       0.0000
   1169.1588       0.0000      -0.1000    -999.2500       0.5229       0.5542       0.0000       0.0000       0.0000    -999.2500       0.0000      53.0049       0.0000
   1169.3112       0.0000      -0.1000    -999.2500       0.5089       0.5422       0.0000       0.0000       0.0000    -999.2500       0.0000      53.6498       0.0000
   1169.4636       0.0000      -0.1000    -999.2500       0.4954       0.5301       0.0000       0.0000       0.0000    -999.2500       0.0000      50.7364       0.0000
   1169.6160       0.0000      -0.1000    -999.2500       0.4824       0.5187       0.0000       0.0000       0.0000    -999.2500       0.0000      48.5027       0.0000
   1169.7684       0.0000      -0.1000    -999.2500       0.4724       0.5107       0.0000       0.0000       0.0000    -999.2500       0.0000      49.9131       0.0000
   1169.9208       0.0000      -0.1000    -999.2500       0.4643       0.5036       0.0000       0.0000       0.0000    -999.2500       0.0000      51.1221       0.0000
   1170.0732       0.0000      -0.1000    -999.2500       0.4663       0.5011       0.0000       0.0000       0.0000    -999.2500       0.0000      51.2946       0.0000
   1170.2256       0.0000      -0.1000    -999.2500       0.4704       0.5019       0.0000       0.0000       0.0000    -999.2500       0.0000      50.8291       0.0000
   1170.3781       0.0000      -0.1000    -999.2500       0.4850       0.5189       0.0000       0.0000       0.0000    -999.2500       0.0000      47.2110       0.0000
   1170.5304       0.0000      -0.1000    -999.2500       0.4993       0.5357       0.0000       0.0000       0.0000    -999.2500       0.0000      44.0211       0.0000
   1170.6827       0.0000      -0.1000    -999.2500       0.5123       0.5512       0.0000       0.0000       0.0000    -999.2500       0.0000      42.8774       0.0000
   1170.8352       0.0000      -0.1000    -999.2500       0.5259       0.5651       0.0000       0.0000       0.0000    -999.2500       0.0000      42.2905       0.0000
   1170.9875       0.0000      -0.1000    -999.2500       0.5419       0.5711       0.0000       0.0000       0.0000    -999.2500       0.0000      44.2645       0.0000
   1171.1400       0.0000      -0.1000    -999.2500       0.5554       0.5754       0.0000       0.0000       0.0000    -999.2500       0.0000      46.3075       0.0000
   1171.2924       0.0000      -0.1000    -999.2500       0.5574       0.5718       0.0000       0.0000       0.0000    -999.2500       0.0000      48.6566       0.0000
