#------------------------------------------------------------------------------
#
#   Created by  : [OpenWorks] Log Export Utility (LEXP)
#   Created on  : 2016-05-23 11:51:27
#   Project     : CANT971
#   User        : R5K
#   Interpreter : PEP
#
#------------------------------------------------------------------------------
~VERSION INFORMATION
VERS. 2.0 : CWLS Log ASCII Standard - version 2.0
WRAP.  NO : One line per depth step
~WELL INFORMATION
#MNEMONIC   .UNIT                                           VALUE :DESCRIPTION
#------------------------------------------------------------------------------
STRT        .M                                           294.1315 :START DEPTH
STOP        .M                                          1758.8479 :STOP DEPTH
STEP        .M                                             0.1524 :STEP
NULL        .                                           -999.2500 :NULL VALUE
COMP        .                                   PEMEX EXPL & PROD :COMPANY
WELL        .                                                1084 :WELL
FLD         .                                           CANTARELL :FIELD
LOC         .                                             UNKNOWN :LOCATION
CNTY        .                                      CD. DEL CARMEN :COUNTY
STAT        .                                            CAMPECHE :STATE
CTRY        .                                              MEXICO :COUNTRY
SRVC        .                                             UNKNOWN :SERVICE COMPANY
DATE        .                                             UNKNOWN :LOG DATE
UWI         .                                          3060000213 :UNIQUE WELL ID
XCOORD      .                                       596992.320000 :SURFACE X
YCOORD      .                                      2148289.820000 :SURFACE Y
LAT         .                                           19.427749 :LATITUDE
LON         .                                          -92.076116 :LONGITUDE
ELEV        .M                                            27.5000 :SURFACE ELEV
ELEV_TYPE   .                                                  KB :ELEV TYPE
~CURVE INFORMATION
#MNEMONIC.UNIT        API CODE       : CURVE DESCRIPTION
#------------------------------------------------------------------------------
DEPTH    .M                          : Measured Depth
CALI     .in          UNKNOWN        : CALI:registros:rC:NONE:v0 (auto-composite)
DRHO     .g/cm3       UNKNOWN        : DRHO:registros:rC:NONE:v0 (auto-composite)
DT       .us/ft       UNKNOWN        : DT:registros:rC:NONE:v0 (auto-composite)
GR       .api         UNKNOWN        : GR:registros:rC:NONE:v0 (auto-composite)
ILD      .ohmm        UNKNOWN        : ILD:registros:rC:NONE:v0 (auto-composite)
NPHI     .v/v_decimal UNKNOWN        : NPHI:registros:rC:NONE:v0 (auto-composite)
RHOB     .g/cm3       UNKNOWN        : RHOB:registros:rC:NONE:v0 (auto-composite)
~A     DEPTH         CALI         DRHO           DT           GR          ILD         NPHI         RHOB
# ...
   1185.9763      13.2460       0.2550     114.9130      67.8490       1.6100    -999.2500       2.2900
   1186.1287      13.3290       0.2675     119.3127      68.3608       1.5925    -999.2500       2.2900
   1186.2811      13.4120       0.2800     123.7000      68.8720       1.5750    -999.2500       2.2900
   1186.4335      13.4635       0.2750     123.5628      69.2347       1.5625    -999.2500       2.2850
   1186.5859      13.5150       0.2700     123.4260      69.5970       1.5500    -999.2500       2.2800
   1186.7383      13.5690       0.2700     122.9452      70.6190       1.5500    -999.2500       2.2800
   1186.8907      13.6230       0.2700     122.4660      71.6400       1.5500    -999.2500       2.2800
   1187.0431      13.7265       0.2700     121.2656      71.4529       1.5500    -999.2500       2.2800
   1187.1956      13.8300       0.2700     120.0700      71.2660       1.5500    -999.2500       2.2800
   1187.3479      13.8775       0.2600     120.7113      69.3823       1.5500    -999.2500       2.2850
   1187.5002      13.9250       0.2500     121.3500      67.5000       1.5500    -999.2500       2.2900
   1187.6527      13.9325       0.2500     121.2999      67.6450       1.5515    -999.2500       2.2870
   1187.8051      13.9400       0.2500     121.2500      67.7900       1.5530    -999.2500       2.2840
   1187.9575      13.9440       0.2500     121.4869      67.4899       1.5590    -999.2500       2.2720
   1188.1099      13.9480       0.2500     121.7230      67.1900       1.5650    -999.2500       2.2600
   1188.2623      13.9700       0.2515     123.5548      67.2695       1.5765    -999.2500       2.2615
   1188.4147      13.9920       0.2530     125.3800      67.3490       1.5880    -999.2500       2.2630
   1188.5671      14.0425       0.2580     125.0920      67.7045       1.6015    -999.2500       2.2680
   1188.7195      14.0930       0.2630     124.8050      68.0600       1.6150    -999.2500       2.2730
   1188.8719      14.1614       0.2715     120.4653      68.0550       1.6275    -999.2500       2.2780
   1189.0243      14.2300       0.2800     116.1400      68.0500       1.6400    -999.2500       2.2830
   1189.1768      14.2100       0.2785     116.7770      68.1265       1.6375    -999.2500       2.2865
   1189.3291      14.1900       0.2770     117.4120      68.2030       1.6350    -999.2500       2.2900
   1189.4814      14.1925       0.2685     123.1247      68.6540       1.6205    -999.2500       2.2900
   1189.6339      14.1950       0.2600     128.8200      69.1050       1.6060    -999.2500       2.2900
   1189.7863      14.2130       0.2625     128.6778      70.3278       1.5840    -999.2500       2.2850
   1189.9387      14.2310       0.2650     128.5360      71.5500       1.5620    -999.2500       2.2800
   1190.0911      14.2715       0.2725     124.1518      71.3904       1.5470    -999.2500       2.2840
   1190.2435      14.3120       0.2800     119.7800      71.2310       1.5320    -999.2500       2.2880
   1190.3959      14.3540       0.2800     120.2441      70.5291       1.5170    -999.2500       2.3040
   1190.5483      14.3960       0.2800     120.7070      69.8280       1.5020    -999.2500       2.3200
   1190.7007      14.4370       0.2800     124.3296      68.3233       1.4840    -999.2500       2.3175
   1190.8531      14.4780       0.2800     127.9400      66.8200       1.4660    -999.2500       2.3150
   1191.0055      14.4890       0.2800     127.8368      67.7004       1.4455    -999.2500       2.3025
   1191.1580      14.5000       0.2800     127.7340      68.5800       1.4250    -999.2500       2.2900
   1191.3103      14.5160       0.2800     127.3367      68.4610       1.4125    -999.2500       2.2915
   1191.4626      14.5320       0.2800     126.9410      68.3420       1.4000    -999.2500       2.2930
   1191.6151      14.5890       0.2800     124.4358      67.9379       1.4015    -999.2500       2.2965
   1191.7675      14.6460       0.2800     121.9400      67.5340       1.4030    -999.2500       2.3000
   1191.9199      14.6935       0.2785     122.1374      66.9574       1.4065    -999.2500       2.3000
   1192.0723      14.7410       0.2770     122.3340      66.3810       1.4100    -999.2500       2.3000
   1192.2247      14.7780       0.2720     125.3373      65.2903       1.4100    -999.2500       2.3000
   1192.3771      14.8150       0.2670     128.3300      64.2000       1.4100    -999.2500       2.3000
   1192.5295      14.8430       0.2585     127.7029      63.5749       1.4115    -999.2500       2.3000
   1192.6819      14.8710       0.2500     127.0780      62.9500       1.4130    -999.2500       2.3000
   1192.8344      14.8930       0.2500     124.5549      63.2115       1.4190    -999.2500       2.2850
   1192.9867      14.9150       0.2500     122.0400      63.4730       1.4250    -999.2500       2.2700
   1193.1392      14.9425       0.2515     122.1827      64.3860       1.4415    -999.2500       2.2700
   1193.2915      14.9700       0.2530     122.3250      65.2990       1.4580    -999.2500       2.2700
   1193.4438      14.9500       0.2565     123.2138      66.0194       1.4905    -999.2500       2.2675
   1193.5963      14.9300       0.2600     124.1000      66.7400       1.5230    -999.2500       2.2650
   1193.7487      14.9500       0.2600     128.2911      66.5900       1.5520    -999.2500       2.2560
   1193.9011      14.9700       0.2600     132.4700      66.4400       1.5810    -999.2500       2.2470
   1194.0535      14.9675       0.2585     132.2948      66.7302       1.6230    -999.2500       2.2410
   1194.2059      14.9650       0.2570     132.1200      67.0200       1.6650    -999.2500       2.2350
   1194.3583      14.8325       0.2485     130.8458      67.0150       1.7130    -999.2500       2.2225
   1194.5107      14.7000       0.2400     129.5750      67.0100       1.7610    -999.2500       2.2100
   1194.6631      14.7100       0.2415     127.1334      67.0100       1.8005    -999.2500       2.2115
   1194.8156      14.7200       0.2430     124.7000      67.0100       1.8400    -999.2500       2.2130
   1194.9679      14.8345       0.2480     125.5211      67.0475       1.8320    -999.2500       2.2205
   1195.1202      14.9490       0.2530     126.3390      67.0850       1.8240    -999.2500       2.2280
   1195.2727      15.2234       0.2565     129.6058      67.3886       1.7865    -999.2500       2.2420
   1195.4250      15.4980       0.2600     132.8600      67.6920       1.7490    -999.2500       2.2560
   1195.5775      15.6299       0.2615     132.0695      68.9563       1.6985    -999.2500       2.2655
   1195.7299      15.7620       0.2630     131.2820      70.2200       1.6480    -999.2500       2.2750
   1195.8823      15.8060       0.2665     128.6167      70.0565       1.6105    -999.2500       2.2865
   1196.0347      15.8500       0.2700     125.9610      69.8930       1.5730    -999.2500       2.2980
   1196.1871      15.8580       0.2700     124.2715      68.7213       1.5415    -999.2500       2.3190
   1196.3395      15.8660       0.2700     122.5880      67.5500       1.5100    -999.2500       2.3400
   1196.4919      15.8880       0.2700     120.0447      67.7095       1.5100    -999.2500       2.3385
   1196.6443      15.9100       0.2700     117.5100      67.8690       1.5100    -999.2500       2.3370
   1196.7968      15.9060       0.2715     112.7873      69.6145       1.5085    -999.2500       2.3280
   1196.9491      15.9020       0.2730     108.0800      71.3600       1.5070    -999.2500       2.3190
   1197.1014      15.8885       0.2765     110.7802      71.2785       1.5020    -999.2500       2.2995
   1197.2539      15.8750       0.2800     113.4720      71.1970       1.4970    -999.2500       2.2800
   1197.4062      15.8650       0.2800     123.4760      70.6681       1.4920    -999.2500       2.2850
   1197.5587      15.8550       0.2800     133.4500      70.1390       1.4870    -999.2500       2.2900
