#------------------------------------------------------------------------------
#
#   Created by  : [OpenWorks] Log Export Utility (LEXP)
#   Created on  : 2016-05-11 12:45:47
#   Project     : CANT971
#   User        : R5K
#   Interpreter : PEP
#
#------------------------------------------------------------------------------
~VERSION INFORMATION
VERS. 2.0 : CWLS Log ASCII Standard - version 2.0
WRAP.  NO : One line per depth step
~WELL INFORMATION
#MNEMONIC   .UNIT                                           VALUE :DESCRIPTION
#------------------------------------------------------------------------------
STRT        .M                                           801.4664 :START DEPTH
STOP        .M                                          3402.1724 :STOP DEPTH
STEP        .M                                             0.1524 :STEP
NULL        .                                           -999.2500 :NULL VALUE
COMP        .                                   PEMEX EXPL & PROD :COMPANY
WELL        .                                        CANTARELL-85 :WELL
FLD         .                                           CANTARELL :FIELD
LOC         .                                             UNKNOWN :LOCATION
CNTY        .                                      CD. DEL CARMEN :COUNTY
STAT        .                                            CAMPECHE :STATE
CTRY        .                                              MEXICO :COUNTRY
SRVC        .                                             UNKNOWN :SERVICE COMPANY
DATE        .                                             UNKNOWN :LOG DATE
UWI         .                                          3060000185 :UNIQUE WELL ID
XCOORD      .                                       604541.690000 :SURFACE X
YCOORD      .                                      2141649.620000 :SURFACE Y
LAT         .                                           19.367365 :LATITUDE
LON         .                                          -92.004578 :LONGITUDE
ELEV        .M                                            30.0000 :SURFACE ELEV
ELEV_TYPE   .                                                  KB :ELEV TYPE
~CURVE INFORMATION
#MNEMONIC.UNIT        API CODE       : CURVE DESCRIPTION
#------------------------------------------------------------------------------
DEPTH    .M                          : Measured Depth
CALI     .inches      UNKNOWN        : CALI:Import:rC:NONE:v0 (auto-composite)
DRHO     .g/cm3       UNKNOWN        : DRHO:Import:rC:NONE:v0 (auto-composite)
DT       .us/ft       UNKNOWN        : DT:Import:rC:NONE:v0 (auto-composite)
GR       .API         UNKNOWN        : GR:Import:rC:NONE:v0 (auto-composite)
ILD      .ohm.m       UNKNOWN        : ILD:Import:rC:NONE:v0 (auto-composite)
ILM      .ohm.m       UNKNOWN        : ILM:Import:rC:NONE:v0 (auto-composite)
NPHI     .v/v_decimal UNKNOWN        : NPHI:Import:rC:NONE:v0 (auto-composite)
RHOB     .g/cm3       UNKNOWN        : RHOB:Import:rC:NONE:v0 (auto-composite)
SN       .ohm.m       UNKNOWN        : SN:Import:rC:NONE:v0 (auto-composite)
SP       .mV          UNKNOWN        : SP:Import:rC:NONE:v0 (auto-composite)
~A     DEPTH         CALI         DRHO           DT           GR          ILD          ILM         NPHI         RHOB           SN           SP
# ...
   2559.5527       6.7900      -0.2930      59.1491      27.1942      10.1482    -999.2500      39.5304       2.8330    -999.2500    -999.2500
   2559.7051       6.7900      -0.2930      59.5337      28.0088      10.1073    -999.2500      39.3754       2.8320    -999.2500    -999.2500
   2559.8577       6.7900      -0.2930      62.1510      27.7231       9.5708    -999.2500      39.3893       2.8121    -999.2500    -999.2500
   2560.0100       6.7900      -0.2930      64.8485      27.4022       9.0185    -999.2500      39.4093       2.7916    -999.2500    -999.2500
   2560.1624       6.7900      -0.2916      70.9074      27.5641       7.5393    -999.2500      39.2491       2.7265    -999.2500    -999.2500
   2560.3147       6.7900      -0.2901      77.0746      27.7419       6.0297    -999.2500      39.0828       2.6600    -999.2500    -999.2500
   2560.4673       6.8325      -0.2543      84.0148      29.2974       4.4894    -999.2500      38.3726       2.5998    -999.2500    -999.2500
   2560.6196       6.8765      -0.2173      90.9829      30.9017       2.9481    -999.2500      37.6428       2.5398    -999.2500    -999.2500
   2560.7720       7.1017      -0.1141     100.4847      34.9096       3.5737    -999.2500      36.6797       2.4483    -999.2500    -999.2500
   2560.9243       7.3332      -0.0086     110.0609      39.0050       4.2782    -999.2500      35.7098       2.3558    -999.2500    -999.2500
   2561.0767       7.6430       0.0143     126.0606      41.8833       2.7993    -999.2500      34.6922       2.3574    -999.2500    -999.2500
   2561.2292       7.9555       0.0343     142.2926      44.7246       1.2540    -999.2500      33.6728       2.3619    -999.2500    -999.2500
   2561.3816       8.0747       0.0287     130.0119      45.8215       1.2133    -999.2500      33.0853       2.3770    -999.2500    -999.2500
   2561.5339       8.1872       0.0222     116.7436      46.8637       1.2198    -999.2500      32.5140       2.3925    -999.2500    -999.2500
   2561.6863       8.5215       0.0259     116.9629      46.7148       1.2606    -999.2500      31.8154       2.4008    -999.2500    -999.2500
   2561.8389       8.8635       0.0299     117.6717      46.5254       1.3026    -999.2500      31.1121       2.4088    -999.2500    -999.2500
   2561.9912       9.3742       0.0281     117.5806      45.3912       1.5545    -999.2500      30.4079       2.4206    -999.2500    -999.2500
   2562.1436       9.8907       0.0261     117.4610      44.2239       1.8137    -999.2500      29.7036       2.4326    -999.2500    -999.2500
   2562.2959       9.8350       0.0265     115.6867      42.1662       1.6743    -999.2500      28.8330       2.4471    -999.2500    -999.2500
   2562.4485       9.7595       0.0270     113.8521      40.0826       1.5234    -999.2500      27.9552       2.4616    -999.2500    -999.2500
   2562.6008       9.7966       0.0449     108.1671      38.9325       1.5355    -999.2500      26.8992       2.4819    -999.2500    -999.2500
   2562.7532       9.8376       0.0634     102.3450      37.8104       1.5525    -999.2500      25.8368       2.5024    -999.2500    -999.2500
   2562.9055      10.0627       0.0626      97.4670      36.0480       1.6333    -999.2500      24.8634       2.5263    -999.2500    -999.2500
   2563.0579      10.2942       0.0611      92.6146      34.2648       1.7163    -999.2500      23.8916       2.5503    -999.2500    -999.2500
   2563.2104      10.6552       0.0475      89.6138      34.5329       1.8970    -999.2500      22.9646       2.5563    -999.2500    -999.2500
   2563.3628      11.0207       0.0335      86.6792      34.8698       2.0809    -999.2500      22.0393       2.5618    -999.2500    -999.2500
   2563.5151      11.1514       0.0330      81.4200      35.9770       2.0710    -999.2500      21.0536       2.5605    -999.2500    -999.2500
   2563.6675      11.2739       0.0330      76.0714      37.1108       2.0545    -999.2500      20.0643       2.5590    -999.2500    -999.2500
   2563.8201      11.3481       0.0369      76.7093      37.8819       1.9759    -999.2500      20.5186       2.5527    -999.2500    -999.2500
   2563.9724      11.4206       0.0409      77.5621      38.6421       1.8954    -999.2500      21.0248       2.5462    -999.2500    -999.2500
   2564.1248      11.5651       0.0405      83.0201      40.0706       1.7922    -999.2500      22.7975       2.5373    -999.2500    -999.2500
   2564.2771      11.7121       0.0400      88.6308      41.5200       1.6882    -999.2500      24.6119       2.5283    -999.2500    -999.2500
   2564.4297      12.0847       0.0289      98.7590      40.0342       1.5591    -999.2500      26.3430       2.5101    -999.2500    -999.2500
   2564.5820      12.4652       0.0174     109.0497      38.4544       1.4291    -999.2500      28.0712       2.4916    -999.2500    -999.2500
   2564.7344      12.7665       0.0180     112.5793      38.6428       1.4298    -999.2500      27.9024       2.4803    -999.2500    -999.2500
   2564.8867      13.0650       0.0190     115.8653      38.8895       1.4348    -999.2500      27.6672       2.4693    -999.2500    -999.2500
   2565.0391      13.3301       0.0277     117.5305      38.8744       1.4548    -999.2500      26.9571       2.4700    -999.2500    -999.2500
   2565.1917      13.5941       0.0367     119.1371      38.8499       1.4753    -999.2500      26.2299       2.4710    -999.2500    -999.2500
   2565.3440      13.8403       0.0665     122.9443      38.5268       1.5021    -999.2500      25.7388       2.4783    -999.2500    -999.2500
   2565.4963      14.0858       0.0970     126.8231      38.1929       1.5292    -999.2500      25.2569       2.4858    -999.2500    -999.2500
   2565.6487      14.2728       0.0903     134.4597      37.3688       1.5654    -999.2500      25.2482       2.4860    -999.2500    -999.2500
   2565.8013      14.4578       0.0823     142.2324      36.5296       1.6019    -999.2500      25.2567       2.4860    -999.2500    -999.2500
   2565.9536      14.8748       0.0554     135.7997      36.2174       1.6475    -999.2500      25.5483       2.4850    -999.2500    -999.2500
   2566.1060      15.2998       0.0279     128.8628      35.9218       1.6935    -999.2500      25.8499       2.4840    -999.2500    -999.2500
   2566.2583      15.3077       0.0173     128.9143      35.5065       1.7274    -999.2500      25.1023       2.4738    -999.2500    -999.2500
   2566.4109      15.3012       0.0073     129.2088      35.0872       1.7609    -999.2500      24.3170       2.4633    -999.2500    -999.2500
   2566.5632      15.1125       0.0094     130.7800      34.7252       1.8826    -999.2500      24.3866       2.4712    -999.2500    -999.2500
   2566.7156      14.9175       0.0119     132.3966      34.3652       2.0075    -999.2500      24.4866       2.4797    -999.2500    -999.2500
   2566.8679      14.9443       0.0192     127.0408      34.4987       2.0076    -999.2500      24.3790       2.4659    -999.2500    -999.2500
   2567.0203      14.9788       0.0267     121.4337      34.6467       2.0041    -999.2500      24.2640       2.4514    -999.2500    -999.2500
   2567.1729      15.1897       0.0323     121.2902      33.7890       1.9919    -999.2500      23.4777       2.4549    -999.2500    -999.2500
   2567.3252      15.4067       0.0378     121.3422      32.9011       1.9794    -999.2500      22.6674       2.4589    -999.2500    -999.2500
   2567.4775      15.8881       0.0366     121.7705      32.9441       1.9659    -999.2500      22.6496       2.4716    -999.2500    -999.2500
   2567.6299      16.3786       0.0351     122.2127      33.0176       1.9524    -999.2500      22.6597       2.4846    -999.2500    -999.2500
   2567.7825      16.3829       0.0263     124.7080      33.4499       1.9307    -999.2500      22.7947       2.4729    -999.2500    -999.2500
   2567.9348      16.3704       0.0173     127.2768      33.8942       1.9087    -999.2500      22.9343       2.4604    -999.2500    -999.2500
