#------------------------------------------------------------------------------
#
#   Created by  : [OpenWorks] Log Export Utility (LEXP)
#   Created on  : 2016-05-23 11:57:24
#   Project     : CANT971
#   User        : R5K
#   Interpreter : PEP
#
#------------------------------------------------------------------------------
~VERSION INFORMATION
VERS. 2.0 : CWLS Log ASCII Standard - version 2.0
WRAP.  NO : One line per depth step
~WELL INFORMATION
#MNEMONIC   .UNIT                                           VALUE :DESCRIPTION
#------------------------------------------------------------------------------
STRT        .M                                           648.1292 :START DEPTH
STOP        .M                                          2685.5647 :STOP DEPTH
STEP        .M                                             0.1524 :STEP
NULL        .                                           -999.2500 :NULL VALUE
COMP        .                                   PEMEX EXPL & PROD :COMPANY
WELL        .                                                 81D :WELL
FLD         .                                           CANTARELL :FIELD
LOC         .                                             UNKNOWN :LOCATION
CNTY        .                                      CD. DEL CARMEN :COUNTY
STAT        .                                            CAMPECHE :STATE
CTRY        .                                              MEXICO :COUNTRY
SRVC        .                                             UNKNOWN :SERVICE COMPANY
DATE        .                                             UNKNOWN :LOG DATE
UWI         .                                          3060000666 :UNIQUE WELL ID
XCOORD      .                                       601717.100000 :SURFACE X
YCOORD      .                                      2142375.260000 :SURFACE Y
LAT         .                                           19.374067 :LATITUDE
LON         .                                          -92.031430 :LONGITUDE
ELEV        .M                                            30.0000 :SURFACE ELEV
ELEV_TYPEF  .b/elec                                            KB :ELEV TYPE
~CURVE INFORMATION
#MNEMONIC.UNIT        API CODE       : CURVE DESCRIPTION
#------------------------------------------------------------------------------
DEPTH    .M                          : Measured Depth
CALI     .in          UNKNOWN        : CALI:UNKNOWN:rC:NONE:v0 (auto-composite)
CGR      .API         UNKNOWN        : CGR:UNKNOWN:rC:NONE:v0 (auto-composite)
DRHO     .g/cm3       UNKNOWN        : DRHO:UNKNOWN:rC:NONE:v0 (auto-composite)
DT       .us/ft       UNKNOWN        : DT:DT:rC:NONE:v0 (auto-composite)
GR       .API         UNKNOWN        : GR:UNKNOWN:rC:NONE:v0 (auto-composite)
ILD      .ohmm        UNKNOWN        : ILD:UNKNOWN:rC:NONE:v0 (auto-composite)
ILM      .ohmm        UNKNOWN        : ILM:UNKNOWN:rC:NONE:v0 (auto-composite)
LLD      .ohmm        UNKNOWN        : LLD:UNKNOWN:rC:NONE:v0 (auto-composite)
LLS      .ohmm        UNKNOWN        : LLS:UNKNOWN:rC:NONE:v0 (auto-composite)
NPHI     .v/v_decimal UNKNOWN        : NPHI:NPHI:rC:NONE:v0 (auto-composite)
PEF      .b/elec      UNKNOWN        : PEF:UNKNOWN:rC:NONE:v0 (auto-composite)
POTA     .%           UNKNOWN        : POTA:UNKNOWN:rC:NONE:v0 (auto-composite)
RHOB     .g/cm3       UNKNOWN        : RHOB:UNKNOWN:rC:NONE:v0 (auto-composite)
THOR     .ppm         UNKNOWN        : THOR:UNKNOWN:rC:NONE:v0 (auto-composite)
URAN     .ppm         UNKNOWN        : URAN:UNKNOWN:rC:NONE:v0 (auto-composite)
~A     DEPTH         CALI          CGR         DRHO           DT           GR          ILD          ILM          LLD          LLS         NPHI          PEF         POTA         RHOB         THOR         URAN
# ...
   2044.8752      12.4439       2.5878    -999.2500    -999.2500      38.2322    -999.2500    -999.2500    1060.8978     116.5550       9.3700    -999.2500       0.0322    -999.2500       0.6608       3.9352
   2045.0276      12.4355       3.0520    -999.2500    -999.2500      37.7158    -999.2500    -999.2500    1177.4659     136.1983       9.0500    -999.2500       0.0628    -999.2500       0.6796       3.8699
   2045.1801      12.4300       3.6755    -999.2500    -999.2500      37.3874    -999.2500    -999.2500    1314.6327     163.0860       8.7679    -999.2500       0.1008    -999.2500       0.7186       3.8204
   2045.3324      12.4335       2.6408    -999.2500    -999.2500      43.0737    -999.2500    -999.2500    1550.3671     204.6708       8.8039    -999.2500       0.0788    -999.2500       0.4786       4.5366
   2045.4849      12.4389       1.2168    -999.2500    -999.2500      50.1718    -999.2500    -999.2500    1808.8790     249.6518       9.0112    -999.2500       0.0428    -999.2500       0.1731       5.4326
   2045.6372      12.4420       0.9492    -999.2500    -999.2500      52.4002    -999.2500    -999.2500    1752.5532     237.4047       9.1669    -999.2500       0.0360    -999.2500       0.1162       5.6994
   2045.7896      12.4445       0.9532    -999.2500    -999.2500      53.4732    -999.2500    -999.2500    1623.4432     211.9275       9.2541    -999.2500       0.0360    -999.2500       0.1177       5.8184
   2045.9420      12.4499       0.9953    -999.2500    -999.2500      51.9533    -999.2500    -999.2500    1454.1194     199.3048       9.0683    -999.2500       0.0352    -999.2500       0.1358       5.6463
   2046.0944      12.4559       1.0463    -999.2500    -999.2500      49.8401    -999.2500    -999.2500    1275.4949     189.6551       8.7394    -999.2500       0.0342    -999.2500       0.1578       5.4058
   2046.2468      12.4477       0.9819    -999.2500    -999.2500      50.0802    -999.2500    -999.2500    1121.4010     180.1380       8.5152    -999.2500       0.0340    -999.2500       0.1397       5.4349
   2046.3992      12.4362       0.8904    -999.2500    -999.2500      50.8649    -999.2500    -999.2500     972.9827     170.6515       8.3134    -999.2500       0.0340    -999.2500       0.1122       5.5275
   2046.5516      12.4551       1.2421    -999.2500    -999.2500      46.9265    -999.2500    -999.2500     868.7845     160.3191       8.0847    -999.2500       0.0328    -999.2500       0.2298       5.0555
   2046.7040      12.4811       1.6976    -999.2500    -999.2500      41.8892    -999.2500    -999.2500     774.7679     149.7919       7.8497    -999.2500       0.0313    -999.2500       0.3813       4.4515
   2046.8564      12.4957       3.1223    -999.2500    -999.2500      37.4948    -999.2500    -999.2500     769.3614     156.1054       7.6702    -999.2500       0.0294    -999.2500       0.8500       3.7839
   2047.0088      12.5077       4.7737    -999.2500    -999.2500      33.2517    -999.2500    -999.2500     784.3659     166.2981       7.5221    -999.2500       0.0274    -999.2500       1.3930       3.1015
   2047.1613      12.5218       4.7491    -999.2500    -999.2500      32.1607    -999.2500    -999.2500     813.3719     176.0795       7.5545    -999.2500       0.0278    -999.2500       1.3842       3.0656
   2047.3136      12.5363       4.3321    -999.2500    -999.2500      31.8154    -999.2500    -999.2500     845.6044     185.7662       7.6468    -999.2500       0.0288    -999.2500       1.2462       3.1811
   2047.4661      12.5362       3.8677    -999.2500    -999.2500      34.8127    -999.2500    -999.2500     842.5802     187.1792       7.7533    -999.2500       0.0314    -999.2500       1.0900       3.4927
   2047.6184      12.5327       3.3923    -999.2500    -999.2500      38.5766    -999.2500    -999.2500     831.4280     186.6847       7.8667    -999.2500       0.0344    -999.2500       0.9295       3.8501
   2047.7708      12.5296       4.8518    -999.2500    -999.2500      39.8552    -999.2500    -999.2500     825.4401     192.1658       8.2201    -999.2500       0.0698    -999.2500       1.2069       3.8317
   2047.9232      12.5266       6.7648    -999.2500    -999.2500      40.5606    -999.2500    -999.2500     820.6433     199.0251       8.6265    -999.2500       0.1128    -999.2500       1.5868       3.7252
   2048.0757      12.5446       6.1381    -999.2500    -999.2500      40.3168    -999.2500    -999.2500     784.8170     196.9168       9.0224    -999.2500       0.0878    -999.2500       1.5293       3.7702
   2048.2280      12.5676       4.9161    -999.2500    -999.2500      39.8517    -999.2500    -999.2500     741.8314     192.7394       9.4126    -999.2500       0.0468    -999.2500       1.3693       3.8508
   2048.3804      12.5615       4.9837    -999.2500    -999.2500      39.5300    -999.2500    -999.2500     705.2408     187.7284       9.4008    -999.2500       0.0471    -999.2500       1.4051       3.8153
   2048.5327      12.5485       5.3520    -999.2500    -999.2500      39.2422    -999.2500    -999.2500     670.1263     182.5250       9.3324    -999.2500       0.0571    -999.2500       1.4865       3.7529
   2048.6853      12.5375       5.5877    -999.2500    -999.2500      39.8720    -999.2500    -999.2500     684.6264     194.5598       9.4714    -999.2500       0.0485    -999.2500       1.5291       3.8172
   2048.8376      12.5270       5.7923    -999.2500    -999.2500      40.7193    -999.2500    -999.2500     710.5232     210.5544       9.7304    -999.2500       0.0355    -999.2500       1.5627       3.9112
   2048.9900      12.5295       5.6770    -999.2500    -999.2500      41.3159    -999.2500    -999.2500     700.7587     208.3575      10.2504    -999.2500       0.0427    -999.2500       1.5200       3.9776
   2049.1423      12.5350       5.4871    -999.2500    -999.2500      41.8552    -999.2500    -999.2500     682.7561     201.9582      10.7826    -999.2500       0.0547    -999.2500       1.4595       4.0376
   2049.2949      12.5397       5.6868    -999.2500    -999.2500      42.2747    -999.2500    -999.2500     627.0421     184.3929      10.6769    -999.2500       0.0700    -999.2500       1.4172       4.0786
   2049.4473      12.5441       5.9779    -999.2500    -999.2500      42.6668    -999.2500    -999.2500     562.6584     164.2606      10.3655    -999.2500       0.0860    -999.2500       1.3792       4.1151
   2049.5996      12.5369       5.1863    -999.2500    -999.2500      43.8312    -999.2500    -999.2500     533.5235     156.8574      10.3425    -999.2500       0.0667    -999.2500       1.2586       4.3140
   2049.7520      12.5269       4.1417    -999.2500    -999.2500      45.1761    -999.2500    -999.2500     512.5383     152.3973      10.4465    -999.2500       0.0392    -999.2500       1.1186       4.5509
   2049.9043      12.5274       3.8345    -999.2500    -999.2500      46.6866    -999.2500    -999.2500     526.8876     161.3175       9.8577    -999.2500       0.0344    -999.2500       1.0568       4.7386
   2050.0569      12.5304       3.7004    -999.2500    -999.2500      48.2359    -999.2500    -999.2500     549.3669     173.3163       9.0941    -999.2500       0.0349    -999.2500       1.0132       4.9146
   2050.2092      12.5225       4.0728    -999.2500    -999.2500      50.7456    -999.2500    -999.2500     605.4766     193.5024       8.2815    -999.2500       0.0350    -999.2500       1.1318       5.1688
   2050.3616      12.5120       4.5636    -999.2500    -999.2500      53.4822    -999.2500    -999.2500     669.3682     215.5831       7.4427    -999.2500       0.0350    -999.2500       1.2882       5.4411
   2050.5139      12.5051       3.7867    -999.2500    -999.2500      63.9382    -999.2500    -999.2500     721.1801     227.2753       6.9958    -999.2500       0.0370    -999.2500       1.0309       6.6544
   2050.6665      12.4991       2.7118    -999.2500    -999.2500      76.1531    -999.2500    -999.2500     770.2104     236.5753       6.7407    -999.2500       0.0395    -999.2500       0.6763       8.0890
