#------------------------------------------------------------------------------
#
#   Created by  : [OpenWorks] Log Export Utility (LEXP)
#   Created on  : 2016-05-23 11:56:14
#   Project     : CANT971
#   User        : R5K
#   Interpreter : PEP
#
#------------------------------------------------------------------------------
~VERSION INFORMATION
VERS. 2.0 : CWLS Log ASCII Standard - version 2.0
WRAP.  NO : One line per depth step
~WELL INFORMATION
#MNEMONIC   .UNIT                                           VALUE :DESCRIPTION
#------------------------------------------------------------------------------
STRT        .M                                          2395.2905 :START DEPTH
STOP        .M                                          2859.1960 :STOP DEPTH
STEP        .M                                             0.1524 :STEP
NULL        .                                           -999.2500 :NULL VALUE
COMP        .                                             UNKNOWN :COMPANY
WELL        .                                               446-V :WELL
FLD         .                                             UNKNOWN :FIELD
LOC         .                                             UNKNOWN :LOCATION
CNTY        .                                             UNKNOWN :COUNTY
STAT        .                                             UNKNOWN :STATE
CTRY        .                                             UNKNOWN :COUNTRY
SRVC        .                                             UNKNOWN :SERVICE COMPANY
DATE        .                                             UNKNOWN :LOG DATE
UWI         .                                               446-V :UNIQUE WELL ID
XCOORD      .                                       596708.730000 :SURFACE X
YCOORD      .                                      2143311.960000 :SURFACE Y
LAT         .                                           19.382780 :LATITUDE
LON         .                                          -92.079070 :LONGITUDE
ELEV        .M                                             0.0000 :SURFACE ELEV
ELEV_TYPE   .                                                  NA :ELEV TYPE
~CURVE INFORMATION
#MNEMONIC.UNIT        API CODE       : CURVE DESCRIPTION
#------------------------------------------------------------------------------
DEPTH    .M                          : Measured Depth
CALI     .inches      UNKNOWN        : CALI:litodensidad:rC:NONE:v0 (auto-composite)
CGR      .API         UNKNOWN        : CGR:Espectrometria:rC:NONE:v0 (auto-composite)
DRHO     .g/cm3       UNKNOWN        : DRHO:litodensidad:rC:NONE:v0 (auto-composite)
DT       .us/ft       UNKNOWN        : DT:sonico:rC:NONE:v0 (auto-composite)
GR       .API         UNKNOWN        : GR:GR-Load:rC:NONE:v0 (auto-composite)
GR-LWD   .API         UNKNOWN        : GR-LWD:resistivos-LWD:rC:NONE:v0 (auto-composite)
ILD-LWD  .ohm.m       UNKNOWN        : ILD-LWD:resistivos-LWD:rC:NONE:v0 (auto-composite)
ILM-LWD  .UNKNOWN     UNKNOWN        : ILM-LWD:resistivos-LWD:rC:NONE:v0 (auto-composite)
LLD      .ohm.m       UNKNOWN        : LLD:resistivos:rC:NONE:v0 (auto-composite)
LLS      .ohm.m       UNKNOWN        : LLS:resistivos:rC:NONE:v0 (auto-composite)
MSFL     .ohm.m       UNKNOWN        : MSFL:resistivos:rC:NONE:v0 (auto-composite)
NPHI     .UNKNOWN     UNKNOWN        : NPHI:porosidad:rC:NONE:v0 (auto-composite)
PEF      .UNKNOWN     UNKNOWN        : PEF:litodensidad:rC:NONE:v0 (auto-composite)
POTA     .wtpercent   UNKNOWN        : POTA:Espectrometria:rC:NONE:v0 (auto-composite)
RHOB     .g/cm3       UNKNOWN        : RHOB:litodensidad:rC:NONE:v0 (auto-composite)
THOR     .ppm         UNKNOWN        : THOR:Espectrometria:rC:NONE:v0 (auto-composite)
URAN     .ppm         UNKNOWN        : URAN:Espectrometria:rC:NONE:v0 (auto-composite)
~A     DEPTH         CALI          CGR         DRHO           DT           GR       GR-LWD      ILD-LWD      ILM-LWD          LLD          LLS         MSFL         NPHI          PEF         POTA         RHOB         THOR         URAN
# ...
   2507.3044      10.7485       6.1899       0.0822      61.6754      19.3159    -999.2500    -999.2500    -999.2500     115.1264      48.8713      48.7719       0.0615       3.6287       0.0021       2.7471       0.9270       1.4613
   2507.4570      10.5924       5.0045       0.0700      61.4105      20.0778    -999.2500    -999.2500    -999.2500     110.7148      47.3851      38.2467       0.0628       3.5837       0.0024       2.7889       0.4700       1.6782
   2507.6094      10.1513       5.9995       0.0571      61.6830      21.0471    -999.2500    -999.2500    -999.2500     110.8390      49.3349      25.0107       0.0560       3.4786       0.0041       2.8084       0.0650       1.6753
   2507.7617      10.2501       6.7192       0.0597      62.0230      21.2456    -999.2500    -999.2500    -999.2500     108.2060      49.1385      22.8933       0.0568       3.4581       0.0046       2.8060       0.0620       1.6173
   2507.9141      10.5285       6.5104       0.0525      62.3712      20.6873    -999.2500    -999.2500    -999.2500      76.8151      39.0773      10.6231       0.0694       3.4693       0.0045       2.7650       0.0619       1.5783
   2508.0664      10.7043       5.9205       0.0453      62.7196      19.5546    -999.2500    -999.2500    -999.2500      56.7299      31.0514       7.5767       0.0714       3.5409       0.0041       2.7235       0.0670       1.5179
   2508.2190      11.4630       6.0619       0.0651      63.0679      18.4047    -999.2500    -999.2500    -999.2500      40.8357      22.8045       4.4576       0.0808       3.7520       0.0042       2.6854       0.0718       1.3742
   2508.3713      13.6181       6.5664       0.1513      63.4170      17.5598    -999.2500    -999.2500    -999.2500      28.8602      15.1810       3.0478       0.0948       4.3683       0.0043       2.6657       0.1659       1.2239
   2508.5237      14.9989       6.9947       0.2292      63.8399      17.2649    -999.2500    -999.2500    -999.2500      26.2093      13.6919       2.3428       0.1089       5.2116       0.0041       2.6671       0.3654       1.1434
   2508.6760      15.4113       6.4403       0.2743      64.5877      17.5384    -999.2500    -999.2500    -999.2500      26.5269      13.9564       1.8588       0.1237       6.3648       0.0038       2.6521       0.3157       1.2356
   2508.8286      14.5511       6.7235       0.2368      64.8507      19.8574    -999.2500    -999.2500    -999.2500      31.2686      17.2024       1.9445       0.1311       6.5406       0.0046       2.6524       0.0855       1.4623
   2508.9810      12.3843       8.6688       0.1581      64.9019      22.7225    -999.2500    -999.2500    -999.2500      41.4466      24.2153       2.2324       0.1262       5.7605       0.0060       2.6928       0.0645       1.5646
   2509.1333      10.9633       9.1106       0.0966      64.8539      24.4384    -999.2500    -999.2500    -999.2500      53.2781      31.6847       2.6613       0.1188       4.6515       0.0063       2.7266       0.0688       1.7065
   2509.2856      10.3805       8.6390       0.0512      64.7835      24.6904    -999.2500    -999.2500    -999.2500      65.4867      39.5265       2.8059       0.0947       3.6981       0.0059       2.7443       0.1154       1.7870
   2509.4382      10.4647       8.9325       0.0451      64.7107      23.6475    -999.2500    -999.2500    -999.2500      64.6984      40.0551       4.4211       0.0807       3.5718       0.0045       2.7382       0.7435       1.6383
   2509.5906      10.5392       8.7850       0.0462      64.6380      20.7771    -999.2500    -999.2500    -999.2500      58.3189      36.8973      11.5113       0.0800       3.8758       0.0036       2.7465       1.0626       1.3351
   2509.7429      10.5351       8.3076       0.0397      64.5175      18.5183    -999.2500    -999.2500    -999.2500      54.5439      34.0085      11.5664       0.0820       4.2212       0.0034       2.7899       0.9932       1.1368
   2509.8953      10.3873       7.1557       0.0517      64.3992      15.9841    -999.2500    -999.2500    -999.2500      51.0117      30.2048       7.5113       0.0889       4.4728       0.0032       2.9551       0.7545       0.9829
   2510.0476      10.2824       6.5137       0.0810      64.3243      15.6200    -999.2500    -999.2500    -999.2500      51.2487      29.5649       3.2122       0.0864       4.3014       0.0033       3.0514       0.5496       1.0139
   2510.2002      10.1866       6.7145       0.1119      64.2519      16.0570    -999.2500    -999.2500    -999.2500      53.3610      30.2727       2.1671       0.0781       3.8678       0.0038       3.0453       0.3977       1.0401
   2510.3525      10.1788       6.3960       0.0887      64.1484      16.3492    -999.2500    -999.2500    -999.2500      52.3545      29.0588       2.2004       0.0769       3.6679       0.0042       2.9277       0.1453       1.1081
   2510.5049      10.1501       5.6648       0.0432      64.0028      16.4403    -999.2500    -999.2500    -999.2500      54.9168      30.5197       4.8756       0.0743       3.4623       0.0039       2.7878       0.0656       1.1997
   2510.6572      10.1472       5.6612       0.0326      63.7808      16.1342    -999.2500    -999.2500    -999.2500      62.9515      36.5570       8.1287       0.0608       3.3850       0.0039       2.7666       0.0526       1.1660
   2510.8098      10.1868       6.2275       0.0391      63.4204      15.7041    -999.2500    -999.2500    -999.2500      90.8290      52.8585      19.0934       0.0455       3.3645       0.0044       2.7840       0.0326       1.0551
   2510.9622      10.1873       6.8707       0.0492      62.9668      15.4462    -999.2500    -999.2500    -999.2500     115.7663      63.7969      43.4385       0.0467       3.3750       0.0047       2.8030       0.0701       0.9547
   2511.1145      10.1572       8.0052       0.0543      61.1793      15.4514    -999.2500    -999.2500    -999.2500     149.5534      76.1868      59.9382       0.0497       3.3604       0.0043       2.8165       0.5516       0.8290
   2511.2668      10.1417       8.6480       0.0458      60.0246      15.5163    -999.2500    -999.2500    -999.2500     145.9754      75.3985      43.8109       0.0486       3.3420       0.0038       2.8065       0.9501       0.7647
   2511.4194      10.1542       8.2125       0.0360      59.1679      15.3793    -999.2500    -999.2500    -999.2500     136.3008      71.6790      25.6217       0.0459       3.3424       0.0027       2.7915       1.2625       0.7980
   2511.5718      10.0939       5.6973       0.0307      58.5234      15.2174    -999.2500    -999.2500    -999.2500     130.1556      69.9742      17.0096       0.0413       3.3717       0.0016       2.7790       0.9771       1.0599
   2511.7241      10.0604       3.5854       0.0319      57.8515      14.6461    -999.2500    -999.2500    -999.2500     135.5121      76.1744      18.4631       0.0404       3.3879       0.0013       2.7835       0.4950       1.2314
   2511.8765      10.0110       2.6311       0.0346      56.6254      13.2317    -999.2500    -999.2500    -999.2500     154.4442      90.7861      15.4205       0.0384       3.3943       0.0017       2.8033       0.0689       1.1802
   2512.0288       9.9962       2.9467       0.0404      55.8113      12.1438    -999.2500    -999.2500    -999.2500     178.5462     110.5830      11.2058       0.0324       3.4034       0.0020       2.8310       0.0353       1.0239
   2512.1814       9.9823       2.7918       0.0445      55.4660      11.2095    -999.2500    -999.2500    -999.2500     205.4068     132.0176      15.8514       0.0260       3.3876       0.0019       2.8516       0.0295       0.9372
   2512.3337      10.0226       1.3149       0.0441      55.9020      10.9540    -999.2500    -999.2500    -999.2500     189.1020     118.7395      18.3903       0.0281       3.3189       0.0009       2.8506       0.0295       1.0732
   2512.4861      10.1192       0.3241       0.0441      56.7209      11.3551    -999.2500    -999.2500    -999.2500     160.8951     101.5922      21.8066       0.0303       3.2277       0.0002       2.8405       0.0296       1.2281
