#------------------------------------------------------------------------------
#
#   Created by  : [OpenWorks] Log Export Utility (LEXP)
#   Created on  : 2016-05-23 11:57:21
#   Project     : CANT971
#   User        : R5K
#   Interpreter : PEP
#
#------------------------------------------------------------------------------
~VERSION INFORMATION
VERS. 2.0 : CWLS Log ASCII Standard - version 2.0
WRAP.  NO : One line per depth step
~WELL INFORMATION
#MNEMONIC   .UNIT                                           VALUE :DESCRIPTION
#------------------------------------------------------------------------------
STRT        .M                                           117.7290 :START DEPTH
STOP        .M                                          2309.5459 :STOP DEPTH
STEP        .M                                             0.1524 :STEP
NULL        .                                           -999.2500 :NULL VALUE
COMP        .                                   PEMEX EXPL & PROD :COMPANY
WELL        .                                                  7A :WELL
FLD         .                                           CANTARELL :FIELD
LOC         .                                             UNKNOWN :LOCATION
CNTY        .                                      CD. DEL CARMEN :COUNTY
STAT        .                                            CAMPECHE :STATE
CTRY        .                                              MEXICO :COUNTRY
SRVC        .                                             UNKNOWN :SERVICE COMPANY
DATE        .                                             UNKNOWN :LOG DATE
UWI         .                                          3060000143 :UNIQUE WELL ID
XCOORD      .                                       603360.310000 :SURFACE X
YCOORD      .                                      2145096.320000 :SURFACE Y
LAT         .                                           19.398572 :LATITUDE
LON         .                                          -92.015639 :LONGITUDE
ELEV        .M                                            27.1400 :SURFACE ELEV
ELEV_TYPE   .                                                  KB :ELEV TYPE
~CURVE INFORMATION
#MNEMONIC.UNIT        API CODE       : CURVE DESCRIPTION
#------------------------------------------------------------------------------
DEPTH    .M                          : Measured Depth
CALI     .in          UNKNOWN        : CALI:resistivos:rC:NONE:v0 (auto-composite)
DRHO     .g/cm3       UNKNOWN        : DRHO:PETROWORKS:rC:NONE:v2 
DT       .us/ft       UNKNOWN        : DT:DT:rC:NONE:v0 (auto-composite)
GR       .API         UNKNOWN        : GR:UNKNOWN:rC:NONE:v0 (auto-composite)
ILD      .ohmm        UNKNOWN        : ILD:resistivos:rC:NONE:v0 (auto-composite)
LLD      .ohm.m       UNKNOWN        : LLD:UNKNOWN:rC:NONE:v0 (auto-composite)
LLS      .ohm.m       UNKNOWN        : LLS:UNKNOWN:rC:NONE:v0 (auto-composite)
MSFL     .ohm.m       UNKNOWN        : MSFL:UNKNOWN:rC:NONE:v0 (auto-composite)
NPHI     .v/v_decimal     UNKNOWN        : NPHI:PETROWORKS:rC:NONE:v1 
RHOB     .g/cm3       UNKNOWN        : RHOB:UNKNOWN:rC:NONE:v0 (auto-composite)
SN       .ohm.m       UNKNOWN        : SN:UNKNOWN:rC:NONE:v0 (auto-composite)
~A     DEPTH         CALI         DRHO           DT           GR          ILD          LLD          LLS         MSFL         NPHI         RHOB           SN
# ...
   1536.2682       6.8969       0.0593    -999.2500      30.6145    -999.2500     143.6178      76.2925     161.8084       0.0785       2.6700    -999.2500
   1536.4207       7.1054       0.0589    -999.2500      31.5396    -999.2500     141.0669      81.3123     152.0276       0.0800       2.6700    -999.2500
   1536.5730       7.2065       0.0587    -999.2500      32.0576    -999.2500     139.7890      88.4898     147.1280       0.0816       2.6722    -999.2500
   1536.7255       7.1995       0.0587    -999.2500      32.1670    -999.2500     139.7890      97.8330     147.1280       0.0811       2.6767    -999.2500
   1536.8778       7.1524       0.0589    -999.2500      32.2220    -999.2500     139.7890     108.1761     147.1280       0.0804       2.6927    -999.2500
   1537.0302       7.0649       0.0591    -999.2500      32.2220    -999.2500     139.7890     119.5297     147.1280       0.0822       2.7201    -999.2500
   1537.1826       6.9605       0.0591    -999.2500      32.6438    -999.2500     145.8151     129.7525     141.9596       0.0843       2.7335    -999.2500
   1537.3350       6.8390       0.0590    -999.2500      33.4946    -999.2500     157.9713     138.8252     131.5337       0.0891       2.7325    -999.2500
   1537.4874       6.7780       0.0588    -999.2500      33.8844    -999.2500     163.8446     142.1046     137.4157       0.0943       2.7170    -999.2500
   1537.6398       6.7780       0.0585    -999.2500      33.8155    -999.2500     163.4668     139.6202     159.5232       0.0970       2.6870    -999.2500
   1537.7922       6.7780       0.0585    -999.2500      33.3963    -999.2500     160.1693     127.1945     169.2683       0.0994       2.6775    -999.2500
   1537.9446       6.7780       0.0587    -999.2500      32.6274    -999.2500     153.9570     104.8436     166.6709       0.0981       2.6885    -999.2500
   1538.0970       6.7780       0.0589    -999.2500      32.0756    -999.2500     132.1078      92.9583     129.7884       0.0961       2.6938    -999.2500
   1538.2494       6.7780       0.0592    -999.2500      31.7418    -999.2500      94.5425      91.5914      58.4473       0.0913       2.6933    -999.2500
   1538.4019       6.7780       0.0592    -999.2500      31.7350    -999.2500      76.1106      91.0416      23.4084       0.0861       2.6898    -999.2500
   1538.5542       6.7780       0.0592    -999.2500      32.0588    -999.2500      77.0372      91.3185      25.0992       0.0822       2.6833    -999.2500
   1538.7065       6.7780       0.0594    -999.2500      31.9867    -999.2500      84.7167      94.5940     132.2226       0.0786       2.6725    -999.2500
   1538.8590       6.7780       0.0598    -999.2500      31.5126    -999.2500      99.2521     100.9140     346.3890       0.0792       2.6575    -999.2500
   1539.0114       6.7780       0.0602    -999.2500      31.2990    -999.2500     133.4256     131.7200     409.8794       0.0805       2.6650    -999.2500
   1539.1638       6.7780       0.0606    -999.2500      31.3450    -999.2500     187.1624     186.9186     323.2673       0.0835       2.6950    -999.2500
   1539.3162       6.7780       0.0607    -999.2500      31.8589    -999.2500     262.3575     268.2097     307.2020       0.0868       2.7060    -999.2500
   1539.4686       6.7780       0.0606    -999.2500      32.8406    -999.2500     359.0030     375.5838     361.6581       0.0884       2.6980    -999.2500
   1539.6210       6.7780       0.0602    -999.2500      33.3200    -999.2500     407.1395     428.2184     387.5052       0.0897       2.6947    -999.2500
   1539.7734       6.7780       0.0597    -999.2500      33.2941    -999.2500     406.4602     425.7675     384.5626       0.0886       2.6962    -999.2500
   1539.9258       6.7780       0.0591    -999.2500      33.1232    -999.2500     401.3844     411.6746     346.4095       0.0872       2.6963    -999.2500
   1540.0782       6.7780       0.0586    -999.2500      32.8059    -999.2500     391.8688     385.8256     272.7008       0.0898       2.6948    -999.2500
   1540.2306       6.7780       0.0582    -999.2500      32.0048    -999.2500     356.1895     333.5799     262.3354       0.0931       2.6855    -999.2500
   1540.3831       6.7780       0.0579    -999.2500      30.7117    -999.2500     293.9134     254.5007     316.3617       0.0989       2.6685    -999.2500
   1540.5354       6.7780       0.0576    -999.2500      30.1191    -999.2500     263.0789     216.3040     333.3652       0.1051       2.6482    -999.2500
   1540.6877       6.7780       0.0574    -999.2500      30.2230    -999.2500     263.5056     218.7550     313.5587       0.1045       2.6247    -999.2500
   1540.8402       6.7780       0.0574    -999.2500      30.7716    -999.2500     266.0177     233.3422     303.9692       0.1027       2.5853    -999.2500
   1540.9926       6.7780       0.0576    -999.2500      31.7651    -999.2500     270.6172     260.0767     304.6059       0.1002       2.5298    -999.2500
   1541.1450       6.7780       0.0580    -999.2500      32.3657    -999.2500     290.0601     289.3591     318.5574       0.0976       2.5042    -999.2500
   1541.2974       6.7780       0.0586    -999.2500      32.5715    -999.2500     324.4110     321.2006     345.8817       0.0983       2.5087    -999.2500
   1541.4498       6.7780       0.0590    -999.2500      32.6412    -999.2500     340.3094     336.5231     358.8702       0.0996       2.5562    -999.2500
   1541.6022       6.7780       0.0593    -999.2500      32.5732    -999.2500     337.5511     335.1437     357.3643       0.0979       2.6472    -999.2500
   1541.7546       6.7780       0.0594    -999.2500      32.1915    -999.2500     322.8119     325.9066     348.1064       0.0957       2.6923    -999.2500
   1541.9070       6.7780       0.0593    -999.2500      31.4913    -999.2500     295.9171     308.6973     330.9833       0.0920       2.6908    -999.2500
   1542.0594       6.7780       0.0591    -999.2500      31.1695    -999.2500     266.3241     279.5887     305.6552       0.0881       2.6847    -999.2500
   1542.2118       6.7780       0.0587    -999.2500      31.2245    -999.2500     234.0450     238.6344     272.1592       0.0882       2.6742    -999.2500
   1542.3643       6.7780       0.0583    -999.2500      31.4944    -999.2500     210.9881     209.8611     246.8216       0.0890       2.6628    -999.2500
   1542.5166       6.7780       0.0579    -999.2500      31.9790    -999.2500     197.1436     193.2559     229.6339       0.0886       2.6503    -999.2500
   1542.6689       6.7780       0.0577    -999.2500      32.2616    -999.2500     183.4193     185.0623     231.5815       0.0880       2.6385    -999.2500
   1542.8214       6.7780       0.0577    -999.2500      32.3411    -999.2500     169.8156     185.3277     252.7718       0.0862       2.6275    -999.2500
   1542.9738       6.7780       0.0578    -999.2500      32.7363    -999.2500     164.0045     187.3033     262.3704       0.0841       2.6230    -999.2500
   1543.1262       6.7780       0.0581    -999.2500      33.4502    -999.2500     166.0568     191.0047     260.2716       0.0810       2.6250    -999.2500
   1543.2786       6.7780       0.0584    -999.2500      33.9712    -999.2500     178.0665     200.3551     229.3099       0.0778       2.6367    -999.2500
   1543.4310       6.7780       0.0588    -999.2500      34.2961    -999.2500     200.1913     215.4439     169.0278       0.0756       2.6583    -999.2500
   1543.5834       6.7790       0.0589    -999.2500      34.7332    -999.2500     226.1927     241.6281     139.3238       0.0737       2.6880    -999.2500
   1543.7358       6.7810       0.0590    -999.2500      35.2817    -999.2500     256.0459     278.8361     140.0012       0.0746       2.7260    -999.2500
   1543.8882       6.7922       0.0589    -999.2500      35.5390    -999.2500     249.3263     295.0270     145.8433       0.0761       2.7448    -999.2500
   1544.0406       6.8127       0.0587    -999.2500      35.5050    -999.2500     206.0265     290.1966     156.8511       0.0787       2.7443    -999.2500
