#------------------------------------------------------------------------------
#
#   Created by  : [OpenWorks] Log Export Utility (LEXP)
#   Created on  : 2016-05-23 11:56:14
#   Project     : CANT971
#   User        : R5K
#   Interpreter : PEP
#
#------------------------------------------------------------------------------
~VERSION INFORMATION
VERS. 2.0 : CWLS Log ASCII Standard - version 2.0
WRAP.  NO : One line per depth step
~WELL INFORMATION
#MNEMONIC   .UNIT                                           VALUE :DESCRIPTION
#------------------------------------------------------------------------------
STRT        .M                                          1862.0000 :START DEPTH
STOP        .M                                          3052.8535 :STOP DEPTH
STEP        .M                                             0.1524 :STEP
NULL        .                                           -999.2500 :NULL VALUE
COMP        .                                   PEMEX EXPL & PROD :COMPANY
WELL        .                                                446D :WELL
FLD         .                                           CANTARELL :FIELD
LOC         .                                             UNKNOWN :LOCATION
CNTY        .                                      CD. DEL CARMEN :COUNTY
STAT        .                                            CAMPECHE :STATE
CTRY        .                                              MEXICO :COUNTRY
SRVC        .                                             UNKNOWN :SERVICE COMPANY
DATE        .                                             UNKNOWN :LOG DATE
UWI         .                                            W-C-446D :UNIQUE WELL ID
XCOORD      .                                       598705.170000 :SURFACE X
YCOORD      .                                      2143305.170000 :SURFACE Y
LAT         .                                           19.382621 :LATITUDE
LON         .                                          -92.060061 :LONGITUDE
ELEV        .M                                            28.0000 :SURFACE ELEV
ELEV_TYPE   .                                                  KB :ELEV TYPE
~CURVE INFORMATION
#MNEMONIC.UNIT        API CODE       : CURVE DESCRIPTION
#------------------------------------------------------------------------------
DEPTH    .M                          : Measured Depth
CALI     .inches      UNKNOWN        : CALI:litodensidad:rC:NONE:v0 (auto-composite)
CGR      .API         UNKNOWN        : CGR:CGR-Load:rC:NONE:v0 (auto-composite)
DRHO     .g/cm3       UNKNOWN        : DRHO:litodensidad:rC:NONE:v0 (auto-composite)
DT       .us/ft       UNKNOWN        : DT:DT-Load:rC:NONE:v0 (auto-composite)
GR       .UNKNOWN     UNKNOWN        : GR:PETROWORKS:rC:NONE:v1 
LLD      .ohm.m       UNKNOWN        : LLD:PETROWORKS:rC:NONE:v1 
LLS      .UNKNOWN     UNKNOWN        : LLS:PETROWORKS:rC:NONE:v1 
MSFL     .UNKNOWN     UNKNOWN        : MSFL:PETROWORKS:rC:NONE:v1 
NPHI     .v/v_decimal UNKNOWN        : NPHI:PETROWORKS:rC:NONE:v2 
PEF      .UNKNOWN     UNKNOWN        : PEF:litodensidad:rC:NONE:v0 (auto-composite)
POTA     .UNKNOWN     UNKNOWN        : POTA:radioactividad:rC:NONE:v0 (auto-composite)
RHOB     .g/cm3       UNKNOWN        : RHOB:litodensidad:rC:NONE:v0 (auto-composite)
THOR     .ppm         UNKNOWN        : THOR:radioactividad:rC:NONE:v0 (auto-composite)
URAN     .ppm         UNKNOWN        : URAN:radioactividad:rC:NONE:v0 (auto-composite)
~A     DEPTH         CALI          CGR         DRHO           DT           GR          LLD          LLS         MSFL         NPHI          PEF         POTA         RHOB         THOR         URAN
# ...
   2943.7351       6.6456      43.5328       0.0470      71.7256      86.5732      12.2142      11.6236      14.5203       0.1123       4.4906       0.0176       2.5884       2.9074       4.8437
   2943.8877       6.6739      43.7608       0.0420      69.5660      86.6476       9.9197       9.9792      37.5456       0.1162       4.6918       0.0178       2.6067       2.8832       4.8629
   2944.0400       6.7200      36.9157       0.0304      65.7960      78.9095      10.6519      10.0498      19.4264       0.1067       4.6828       0.0155       2.6116       2.2199       4.7838
   2944.1924       6.6090      29.3649       0.0165      62.2268      68.3200      12.6714      11.9244      15.0582       0.0907       4.4362       0.0118       2.6051       1.9963       4.4175
   2944.3447       6.6849      21.8952       0.0129      60.2152      58.9049      16.1661      14.9850      49.5054       0.0768       4.4054       0.0098       2.6108       1.0829       4.1290
   2944.4973       6.6753      18.9235       0.0129      58.8044      53.8590      21.5451      19.3453      50.2534       0.0616       4.4161       0.0091       2.6137       0.6605       3.9614
   2944.6497       6.5835      18.4846       0.0133      59.0245      53.6564      25.8440      23.4226      40.0605       0.0551       4.5825       0.0089       2.6226       0.6460       3.9494
   2944.8020       6.5632      20.2078       0.0111      60.3740      56.5238      28.2569      25.5053      30.7714       0.0530       4.5107       0.0090       2.6210       1.0170       4.1236
   2944.9543       6.5758      17.8044       0.0122      60.0062      53.1279      28.5381      26.1149      31.6725       0.0536       4.7267       0.0076       2.6273       1.0133       3.9524
   2945.1067       6.5647      17.9960       0.0128      59.0939      52.2228      28.9424      26.6320      38.5410       0.0509       4.4879       0.0075       2.6223       1.1172       3.8904
   2945.2593       6.5623      16.9840       0.0116      58.7378      50.7367      29.4520      27.4313      34.5999       0.0466       4.3658       0.0068       2.6251       1.1422       3.8072
   2945.4116       6.5838      17.0861       0.0118      58.6575      50.3540      29.3714      27.8437      40.4598       0.0450       4.4420       0.0067       2.6265       1.2110       3.8016
   2945.5640       6.6165      15.0593       0.0126      58.8196      46.8537      29.1386      27.8361      49.2079       0.0445       4.7330       0.0056       2.6317       1.2123       3.5856
   2945.7163       6.5857      14.2758       0.0113      59.4014      44.8648      28.8233      27.3367      37.1291       0.0429       4.9125       0.0055       2.6287       1.0567       3.4450
   2945.8689       6.5999      15.4217       0.0068      60.5185      45.7609      26.8460      25.6021      34.2974       0.0424       4.7596       0.0058       2.6227       1.1869       3.4473
   2946.0212       6.6837      15.5733       0.0059      60.6151      46.6099      23.8060      23.3044      37.8160       0.0419       4.7532       0.0059       2.6198       1.2103       3.4513
   2946.1736       6.6989      17.8122       0.0069      60.8124      52.3876      23.4740      22.5994      40.8765       0.0432       4.8340       0.0070       2.6207       1.2685       3.9347
   2946.3259       6.5903      17.9990       0.0079      61.2742      53.5079      23.7336      23.0271      32.0857       0.0443       5.0433       0.0072       2.6265       1.2303       4.0086
   2946.4785       6.5609      18.5056       0.0099      59.4406      54.5057      23.9336      23.6025      20.9563       0.0464       4.9715       0.0072       2.6254       1.3480       4.0808
   2946.6309       6.5942      15.8415       0.0116      59.3547      46.3221      26.0159      25.4688      90.9141       0.0442       4.7680       0.0066       2.6170       0.9613       3.3731
   2946.7832       6.6490      13.9375       0.0107      59.3151      41.5089      29.6098      28.3823      56.4258       0.0420       4.3587       0.0062       2.5990       0.6663       3.1263
   2946.9355       6.5983      12.5620       0.0103      59.3848      39.7790      30.6097      30.0778      38.5839       0.0411       3.6942       0.0059       2.5817       0.5001       3.0500
   2947.0879       6.5769      12.9810       0.0131      61.9454      40.3691      30.8795      29.2998      31.2399       0.0460       3.5179       0.0058       2.5759       0.6264       3.1057
   2947.2405       6.6047      15.0276       0.0132      61.8058      45.6157      25.5552      25.3278      40.9720       0.0551       3.6395       0.0055       2.5698       1.2146       3.4307
   2947.3928       6.6478      17.9498       0.0123      62.1246      53.7471      18.7828      20.3441      22.2543       0.0615       4.2816       0.0063       2.5738       1.6107       4.0585
   2947.5452       6.6171      18.6737       0.0131      62.4545      55.4654      19.4849      19.5025      34.1976       0.0627       4.7870       0.0065       2.5800       1.6829       4.1871
   2947.6975       6.6182      17.9674       0.0102      58.6824      54.9646      21.9128      21.7270      45.8651       0.0552       4.9427       0.0062       2.5893       1.6360       4.1952
   2947.8501       6.6439      18.8216       0.0072      57.0664      56.3538      23.2474      23.7512      43.0932       0.0465       4.9806       0.0064       2.6018       1.7427       4.2736
   2948.0024       6.6374      19.2728       0.0061      57.6642      56.9359      26.1859      26.3157      46.3026       0.0419       5.0837       0.0068       2.6141       1.6826       4.2753
   2948.1548       6.6214      17.8954       0.0080      59.3290      54.7139      27.8892      28.6984      48.5393       0.0400       5.1805       0.0069       2.6149       1.3227       4.1143
   2948.3071       6.5871      19.7864       0.0075      61.0424      56.4164      28.1451      29.3255      29.0647       0.0429       5.2106       0.0078       2.6069       1.3966       4.1701
   2948.4597       6.5628      19.6936       0.0082      60.3666      55.6344      27.4200      28.7943      26.7812       0.0460       4.8261       0.0078       2.6001       1.3584       4.1401
   2948.6121       6.5861      14.1114       0.0117      60.7094      48.1239      26.5540      27.8750      33.4312       0.0472       4.4779       0.0066       2.6038       0.5562       3.8461
   2948.7644       6.6050       9.7573       0.0127      59.9507      40.5019      26.0087      27.0788      44.0477       0.0458       4.3961       0.0055       2.6054       0.0077       3.4365
   2948.9167       6.5637       9.5813       0.0131      59.4607      39.2877      25.7011      26.7017      38.9980       0.0441       4.5172       0.0054       2.6086       0.0268       3.3867
   2949.0691       6.5694       8.8985       0.0133      59.4000      38.2002      25.8514      27.1088      34.4827       0.0444       4.8353       0.0051       2.6095      -0.0294       3.3056
   2949.2217       6.5805      10.4440       0.0146      59.9942      39.5277      27.3384      28.7323      36.9376       0.0456       4.9509       0.0057       2.6136       0.1029       3.3386
   2949.3740       6.6057      10.2158       0.0117      59.3357      38.5228      29.1733      30.7530      54.8751       0.0458       4.7534       0.0058       2.6053      -0.0226       3.2040
   2949.5264       6.5992      11.3934       0.0102      59.6241      39.1679      29.7744      31.8220      41.6411       0.0443       4.6485       0.0060       2.6096       0.1881       3.1980
   2949.6787       6.6135      10.1446       0.0093      59.7848      37.1408      30.1412      32.2675      34.3427       0.0403       4.6537       0.0055       2.6198       0.0968       3.0612
   2949.8313       6.5681      11.0899       0.0110      58.7391      38.2158      30.8048      33.0380      76.4108       0.0373       4.9738       0.0057       2.6286       0.2110       3.0731
   2949.9836       6.6239      12.6022       0.0088      59.5264      40.2195      32.4764      34.8957      73.2789       0.0344       5.0075       0.0062       2.6257       0.3680       3.1315
