#------------------------------------------------------------------------------
#
#   Created by  : [OpenWorks] Log Export Utility (LEXP)
#   Created on  : 2016-05-23 11:57:11
#   Project     : CANT971
#   User        : R5K
#   Interpreter : PEP
#
#------------------------------------------------------------------------------
~VERSION INFORMATION
VERS. 2.0 : CWLS Log ASCII Standard - version 2.0
WRAP.  NO : One line per depth step
~WELL INFORMATION
#MNEMONIC   .UNIT                                           VALUE :DESCRIPTION
#------------------------------------------------------------------------------
STRT        .M                                           319.2782 :START DEPTH
STOP        .M                                          2532.8882 :STOP DEPTH
STEP        .M                                             0.1524 :STEP
NULL        .                                           -999.2500 :NULL VALUE
COMP        .                                   PEMEX EXPL & PROD :COMPANY
WELL        .                                                 73A :WELL
FLD         .                                           CANTARELL :FIELD
LOC         .                                             UNKNOWN :LOCATION
CNTY        .                                      CD. DEL CARMEN :COUNTY
STAT        .                                            CAMPECHE :STATE
CTRY        .                                              MEXICO :COUNTRY
SRVC        .                                             UNKNOWN :SERVICE COMPANY
DATE        .                                             UNKNOWN :LOG DATE
UWI         .                                          3060000177 :UNIQUE WELL ID
XCOORD      .                                       599722.890000 :SURFACE X
YCOORD      .                                      2147218.550000 :SURFACE Y
LAT         .                                           19.417934 :LATITUDE
LON         .                                          -92.050165 :LONGITUDE
ELEV        .M                                            27.8000 :SURFACE ELEV
ELEV_TYPE   .                                                  KB :ELEV TYPE
~CURVE INFORMATION
#MNEMONIC.UNIT        API CODE       : CURVE DESCRIPTION
#------------------------------------------------------------------------------
DEPTH    .M                          : Measured Depth
CALI     .inches      UNKNOWN        : CALI:registros:rC:NONE:v0 (auto-composite)
DRHO     .g/cm3       UNKNOWN        : DRHO:registros:rC:NONE:v0 (auto-composite)
DT       .UNKNOWN     UNKNOWN        : DT:registros:rC:NONE:v0 (auto-composite)
GR       .API         UNKNOWN        : GR:registros:rC:NONE:v0 (auto-composite)
ILD      .ohm.m       UNKNOWN        : ILD:registros:rC:NONE:v0 (auto-composite)
LLD      .ohm.m       UNKNOWN        : LLD:registros:rC:NONE:v0 (auto-composite)
LLS      .ohm.m       UNKNOWN        : LLS:registros:rC:NONE:v0 (auto-composite)
MSFL     .ohm.m       UNKNOWN        : MSFL:registros:rC:NONE:v0 (auto-composite)
RHOB     .g/cm3       UNKNOWN        : RHOB:registros:rC:NONE:v0 (auto-composite)
~A     DEPTH         CALI         DRHO           DT           GR          ILD          LLD          LLS         MSFL         RHOB
# ...
   1103.5286      17.0600       0.0300     144.0953      46.7976       0.6741    -999.2500    -999.2500    -999.2500       2.2100
   1103.6810      16.9500       0.0370     143.3110      48.8000       0.6500    -999.2500    -999.2500    -999.2500       2.2100
   1103.8334      16.9750       0.0470     140.3968      48.6861       0.6555    -999.2500    -999.2500    -999.2500       2.2100
   1103.9858      17.0000       0.0570     137.4800      48.5720       0.6610    -999.2500    -999.2500    -999.2500       2.2100
   1104.1382      16.9525       0.0545     137.9698      48.0117       0.6690    -999.2500    -999.2500    -999.2500       2.2050
   1104.2906      16.9050       0.0520     138.4600      47.4500       0.6770    -999.2500    -999.2500    -999.2500       2.2000
   1104.4430      16.7650       0.0520     140.0066      48.5485       0.6785    -999.2500    -999.2500    -999.2500       2.2000
   1104.5955      16.6250       0.0520     141.5550      49.6500       0.6800    -999.2500    -999.2500    -999.2500       2.2000
   1104.7478      16.3725       0.0560     143.4778      48.9455       0.6835    -999.2500    -999.2500    -999.2500       2.2100
   1104.9001      16.1200       0.0600     145.4030      48.2390       0.6870    -999.2500    -999.2500    -999.2500       2.2200
   1105.0526      16.3515       0.0355     147.2517      47.0982       0.6945    -999.2500    -999.2500    -999.2500       2.2050
   1105.2050      16.5830       0.0110     149.1030      45.9540       0.7020    -999.2500    -999.2500    -999.2500       2.1900
   1105.3574      17.1015       0.0110     151.1974      44.6540       0.7259    -999.2500    -999.2500    -999.2500       2.1400
   1105.5098      17.6200       0.0110     153.2950      43.3500       0.7500    -999.2500    -999.2500    -999.2500       2.0900
   1105.6622      17.5450       0.0110     155.2009      43.5741       0.7480    -999.2500    -999.2500    -999.2500       2.0920
   1105.8146      17.4700       0.0110     157.1100      43.7990       0.7460    -999.2500    -999.2500    -999.2500       2.0940
   1105.9670      17.5450       0.0135     157.0096      44.2514       0.7380    -999.2500    -999.2500    -999.2500       2.0985
   1106.1194      17.6200       0.0160     156.9090      44.7050       0.7300    -999.2500    -999.2500    -999.2500       2.1030
   1106.2719      17.2601       0.0210     156.1681      45.2145       0.7175    -999.2500    -999.2500    -999.2500       2.1135
   1106.4242      16.9000       0.0260     155.4270      45.7250       0.7050    -999.2500    -999.2500    -999.2500       2.1240
   1106.5765      16.9780       0.0375     152.0642      46.6616       0.6925    -999.2500    -999.2500    -999.2500       2.1570
   1106.7290      17.0560       0.0490     148.7000      47.6000       0.6800    -999.2500    -999.2500    -999.2500       2.1900
   1106.8813      17.1665       0.0475     149.1109      47.0910       0.6800    -999.2500    -999.2500    -999.2500       2.1880
   1107.0338      17.2770       0.0460     149.5220      46.5810       0.6800    -999.2500    -999.2500    -999.2500       2.1860
   1107.1862      17.4634       0.0405     151.2854      44.5178       0.6800    -999.2500    -999.2500    -999.2500       2.1730
   1107.3386      17.6500       0.0350     153.0500      42.4500       0.6800    -999.2500    -999.2500    -999.2500       2.1600
   1107.4910      17.5855       0.0270     151.0453      42.8640       0.6800    -999.2500    -999.2500    -999.2500       2.1620
   1107.6434      17.5210       0.0190     149.0390      43.2790       0.6800    -999.2500    -999.2500    -999.2500       2.1640
   1107.7958      17.3825       0.0200     142.4625      44.2128       0.6651    -999.2500    -999.2500    -999.2500       2.1700
   1107.9482      17.2440       0.0210     135.8800      45.1490       0.6500    -999.2500    -999.2500    -999.2500       2.1760
   1108.1006      16.8469       0.0205     137.7770      46.2670       0.6555    -999.2500    -999.2500    -999.2500       2.1830
   1108.2531      16.4500       0.0200     139.6760      47.3880       0.6610    -999.2500    -999.2500    -999.2500       2.1900
   1108.4054      16.4590       0.0165     144.0824      50.8891       0.6705    -999.2500    -999.2500    -999.2500       2.1790
   1108.5577      16.4680       0.0130     148.4940      54.4000       0.6800    -999.2500    -999.2500    -999.2500       2.1680
   1108.7102      16.5725       0.0165     154.7829      54.2088       0.6765    -999.2500    -999.2500    -999.2500       2.1430
   1108.8625      16.6770       0.0200     161.0800      54.0170       0.6730    -999.2500    -999.2500    -999.2500       2.1180
   1109.0150      17.2636       0.0330     160.9391      53.4384       0.6640    -999.2500    -999.2500    -999.2500       2.0740
   1109.1674      17.8500       0.0460     160.7980      52.8580       0.6550    -999.2500    -999.2500    -999.2500       2.0300
   1109.3198      17.8265       0.0445     159.6134      51.2066       0.6450    -999.2500    -999.2500    -999.2500       2.0375
   1109.4722      17.8030       0.0430     158.4270      49.5500       0.6350    -999.2500    -999.2500    -999.2500       2.0450
   1109.6246      17.7105       0.0405     156.2363      49.7247       0.6225    -999.2500    -999.2500    -999.2500       2.0680
   1109.7770      17.6180       0.0380     154.0420      49.9000       0.6100    -999.2500    -999.2500    -999.2500       2.0910
   1109.9294      17.4255       0.0370     151.4783      48.5518       0.6155    -999.2500    -999.2500    -999.2500       2.1175
   1110.0818      17.2330       0.0360     148.9120      47.2000       0.6210    -999.2500    -999.2500    -999.2500       2.1440
   1110.2343      16.9165       0.0270     143.8868      47.6556       0.6325    -999.2500    -999.2500    -999.2500       2.1575
   1110.3866      16.6000       0.0180     138.8600      48.1120       0.6440    -999.2500    -999.2500    -999.2500       2.1710
   1110.5389      16.6840       0.0200     139.6143      49.1454       0.6580    -999.2500    -999.2500    -999.2500       2.1750
   1110.6914      16.7680       0.0220     140.3690      50.1810       0.6720    -999.2500    -999.2500    -999.2500       2.1790
   1110.8438      16.9584       0.0300     141.9241      50.9397       0.6860    -999.2500    -999.2500    -999.2500       2.1795
   1110.9962      17.1490       0.0380     143.4800      51.7000       0.7000    -999.2500    -999.2500    -999.2500       2.1800
   1111.1486      17.4745       0.0315     141.1408      51.2255       0.7249    -999.2500    -999.2500    -999.2500       2.1725
   1111.3010      17.8000       0.0250     138.8000      50.7500       0.7500    -999.2500    -999.2500    -999.2500       2.1650
   1111.4534      17.5999       0.0250     140.8941      51.6150       0.7480    -999.2500    -999.2500    -999.2500       2.1525
   1111.6058      17.4000       0.0250     142.9900      52.4820       0.7460    -999.2500    -999.2500    -999.2500       2.1400
   1111.7582      17.4220       0.0315     142.7046      56.6607       0.7340    -999.2500    -999.2500    -999.2500       2.1150
   1111.9106      17.4440       0.0380     142.4190      60.8500       0.7220    -999.2500    -999.2500    -999.2500       2.0900
   1112.0630      17.4765       0.0565     139.2922      59.9622       0.7011    -999.2500    -999.2500    -999.2500       2.0990
   1112.2155      17.5090       0.0750     136.1620      59.0720       0.6800    -999.2500    -999.2500    -999.2500       2.1080
   1112.3678      17.5200       0.0705     123.9033      56.6179       0.6800    -999.2500    -999.2500    -999.2500       2.1470
   1112.5201      17.5310       0.0660     111.6300      54.1570       0.6800    -999.2500    -999.2500    -999.2500       2.1860
   1112.6726      17.5575       0.0575     112.0088      50.2342       0.6870    -999.2500    -999.2500    -999.2500       2.2631
   1112.8250      17.5840       0.0490     112.3880      46.3000       0.6940    -999.2500    -999.2500    -999.2500       2.3400
