#------------------------------------------------------------------------------
#
#   Created by  : [OpenWorks] Log Export Utility (LEXP)
#   Created on  : 2016-05-23 11:50:52
#   Project     : CANT971
#   User        : R5K
#   Interpreter : PEP
#
#------------------------------------------------------------------------------
~VERSION INFORMATION
VERS. 2.0 : CWLS Log ASCII Standard - version 2.0
WRAP.  NO : One line per depth step
~WELL INFORMATION
#MNEMONIC   .UNIT                                           VALUE :DESCRIPTION
#------------------------------------------------------------------------------
STRT        .M                                           540.4100 :START DEPTH
STOP        .M                                          3242.0049 :STOP DEPTH
STEP        .M                                             0.1524 :STEP
NULL        .                                           -999.2500 :NULL VALUE
COMP        .                                   PEMEX EXPL & PROD :COMPANY
WELL        .                                                1041 :WELL
FLD         .                                           CANTARELL :FIELD
LOC         .                                             UNKNOWN :LOCATION
CNTY        .                                      CD. DEL CARMEN :COUNTY
STAT        .                                            CAMPECHE :STATE
CTRY        .                                              MEXICO :COUNTRY
SRVC        .                                             UNKNOWN :SERVICE COMPANY
DATE        .                                             UNKNOWN :LOG DATE
UWI         .                                          3060000494 :UNIQUE WELL ID
XCOORD      .                                       596162.660000 :SURFACE X
YCOORD      .                                      2150607.940000 :SURFACE Y
LAT         .                                           19.448736 :LATITUDE
LON         .                                          -92.083900 :LONGITUDE
ELEV        .M                                            30.0000 :SURFACE ELEV
ELEV_TYPE   .                                                  KB :ELEV TYPE
~CURVE INFORMATION
#MNEMONIC.UNIT        API CODE       : CURVE DESCRIPTION
#------------------------------------------------------------------------------
DEPTH    .M                          : Measured Depth
CALI     .inches      UNKNOWN        : CALI:litodensidad:rC:NONE:v0 (auto-composite)
DRHO     .g/cm3      UNKNOWN        : DRHO:DRHO-Load:rC:NONE:v0 (auto-composite)
DT       .us/ft       UNKNOWN        : DT:DT:rC:NONE:v0 (auto-composite)
GR       .API         UNKNOWN        : GR:GR-Load:rC:NONE:v0 (auto-composite)
ILD      .ohmm        UNKNOWN        : ILD:ILD-Load:rC:NONE:v0 (auto-composite)
ILM      .ohmm        UNKNOWN        : ILM:ILM-Load:rC:NONE:v0 (auto-composite)
LLD      .ohmm        UNKNOWN        : LLD:LLD-Load:rC:NONE:v0 (auto-composite)
LLS      .ohmm        UNKNOWN        : LLS:LLS-Load:rC:NONE:v0 (auto-composite)
MSFL     .ohmm        UNKNOWN        : MSFL:MSFL-Load:rC:NONE:v0 (auto-composite)
NPHI     .v/v_decimal UNKNOWN        : NPHI:NPHI-Load:rC:NONE:v0 (auto-composite)
PEF      .b/elec      UNKNOWN        : PEF:PEF-Load:rC:NONE:v0 (auto-composite)
RHOB     .g/cm3       UNKNOWN        : RHOB:RHOB-Load:rC:NONE:v0 (auto-composite)
~A     DEPTH         CALI         DRHO           DT           GR          ILD          ILM          LLD          LLS         MSFL         NPHI          PEF         RHOB
# ...
   3151.9363       6.3446    -999.2500    -999.2500      34.8034    -999.2500    -999.2500     513.3953     531.9249     536.5424       0.0190    -999.2500    -999.2500
   3152.0889       6.3911    -999.2500    -999.2500      35.7596    -999.2500    -999.2500     450.0392     469.5533     321.0225       0.0190    -999.2500    -999.2500
   3152.2412       6.4978    -999.2500    -999.2500      36.5884    -999.2500    -999.2500     376.5448     396.0191     330.2864       0.0203    -999.2500    -999.2500
   3152.3936       6.5465    -999.2500    -999.2500      37.0262    -999.2500    -999.2500     292.3066     309.7451     212.2990       0.0243    -999.2500    -999.2500
   3152.5459       6.5010    -999.2500    -999.2500      37.8184    -999.2500    -999.2500     212.4974     225.9030     181.7066       0.0300    -999.2500    -999.2500
   3152.6985       6.4061    -999.2500    -999.2500      38.9199    -999.2500    -999.2500     157.8913     167.6243     112.9521       0.0373    -999.2500    -999.2500
   3152.8508       6.3425    -999.2500    -999.2500      39.7280    -999.2500    -999.2500     122.5314     129.7590      87.5037       0.0420    -999.2500    -999.2500
   3153.0032       6.3293    -999.2500    -999.2500      40.0194    -999.2500    -999.2500     102.6675     107.8652      56.3891       0.0437    -999.2500    -999.2500
   3153.1555       6.3601    -999.2500    -999.2500      40.6135    -999.2500    -999.2500      92.5067      95.0331      42.5338       0.0466    -999.2500    -999.2500
   3153.3079       6.4194    -999.2500    -999.2500      40.7531    -999.2500    -999.2500      88.1262      87.6144      53.2994       0.0487    -999.2500    -999.2500
   3153.4604       6.4827    -999.2500    -999.2500      42.9427    -999.2500    -999.2500      92.0873      89.1365      49.0548       0.0483    -999.2500    -999.2500
   3153.6128       6.4063    -999.2500    -999.2500      44.8917    -999.2500    -999.2500      98.7112      94.8036      63.2372       0.0473    -999.2500    -999.2500
   3153.7651       6.3511    -999.2500    -999.2500      48.7098    -999.2500    -999.2500     103.3269     100.1857      69.0976       0.0457    -999.2500    -999.2500
   3153.9175       6.3503    -999.2500    -999.2500      50.4107    -999.2500    -999.2500     110.9111     108.7997      80.1826       0.0424    -999.2500    -999.2500
   3154.0701       6.4016    -999.2500    -999.2500      51.6016    -999.2500    -999.2500     119.3413     118.0900     156.8783       0.0383    -999.2500    -999.2500
   3154.2224       6.5041    -999.2500    -999.2500      50.2531    -999.2500    -999.2500     125.3885     124.5799     142.7554       0.0350    -999.2500    -999.2500
   3154.3748       6.5178    -999.2500    -999.2500      48.5505    -999.2500    -999.2500     120.4761     119.0642     191.5560       0.0327    -999.2500    -999.2500
   3154.5271       6.4268    -999.2500    -999.2500      47.5441    -999.2500    -999.2500     112.1340     110.2369     105.9058       0.0320    -999.2500    -999.2500
   3154.6797       6.3480    -999.2500    -999.2500      50.5681    -999.2500    -999.2500     107.1102     104.6281     138.2471       0.0313    -999.2500    -999.2500
   3154.8320       6.3517    -999.2500    -999.2500      54.1566    -999.2500    -999.2500     103.6497     100.0991      97.8359       0.0303    -999.2500    -999.2500
   3154.9844       6.4296    -999.2500    -999.2500      55.8442    -999.2500    -999.2500     109.4550     103.8151     102.2904       0.0300    -999.2500    -999.2500
   3155.1367       6.5132    -999.2500    -999.2500      54.8069    -999.2500    -999.2500     119.0559     111.7292     158.2056       0.0300    -999.2500    -999.2500
   3155.2891       6.4965    -999.2500    -999.2500      54.4043    -999.2500    -999.2500     125.8797     117.7612     139.1193       0.0293    -999.2500    -999.2500
   3155.4417       6.4026    -999.2500    -999.2500      52.6029    -999.2500    -999.2500     133.0966     123.8990     131.6589       0.0290    -999.2500    -999.2500
   3155.5940       6.3493    -999.2500    -999.2500      49.0928    -999.2500    -999.2500     139.9811     129.2940     142.1026       0.0290    -999.2500    -999.2500
   3155.7463       6.3750    -999.2500    -999.2500      45.1088    -999.2500    -999.2500     144.6183     132.1213     130.9818       0.0310    -999.2500    -999.2500
   3155.8987       6.4684    -999.2500    -999.2500      44.5663    -999.2500    -999.2500     130.7853     119.5225     140.7963       0.0333    -999.2500    -999.2500
   3156.0513       6.5204    -999.2500    -999.2500      46.7688    -999.2500    -999.2500     108.6272      99.7413     118.2563       0.0360    -999.2500    -999.2500
   3156.2036       6.4543    -999.2500    -999.2500      49.6342    -999.2500    -999.2500      97.2605      89.2736      51.6787       0.0390    -999.2500    -999.2500
   3156.3560       6.3746    -999.2500    -999.2500      55.6224    -999.2500    -999.2500      91.5101      84.0501      39.5766       0.0427    -999.2500    -999.2500
   3156.5083       6.3530    -999.2500    -999.2500      59.9032    -999.2500    -999.2500      89.7750      81.6167     109.4694       0.0460    -999.2500    -999.2500
   3156.6609       6.3583    -999.2500    -999.2500      59.5332    -999.2500    -999.2500      97.8475      87.7070      93.3587       0.0470    -999.2500    -999.2500
   3156.8132       6.3846    -999.2500    -999.2500      55.5418    -999.2500    -999.2500     101.0481      90.5181     173.4153       0.0463    -999.2500    -999.2500
   3156.9656       6.3702    -999.2500    -999.2500      50.1033    -999.2500    -999.2500      99.1373      89.2186     130.9430       0.0460    -999.2500    -999.2500
   3157.1179       6.3113    -999.2500    -999.2500      47.4470    -999.2500    -999.2500      98.0060      88.1349     245.9223       0.0460    -999.2500    -999.2500
   3157.2703       6.3142    -999.2500    -999.2500      44.8732    -999.2500    -999.2500      94.1416      84.7147     142.6003       0.0460    -999.2500    -999.2500
   3157.4229       6.4067    -999.2500    -999.2500      44.5863    -999.2500    -999.2500      93.0440      83.5230      55.5562       0.0460    -999.2500    -999.2500
   3157.5752       6.4658    -999.2500    -999.2500      44.9115    -999.2500    -999.2500      93.1525      83.4206      53.6188       0.0447    -999.2500    -999.2500
   3157.7275       6.4231    -999.2500    -999.2500      44.9967    -999.2500    -999.2500      92.2736      82.8220      60.7286       0.0427    -999.2500    -999.2500
   3157.8799       6.3677    -999.2500    -999.2500      47.8430    -999.2500    -999.2500      95.5748      85.7734      79.3971       0.0407    -999.2500    -999.2500
   3158.0325       6.3825    -999.2500    -999.2500      52.0475    -999.2500    -999.2500     102.3048      91.5645     105.9936       0.0387    -999.2500    -999.2500
   3158.1848       6.4216    -999.2500    -999.2500      56.6073    -999.2500    -999.2500     109.2181      97.4496      85.0111       0.0367    -999.2500    -999.2500
   3158.3372       6.4098    -999.2500    -999.2500      59.0794    -999.2500    -999.2500     116.0416     103.4890     133.0542       0.0347    -999.2500    -999.2500
   3158.4895       6.3793    -999.2500    -999.2500      63.2181    -999.2500    -999.2500     123.3722     110.2398      99.0542       0.0340    -999.2500    -999.2500
   3158.6421       6.3753    -999.2500    -999.2500      64.7934    -999.2500    -999.2500     130.8590     117.3094      96.9287       0.0340    -999.2500    -999.2500
   3158.7944       6.3806    -999.2500    -999.2500      61.3306    -999.2500    -999.2500     133.4822     119.7722     380.9526       0.0340    -999.2500    -999.2500
   3158.9468       6.4076    -999.2500    -999.2500      53.3051    -999.2500    -999.2500     134.2424     120.5452     222.0243       0.0340    -999.2500    -999.2500
   3159.0991       6.4177    -999.2500    -999.2500      46.7676    -999.2500    -999.2500     128.1866     115.3582      72.4682       0.0347    -999.2500    -999.2500
