#------------------------------------------------------------------------------
#
#   Created by  : [OpenWorks] Log Export Utility (LEXP)
#   Created on  : 2016-05-23 11:57:11
#   Project     : CANT971
#   User        : R5K
#   Interpreter : PEP
#
#------------------------------------------------------------------------------
~VERSION INFORMATION
VERS. 2.0 : CWLS Log ASCII Standard - version 2.0
WRAP.  NO : One line per depth step
~WELL INFORMATION
#MNEMONIC   .UNIT                                           VALUE :DESCRIPTION
#------------------------------------------------------------------------------
STRT        .M                                           319.2782 :START DEPTH
STOP        .M                                          2532.8882 :STOP DEPTH
STEP        .M                                             0.1524 :STEP
NULL        .                                           -999.2500 :NULL VALUE
COMP        .                                   PEMEX EXPL & PROD :COMPANY
WELL        .                                                 73A :WELL
FLD         .                                           CANTARELL :FIELD
LOC         .                                             UNKNOWN :LOCATION
CNTY        .                                      CD. DEL CARMEN :COUNTY
STAT        .                                            CAMPECHE :STATE
CTRY        .                                              MEXICO :COUNTRY
SRVC        .                                             UNKNOWN :SERVICE COMPANY
DATE        .                                             UNKNOWN :LOG DATE
UWI         .                                          3060000177 :UNIQUE WELL ID
XCOORD      .                                       599722.890000 :SURFACE X
YCOORD      .                                      2147218.550000 :SURFACE Y
LAT         .                                           19.417934 :LATITUDE
LON         .                                          -92.050165 :LONGITUDE
ELEV        .M                                            27.8000 :SURFACE ELEV
ELEV_TYPE   .                                                  KB :ELEV TYPE
~CURVE INFORMATION
#MNEMONIC.UNIT        API CODE       : CURVE DESCRIPTION
#------------------------------------------------------------------------------
DEPTH    .M                          : Measured Depth
CALI     .inches      UNKNOWN        : CALI:registros:rC:NONE:v0 (auto-composite)
DRHO     .g/cm3       UNKNOWN        : DRHO:registros:rC:NONE:v0 (auto-composite)
DT       .UNKNOWN     UNKNOWN        : DT:registros:rC:NONE:v0 (auto-composite)
GR       .API         UNKNOWN        : GR:registros:rC:NONE:v0 (auto-composite)
ILD      .ohm.m       UNKNOWN        : ILD:registros:rC:NONE:v0 (auto-composite)
LLD      .ohm.m       UNKNOWN        : LLD:registros:rC:NONE:v0 (auto-composite)
LLS      .ohm.m       UNKNOWN        : LLS:registros:rC:NONE:v0 (auto-composite)
MSFL     .ohm.m       UNKNOWN        : MSFL:registros:rC:NONE:v0 (auto-composite)
RHOB     .g/cm3       UNKNOWN        : RHOB:registros:rC:NONE:v0 (auto-composite)
~A     DEPTH         CALI         DRHO           DT           GR          ILD          LLD          LLS         MSFL         RHOB
# ...
    990.1430      19.8175       0.0315     138.3390      54.0040       1.1309    -999.2500    -999.2500    -999.2500       2.2210
    990.2954      19.9350       0.0390     131.4200      52.6500       1.1540    -999.2500    -999.2500    -999.2500       2.2400
    990.4478      20.5526       0.0380     132.4668      52.8143       1.1724    -999.2500    -999.2500    -999.2500       2.2355
    990.6002      21.1700       0.0370     133.5150      52.9790       1.1910    -999.2500    -999.2500    -999.2500       2.2310
    990.7526      21.1450       0.0275     136.8065      53.5957       1.1955    -999.2500    -999.2500    -999.2500       2.2105
    990.9050      21.1200       0.0180     140.1030      54.2140       1.2000    -999.2500    -999.2500    -999.2500       2.1900
    991.0574      21.1650       0.0195     143.9940      56.2794       1.1955    -999.2500    -999.2500    -999.2500       2.1900
    991.2098      21.2100       0.0210     147.8900      58.3500       1.1910    -999.2500    -999.2500    -999.2500       2.1900
    991.3622      21.3300       0.0165     147.7151      58.3425       1.1765    -999.2500    -999.2500    -999.2500       2.1850
    991.5146      21.4500       0.0120     147.5400      58.3350       1.1620    -999.2500    -999.2500    -999.2500       2.1800
    991.6670      21.4200       0.0145     148.1387      58.0429       1.1261    -999.2500    -999.2500    -999.2500       2.1850
    991.8194      21.3900       0.0170     148.7380      57.7500       1.0900    -999.2500    -999.2500    -999.2500       2.1900
    991.9718      20.9949       0.0130     151.4323      57.8748       1.0900    -999.2500    -999.2500    -999.2500       2.1800
    992.1242      20.6000       0.0090     154.1300      58.0000       1.0900    -999.2500    -999.2500    -999.2500       2.1700
    992.2766      20.6335       0.0175     153.1562      57.5232       1.1089    -999.2500    -999.2500    -999.2500       2.1730
    992.4290      20.6670       0.0260     152.1810      57.0450       1.1280    -999.2500    -999.2500    -999.2500       2.1760
    992.5814      20.7435       0.0235     148.6012      55.7742       1.1933    -999.2500    -999.2500    -999.2500       2.1825
    992.7338      20.8200       0.0210     145.0160      54.5000       1.2590    -999.2500    -999.2500    -999.2500       2.1890
    992.8862      20.8095       0.0215     140.2209      54.7432       1.3258    -999.2500    -999.2500    -999.2500       2.1895
    993.0386      20.7990       0.0220     135.4200      54.9870       1.3930    -999.2500    -999.2500    -999.2500       2.1900
    993.1910      20.7495       0.0240     136.0947      56.0921       1.4398    -999.2500    -999.2500    -999.2500       2.1915
    993.3434      20.7000       0.0260     136.7700      57.2000       1.4870    -999.2500    -999.2500    -999.2500       2.1930
    993.4958      20.7335       0.0280     136.7300      57.0857       1.5533    -999.2500    -999.2500    -999.2500       2.1965
    993.6482      20.7670       0.0300     136.6900      56.9710       1.6200    -999.2500    -999.2500    -999.2500       2.2000
    993.8006      21.0175       0.0315     138.1241      56.4228       1.6095    -999.2500    -999.2500    -999.2500       2.2000
    993.9530      21.2680       0.0330     139.5600      55.8730       1.5990    -999.2500    -999.2500    -999.2500       2.2000
    994.1054      22.0841       0.0345     139.3851      54.9548       1.5686    -999.2500    -999.2500    -999.2500       2.2000
    994.2578      22.9000       0.0360     139.2100      54.0340       1.5380    -999.2500    -999.2500    -999.2500       2.2000
    994.4102      22.7670       0.0455     137.5362      53.2680       1.5061    -999.2500    -999.2500    -999.2500       2.2100
    994.5626      22.6340       0.0550     135.8600      52.5000       1.4740    -999.2500    -999.2500    -999.2500       2.2200
    994.7150      22.2139       0.0515     136.1678      52.9245       1.4023    -999.2500    -999.2500    -999.2500       2.2185
    994.8674      21.7940       0.0480     136.4760      53.3500       1.3300    -999.2500    -999.2500    -999.2500       2.2170
    995.0198      21.4539       0.0385     138.6766      52.0766       1.3435    -999.2500    -999.2500    -999.2500       2.2085
    995.1722      21.1140       0.0290     140.8800      50.8000       1.3570    -999.2500    -999.2500    -999.2500       2.2000
    995.3246      20.9069       0.0310     140.7101      52.1233       1.3939    -999.2500    -999.2500    -999.2500       2.2000
    995.4770      20.7000       0.0330     140.5400      53.4500       1.4310    -999.2500    -999.2500    -999.2500       2.2000
    995.6294      20.7685       0.0390     139.4286      53.2063       1.4494    -999.2500    -999.2500    -999.2500       2.2000
    995.7818      20.8370       0.0450     138.3160      52.9620       1.4680    -999.2500    -999.2500    -999.2500       2.2000
    995.9342      21.0005       0.0450     136.3992      51.4082       1.4690    -999.2500    -999.2500    -999.2500       2.2000
    996.0866      21.1640       0.0450     134.4800      49.8500       1.4700    -999.2500    -999.2500    -999.2500       2.2000
    996.2390      21.7571       0.0435     134.9801      50.4241       1.4700    -999.2500    -999.2500    -999.2500       2.1950
    996.3914      22.3500       0.0420     135.4810      51.0000       1.4700    -999.2500    -999.2500    -999.2500       2.1900
    996.5438      21.8350       0.0385     137.1392      50.9251       1.4670    -999.2500    -999.2500    -999.2500       2.1915
    996.6962      21.3200       0.0350     138.8000      50.8500       1.4640    -999.2500    -999.2500    -999.2500       2.1930
    996.8486      21.4440       0.0365     138.0055      51.1591       1.4495    -999.2500    -999.2500    -999.2500       2.1965
    997.0010      21.5680       0.0380     137.2100      51.4690       1.4350    -999.2500    -999.2500    -999.2500       2.2000
    997.1534      21.8196       0.0415     137.7847      52.6530       1.4091    -999.2500    -999.2500    -999.2500       2.2100
    997.3058      22.0710       0.0450     138.3600      53.8400       1.3830    -999.2500    -999.2500    -999.2500       2.2200
    997.4582      22.1205       0.0345     140.4279      55.4144       1.3616    -999.2500    -999.2500    -999.2500       2.2170
    997.6106      22.1700       0.0240     142.4980      56.9930       1.3400    -999.2500    -999.2500    -999.2500       2.2140
    997.7630      22.4451       0.0240     144.9475      59.4430       1.3241    -999.2500    -999.2500    -999.2500       2.2020
    997.9154      22.7200       0.0240     147.4000      61.9000       1.3080    -999.2500    -999.2500    -999.2500       2.1900
    998.0678      22.3099       0.0320     146.2808      61.5485       1.2826    -999.2500    -999.2500    -999.2500       2.1915
    998.2202      21.9000       0.0400     145.1600      61.1960       1.2570    -999.2500    -999.2500    -999.2500       2.1930
    998.3726      22.0100       0.0385     146.5490      60.4320       1.2361    -999.2500    -999.2500    -999.2500       2.1965
    998.5250      22.1200       0.0370     147.9400      59.6660       1.2150    -999.2500    -999.2500    -999.2500       2.2000
    998.6774      21.7349       0.0325     154.1413      59.3574       1.1697    -999.2500    -999.2500    -999.2500       2.2000
    998.8298      21.3500       0.0280     160.3500      59.0480       1.1240    -999.2500    -999.2500    -999.2500       2.2000
    998.9822      21.5251       0.0235     159.6013      55.9529       1.0732    -999.2500    -999.2500    -999.2500       2.1970
    999.1346      21.7000       0.0190     158.8520      52.8500       1.0220    -999.2500    -999.2500    -999.2500       2.1940
    999.2870      21.5955       0.0140     150.1456      52.9144       0.9961    -999.2500    -999.2500    -999.2500       2.1820
    999.4394      21.4910       0.0090     141.4300      52.9790       0.9700    -999.2500    -999.2500    -999.2500       2.1700
