#------------------------------------------------------------------------------
#
#   Created by  : [OpenWorks] Log Export Utility (LEXP)
#   Created on  : 2016-05-23 11:55:49
#   Project     : CANT971
#   User        : R5K
#   Interpreter : PEP
#
#------------------------------------------------------------------------------
~VERSION INFORMATION
VERS. 2.0 : CWLS Log ASCII Standard - version 2.0
WRAP.  NO : One line per depth step
~WELL INFORMATION
#MNEMONIC   .UNIT                                           VALUE :DESCRIPTION
#------------------------------------------------------------------------------
STRT        .M                                           773.4315 :START DEPTH
STOP        .M                                          2865.1216 :STOP DEPTH
STEP        .M                                             0.1524 :STEP
NULL        .                                           -999.2500 :NULL VALUE
COMP        .                                             UNKNOWN :COMPANY
WELL        .                                                408D :WELL
FLD         .                                             UNKNOWN :FIELD
LOC         .                                             UNKNOWN :LOCATION
CNTY        .                                             UNKNOWN :COUNTY
STAT        .                                             UNKNOWN :STATE
CTRY        .                                             UNKNOWN :COUNTRY
SRVC        .                                             UNKNOWN :SERVICE COMPANY
DATE        .                                             UNKNOWN :LOG DATE
UWI         .                                                408D :UNIQUE WELL ID
XCOORD      .                                       597130.770000 :SURFACE X
YCOORD      .                                      2144867.260000 :SURFACE Y
LAT         .                                           19.396814 :LATITUDE
LON         .                                          -92.074972 :LONGITUDE
ELEV        .M                                             0.0000 :SURFACE ELEV
ELEV_TYPE   .                                                  KB :ELEV TYPE
~CURVE INFORMATION
#MNEMONIC.UNIT        API CODE       : CURVE DESCRIPTION
#------------------------------------------------------------------------------
DEPTH    .M                          : Measured Depth
CALI     .inches      UNKNOWN        : CALI:litodensidad:rC:NONE:v0 (auto-composite)
CGR      .API         UNKNOWN        : CGR:PETROWORKS:rC:NONE:v1 
DRHO     .g/cm3       UNKNOWN        : DRHO:litodensidad:rC:NONE:v0 (auto-composite)
DT       .us/ft       UNKNOWN        : DT:PETROWORKS:rC:NONE:v1 
GR       .API         UNKNOWN        : GR:PETROWORKS:rC:NONE:v3 
GR-LWD   .UNKNOWN     UNKNOWN        : GR-LWD:resistivos-LWD:rC:NONE:v0 (auto-composite)
LLD      .ohm.m       UNKNOWN        : LLD:PETROWORKS:rC:NONE:v1 
LLD-LWD  .UNKNOWN     UNKNOWN        : LLD-LWD:resistivos-LWD:rC:NONE:v0 (auto-composite)
LLS      .UNKNOWN     UNKNOWN        : LLS:PETROWORKS:rC:NONE:v1 
LLS-LWD  .UNKNOWN     UNKNOWN        : LLS-LWD:resistivos-LWD:rC:NONE:v0 (auto-composite)
MSFL     .UNKNOWN     UNKNOWN        : MSFL:PETROWORKS:rC:NONE:v1 
MSFL-LWD .UNKNOWN     UNKNOWN        : MSFL-LWD:resistivos-LWD:rC:NONE:v0 (auto-composite)
NPHI     .v/v_decimal UNKNOWN        : NPHI:PETROWORKS:rC:NONE:v3 
PEF      .UNKNOWN     UNKNOWN        : PEF:litodensidad:rC:NONE:v0 (auto-composite)
POTA     .wtpercent   UNKNOWN        : POTA:PETROWORKS:rC:NONE:v1 
RHOB     .g/cm3       UNKNOWN        : RHOB:litodensidad:rC:NONE:v0 (auto-composite)
THOR     .ppm         UNKNOWN        : THOR:PETROWORKS:rC:NONE:v1 
URAN     .ppm         UNKNOWN        : URAN:PETROWORKS:rC:NONE:v1 
~A     DEPTH         CALI          CGR         DRHO           DT           GR       GR-LWD          LLD      LLD-LWD          LLS      LLS-LWD         MSFL     MSFL-LWD         NPHI          PEF         POTA         RHOB         THOR         URAN
# ...
   2594.0020       9.0229      14.4454      -0.0108      56.2854      24.2823    -999.2500      16.6544    -999.2500      13.9301    -999.2500      30.1907    -999.2500       0.0868       3.5917       0.0061       2.7111       1.0693       1.2125
   2594.1543       8.8327      15.4673      -0.0140      54.4454      24.8074    -999.2500      16.7676    -999.2500      14.2192    -999.2500      20.5889    -999.2500       0.0897       3.8614       0.0067       2.7009       1.0543       1.1511
   2594.3066       8.9645      16.5554      -0.0086      56.5482      24.2291    -999.2500      18.0125    -999.2500      15.4741    -999.2500      17.0031    -999.2500       0.0883       4.0113       0.0068       2.7135       1.3301       0.9402
   2594.4592       9.0365      14.9684      -0.0077      54.3533      23.0362    -999.2500      19.2295    -999.2500      16.5905    -999.2500      29.8351    -999.2500       0.0847       4.4288       0.0063       2.7313       1.0688       0.9809
   2594.6116       9.0229      15.8111      -0.0067      51.9584      22.4268    -999.2500      22.2112    -999.2500      18.9995    -999.2500      35.8901    -999.2500       0.0787       3.9189       0.0069       2.7337       1.0241       0.8351
   2594.7639       8.9210      16.0833      -0.0088      56.2919      22.4859    -999.2500      23.4135    -999.2500      20.1175    -999.2500      26.2974    -999.2500       0.0816       3.7652       0.0069       2.6727       1.0786       0.7909
   2594.9163       8.8055      17.6173      -0.0071      58.2551      23.6039    -999.2500      20.2813    -999.2500      17.5995    -999.2500      18.5903    -999.2500       0.0884       3.7094       0.0077       2.5332       1.1385       0.7229
   2595.0686       8.7987      17.4778      -0.0073      60.1558      24.1935    -999.2500      16.2419    -999.2500      14.3329    -999.2500      15.8901    -999.2500       0.0971       3.7011       0.0076       2.4424       1.1479       0.7560
   2595.2212       8.8449      17.6859      -0.0045      63.3217      25.3195    -999.2500      14.3434    -999.2500      12.7487    -999.2500      29.0251    -999.2500       0.1013       3.3500       0.0077       2.4216       1.1504       0.9380
   2595.3735       8.9957      17.4110       0.0046      62.4241      24.0344    -999.2500      13.7780    -999.2500      12.3262    -999.2500      14.9269    -999.2500       0.0946       3.0893       0.0077       2.5277       1.0783       0.7819
   2595.5259       9.0297      16.4088       0.0122      58.2999      22.1961    -999.2500      13.0423    -999.2500      11.8926    -999.2500      39.9801    -999.2500       0.0797       2.9996       0.0073       2.6538       1.0008       0.6892
   2595.6782       9.1927      13.0780       0.0113      55.3679      19.3679    -999.2500      14.3883    -999.2500      13.3550    -999.2500      59.1593    -999.2500       0.0636       3.2894       0.0059       2.7623       0.7178       0.7085
   2595.8308       9.0840      12.2756       0.0029      54.2271      18.3906    -999.2500      19.0671    -999.2500      17.5382    -999.2500      69.7037    -999.2500       0.0591       3.4679       0.0055       2.7793       0.7261       0.7193
   2595.9832       8.8449      11.6504      -0.0029      60.7374      18.9399    -999.2500      24.9559    -999.2500      23.0535    -999.2500      48.0740    -999.2500       0.0622       3.6563       0.0055       2.7635       0.4930       0.8428
   2596.1355       8.9957      12.2492      -0.0054      65.6829      19.6868    -999.2500      32.9783    -999.2500      30.4956    -999.2500      42.2639    -999.2500       0.0606       3.7450       0.0059       2.7419       0.4824       0.8468
   2596.2878       9.0161      12.3601      -0.0029      53.8871      21.6735    -999.2500      39.1894    -999.2500      36.6740    -999.2500      34.7073    -999.2500       0.0592       3.5785       0.0059       2.7160       0.4888       1.0635
   2596.4404       8.9536      12.2222      -0.0052      57.3120      23.5803    -999.2500      34.5543    -999.2500      32.7602    -999.2500      29.6664    -999.2500       0.0596       3.5111       0.0060       2.6928       0.4242       1.3001
   2596.5928       8.7580      12.0701      -0.0059      56.0341      23.5567    -999.2500      31.2631    -999.2500      29.6892    -999.2500      21.5027    -999.2500       0.0618       3.4945       0.0061       2.6959       0.3189       1.3984
   2596.7451       8.7784      10.9784      -0.0028      51.1201      21.2758    -999.2500      28.7429    -999.2500      27.3581    -999.2500      58.1576    -999.2500       0.0536       3.4315       0.0055       2.7266       0.3156       1.2359
   2596.8975       8.8735      10.2716      -0.0024      51.7811      18.7356    -999.2500      28.2714    -999.2500      26.9472    -999.2500     257.1463    -999.2500       0.0380       3.4830       0.0050       2.7529       0.3776       0.9391
   2597.0498       8.9862       9.6971      -0.0068      51.5070      17.7278    -999.2500      37.2394    -999.2500      34.7268    -999.2500     325.9601    -999.2500       0.0243       3.2392       0.0046       2.7318       0.4068       0.9517
   2597.2024       8.9686       9.1279      -0.0098      54.0363      16.8819    -999.2500      49.2291    -999.2500      45.3526    -999.2500     213.8885    -999.2500       0.0201       3.1865       0.0045       2.7138       0.3013       0.8956
   2597.3547       8.6968       9.2367      -0.0079      52.7338      15.8100    -999.2500      70.2986    -999.2500      64.4505    -999.2500     439.4078    -999.2500       0.0230       3.0777       0.0045       2.7268       0.3186       0.7439
   2597.5071       8.6833       9.4946      -0.0051      50.8452      14.8954    -999.2500     101.9752    -999.2500      93.0773    -999.2500     244.5497    -999.2500       0.0268       3.2783       0.0043       2.7686       0.5280       0.5862
   2597.6594       8.7960      10.0369       0.0011      29.4128      15.3568    -999.2500     120.5386    -999.2500     112.2853    -999.2500     182.0660    -999.2500       0.0314       3.5243       0.0044       2.8001       0.6030       0.6100
   2597.8120       8.9074      12.0604       0.0012      52.0167      16.8545    -999.2500     104.8886    -999.2500     100.2986    -999.2500     160.5758    -999.2500       0.0365       3.5263       0.0052       2.7877       0.8100       0.5353
   2597.9644       8.9482      15.9169       0.0008      55.9174      20.3836    -999.2500      65.8559    -999.2500      63.3897    -999.2500     126.3944    -999.2500       0.0464       3.5210       0.0069       2.7722       1.0246       0.5304
   2598.1167       8.8938      20.1090       0.0046      59.3187      23.3747    -999.2500      34.8020    -999.2500      33.7619    -999.2500      66.9283    -999.2500       0.0608       3.4044       0.0087       2.7371       1.3371       0.4061
   2598.2690       8.8055      21.8626       0.0028      63.3058      25.4419    -999.2500      22.5491    -999.2500      21.9291    -999.2500      23.9463    -999.2500       0.0827       3.3796       0.0092       2.7035       1.6183       0.4359
   2598.4216       8.8599      22.7391       0.0018      61.6417      26.6723    -999.2500      16.8717    -999.2500      16.3672    -999.2500       9.4437    -999.2500       0.1022       3.4523       0.0098       2.6800       1.5732       0.4736
   2598.5740       8.9957      22.5835       0.0009      62.5756      27.2353    -999.2500      14.0772    -999.2500      13.4526    -999.2500      11.6590    -999.2500       0.1151       3.4888       0.0098       2.6738       1.4806       0.5695
   2598.7263       9.1329      23.9558       0.0002      62.4048      28.4984    -999.2500      13.0423    -999.2500      12.0460    -999.2500      11.5641    -999.2500       0.1154       3.7022       0.0104       2.6778       1.5722       0.6073
   2598.8787       9.1452      24.1153      -0.0072      59.2757      28.1045    -999.2500      13.5713    -999.2500      12.1999    -999.2500      14.4857    -999.2500       0.1081       3.5994       0.0103       2.6640       1.6566       0.5036
