#------------------------------------------------------------------------------
#
#   Created by  : [OpenWorks] Log Export Utility (LEXP)
#   Created on  : 2016-05-23 11:50:37
#   Project     : CANT971
#   User        : R5K
#   Interpreter : PEP
#
#------------------------------------------------------------------------------
~VERSION INFORMATION
VERS. 2.0 : CWLS Log ASCII Standard - version 2.0
WRAP.  NO : One line per depth step
~WELL INFORMATION
#MNEMONIC   .UNIT                                           VALUE :DESCRIPTION
#------------------------------------------------------------------------------
STRT        .M                                           690.6770 :START DEPTH
STOP        .M                                          3400.6538 :STOP DEPTH
STEP        .M                                             0.1524 :STEP
NULL        .                                           -999.2500 :NULL VALUE
COMP        .                                   PEMEX EXPL & PROD :COMPANY
WELL        .                                                1024 :WELL
FLD         .                                           CANTARELL :FIELD
LOC         .                                             UNKNOWN :LOCATION
CNTY        .                                      CD. DEL CARMEN :COUNTY
STAT        .                                            CAMPECHE :STATE
CTRY        .                                              MEXICO :COUNTRY
SRVC        .                                             UNKNOWN :SERVICE COMPANY
DATE        .                                             UNKNOWN :LOG DATE
UWI         .                                          3060000490 :UNIQUE WELL ID
XCOORD      .                                       596162.640000 :SURFACE X
YCOORD      .                                      2150611.280000 :SURFACE Y
LAT         .                                           19.448767 :LATITUDE
LON         .                                          -92.083900 :LONGITUDE
ELEV        .M                                            30.0000 :SURFACE ELEV
ELEV_TYPE   .                                                  KB :ELEV TYPE
~CURVE INFORMATION
#MNEMONIC.UNIT        API CODE       : CURVE DESCRIPTION
#------------------------------------------------------------------------------
DEPTH    .M                          : Measured Depth
CALI     .inches      UNKNOWN        : CALI:registros:rC:NONE:v0 (auto-composite)
DRHO     .g/cm3       UNKNOWN        : DRHO:registros:rC:NONE:v0 (auto-composite)
DT       .us/ft       UNKNOWN        : DT:registros:rC:NONE:v0 (auto-composite)
GR       .API         UNKNOWN        : GR:registros:rC:NONE:v0 (auto-composite)
ILD      .ohm.m       UNKNOWN        : ILD:registros:rC:NONE:v0 (auto-composite)
ILM      .ohm.m       UNKNOWN        : ILM:registros:rC:NONE:v0 (auto-composite)
LLD      .ohm.m       UNKNOWN        : LLD:registros:rC:NONE:v0 (auto-composite)
LLS      .ohm.m       UNKNOWN        : LLS:registros:rC:NONE:v0 (auto-composite)
MSFL     .ohm.m       UNKNOWN        : MSFL:registros:rC:NONE:v0 (auto-composite)
NPHI     .v/v_decimal UNKNOWN        : NPHI:registros:rC:NONE:v0 (auto-composite)
PEF      .b/elec      UNKNOWN        : PEF:registros:rC:NONE:v0 (auto-composite)
RHOB     .g/cm3       UNKNOWN        : RHOB:registros:rC:NONE:v0 (auto-composite)
~A     DEPTH         CALI         DRHO           DT           GR          ILD          ILM          LLD          LLS         MSFL         NPHI          PEF         RHOB
# ...
   3229.0515       8.7360       0.0030      66.8490      40.6350    -999.2500    -999.2500     131.1170     136.4070      98.0750       0.1255       3.4060       2.6280
   3229.2039       8.7070       0.0045      65.2618      40.7037    -999.2500    -999.2500     132.1793     137.6335     100.2937       0.1267       3.3800       2.6370
   3229.3562       8.6780       0.0060      63.6710      40.7720    -999.2500    -999.2500     133.2440     138.8570     102.5140       0.1280       3.3540       2.6460
   3229.5085       8.6580       0.0055      63.1446      41.0252    -999.2500    -999.2500     141.3630     146.0059     111.9180       0.1280       3.3945       2.6515
   3229.6609       8.6380       0.0050      62.6170      41.2770    -999.2500    -999.2500     149.5020     153.1380     121.3300       0.1278       3.4350       2.6570
   3229.8135       8.6325       0.0035      62.9376      41.2334    -999.2500    -999.2500     168.9838     170.6355     126.1891       0.1264       3.4470       2.6555
   3229.9658       8.6270       0.0020      63.2590      41.1900    -999.2500    -999.2500     188.5160     188.0940     131.0530       0.1248       3.4590       2.6540
   3230.1182       8.6285       0.0005      62.2599      41.4795    -999.2500    -999.2500     203.6550     201.5856     130.3089       0.1222       3.4650       2.6480
   3230.2705       8.6300      -0.0010      61.2580      41.7670    -999.2500    -999.2500     218.8350     215.0490     129.5640       0.1194       3.4710       2.6420
   3230.4231       8.6285       0.0010      60.1141      43.3107    -999.2500    -999.2500     223.2762     218.7967     126.9151       0.1155       3.5719       2.6405
   3230.5754       8.6270       0.0030      58.9670      44.8440    -999.2500    -999.2500     227.7300     222.5370     124.2630       0.1116       3.6730       2.6390
   3230.7278       8.6200       0.0055      58.0479      46.9053    -999.2500    -999.2500     228.2682     222.4769     130.8311       0.1095       3.6680       2.6410
   3230.8801       8.6130       0.0080      57.1260      48.9530    -999.2500    -999.2500     228.8080     222.4170     137.4080       0.1075       3.6630       2.6430
   3231.0327       8.6095       0.0065      55.9768      49.8740    -999.2500    -999.2500     232.1084     225.9621     146.1505       0.1054       3.6115       2.6540
   3231.1851       8.6060       0.0050      54.8240      50.7890    -999.2500    -999.2500     235.4190     229.5010     154.9060       0.1033       3.5600       2.6650
   3231.3374       8.5965       0.0025      53.9933      49.7682    -999.2500    -999.2500     242.8880     237.6020     161.6151       0.1002       3.5460       2.6725
   3231.4897       8.5870       0.0000      53.1600      48.7540    -999.2500    -999.2500     250.3810     245.6900     168.3350       0.0971       3.5320       2.6800
   3231.6421       8.5720       0.0005      51.5344      47.5252    -999.2500    -999.2500     255.3971     252.4405     180.7023       0.0951       3.5325       2.6795
   3231.7947       8.5570       0.0010      49.9060      46.3040    -999.2500    -999.2500     260.4220     259.1810     193.0910       0.0933       3.5330       2.6790
   3231.9470       8.5520       0.0040      51.3716      45.6891    -999.2500    -999.2500     262.7668     263.6475     197.7149       0.0940       3.5095       2.6830
   3232.0994       8.5470       0.0070      52.8400      45.0780    -999.2500    -999.2500     265.1160     268.1080     202.3400       0.0951       3.4860       2.6870
   3232.2517       8.5385       0.0095      54.5648      45.0865    -999.2500    -999.2500     267.3672     271.9003     198.7557       0.0978       3.4475       2.6860
   3232.4043       8.5300       0.0120      56.2930      45.0950    -999.2500    -999.2500     269.6230     275.6880     195.1700       0.1006       3.4090       2.6850
   3232.5566       8.5235       0.0125      57.0517      44.2390    -999.2500    -999.2500     263.2452     269.4736     190.2757       0.1036       3.4475       2.6775
   3232.7090       8.5170       0.0130      57.8120      43.3880    -999.2500    -999.2500     256.8540     263.2660     185.3790       0.1066       3.4860       2.6700
   3232.8613       8.5270       0.0145      57.7775      42.3034    -999.2500    -999.2500     255.4581     263.4301     180.0742       0.1101       3.4455       2.6590
   3233.0139       8.5370       0.0160      57.7430      41.2250    -999.2500    -999.2500     254.0590     263.5940     174.7660       0.1134       3.4050       2.6480
   3233.1663       8.5630       0.0210      57.7270      40.7346    -999.2500    -999.2500     268.1479     278.2912     169.0717       0.1123       3.3800       2.6535
   3233.3186       8.5890       0.0260      57.7110      40.2470    -999.2500    -999.2500     282.2700     292.9760     163.3730       0.1108       3.3550       2.6590
   3233.4709       8.5990       0.0255      57.1347      40.4340    -999.2500    -999.2500     300.1048     311.5857     163.7483       0.1095       3.3954       2.6590
   3233.6233       8.6090       0.0250      56.5570      40.6200    -999.2500    -999.2500     317.9840     330.1820     164.1240       0.1083       3.4360       2.6590
   3233.7759       8.5995       0.0210      56.2549      40.8416    -999.2500    -999.2500     329.7147     341.8904     172.5617       0.1079       3.4930       2.6525
   3233.9282       8.5900       0.0170      55.9520      41.0620    -999.2500    -999.2500     341.4760     353.5730     181.0080       0.1076       3.5500       2.6460
   3234.0806       8.5880       0.0130      57.8025      41.4162    -999.2500    -999.2500     339.2336     350.8152     175.3382       0.1061       3.5620       2.6490
   3234.2329       8.5860       0.0090      59.6580      41.7680    -999.2500    -999.2500     336.9850     348.0630     169.6620       0.1045       3.5740       2.6520
   3234.3855       8.5940       0.0070      59.3954      42.0595    -999.2500    -999.2500     328.0837     338.0087     152.5948       0.1045       3.5405       2.6570
   3234.5378       8.6020       0.0050      59.1320      42.3490    -999.2500    -999.2500     319.1570     327.9740     135.5060       0.1048       3.5070       2.6620
   3234.6902       8.5920       0.0055      58.7096      41.5183    -999.2500    -999.2500     309.6892     316.5546     128.3220       0.1073       3.5685       2.6600
   3234.8425       8.5820       0.0060      58.2860      40.6930    -999.2500    -999.2500     300.1930     305.1560     121.1280       0.1100       3.6300       2.6580
   3234.9951       8.5725       0.0065      57.9660      40.0223    -999.2500    -999.2500     298.7338     305.2521     133.9068       0.1119       3.6605       2.6520
   3235.1475       8.5630       0.0070      57.6450      39.3560    -999.2500    -999.2500     297.2700     305.3480     146.7050       0.1138       3.6910       2.6460
   3235.2998       8.5835       0.0065      57.4363      39.0766    -999.2500    -999.2500     303.0686     310.1393     160.8629       0.1148       3.5866       2.6445
   3235.4521       8.6040       0.0060      57.2270      38.7990    -999.2500    -999.2500     308.8860     314.9230     175.0440       0.1158       3.4820       2.6430
   3235.6045       8.6025       0.0055      57.1401      38.6405    -999.2500    -999.2500     308.7511     313.2148     192.0480       0.1156       3.4251       2.6495
   3235.7571       8.6010       0.0050      57.0530      38.4830    -999.2500    -999.2500     308.6160     311.5090     209.0820       0.1154       3.3680       2.6560
   3235.9094       8.6135       0.0035      57.4202      38.2543    -999.2500    -999.2500     304.4105     305.7367     196.1229       0.1158       3.3965       2.6520
   3236.0618       8.6260       0.0020      57.7880      38.0270    -999.2500    -999.2500     300.1970     299.9720     183.1600       0.1163       3.4250       2.6480
   3236.2141       8.6510       0.0010      59.4313      38.0701    -999.2500    -999.2500     296.3509     295.1626     168.5530       0.1186       3.4864       2.6325
