#------------------------------------------------------------------------------
#
#   Created by  : [OpenWorks] Log Export Utility (LEXP)
#   Created on  : 2016-05-23 11:50:53
#   Project     : CANT971
#   User        : R5K
#   Interpreter : PEP
#
#------------------------------------------------------------------------------
~VERSION INFORMATION
VERS. 2.0 : CWLS Log ASCII Standard - version 2.0
WRAP.  NO : One line per depth step
~WELL INFORMATION
#MNEMONIC   .UNIT                                           VALUE :DESCRIPTION
#------------------------------------------------------------------------------
STRT        .M                                           494.4622 :START DEPTH
STOP        .M                                          2707.4626 :STOP DEPTH
STEP        .M                                             0.1524 :STEP
NULL        .                                           -999.2500 :NULL VALUE
COMP        .                                   PEMEX EXPL & PROD :COMPANY
WELL        .                                                1042 :WELL
FLD         .                                           CANTARELL :FIELD
LOC         .                                             UNKNOWN :LOCATION
CNTY        .                                      CD. DEL CARMEN :COUNTY
STAT        .                                            CAMPECHE :STATE
CTRY        .                                              MEXICO :COUNTRY
SRVC        .                                             UNKNOWN :SERVICE COMPANY
DATE        .                                             UNKNOWN :LOG DATE
UWI         .                                          3060000495 :UNIQUE WELL ID
XCOORD      .                                       596162.680000 :SURFACE X
YCOORD      .                                      2150604.600000 :SURFACE Y
LAT         .                                           19.448706 :LATITUDE
LON         .                                          -92.083900 :LONGITUDE
ELEV        .M                                            30.0000 :SURFACE ELEV
ELEV_TYPE   .                                                  KB :ELEV TYPE
~CURVE INFORMATION
#MNEMONIC.UNIT        API CODE       : CURVE DESCRIPTION
#------------------------------------------------------------------------------
DEPTH    .M                          : Measured Depth
CALI     .inches      UNKNOWN        : CALI:litodensidad:rC:NONE:v0 (auto-composite)
DT       .us/ft       UNKNOWN        : DT:DT:rC:NONE:v0 (auto-composite)
GR       .API         UNKNOWN        : GR:GR-Load:rC:NONE:v0 (auto-composite)
ILD      .ohmm        UNKNOWN        : ILD:UNKNOWN:rC:NONE:v0 (auto-composite)
LLD      .ohmm        UNKNOWN        : LLD:UNKNOWN:rC:NONE:v0 (auto-composite)
LLS      .ohmm        UNKNOWN        : LLS:UNKNOWN:rC:NONE:v0 (auto-composite)
MSFL     .ohmm        UNKNOWN        : MSFL:UNKNOWN:rC:NONE:v0 (auto-composite)
NPHI     .v/v_decimal UNKNOWN        : NPHI:NPHI:rC:NONE:v0 (auto-composite)
~A     DEPTH         CALI           DT           GR          ILD          LLD          LLS         MSFL         NPHI
# ...
   2019.2242    -999.2500    -999.2500      29.2290       0.2000    2837.6689    1948.3458      21.9956       0.0888
   2019.3767    -999.2500    -999.2500      30.1052       0.2000    2292.5845    1616.8871      22.7452       0.0829
   2019.5291    -999.2500    -999.2500      31.3832       0.2000    1802.1223    1320.1685      25.5328       0.0748
   2019.6814    -999.2500    -999.2500      31.4897       0.2000    1496.2162    1147.8143      29.4890       0.0714
   2019.8339    -999.2500    -999.2500      30.4217       0.2000    1429.7429    1136.8037      34.9611       0.0726
   2019.9862    -999.2500    -999.2500      28.8270       0.2000    1472.9763    1201.3545      38.3674       0.0773
   2020.1387    -999.2500    -999.2500      26.7041       0.2000    1655.3674    1361.7511      39.1530       0.0852
   2020.2910    -999.2500    -999.2500      26.3586       0.2000    1712.0958    1424.8237      35.1295       0.0883
   2020.4435    -999.2500    -999.2500      27.7961       0.2000    1612.9678    1367.1876      25.1414       0.0864
   2020.5958    -999.2500    -999.2500      27.9447       0.2000    1399.3698    1196.7460      21.5004       0.0847
   2020.7483    -999.2500    -999.2500      26.8002       0.2000    1046.4935     889.0515      25.5822       0.0831
   2020.9006    -999.2500    -999.2500      27.2876       0.2000     782.8365     650.1045      31.4231       0.0835
   2021.0531    -999.2500    -999.2500      29.4125       0.2000     625.3334     492.9539      39.3571       0.0859
   2021.2054    -999.2500    -999.2500      30.1668       0.2000     601.9160     449.0793      38.2031       0.0869
   2021.3579    -999.2500    -999.2500      29.5454       0.2000     734.5129     537.0063      26.4748       0.0864
   2021.5103    -999.2500    -999.2500      29.4478       0.2000     991.9636     722.7614      23.8510       0.0848
   2021.6626    -999.2500    -999.2500      29.8763       0.2000    1391.9435    1020.1940      31.6205       0.0821
   2021.8151    -999.2500    -999.2500      30.3041       0.2000    1949.8091    1362.0420      37.1941       0.0819
   2021.9674    -999.2500    -999.2500      30.7313       0.2000    2683.9448    1753.4773      40.3160       0.0841
   2022.1199    -999.2500    -999.2500      29.8930       0.2000    2924.3938    1833.7505      36.4488       0.0873
   2022.2722    -999.2500    -999.2500      27.7876       0.2000    2624.0566    1573.1758      24.9259       0.0913
   2022.4247    -999.2500    -999.2500      27.0492       0.2000    2356.3999    1379.4849      17.1513       0.0942
   2022.5770    -999.2500    -999.2500      27.6802       0.2000    2123.7549    1257.4496      13.3924       0.0960
   2022.7295    -999.2500    -999.2500      28.5799       0.2000    1856.3125    1125.9226      15.6744       0.0946
   2022.8818    -999.2500    -999.2500      29.7489       0.2000    1552.4083     984.4501      24.2863       0.0899
   2023.0343    -999.2500    -999.2500      30.7950       0.2000    1304.6636     870.1049      25.3848       0.0846
   2023.1866    -999.2500    -999.2500      31.7180       0.2000    1114.6578     783.6497      18.7584       0.0787
   2023.3390    -999.2500    -999.2500      31.6337       0.2000    1023.5830     746.8637      18.4587       0.0762
   2023.4915    -999.2500    -999.2500      30.5397       0.2000    1031.9904     760.0237      24.5210       0.0771
   2023.6438    -999.2500    -999.2500      30.0779       0.2000     989.4422     739.4310      25.7234       0.0806
   2023.7963    -999.2500    -999.2500      30.2499       0.2000     896.7784     685.6420      22.1459       0.0868
   2023.9486    -999.2500    -999.2500      29.5130       0.2000     835.5820     656.6076      20.2997       0.0897
   2024.1011    -999.2500    -999.2500      27.8645       0.2000     804.7525     651.4623      20.1242       0.0892
   2024.2534    -999.2500    -999.2500      28.3766       0.2000     799.7130     662.2900      19.7635       0.0886
   2024.4059    -999.2500    -999.2500      31.0560       0.2000     819.0155     688.1938      19.2280       0.0877
   2024.5582    -999.2500    -999.2500      32.3453       0.2000     757.0320     647.3359      18.1597       0.0884
   2024.7107    -999.2500    -999.2500      32.2398       0.2000     620.0110     544.8484      16.5995       0.0906
   2024.8630    -999.2500    -999.2500      32.5146       0.2000     587.9799     512.1175      15.3118       0.0924
   2025.0155    -999.2500    -999.2500      33.1711       0.2000     651.0427     542.5684      14.2709       0.0935
   2025.1678    -999.2500    -999.2500      33.2203       0.2000     790.1447     631.1082      18.8132       0.0918
   2025.3202    -999.2500    -999.2500      32.6598       0.2000     996.6039     771.1041      28.3012       0.0873
   2025.4727    -999.2500    -999.2500      31.7875       0.2000    1173.7064     914.6993      33.2903       0.0822
   2025.6250    -999.2500    -999.2500      30.6020       0.2000    1325.2952    1061.4225      34.3693       0.0765
   2025.7775    -999.2500    -999.2500      30.0704       0.2000    1264.6649    1033.8715      36.9704       0.0728
   2025.9298    -999.2500    -999.2500      30.1954       0.2000    1023.6628     858.1989      40.8652       0.0711
   2026.0823    -999.2500    -999.2500      29.7077       0.2000     818.8933     680.3811      45.4524       0.0716
   2026.2346    -999.2500    -999.2500      28.6062       0.2000     644.2386     500.7802      50.6151       0.0743
   2026.3871    -999.2500    -999.2500      29.0891       0.2000     544.1277     398.7813      46.5225       0.0745
   2026.5394    -999.2500    -999.2500      31.1590       0.2000     504.7987     360.0580      34.8833       0.0723
   2026.6919    -999.2500    -999.2500      30.5541       0.2000     544.4095     385.4454      27.3934       0.0712
   2026.8442    -999.2500    -999.2500      27.2692       0.2000     646.9589     461.9480      23.2118       0.0715
   2026.9967    -999.2500    -999.2500      27.1838       0.2000     741.6392     532.0123      23.4782       0.0733
   2027.1490    -999.2500    -999.2500      30.3047       0.2000     830.1852     597.0575      27.2120       0.0768
   2027.3014    -999.2500    -999.2500      31.6623       0.2000     941.3582     665.3563      38.1650       0.0793
   2027.4539    -999.2500    -999.2500      31.2523       0.2000    1069.8333     736.1431      54.6382       0.0810
   2027.6062    -999.2500    -999.2500      31.1873       0.2000    1162.9003     786.8766      53.0156       0.0838
   2027.7587    -999.2500    -999.2500      31.4683       0.2000    1229.4973     822.6188      37.8651       0.0876
   2027.9110    -999.2500    -999.2500      29.3818       0.2000    1193.8549     806.3116      29.9488       0.0886
   2028.0635    -999.2500    -999.2500      24.9210       0.2000    1083.2502     751.8417      27.3366       0.0867
   2028.2158    -999.2500    -999.2500      23.4767       0.2000    1066.0760     744.6389      30.3702       0.0850
   2028.3683    -999.2500    -999.2500      25.0587       0.2000    1115.8640     771.3128      37.4504       0.0834
   2028.5206    -999.2500    -999.2500      27.5982       0.2000    1225.9280     848.5375      40.9308       0.0828
   2028.6731    -999.2500    -999.2500      31.0986       0.2000    1378.2167     961.1741      41.8896       0.0833
   2028.8254    -999.2500    -999.2500      31.6550       0.2000    1519.4181    1069.2671      39.2959       0.0838
   2028.9779    -999.2500    -999.2500      29.2566       0.2000    1653.0034    1174.2391      34.2619       0.0844
   2029.1302    -999.2500    -999.2500      28.5188       0.2000    1726.7050    1231.7615      30.2687       0.0833
   2029.2826    -999.2500    -999.2500      29.4483       0.2000    1760.2073    1257.4316      26.9741       0.0805
   2029.4351    -999.2500    -999.2500      29.3642       0.2000    1694.7000    1229.3984      26.4151       0.0781
   2029.5874    -999.2500    -999.2500      28.2623       0.2000    1564.2480    1166.1389      27.6505       0.0761
