#------------------------------------------------------------------------------
#
#   Created by  : [OpenWorks] Log Export Utility (LEXP)
#   Created on  : 2016-05-23 11:56:05
#   Project     : CANT971
#   User        : R5K
#   Interpreter : PEP
#
#------------------------------------------------------------------------------
~VERSION INFORMATION
VERS. 2.0 : CWLS Log ASCII Standard - version 2.0
WRAP.  NO : One line per depth step
~WELL INFORMATION
#MNEMONIC   .UNIT                                           VALUE :DESCRIPTION
#------------------------------------------------------------------------------
STRT        .M                                          1100.3549 :START DEPTH
STOP        .M                                          2766.5439 :STOP DEPTH
STEP        .M                                             0.1524 :STEP
NULL        .                                           -999.2500 :NULL VALUE
COMP        .                                   PEMEX EXPL & PROD :COMPANY
WELL        .                                                  43 :WELL
FLD         .                                           CANTARELL :FIELD
LOC         .                                             UNKNOWN :LOCATION
CNTY        .                                      CD. DEL CARMEN :COUNTY
STAT        .                                            CAMPECHE :STATE
CTRY        .                                              MEXICO :COUNTRY
SRVC        .                                             UNKNOWN :SERVICE COMPANY
DATE        .                                             UNKNOWN :LOG DATE
UWI         .                                          3060000465 :UNIQUE WELL ID
XCOORD      .                                       601717.960000 :SURFACE X
YCOORD      .                                      2142346.560000 :SURFACE Y
LAT         .                                           19.373808 :LATITUDE
LON         .                                          -92.031425 :LONGITUDE
ELEV        .M                                            24.0000 :SURFACE ELEV
ELEV_TYPE   .                                                  KB :ELEV TYPE
~CURVE INFORMATION
#MNEMONIC.UNIT        API CODE       : CURVE DESCRIPTION
#------------------------------------------------------------------------------
DEPTH    .M                          : Measured Depth
CAL      .inches      UNKNOWN        : CAL:UNKNOWN:rC:NONE:v0 (auto-composite)
CALI     .in          UNKNOWN        : CALI:UNKNOWN:rC:NONE:v0 (auto-composite)
CNL      .v/v_decimal UNKNOWN        : CNL:UNKNOWN:rC:NONE:v0 (auto-composite)
DT       .us/ft       UNKNOWN        : DT:DT:rC:NONE:v0 (auto-composite)
GR       .API         UNKNOWN        : GR:UNKNOWN:rC:NONE:v0 (auto-composite)
ILD      .ohmm        UNKNOWN        : ILD:UNKNOWN:rC:NONE:v0 (auto-composite)
ILM      .ohmm        UNKNOWN        : ILM:UNKNOWN:rC:NONE:v0 (auto-composite)
LLD      .ohmm        UNKNOWN        : LLD:UNKNOWN:rC:NONE:v0 (auto-composite)
LLS      .ohmm        UNKNOWN        : LLS:UNKNOWN:rC:NONE:v0 (auto-composite)
NPHI     .v/v_decimal UNKNOWN        : NPHI:UNKNOWN:rC:NONE:v0 (auto-composite)
PEF      .b/elec      UNKNOWN        : PEF:UNKNOWN:rC:NONE:v0 (auto-composite)
RHOB     .g/cm3       UNKNOWN        : RHOB:UNKNOWN:rC:NONE:v0 (auto-composite)
~A     DEPTH          CAL         CALI          CNL           DT           GR          ILD          ILM          LLD          LLS         NPHI          PEF         RHOB
# ...
   2570.7100    -999.2500      10.9233    -999.2500      53.7404      38.5636    -999.2500    -999.2500     133.1332     113.4861       3.5536       3.3831       2.7930
   2570.8625    -999.2500      10.8118    -999.2500      52.9216      39.6806    -999.2500    -999.2500     142.4697     118.0047       3.3367       3.3557       2.7985
   2571.0149    -999.2500      10.7203    -999.2500      52.2299      40.8421    -999.2500    -999.2500     153.2870     122.7503       3.1705       3.3330       2.8024
   2571.1672    -999.2500      10.7218    -999.2500      52.2838      42.2119    -999.2500    -999.2500     171.0377     128.5589       3.2417       3.3330       2.7989
   2571.3196    -999.2500      10.7373    -999.2500      52.7993      43.1790    -999.2500    -999.2500     184.4972     134.2095       3.1947       3.3303       2.7944
   2571.4722    -999.2500      10.8163    -999.2500      56.0425      42.3309    -999.2500    -999.2500     178.6097     139.1479       2.6144       3.3153       2.7854
   2571.6245    -999.2500      10.8737    -999.2500      59.4413      41.3541    -999.2500    -999.2500     171.8773     142.3890       2.1400       3.2957       2.7786
   2571.7769    -999.2500      10.8332    -999.2500      63.7544      39.7941    -999.2500    -999.2500     161.3128     137.9335       2.1455       3.2552       2.7821
   2571.9292    -999.2500      10.7882    -999.2500      67.7213      38.1950    -999.2500    -999.2500     151.3005     132.4590       2.1572       3.2247       2.7871
   2572.0815    -999.2500      10.7217    -999.2500      69.6395      36.4163    -999.2500    -999.2500     143.8348     122.2854       2.1977       3.2397       2.7991
   2572.2341    -999.2500      10.6697    -999.2500      71.4724      34.9573    -999.2500    -999.2500     136.9939     113.9160       2.2540       3.2592       2.8089
   2572.3865    -999.2500      10.6847    -999.2500      72.8033      34.9818    -999.2500    -999.2500     133.0516     113.9160       2.3840       3.2997       2.8084
   2572.5388    -999.2500      10.7041    -999.2500      73.9404      35.1046    -999.2500    -999.2500     130.4552     114.0602       2.5504       3.3303       2.8076
   2572.6912    -999.2500      10.7446    -999.2500      73.9294      35.6858    -999.2500    -999.2500     134.1396     114.8774       2.8873       3.3148       2.8051
   2572.8438    -999.2500      10.7731    -999.2500      73.8128      36.0616    -999.2500    -999.2500     139.7692     117.6560       3.1193       3.2852       2.8047
   2572.9961    -999.2500      10.7450    -999.2500      73.0741      35.4730    -999.2500    -999.2500     154.5298     129.6421       2.8593       3.1895       2.8142
   2573.1484    -999.2500      10.7143    -999.2500      72.1091      34.8072    -999.2500    -999.2500     169.7690     143.1946       2.5864       3.1138       2.8217
   2573.3008    -999.2500      10.6713    -999.2500      69.8022      33.7891    -999.2500    -999.2500     187.1949     163.9041       2.2546       3.1293       2.8202
   2573.4534    -999.2500      10.6289    -999.2500      67.1298      32.6350    -999.2500    -999.2500     203.1575     182.9606       1.9568       3.1554       2.8182
   2573.6057    -999.2500      10.5889    -999.2500      62.3025      30.8552    -999.2500    -999.2500     212.3940     194.4191       1.8159       3.2304       2.8137
   2573.7581    -999.2500      10.5560    -999.2500      57.5031      28.9749    -999.2500    -999.2500     220.9357     204.4319       1.7000       3.3043       2.8094
   2573.9104    -999.2500      10.5560    -999.2500      52.8671      26.6294    -999.2500    -999.2500     226.2649     207.7605       1.7000       3.3732       2.8059
   2574.0627    -999.2500      10.5560    -999.2500      48.0752      24.4244    -999.2500    -999.2500     231.8376     210.5000       1.7000       3.4103       2.8033
   2574.2153    -999.2500      10.5560    -999.2500      42.3636      22.8728    -999.2500    -999.2500     238.5428     210.5000       1.7000       3.2989       2.8048
   2574.3677    -999.2500      10.5518    -999.2500      37.4890      21.6978    -999.2500    -999.2500     247.0422     212.9413       1.7134       3.2169       2.8072
   2574.5200    -999.2500      10.5277    -999.2500      37.5229      22.3040    -999.2500    -999.2500     264.0288     226.9316       1.7901       3.2735       2.8142
   2574.6724    -999.2500      10.5103    -999.2500      37.8475      22.9574    -999.2500    -999.2500     276.6193     236.7561       1.8741       3.3627       2.8194
   2574.8250    -999.2500      10.5227    -999.2500      39.8883      23.8260    -999.2500    -999.2500     269.1895     227.6091       1.9916       3.6001       2.8159
   2574.9773    -999.2500      10.5351    -999.2500      42.0710      24.6389    -999.2500    -999.2500     260.4127     220.5826       2.1014       3.7904       2.8116
   2575.1296    -999.2500      10.5466    -999.2500      45.0877      25.1967    -999.2500    -999.2500     245.4651     223.2704       2.1764       3.7649       2.8036
   2575.2820    -999.2500      10.5560    -999.2500      48.0305      25.7839    -999.2500    -999.2500     235.9326     227.9241       2.2435       3.7273       2.7977
   2575.4346    -999.2500      10.5560    -999.2500      50.5365      26.5071    -999.2500    -999.2500     251.3526     241.6362       2.2745       3.6334       2.8017
   2575.5869    -999.2500      10.5530    -999.2500      52.6765      27.4799    -999.2500    -999.2500     263.3754     252.5076       2.2785       3.5715       2.8070
   2575.7393    -999.2500      10.5360    -999.2500      52.6660      29.6229    -999.2500    -999.2500     259.4766     250.0656       2.1560       3.6594       2.8185
   2575.8916    -999.2500      10.5171    -999.2500      52.3846      31.8142    -999.2500    -999.2500     254.9003     246.5522       2.0031       3.7311       2.8268
   2576.0439    -999.2500      10.4890    -999.2500      50.4999      34.2324    -999.2500    -999.2500     247.1297     237.9869       1.7062       3.7261       2.8198
   2576.1965    -999.2500      10.4610    -999.2500      48.8899      36.2043    -999.2500    -999.2500     239.4417     229.1227       1.4831       3.7160       2.8124
   2576.3489    -999.2500      10.4330    -999.2500      48.8959      36.1503    -999.2500    -999.2500     232.1282     218.9013       1.5945       3.6825       2.8034
   2576.5012    -999.2500      10.4020    -999.2500      49.1090      36.0151    -999.2500    -999.2500     224.8195     210.5000       1.7508       3.6450       2.7966
   2576.6536    -999.2500      10.3570    -999.2500      50.5490      35.5049    -999.2500    -999.2500     217.5326     210.5000       2.1146       3.5891       2.8001
   2576.8062    -999.2500      10.3102    -999.2500      51.7799      34.9679    -999.2500    -999.2500     210.4138     209.9265       2.4764       3.5342       2.8041
   2576.9585    -999.2500      10.2547    -999.2500      51.7789      34.3072    -999.2500    -999.2500     204.0756     206.6899       2.8288       3.4848       2.8101
   2577.1108    -999.2500      10.2004    -999.2500      51.7690      33.6942    -999.2500    -999.2500     198.0767     201.9548       3.0732       3.4635       2.8162
   2577.2632    -999.2500      10.1514    -999.2500      51.7065      33.3038    -999.2500    -999.2500     193.6631     190.2203       2.8133       3.5739       2.8232
   2577.4158    -999.2500      10.1141    -999.2500      51.6277      32.9024    -999.2500    -999.2500     190.0240     180.8080       2.5429       3.7004       2.8284
   2577.5681    -999.2500      10.1316    -999.2500      51.4531      32.4490    -999.2500    -999.2500     190.0240     182.3070       2.2233       3.9023       2.8249
   2577.7205    -999.2500      10.1509    -999.2500      51.1281      32.0089    -999.2500    -999.2500     191.2265     184.5344       1.9311       4.0572       2.8202
   2577.8728    -999.2500      10.1784    -999.2500      49.9211      31.6290    -999.2500    -999.2500     197.9286     190.0935       1.7641       3.9973       2.8102
