#------------------------------------------------------------------------------
#
#   Created by  : [OpenWorks] Log Export Utility (LEXP)
#   Created on  : 2016-05-23 11:53:49
#   Project     : CANT971
#   User        : R5K
#   Interpreter : PEP
#
#------------------------------------------------------------------------------
~VERSION INFORMATION
VERS. 2.0 : CWLS Log ASCII Standard - version 2.0
WRAP.  NO : One line per depth step
~WELL INFORMATION
#MNEMONIC   .UNIT                                           VALUE :DESCRIPTION
#------------------------------------------------------------------------------
STRT        .M                                           293.9797 :START DEPTH
STOP        .M                                          2713.7869 :STOP DEPTH
STEP        .M                                             0.1524 :STEP
NULL        .                                           -999.2500 :NULL VALUE
COMP        .                                   PEMEX EXPL & PROD :COMPANY
WELL        .                                                  28 :WELL
FLD         .                                           CANTARELL :FIELD
LOC         .                                             UNKNOWN :LOCATION
CNTY        .                                      CD. DEL CARMEN :COUNTY
STAT        .                                            CAMPECHE :STATE
CTRY        .                                              MEXICO :COUNTRY
SRVC        .                                             UNKNOWN :SERVICE COMPANY
DATE        .                                             UNKNOWN :LOG DATE
UWI         .                                          3060000156 :UNIQUE WELL ID
XCOORD      .                                       598450.720000 :SURFACE X
YCOORD      .                                      2145024.710000 :SURFACE Y
LAT         .                                           19.398172 :LATITUDE
LON         .                                          -92.062394 :LONGITUDE
ELEV        .M                                            26.5400 :SURFACE ELEV
ELEV_TYPE   .                                                  KB :ELEV TYPE
~CURVE INFORMATION
#MNEMONIC.UNIT        API CODE       : CURVE DESCRIPTION
#------------------------------------------------------------------------------
DEPTH    .M                          : Measured Depth
CALI     .inches      UNKNOWN        : CALI:Import:rC:NONE:v0 (auto-composite)
DRHO     .g/cm3       UNKNOWN        : DRHO:Import:rC:NONE:v0 (auto-composite)
DT       .us/ft       UNKNOWN        : DT:Import:rC:NONE:v0 (auto-composite)
GR       .API         UNKNOWN        : GR:Import:rC:NONE:v0 (auto-composite)
ILD      .ohm.m       UNKNOWN        : ILD:Import:rC:NONE:v0 (auto-composite)
LLD      .ohm.m       UNKNOWN        : LLD:Import:rC:NONE:v0 (auto-composite)
LLS      .ohm.m       UNKNOWN        : LLS:Import:rC:NONE:v0 (auto-composite)
MSFL     .ohm.m       UNKNOWN        : MSFL:Import:rC:NONE:v0 (auto-composite)
NPHI     .v/v_decimal UNKNOWN        : NPHI:Import:rC:NONE:v0 (auto-composite)
PEF      .b/elec      UNKNOWN        : PEF:Import:rC:NONE:v0 (auto-composite)
RHOB     .g/cm3       UNKNOWN        : RHOB:Import:rC:NONE:v0 (auto-composite)
~A     DEPTH         CALI         DRHO           DT           GR          ILD          LLD          LLS         MSFL         NPHI          PEF         RHOB
# ...
   1435.1509       6.5020    -999.2500    -999.2500      36.9950    -999.2500       0.9110       0.9750       1.2050       0.3484    -999.2500    -999.2500
   1435.3032       6.5020    -999.2500    -999.2500      37.5150    -999.2500       0.9050       0.9660       1.1990       0.3542    -999.2500    -999.2500
   1435.4557       6.5025    -999.2500    -999.2500      38.0320    -999.2500       0.8809       0.9504       1.2241       0.3609    -999.2500    -999.2500
   1435.6080       6.5030    -999.2500    -999.2500      37.8349    -999.2500       0.8570       0.9350       1.2490       0.3676    -999.2500    -999.2500
   1435.7605       6.5030    -999.2500    -999.2500      37.6390    -999.2500       0.8344       0.9109       1.2184       0.3729    -999.2500    -999.2500
   1435.9128       6.5030    -999.2500    -999.2500      37.7618    -999.2500       0.8120       0.8870       1.1880       0.3780    -999.2500    -999.2500
   1436.0653       6.5035    -999.2500    -999.2500      37.8840    -999.2500       0.7899       0.8469       1.0836       0.3813    -999.2500    -999.2500
   1436.2177       6.5040    -999.2500    -999.2500      38.2555    -999.2500       0.7680       0.8070       0.9800       0.3837    -999.2500    -999.2500
   1436.3701       6.5050    -999.2500    -999.2500      38.6250    -999.2500       0.7269       0.7538       0.8997       0.3782    -999.2500    -999.2500
   1436.5225       6.5060    -999.2500    -999.2500      38.7493    -999.2500       0.6860       0.7010       0.8200       0.3707    -999.2500    -999.2500
   1436.6749       6.5040    -999.2500    -999.2500      38.8730    -999.2500       0.6930       0.7065       0.8200       0.3503    -999.2500    -999.2500
   1436.8273       6.5020    -999.2500    -999.2500      39.2445    -999.2500       0.7000       0.7120       0.8200       0.3306    -999.2500    -999.2500
   1436.9797       6.4940    -999.2500    -999.2500      39.6140    -999.2500       0.7638       0.7728       0.8847       0.3313    -999.2500    -999.2500
   1437.1321       6.4860    -999.2500    -999.2500      39.3443    -999.2500       0.8270       0.8330       0.9490       0.3343    -999.2500    -999.2500
   1437.2844       6.4770    -999.2500    -999.2500      39.0760    -999.2500       0.8190       0.8275       0.8918       0.3426    -999.2500    -999.2500
   1437.4369       6.4680    -999.2500    -999.2500      37.7677    -999.2500       0.8110       0.8220       0.8350       0.3513    -999.2500    -999.2500
   1437.5892       6.4680    -999.2500    -999.2500      36.4670    -999.2500       0.6473       0.7718       0.6829       0.3607    -999.2500    -999.2500
   1437.7417       6.4680    -999.2500    -999.2500      36.6406    -999.2500       0.4850       0.7220       0.5320       0.3693    -999.2500    -999.2500
   1437.8940       6.4685    -999.2500    -999.2500      36.8130    -999.2500       0.4860       0.6326       0.5400       0.3669    -999.2500    -999.2500
   1438.0465       6.4690    -999.2500    -999.2500      37.5042    -999.2500       0.4870       0.5440       0.5480       0.3630    -999.2500    -999.2500
   1438.1989       6.4700    -999.2500    -999.2500      38.1910    -999.2500       0.4955       0.5510       0.5806       0.3514    -999.2500    -999.2500
   1438.3513       6.4710    -999.2500    -999.2500      38.7106    -999.2500       0.5040       0.5580       0.6130       0.3401    -999.2500    -999.2500
   1438.5037       6.4755    -999.2500    -999.2500      39.2270    -999.2500       0.5231       0.5861       0.6426       0.3416    -999.2500    -999.2500
   1438.6561       6.4800    -999.2500    -999.2500      39.1538    -999.2500       0.5420       0.6140       0.6720       0.3437    -999.2500    -999.2500
   1438.8085       6.4900    -999.2500    -999.2500      39.0810    -999.2500       0.5671       0.6426       0.7026       0.3412    -999.2500    -999.2500
   1438.9608       6.5000    -999.2500    -999.2500      38.6382    -999.2500       0.5920       0.6710       0.7330       0.3385    -999.2500    -999.2500
   1439.1133       6.5055    -999.2500    -999.2500      38.1980    -999.2500       0.6301       0.7608       0.9267       0.3385    -999.2500    -999.2500
   1439.2656       6.5110    -999.2500    -999.2500      36.5447    -999.2500       0.6680       0.8500       1.1190       0.3389    -999.2500    -999.2500
   1439.4181       6.5115    -999.2500    -999.2500      34.9010    -999.2500       0.7478       0.7993       1.1065       0.3414    -999.2500    -999.2500
   1439.5704       6.5120    -999.2500    -999.2500      35.0986    -999.2500       0.8270       0.7490       1.0940       0.3447    -999.2500    -999.2500
   1439.7229       6.5120    -999.2500    -999.2500      35.2950    -999.2500       0.7763       0.7490       0.9660       0.3572    -999.2500    -999.2500
   1439.8752       6.5120    -999.2500    -999.2500      35.9864    -999.2500       0.7260       0.7490       0.8390       0.3692    -999.2500    -999.2500
   1440.0277       6.5125    -999.2500    -999.2500      36.6740    -999.2500       0.7300       0.7575       0.9318       0.3674    -999.2500    -999.2500
   1440.1801       6.5130    -999.2500    -999.2500      37.2165    -999.2500       0.7340       0.7660       1.0240       0.3635    -999.2500    -999.2500
   1440.3325       6.5135    -999.2500    -999.2500      37.7560    -999.2500       0.7777       0.8322       0.9206       0.3451    -999.2500    -999.2500
   1440.4849       6.5140    -999.2500    -999.2500      38.5972    -999.2500       0.8210       0.8980       0.8180       0.3270    -999.2500    -999.2500
   1440.6373       6.5140    -999.2500    -999.2500      39.4340    -999.2500       0.8125       0.8036       0.8185       0.3267    -999.2500    -999.2500
   1440.7897       6.5140    -999.2500    -999.2500      39.0630    -999.2500       0.8040       0.7100       0.8190       0.3281    -999.2500    -999.2500
   1440.9420       6.5145    -999.2500    -999.2500      38.6940    -999.2500       0.7528       0.7150       0.9916       0.3369    -999.2500    -999.2500
   1441.0945       6.5150    -999.2500    -999.2500      37.2904    -999.2500       0.7020       0.7200       1.1630       0.3455    -999.2500    -999.2500
   1441.2468       6.5155    -999.2500    -999.2500      35.8940    -999.2500       0.7146       0.7501       1.1525       0.3454    -999.2500    -999.2500
   1441.3993       6.5160    -999.2500    -999.2500      35.9186    -999.2500       0.7270       0.7800       1.1420       0.3444    -999.2500    -999.2500
   1441.5516       6.5160    -999.2500    -999.2500      35.9430    -999.2500       0.7747       0.8372       1.1691       0.3370    -999.2500    -999.2500
   1441.7041       6.5160    -999.2500    -999.2500      36.0915    -999.2500       0.8220       0.8940       1.1960       0.3287    -999.2500    -999.2500
   1441.8564       6.5165    -999.2500    -999.2500      36.2390    -999.2500       0.8521       0.9216       1.1855       0.3091    -999.2500    -999.2500
   1442.0089       6.5170    -999.2500    -999.2500      36.7591    -999.2500       0.8820       0.9490       1.1750       0.2901    -999.2500    -999.2500
   1442.1613       6.5175    -999.2500    -999.2500      37.2760    -999.2500       0.9151       0.9580       1.1916       0.2901    -999.2500    -999.2500
   1442.3137       6.5180    -999.2500    -999.2500      36.6847    -999.2500       0.9480       0.9670       1.2080       0.2915    -999.2500    -999.2500
   1442.4661       6.5180    -999.2500    -999.2500      36.0970    -999.2500       0.9465       0.9605       1.1834       0.2974    -999.2500    -999.2500
   1442.6185       6.5180    -999.2500    -999.2500      36.1958    -999.2500       0.9450       0.9540       1.1590       0.3038    -999.2500    -999.2500
   1442.7709       6.5190    -999.2500    -999.2500      36.2940    -999.2500       0.8833       0.8988       1.0195       0.3136    -999.2500    -999.2500
   1442.9232       6.5200    -999.2500    -999.2500      36.8863    -999.2500       0.8220       0.8440       0.8810       0.3237    -999.2500    -999.2500
