#------------------------------------------------------------------------------
#
#   Created by  : [OpenWorks] Log Export Utility (LEXP)
#   Created on  : 2016-05-23 11:56:05
#   Project     : CANT971
#   User        : R5K
#   Interpreter : PEP
#
#------------------------------------------------------------------------------
~VERSION INFORMATION
VERS. 2.0 : CWLS Log ASCII Standard - version 2.0
WRAP.  NO : One line per depth step
~WELL INFORMATION
#MNEMONIC   .UNIT                                           VALUE :DESCRIPTION
#------------------------------------------------------------------------------
STRT        .M                                          1100.3549 :START DEPTH
STOP        .M                                          2766.5439 :STOP DEPTH
STEP        .M                                             0.1524 :STEP
NULL        .                                           -999.2500 :NULL VALUE
COMP        .                                   PEMEX EXPL & PROD :COMPANY
WELL        .                                                  43 :WELL
FLD         .                                           CANTARELL :FIELD
LOC         .                                             UNKNOWN :LOCATION
CNTY        .                                      CD. DEL CARMEN :COUNTY
STAT        .                                            CAMPECHE :STATE
CTRY        .                                              MEXICO :COUNTRY
SRVC        .                                             UNKNOWN :SERVICE COMPANY
DATE        .                                             UNKNOWN :LOG DATE
UWI         .                                          3060000465 :UNIQUE WELL ID
XCOORD      .                                       601717.960000 :SURFACE X
YCOORD      .                                      2142346.560000 :SURFACE Y
LAT         .                                           19.373808 :LATITUDE
LON         .                                          -92.031425 :LONGITUDE
ELEV        .M                                            24.0000 :SURFACE ELEV
ELEV_TYPE   .                                                  KB :ELEV TYPE
~CURVE INFORMATION
#MNEMONIC.UNIT        API CODE       : CURVE DESCRIPTION
#------------------------------------------------------------------------------
DEPTH    .M                          : Measured Depth
CAL      .inches      UNKNOWN        : CAL:UNKNOWN:rC:NONE:v0 (auto-composite)
CALI     .in          UNKNOWN        : CALI:UNKNOWN:rC:NONE:v0 (auto-composite)
CNL      .v/v_decimal UNKNOWN        : CNL:UNKNOWN:rC:NONE:v0 (auto-composite)
DT       .us/ft       UNKNOWN        : DT:DT:rC:NONE:v0 (auto-composite)
GR       .API         UNKNOWN        : GR:UNKNOWN:rC:NONE:v0 (auto-composite)
ILD      .ohmm        UNKNOWN        : ILD:UNKNOWN:rC:NONE:v0 (auto-composite)
ILM      .ohmm        UNKNOWN        : ILM:UNKNOWN:rC:NONE:v0 (auto-composite)
LLD      .ohmm        UNKNOWN        : LLD:UNKNOWN:rC:NONE:v0 (auto-composite)
LLS      .ohmm        UNKNOWN        : LLS:UNKNOWN:rC:NONE:v0 (auto-composite)
NPHI     .v/v_decimal UNKNOWN        : NPHI:UNKNOWN:rC:NONE:v0 (auto-composite)
PEF      .b/elec      UNKNOWN        : PEF:UNKNOWN:rC:NONE:v0 (auto-composite)
RHOB     .g/cm3       UNKNOWN        : RHOB:UNKNOWN:rC:NONE:v0 (auto-composite)
~A     DEPTH          CAL         CALI          CNL           DT           GR          ILD          ILM          LLD          LLS         NPHI          PEF         RHOB
# ...
   2760.9053    -999.2500       8.1110    -999.2500      83.6509      35.5560    -999.2500    -999.2500      82.9983      73.9145      25.9053       4.2609       2.4948
   2761.0576    -999.2500       8.1110    -999.2500      74.6993      35.5560    -999.2500    -999.2500      87.3165      77.0012      25.8849       4.5895       2.5103
   2761.2100    -999.2500       8.1110    -999.2500      67.0450      35.2908    -999.2500    -999.2500      94.6305      82.7022      25.8421       4.8585       2.5272
   2761.3625    -999.2500       8.1110    -999.2500      67.0520      33.7915    -999.2500    -999.2500     115.8878     100.5710      25.6957       4.8500       2.5512
   2761.5149    -999.2500       8.1110    -999.2500      67.1263      31.3033    -999.2500    -999.2500     135.1693     119.3507      25.5243       4.8314       2.5707
   2761.6672    -999.2500       8.1110    -999.2500      67.5956      24.1856    -999.2500    -999.2500     145.1996     142.3956      25.2360       4.7652       2.5692
   2761.8196    -999.2500       8.1110    -999.2500      68.2867      17.0852    -999.2500    -999.2500     153.5400     162.1899      25.0000       4.6852       2.5665
   2761.9722    -999.2500       8.1110    -999.2500      70.2889      10.0627    -999.2500    -999.2500     154.2617     167.3287      25.0000       4.5433       2.5580
   2762.1245    -999.2500       8.1110    -999.2500      72.3689       4.1110    -999.2500    -999.2500     154.8530     171.5390      25.0134       4.4084       2.5438
   2762.2769    -999.2500       8.1110    -999.2500      74.9053       3.0148    -999.2500    -999.2500     154.8530     171.5390      25.0879       4.3055       2.5038
   2762.4292    -999.2500       8.1110    -999.2500      77.9240       2.0247    -999.2500    -999.2500     154.8530     171.5390      25.2004       4.1724       2.4711
   2762.5815    -999.2500       8.1110    -999.2500      83.7967       1.5234    -999.2500    -999.2500     154.8530     171.5390      25.4888       3.8995       2.4716
   2762.7341    -999.2500       8.1110    -999.2500      88.8135       1.1110    -999.2500    -999.2500     154.8530     171.5390      25.7546       3.6835       2.4732
   2762.8865    -999.2500       8.1110    -999.2500      88.7960       1.1110    -999.2500    -999.2500     154.8530     171.5390      25.9161       3.7315       2.4796
   2763.0388    -999.2500       8.1110    -999.2500      88.6244       1.0894    -999.2500    -999.2500     154.8530     171.5390      26.0698       3.7667       2.4881
   2763.1912    -999.2500       8.1110    -999.2500      87.5518       0.9669    -999.2500    -999.2500     154.8530     171.5390      26.1878       3.7422       2.5056
   2763.3438    -999.2500       8.1110    -999.2500      86.1149       0.7898    -999.2500    -999.2500     154.3992     171.5390      26.2863       3.7074       2.5236
   2763.4961    -999.2500       8.1110    -999.2500      82.5320       0.3560    -999.2500    -999.2500     151.8151     171.5390      26.2938       3.6242       2.5441
   2763.6484    -999.2500       8.1110    -999.2500      79.1864       0.0000    -999.2500    -999.2500     147.1050     171.5390      26.3000       3.5649       2.5639
   2763.8008    -999.2500       8.1110    -999.2500      77.2293       0.0000    -999.2500    -999.2500     132.6807     171.5390      26.3000       3.6144       2.5799
   2763.9534    -999.2500       8.1110    -999.2500      75.5560       0.0000    -999.2500    -999.2500     116.5852     171.5390      26.3000       3.6952       2.5918
   2764.1057    -999.2500       8.1110    -999.2500      75.5560       0.0000    -999.2500    -999.2500      92.8085     171.5390      26.3000       3.9201       2.5853
   2764.2581    -999.2500       8.1064    -999.2500      75.5560       0.0000    -999.2500    -999.2500      68.8390     171.5390      26.3000       4.0939       2.5730
   2764.4104    -999.2500       8.0804    -999.2500      75.5560       0.0000    -999.2500    -999.2500      43.9782     171.5390      26.3000       4.0314       2.5335
   2764.5627    -999.2500       8.0375    -999.2500      75.5560       0.0000    -999.2500    -999.2500      21.6722     171.5390      26.3203       3.9351       2.4893
   2764.7153    -999.2500       7.9162    -999.2500      75.5560       0.0000    -999.2500    -999.2500      11.2475     171.5390      26.4352       3.6814       2.4234
   2764.8677    -999.2500       7.7851    -999.2500      75.5560       0.0000    -999.2500    -999.2500       2.4932     171.5390      26.6028       3.4326       2.3619
   2765.0200    -999.2500       7.6081    -999.2500      75.5560       0.0000    -999.2500    -999.2500       1.6403     171.5390      27.0200       3.2070       2.3213
   2765.1724    -999.2500       7.4231    -999.2500      75.5566       0.0000    -999.2500    -999.2500       0.8940     171.5390      27.4040       2.9901       2.2800
   2765.3250    -999.2500       7.2017    -999.2500      75.5606       0.0000    -999.2500    -999.2500       0.6331     171.5390      27.6374       2.8126       2.2355
   2765.4773    -999.2500       6.9777    -999.2500      75.6156       0.0000    -999.2500    -999.2500       0.4049     171.5390      27.8697       2.6670       2.1923
   2765.6296    -999.2500       6.7418    -999.2500      75.9699       0.0000    -999.2500    -999.2500       0.3259     171.5390      28.0971       2.6670       2.1548
   2765.7820    -999.2500       6.5055    -999.2500      77.1349       0.0000    -999.2500    -999.2500       0.2556     171.5390      28.4279       2.6575       2.1199
   2765.9346    -999.2500       6.2673    -999.2500      83.0921       0.0000    -999.2500    -999.2500       0.2251     171.5390      29.2349       2.6040       2.0969
   2766.0869    -999.2500       6.0552    -999.2500      90.5695       0.0000    -999.2500    -999.2500       0.2000     171.3551      30.4580       2.4253       2.0781
   2766.2393    -999.2500       5.9652    -999.2500     106.9809       0.0000    -999.2500    -999.2500       0.2000     170.3096      33.6311       1.6591       2.0786
   2766.3916    -999.2500       5.8908    -999.2500     121.5730       0.0000    -999.2500    -999.2500       0.2000     168.8965      36.6285       1.0270       2.0794
   2766.5439    -999.2500       5.8898    -999.2500     125.3989       0.0000    -999.2500    -999.2500       0.2000     165.7502      38.7970       1.0270       2.0814
