#------------------------------------------------------------------------------
#
#   Created by  : [OpenWorks] Log Export Utility (LEXP)
#   Created on  : 2016-05-23 11:55:46
#   Project     : CANT971
#   User        : R5K
#   Interpreter : PEP
#
#------------------------------------------------------------------------------
~VERSION INFORMATION
VERS. 2.0 : CWLS Log ASCII Standard - version 2.0
WRAP.  NO : One line per depth step
~WELL INFORMATION
#MNEMONIC   .UNIT                                           VALUE :DESCRIPTION
#------------------------------------------------------------------------------
STRT        .M                                           325.5260 :START DEPTH
STOP        .M                                          2414.9299 :STOP DEPTH
STEP        .M                                             0.1524 :STEP
NULL        .                                           -999.2500 :NULL VALUE
COMP        .                                   PEMEX EXPL & PROD :COMPANY
WELL        .                                                   4 :WELL
FLD         .                                           CANTARELL :FIELD
LOC         .                                             UNKNOWN :LOCATION
CNTY        .                                      CD. DEL CARMEN :COUNTY
STAT        .                                            CAMPECHE :STATE
CTRY        .                                              MEXICO :COUNTRY
SRVC        .                                             UNKNOWN :SERVICE COMPANY
DATE        .                                             UNKNOWN :LOG DATE
UWI         .                                          3060000140 :UNIQUE WELL ID
XCOORD      .                                       598455.270000 :SURFACE X
YCOORD      .                                      2145027.190000 :SURFACE Y
LAT         .                                           19.398194 :LATITUDE
LON         .                                          -92.062351 :LONGITUDE
ELEV        .M                                            26.5400 :SURFACE ELEV
ELEV_TYPE   .                                                  KB :ELEV TYPE
~CURVE INFORMATION
#MNEMONIC.UNIT        API CODE       : CURVE DESCRIPTION
#------------------------------------------------------------------------------
DEPTH    .M                          : Measured Depth
CALI     .inches      UNKNOWN        : CALI:Import:rC:NONE:v0 (auto-composite)
CGR      .API         UNKNOWN        : CGR:Import:rC:NONE:v0 (auto-composite)
DRHO     .g/cm3       UNKNOWN        : DRHO:Import:rC:NONE:v0 (auto-composite)
DT       .us/ft       UNKNOWN        : DT:Import:rC:NONE:v0 (auto-composite)
GR       .API         UNKNOWN        : GR:Import:rC:NONE:v0 (auto-composite)
ILD      .ohm.m       UNKNOWN        : ILD:Import:rC:NONE:v0 (auto-composite)
LLD      .ohm.m       UNKNOWN        : LLD:Import:rC:NONE:v0 (auto-composite)
LLS      .ohm.m       UNKNOWN        : LLS:Import:rC:NONE:v0 (auto-composite)
MSFL     .ohm.m       UNKNOWN        : MSFL:Import:rC:NONE:v0 (auto-composite)
NPHI     .v/v_decimal UNKNOWN        : NPHI:Import:rC:NONE:v0 (auto-composite)
POTA     .wtpercent   UNKNOWN        : POTA:Import:rC:NONE:v0 (auto-composite)
RHOB     .g/cm3       UNKNOWN        : RHOB:Import:rC:NONE:v0 (auto-composite)
THOR     .ppm         UNKNOWN        : THOR:Import:rC:NONE:v0 (auto-composite)
URAN     .ppm         UNKNOWN        : URAN:Import:rC:NONE:v0 (auto-composite)
~A     DEPTH         CALI          CGR         DRHO           DT           GR          ILD          LLD          LLS         MSFL         NPHI         POTA         RHOB         THOR         URAN
# ...
   1861.7180      10.2550    -999.2500      -0.0120      98.7630      34.9850    -999.2500     798.0860     165.3070      36.7430       0.0745    -999.2500       2.6030    -999.2500    -999.2500
   1861.8704      10.4078    -999.2500      -0.0095      96.1802      35.4723    -999.2500     802.3341     160.1635      30.0883       0.0744    -999.2500       2.5930    -999.2500    -999.2500
   1862.0228      10.5600    -999.2500      -0.0070      93.6090      35.9590    -999.2500     806.5630     155.0350      23.4530       0.0743    -999.2500       2.5830    -999.2500    -999.2500
   1862.1752      10.5560    -999.2500      -0.0060      95.7547      35.4052    -999.2500     767.1941     145.1507      16.6720       0.0784    -999.2500       2.5735    -999.2500    -999.2500
   1862.3276      10.5520    -999.2500      -0.0050      97.8910      34.8520    -999.2500     727.9980     135.2940       9.9100       0.0887    -999.2500       2.5640    -999.2500    -999.2500
   1862.4800      10.4042    -999.2500      -0.0100      89.2766      36.4854    -999.2500     708.0580     131.5836      41.3720       0.0936    -999.2500       2.5870    -999.2500    -999.2500
   1862.6324      10.2570    -999.2500      -0.0150      80.6990      38.1170    -999.2500     688.2030     127.8830      72.7500       0.0904    -999.2500       2.6100    -999.2500    -999.2500
   1862.7848      10.2650    -999.2500      -0.0070      71.8387      40.8743    -999.2500     731.8168     136.2416      56.2445       0.0860    -999.2500       2.6516    -999.2500    -999.2500
   1862.9373      10.2730    -999.2500       0.0010      63.0150      43.6290    -999.2500     775.2500     144.5790      39.7810       0.0799    -999.2500       2.6930    -999.2500    -999.2500
   1863.0896      10.3802    -999.2500      -0.0000      67.2285      45.7574    -999.2500     929.3408     164.6227      39.9687       0.0767    -999.2500       2.7085    -999.2500    -999.2500
   1863.2419      10.4870    -999.2500      -0.0010      71.4250      47.8840    -999.2500    1082.8130     184.6180      40.1560       0.0779    -999.2500       2.7240    -999.2500    -999.2500
   1863.3944      10.4494    -999.2500      -0.0020      67.4713      46.1719    -999.2500    1071.7214     204.2025      30.0900       0.0802    -999.2500       2.7115    -999.2500    -999.2500
   1863.5468      10.4120    -999.2500      -0.0030      63.5330      44.4610    -999.2500    1060.6730     223.7420      20.0470       0.0842    -999.2500       2.6990    -999.2500    -999.2500
   1863.6992      10.3344    -999.2500      -0.0055      67.2921      43.8113    -999.2500     975.0829     212.2305      24.1545       0.0886    -999.2500       2.6740    -999.2500    -999.2500
   1863.8516      10.2570    -999.2500      -0.0080      71.0340      43.1620    -999.2500     889.8150     200.7440      28.2530       0.0938    -999.2500       2.6490    -999.2500    -999.2500
   1864.0040      10.3046    -999.2500      -0.0115      70.1968      41.7911    -999.2500     676.5309     156.6455     120.0953       0.0967    -999.2500       2.6360    -999.2500    -999.2500
   1864.1564      10.3520    -999.2500      -0.0150      69.3640      40.4220    -999.2500     464.0230     112.6370     211.7500       0.0963    -999.2500       2.6230    -999.2500    -999.2500
   1864.3088      10.3826    -999.2500      -0.0130      72.3155      36.3971    -999.2500     366.3869      88.1015     145.3008       0.0932    -999.2500       2.6345    -999.2500    -999.2500
   1864.4612      10.4130    -999.2500      -0.0110      75.2520      32.3800    -999.2500     269.0940      63.6130      78.9790       0.0860    -999.2500       2.6460    -999.2500    -999.2500
   1864.6136      10.3945    -999.2500      -0.0080      93.5506      28.8804    -999.2500     272.5248      64.7435      56.8824       0.0798    -999.2500       2.6680    -999.2500    -999.2500
   1864.7660      10.3760    -999.2500      -0.0050     111.7580      25.3870    -999.2500     275.9440      65.8710      34.8430       0.0752    -999.2500       2.6900    -999.2500    -999.2500
   1864.9185      10.3129    -999.2500       0.0025     120.1549      23.7646    -999.2500     296.5241      70.2862      26.3687       0.0751    -999.2500       2.6845    -999.2500    -999.2500
   1865.0708      10.2500    -999.2500       0.0100     128.5110      22.1450    -999.2500     317.0370      74.6870      17.9220       0.0820    -999.2500       2.6790    -999.2500    -999.2500
   1865.2231      10.2826    -999.2500       0.0125     127.4169      21.4485    -999.2500     452.9356     103.2298      50.1836       0.0862    -999.2500       2.6474    -999.2500    -999.2500
   1865.3756      10.3150    -999.2500       0.0150     126.3280      20.7530    -999.2500     588.2990     131.6830      82.3440       0.0862    -999.2500       2.6160    -999.2500    -999.2500
   1865.5280      10.4167    -999.2500       0.0065     118.8157      23.9763    -999.2500     571.5549     125.1411      48.5956       0.0828    -999.2500       2.6255    -999.2500    -999.2500
   1865.6804      10.5180    -999.2500      -0.0020     111.3380      27.1950    -999.2500     554.8880     118.6190      14.9490       0.0742    -999.2500       2.6350    -999.2500    -999.2500
   1865.8328      10.5882    -999.2500      -0.0075     108.1619      30.6287    -999.2500     515.9577     109.6496      29.2767       0.0730    -999.2500       2.6555    -999.2500    -999.2500
   1865.9852      10.6580    -999.2500      -0.0130     105.0000      34.0580    -999.2500     477.2020     100.7060      43.5630       0.0838    -999.2500       2.6760    -999.2500    -999.2500
   1866.1376      10.6219    -999.2500      -0.0035     114.1745      36.5274    -999.2500     492.8311      96.9423      23.5939       0.0950    -999.2500       2.6610    -999.2500    -999.2500
   1866.2900      10.5860    -999.2500       0.0060     123.3090      38.9940    -999.2500     508.3920      93.1890       3.6800       0.1071    -999.2500       2.6460    -999.2500    -999.2500
   1866.4424      10.4888    -999.2500       0.0015     112.0912      37.7564    -999.2500     558.4104     102.0527      61.3380       0.1095    -999.2500       2.6630    -999.2500    -999.2500
   1866.5948      10.3920    -999.2500      -0.0030     100.9210      36.5200    -999.2500     608.2170     110.8930     118.8440       0.0963    -999.2500       2.6800    -999.2500    -999.2500
   1866.7472      10.4927    -999.2500      -0.0090      91.0868      34.3530    -999.2500     714.4131     129.7862      84.1830       0.0855    -999.2500       2.6600    -999.2500    -999.2500
   1866.8997      10.5930    -999.2500      -0.0150      81.2930      32.1880    -999.2500     820.1730     148.6320      49.6090       0.0786    -999.2500       2.6400    -999.2500    -999.2500
   1867.0520      10.3896    -999.2500      -0.0180      81.4979      34.5849    -999.2500    1064.4091     173.9818      71.0801       0.0766    -999.2500       2.6300    -999.2500    -999.2500
   1867.2043      10.1870    -999.2500      -0.0210      81.7020      36.9800    -999.2500    1307.6720     199.2710      92.5000       0.0828    -999.2500       2.6200    -999.2500    -999.2500
   1867.3568      10.1880    -999.2500      -0.0145      79.2252      36.1287    -999.2500    1092.1982     173.5329      80.0329       0.0852    -999.2500       2.6445    -999.2500    -999.2500
   1867.5092      10.1890    -999.2500      -0.0080      76.7580      35.2780    -999.2500     877.5560     147.8530      67.5940       0.0814    -999.2500       2.6690    -999.2500    -999.2500
   1867.6616      11.0281    -999.2500       0.0030      71.0741      36.7289    -999.2500     892.1733     136.9639     107.4646       0.0769    -999.2500       2.7186    -999.2500    -999.2500
   1867.8140      11.8640    -999.2500       0.0140      65.4160      38.1790    -999.2500     906.7360     126.0980     147.2500       0.0713    -999.2500       2.7680    -999.2500    -999.2500
   1867.9664      11.2193    -999.2500       0.0180      63.0644      38.7929    -999.2500    1032.7770     156.9205      91.5830       0.0690    -999.2500       2.7520    -999.2500    -999.2500
