#------------------------------------------------------------------------------
#
#   Created by  : [OpenWorks] Log Export Utility (LEXP)
#   Created on  : 2016-05-12 17:01:19
#   Project     : CANT971
#   User        : R5K
#   Interpreter : PEP
#
#------------------------------------------------------------------------------
~VERSION INFORMATION
VERS. 2.0 : CWLS Log ASCII Standard - version 2.0
WRAP.  NO : One line per depth step
~WELL INFORMATION
#MNEMONIC   .UNIT                                           VALUE :DESCRIPTION
#------------------------------------------------------------------------------
STRT        .M                                           335.5854 :START DEPTH
STOP        .M                                          2510.4858 :STOP DEPTH
STEP        .M                                             0.1524 :STEP
NULL        .                                           -999.2500 :NULL VALUE
COMP        .                                   PEMEX EXPL & PROD :COMPANY
WELL        .                                                  35 :WELL
FLD         .                                           CANTARELL :FIELD
LOC         .                                             UNKNOWN :LOCATION
CNTY        .                                      CD. DEL CARMEN :COUNTY
STAT        .                                            CAMPECHE :STATE
CTRY        .                                              MEXICO :COUNTRY
SRVC        .                                             UNKNOWN :SERVICE COMPANY
DATE        .                                             UNKNOWN :LOG DATE
UWI         .                                          3060000159 :UNIQUE WELL ID
XCOORD      .                                       602147.900000 :SURFACE X
YCOORD      .                                      2147168.470000 :SURFACE Y
LAT         .                                           19.417359 :LATITUDE
LON         .                                          -92.027072 :LONGITUDE
ELEV        .M                                            28.1700 :SURFACE ELEV
ELEV_TYPE   .                                                  KB :ELEV TYPE
~CURVE INFORMATION
#MNEMONIC.UNIT        API CODE       : CURVE DESCRIPTION
#------------------------------------------------------------------------------
DEPTH    .M                          : Measured Depth
CALI     .inches      UNKNOWN        : CALI:Import:rC:NONE:v0 (auto-composite)
DRHO     .g/cm3       UNKNOWN        : DRHO:Import:rC:NONE:v0 (auto-composite)
DT       .us/ft       UNKNOWN        : DT:Import:rC:NONE:v0 (auto-composite)
GR       .API         UNKNOWN        : GR:Import:rC:NONE:v0 (auto-composite)
ILD      .ohm.m       UNKNOWN        : ILD:Import:rC:NONE:v0 (auto-composite)
LLD      .ohm.m       UNKNOWN        : LLD:Import:rC:NONE:v0 (auto-composite)
LLS      .ohm.m       UNKNOWN        : LLS:Import:rC:NONE:v0 (auto-composite)
MSFL     .ohm.m       UNKNOWN        : MSFL:Import:rC:NONE:v0 (auto-composite)
NPHI     .v/v_decimal UNKNOWN        : NPHI:Import:rC:NONE:v0 (auto-composite)
RHOB     .g/cm3       UNKNOWN        : RHOB:Import:rC:NONE:v0 (auto-composite)
SP       .mV          UNKNOWN        : SP:Import:rC:NONE:v0 (auto-composite)
~A     DEPTH         CALI         DRHO           DT           GR          ILD          LLD          LLS         MSFL         NPHI         RHOB           SP
# ...
   1001.2686      18.0900   -1998.5000     130.3660      62.6060       1.0770    -999.2500    -999.2500    -999.2500       0.3470       2.2000      74.7100
   1001.4210      18.0550   -1998.5000     130.5939      62.2580       1.0725    -999.2500    -999.2500    -999.2500       0.3583       2.2000      75.0256
   1001.5734      18.0200   -1998.5000     130.8200      61.9130       1.0680    -999.2500    -999.2500    -999.2500       0.3687       2.2000      75.3400
   1001.7258      17.9100   -1998.5000     130.6041      61.6393       1.0655    -999.2500    -999.2500    -999.2500       0.3695       2.1950      75.1476
   1001.8782      17.8000   -1998.5000     130.3900      61.3680       1.0630    -999.2500    -999.2500    -999.2500       0.3680       2.1900      74.9560
   1002.0306      18.0251   -1998.5000     130.1490      60.8950       1.0585    -999.2500    -999.2500    -999.2500       0.3604       2.1940      74.7074
   1002.1830      18.2500   -1998.5000     129.9100      60.4260       1.0540    -999.2500    -999.2500    -999.2500       0.3527       2.1980      74.4600
   1002.3354      18.3551   -1998.5000     129.9944      60.1729       1.0420    -999.2500    -999.2500    -999.2500       0.3496       2.2040      74.5853
   1002.4878      18.4600   -1998.5000     130.0780      59.9220       1.0300    -999.2500    -999.2500    -999.2500       0.3485       2.2100      74.7100
   1002.6402      18.4020   -1998.5000     131.2077      58.4248       1.0195    -999.2500    -999.2500    -999.2500       0.3571       2.2060      74.5847
   1002.7926      18.3440   -1998.5000     132.3280      56.9400       1.0090    -999.2500    -999.2500    -999.2500       0.3667       2.2020      74.4600
   1002.9450      18.1969   -1998.5000     133.2071      57.6117       0.9945    -999.2500    -999.2500    -999.2500       0.3737       2.1910      74.4600
   1003.0974      18.0500   -1998.5000     134.0790      58.2780       0.9800    -999.2500    -999.2500    -999.2500       0.3790       2.1800      74.4600
   1003.2498      18.0500   -1998.5000     134.7122      58.9699       0.9660    -999.2500    -999.2500    -999.2500       0.3765       2.1900      74.7756
   1003.4022      18.0500   -1998.5000     135.3400      59.6560       0.9520    -999.2500    -999.2500    -999.2500       0.3746       2.2000      75.0900
   1003.5546      17.8554   -1998.5000     135.8512      61.0792       0.9440    -999.2500    -999.2500    -999.2500       0.3830       2.1960      74.9447
   1003.7070      17.6610   -1998.5000     136.3580      62.4900       0.9360    -999.2500    -999.2500    -999.2500       0.3917       2.1920      74.8000
   1003.8594      17.5155   -1998.5000     136.4941      62.0250       0.9280    -999.2500    -999.2500    -999.2500       0.3917       2.1795      74.5695
   1004.0118      17.3700   -1998.5000     136.6290      61.5640       0.9200    -999.2500    -999.2500    -999.2500       0.3898       2.1670      74.3400
   1004.1642      17.6636   -1998.5000     136.7570      61.3009       0.9120    -999.2500    -999.2500    -999.2500       0.3846       2.1535      74.4813
   1004.3166      17.9570   -1998.5000     136.8840      61.0400       0.9040    -999.2500    -999.2500    -999.2500       0.3795       2.1400      74.6220
   1004.4690      18.2186   -1998.5000     137.4594      62.9730       0.8975    -999.2500    -999.2500    -999.2500       0.3803       2.1400      74.6661
   1004.6214      18.4800   -1998.5000     138.0300      64.8900       0.8910    -999.2500    -999.2500    -999.2500       0.3828       2.1400      74.7100
   1004.7738      18.4270   -1998.5000     139.0441      64.5888       0.8910    -999.2500    -999.2500    -999.2500       0.3913       2.1515      74.7596
   1004.9262      18.3740   -1998.5000     140.0500      64.2900       0.8910    -999.2500    -999.2500    -999.2500       0.3999       2.1630      74.8090
   1005.0786      18.1684   -1998.5000     139.3435      64.4155       0.8945    -999.2500    -999.2500    -999.2500       0.4038       2.1665      75.0750
   1005.2310      17.9630   -1998.5000     138.6430      64.5400       0.8980    -999.2500    -999.2500    -999.2500       0.4061       2.1700      75.3400
   1005.3834      17.6864   -1998.5000     137.5764      63.5858       0.9135    -999.2500    -999.2500    -999.2500       0.4019       2.1775      75.0244
   1005.5358      17.4100   -1998.5000     136.5190      62.6400       0.9290    -999.2500    -999.2500    -999.2500       0.3944       2.1850      74.7100
   1005.6882      17.3300   -1998.5000     135.8863      62.6978       0.9520    -999.2500    -999.2500    -999.2500       0.3692       2.1990      74.9024
   1005.8406      17.2500   -1998.5000     135.2590      62.7550       0.9750    -999.2500    -999.2500    -999.2500       0.3447       2.2130      75.0940
   1005.9930      17.3701   -1998.5000     131.8049      63.2998       0.9840    -999.2500    -999.2500    -999.2500       0.3427       2.2205      75.6583
   1006.1454      17.4900   -1998.5000     128.3800      63.8400       0.9930    -999.2500    -999.2500    -999.2500       0.3441       2.2280      76.2200
   1006.2978      17.3949   -1998.5000     128.7224      62.9613       0.9940    -999.2500    -999.2500    -999.2500       0.3471       2.2390      75.6538
   1006.4502      17.3000   -1998.5000     129.0620      62.0900       0.9950    -999.2500    -999.2500    -999.2500       0.3510       2.2500      75.0900
   1006.6026      17.5401   -1998.5000     132.3344      62.8120       0.9950    -999.2500    -999.2500    -999.2500       0.3609       2.2425      75.3405
   1006.7550      17.7800   -1998.5000     135.5800      63.5280       0.9950    -999.2500    -999.2500    -999.2500       0.3716       2.2350      75.5900
   1006.9074      17.6960   -1998.5000     135.5609      64.4628       0.9845    -999.2500    -999.2500    -999.2500       0.3828       2.2175      75.3986
   1007.0598      17.6120   -1998.5000     135.5420      65.3900       0.9740    -999.2500    -999.2500    -999.2500       0.3922       2.2000      75.2080
   1007.2122      17.4559   -1998.5000     135.1147      64.7453       0.9645    -999.2500    -999.2500    -999.2500       0.3868       2.2000      74.8333
   1007.3646      17.3000   -1998.5000     134.6910      64.1060       0.9550    -999.2500    -999.2500    -999.2500       0.3791       2.2000      74.4600
   1007.5170      17.3460   -1998.5000     134.1481      62.7923       0.9585    -999.2500    -999.2500    -999.2500       0.3684       2.1850      74.5096
   1007.6694      17.3920   -1998.5000     133.6100      61.4900       0.9620    -999.2500    -999.2500    -999.2500       0.3588       2.1700      74.5590
   1007.8218      17.5011   -1998.5000     133.7692      61.6416       0.9665    -999.2500    -999.2500    -999.2500       0.3616       2.1700      74.5745
   1007.9742      17.6100   -1998.5000     133.9270      61.7920       0.9710    -999.2500    -999.2500    -999.2500       0.3657       2.1700      74.5900
   1008.1266      17.5400   -1998.5000     134.2047      64.0254       0.9770    -999.2500    -999.2500    -999.2500       0.3687       2.1740      74.7153
   1008.2790      17.4700   -1998.5000     134.4800      66.2400       0.9830    -999.2500    -999.2500    -999.2500       0.3711       2.1780      74.8400
   1008.4314      17.4900   -1998.5000     134.6156      66.0839       0.9920    -999.2500    -999.2500    -999.2500       0.3699       2.1940      74.7428
   1008.5838      17.5100   -1998.5000     134.7500      65.9290       1.0010    -999.2500    -999.2500    -999.2500       0.3684       2.2100      74.6460
   1008.7362      17.4750   -1998.5000     134.0632      65.7337       1.0065    -999.2500    -999.2500    -999.2500       0.3661       2.2050      74.4927
   1008.8886      17.4400   -1998.5000     133.3820      65.5400       1.0120    -999.2500    -999.2500    -999.2500       0.3633       2.2000      74.3400
   1009.0410      17.4900   -1998.5000     132.0002      65.8518       1.0205    -999.2500    -999.2500    -999.2500       0.3564       2.2050      74.3400
