#------------------------------------------------------------------------------
#
#   Created by  : [OpenWorks] Log Export Utility (LEXP)
#   Created on  : 2016-05-23 11:51:58
#   Project     : CANT971
#   User        : R5K
#   Interpreter : PEP
#
#------------------------------------------------------------------------------
~VERSION INFORMATION
VERS. 2.0 : CWLS Log ASCII Standard - version 2.0
WRAP.  NO : One line per depth step
~WELL INFORMATION
#MNEMONIC   .UNIT                                           VALUE :DESCRIPTION
#------------------------------------------------------------------------------
STRT        .M                                           695.7060 :START DEPTH
STOP        .M                                          3054.7056 :STOP DEPTH
STEP        .M                                             0.1524 :STEP
NULL        .                                           -999.2500 :NULL VALUE
COMP        .                                   PEMEX EXPL & PROD :COMPANY
WELL        .                                                 17D :WELL
FLD         .                                           CANTARELL :FIELD
LOC         .                                             UNKNOWN :LOCATION
CNTY        .                                      CD. DEL CARMEN :COUNTY
STAT        .                                            CAMPECHE :STATE
CTRY        .                                              MEXICO :COUNTRY
SRVC        .                                             UNKNOWN :SERVICE COMPANY
DATE        .                                             UNKNOWN :LOG DATE
UWI         .                                          3060000460 :UNIQUE WELL ID
XCOORD      .                                       603362.626000 :SURFACE X
YCOORD      .                                      2145093.910000 :SURFACE Y
LAT         .                                           19.398550 :LATITUDE
LON         .                                          -92.015617 :LONGITUDE
ELEV        .M                                            27.1400 :SURFACE ELEV
ELEV_TYPE   .                                                  KB :ELEV TYPE
~CURVE INFORMATION
#MNEMONIC.UNIT        API CODE       : CURVE DESCRIPTION
#------------------------------------------------------------------------------
DEPTH    .M                          : Measured Depth
CALI     .in          UNKNOWN        : CALI:UNKNOWN:rC:NONE:v0 (auto-composite)
DT       .us/ft       UNKNOWN        : DT:DT:rC:NONE:v0 (auto-composite)
GR       .API         UNKNOWN        : GR:UNKNOWN:rC:NONE:v0 (auto-composite)
ILD      .ohmm        UNKNOWN        : ILD:UNKNOWN:rC:NONE:v0 (auto-composite)
LLD      .ohmm        UNKNOWN        : LLD:UNKNOWN:rC:NONE:v0 (auto-composite)
LLS      .ohmm        UNKNOWN        : LLS:UNKNOWN:rC:NONE:v0 (auto-composite)
MSFL     .ohmm        UNKNOWN        : MSFL:UNKNOWN:rC:NONE:v0 (auto-composite)
NPHI     .v/v_decimal UNKNOWN        : NPHI:UNKNOWN:rC:NONE:v0 (auto-composite)
PEF      .b/elec      UNKNOWN        : PEF:UNKNOWN:rC:NONE:v0 (auto-composite)
RHOB     .g/cm3       UNKNOWN        : RHOB:UNKNOWN:rC:NONE:v0 (auto-composite)
~A     DEPTH         CALI           DT           GR          ILD          LLD          LLS         MSFL         NPHI          PEF         RHOB
# ...
   2641.5491       6.1640      97.4168      56.2628    -999.2500     294.3841    3009.5349     993.0056       0.0800       5.2127       2.6140
   2641.7017       6.1640      96.5168      64.5220    -999.2500     412.8480    3622.4961    1620.1360       0.0892       5.1060       2.5930
   2641.8540       6.1640      96.3582      72.2238    -999.2500     305.9773    3530.4294    1610.6045       0.0967       4.8564       2.5965
   2642.0063       6.1640      96.5119      79.9760    -999.2500     198.4060    3438.0549    1601.0410       0.1043       4.6060       2.6000
   2642.1587       6.1640      98.4073      86.9066    -999.2500     282.3289    3054.7917    1342.1019       0.1141       4.2721       2.6154
   2642.3113       6.1640     100.7868      93.9060    -999.2500     367.0840    2670.8140    1082.6801       0.1239       3.9370       2.6310
   2642.4636       6.1640     104.3337      98.5379    -999.2500     334.4113    2130.3015    1140.6848       0.1350       3.6296       2.6529
   2642.6160       6.1640     107.9237     103.1940    -999.2500     301.5680    1588.7140    1198.8051       0.1462       3.3210       2.6750
   2642.7683       6.1640     105.5572     106.7296    -999.2500     389.6385    1111.8036    1164.6741       0.1432       3.3390       2.6970
   2642.9209       6.1640     101.9254     110.2670    -999.2500     477.7540     633.8840    1130.4709       0.1401       3.3570       2.7190
   2643.0732       6.1640      95.3688     108.2114    -999.2500     502.3497     666.1673     873.2471       0.1221       3.4344       2.7150
   2643.2256       6.1640      88.8953     106.1480    -999.2500     527.0400     698.5230     615.4470       0.1040       3.5120       2.7110
   2643.3779       6.1640      88.2223     101.1679    -999.2500     642.7065     847.7273     630.5331       0.1053       3.6279       2.6931
   2643.5303       6.1640      88.7574      96.1520    -999.2500     759.2050     997.2850     645.6550       0.1066       3.7440       2.6750
   2643.6829       6.1640      90.2151      92.5605    -999.2500     534.5744    1330.7515     681.2446       0.1126       3.8304       2.6456
   2643.8352       6.1640      91.9413      88.9370    -999.2500     307.9370    1665.0490     716.9230       0.1186       3.9170       2.6160
   2643.9875       6.1640      93.9057      88.9520    -999.2500     263.4618    2178.1060     848.4557       0.1267       3.9684       2.5930
   2644.1399       6.1640      95.7932      88.9670    -999.2500     218.7980    2692.5071     980.3330       0.1348       4.0200       2.5700
   2644.2925       6.1640      96.3142      89.0035    -999.2500     198.2917    3218.0095     916.0098       0.1381       4.0604       2.5630
   2644.4448       6.1640      96.7415      89.0400    -999.2500     177.7620    3744.9541     851.5100       0.1415       4.1010       2.5560
   2644.5972       6.1645      97.3116      89.0744    -999.2500     448.2535    4076.5181     735.9295       0.1493       4.2243       2.5510
   2644.7495       6.1650      97.9320      89.1090    -999.2500     719.9560    4409.0342     620.0170       0.1571       4.3480       2.5460
   2644.9021       6.1675      99.1871      89.2560    -999.2500     689.0879    4406.6929     672.0176       0.1506       4.3195       2.5355
   2645.0544       6.1700     100.6222      89.4040    -999.2500     658.0280    4404.3442     724.1740       0.1440       4.2910       2.5250
   2645.2068       6.1695     102.5838      90.6396    -999.2500     489.9051    4298.8081    1033.7155       0.1448       4.1582       2.5170
   2645.3591       6.1690     104.5362      91.8870    -999.2500     320.1750    4192.9419    1344.2240       0.1456       4.0250       2.5090
   2645.5115       6.1690     104.6658      96.6251    -999.2500     517.2025    3895.7031    1328.0054       0.1525       4.0669       2.5120
   2645.6641       6.1690     104.5165     101.3940    -999.2500     715.5080    3597.4990    1311.7340       0.1595       4.1090       2.5150
   2645.8164       6.1695     104.0855     100.9529    -999.2500     408.3675    3227.2590    1243.7867       0.1721       4.3756       2.5250
   2645.9688       6.1700     103.4762     100.5110    -999.2500     100.6840    2855.7690    1175.6100       0.1848       4.6430       2.5350
   2646.1211       6.1720     102.4061      98.2260    -999.2500     363.2616    3218.6382    1065.2161       0.1798       4.5976       2.5450
   2646.2737       6.1740     101.1967      95.9330    -999.2500     626.7580    3582.1951     954.6130       0.1747       4.5520       2.5550
   2646.4260       6.1770      99.7670      91.0950    -999.2500     366.5463    5249.9009     753.9936       0.1558       4.3648       2.5600
   2646.5784       6.1800      98.3447      86.2240    -999.2500     104.5550    6920.9751     552.9690       0.1368       4.1770       2.5650
   2646.7307       6.1830      97.0692      80.4902    -999.2500     257.4636    6430.9204     628.8450       0.1385       3.9153       2.5740
   2646.8833       6.1860      95.8438      74.6980    -999.2500     411.9320    5939.8140     704.8840       0.1403       3.6530       2.5830
   2647.0356       6.1860      94.6897      75.3866    -999.2500     449.8846    4625.5244     955.9424       0.1373       3.4867       2.6114
   2647.1880       6.1860      93.3951      76.0790    -999.2500     488.0460    3308.2500    1207.5710       0.1343       3.3200       2.6400
   2647.3403       6.1845      91.6837      77.7438    -999.2500     613.0794    2149.1599    1186.1902       0.1362       3.2371       2.6380
   2647.4927       6.1830      89.9126      79.4100    -999.2500     738.2120     987.2890    1164.7581       0.1381       3.1540       2.6360
   2647.6453       6.1810      89.9113      81.9438    -999.2500     759.8349    1013.1074    1104.0211       0.1527       3.1165       2.6250
   2647.7976       6.1790      90.0263      84.4880    -999.2500     781.5470    1038.9910    1043.1310       0.1675       3.0790       2.6140
   2647.9500       6.1780      90.2356      90.5927    -999.2500     882.0573    1162.2097     989.4586       0.1674       3.0675       2.5951
   2648.1023       6.1770      90.4979      96.7430    -999.2500     983.3190    1285.7550     935.6440       0.1673       3.0560       2.5760
   2648.2549       6.1740      90.9070      95.8591    -999.2500     739.6760    1590.3660     889.5330       0.1620       3.0755       2.5835
   2648.4072       6.1710      91.1627      94.9670    -999.2500     493.7870    1895.8220     843.2940       0.1566       3.0950       2.5910
   2648.5596       6.1720      90.6396      91.5153    -999.2500     437.7213    1819.9766     600.9942       0.1406       3.1949       2.6184
   2648.7119       6.1730      89.6967      88.0480    -999.2500     381.4020    1743.9110     357.9910       0.1243       3.2950       2.6460
   2648.8645       6.1770      87.8645      83.8855    -999.2500     662.9020    1463.3486     409.8361       0.1248       3.2895       2.6435
   2649.0168       6.1810      85.7745      79.7170    -999.2500     944.8020    1181.9370     461.8380       0.1253       3.2840       2.6410
   2649.1692       6.1795      83.5019      81.0244    -999.2500     633.4385     798.2173     796.2500       0.1246       3.2521       2.6310
   2649.3215       6.1780      81.9481      82.3380    -999.2500     320.5930     413.2870    1131.7170       0.1239       3.2200       2.6210
   2649.4739       6.1725      82.6224      82.1327    -999.2500     349.8490     447.8653    1114.5201       0.1226       3.1506       2.5921
   2649.6265       6.1670      84.0347      81.9260    -999.2500     379.2950     482.5570    1097.2670       0.1213       3.0810       2.5630
   2649.7788       6.1670      88.0540      82.8577    -999.2500     491.8744     612.2276     769.4719       0.1244       3.1100       2.5640
   2649.9312       6.1670      91.2093      83.7970    -999.2500     605.3810     742.3400     440.5600       0.1276       3.1390       2.5650
