#------------------------------------------------------------------------------
#
#   Created by  : [OpenWorks] Log Export Utility (LEXP)
#   Created on  : 2016-05-12 17:01:16
#   Project     : CANT971
#   User        : R5K
#   Interpreter : PEP
#
#------------------------------------------------------------------------------
~VERSION INFORMATION
VERS. 2.0 : CWLS Log ASCII Standard - version 2.0
WRAP.  NO : One line per depth step
~WELL INFORMATION
#MNEMONIC   .UNIT                                           VALUE :DESCRIPTION
#------------------------------------------------------------------------------
STRT        .M                                          4907.2798 :START DEPTH
STOP        .M                                          5813.7549 :STOP DEPTH
STEP        .M                                             0.1524 :STEP
NULL        .                                           -999.2500 :NULL VALUE
COMP        .                                   PEMEX EXPL & PROD :COMPANY
WELL        .                                            3026D_ST :WELL
FLD         .                                           CANTARELL :FIELD
LOC         .                                             UNKNOWN :LOCATION
CNTY        .                                      CD. DEL CARMEN :COUNTY
STAT        .                                            CAMPECHE :STATE
CTRY        .                                              MEXICO :COUNTRY
SRVC        .                                             UNKNOWN :SERVICE COMPANY
DATE        .                                             UNKNOWN :LOG DATE
UWI         .                                      3060000820D_ST :UNIQUE WELL ID
XCOORD      .                                       601717.200000 :SURFACE X
YCOORD      .                                      2148573.570000 :SURFACE Y
LAT         .                                           19.430078 :LATITUDE
LON         .                                          -92.031099 :LONGITUDE
ELEV        .M                                            30.0000 :SURFACE ELEV
ELEV_TYPE   .                                                  KB :ELEV TYPE
~CURVE INFORMATION
#MNEMONIC.UNIT        API CODE       : CURVE DESCRIPTION
#------------------------------------------------------------------------------
DEPTH    .M                          : Measured Depth
CALI     .inches      UNKNOWN        : CALI:registros:rC:NONE:v0 (auto-composite)
CGR      .API         UNKNOWN        : CGR:registros:rC:NONE:v0 (auto-composite)
DRHO     .g/cm3       UNKNOWN        : DRHO:registros:rC:NONE:v0 (auto-composite)
DT       .us/ft       UNKNOWN        : DT:registros:rC:NONE:v0 (auto-composite)
GR       .API         UNKNOWN        : GR:registros:rC:NONE:v0 (auto-composite)
ILD      .ohm.m       UNKNOWN        : ILD:registros:rC:NONE:v0 (auto-composite)
ILM      .ohm.m       UNKNOWN        : ILM:registros:rC:NONE:v0 (auto-composite)
NPHI     .UNKNOWN     UNKNOWN        : NPHI:registros:rC:NONE:v0 (auto-composite)
PEF      .b/elec      UNKNOWN        : PEF:registros:rC:NONE:v0 (auto-composite)
POTA     .UNKNOWN     UNKNOWN        : POTA:registros:rC:NONE:v0 (auto-composite)
RHOB     .g/cm3       UNKNOWN        : RHOB:registros:rC:NONE:v0 (auto-composite)
THOR     .ppm         UNKNOWN        : THOR:registros:rC:NONE:v0 (auto-composite)
URAN     .ppm         UNKNOWN        : URAN:registros:rC:NONE:v0 (auto-composite)
~A     DEPTH         CALI          CGR         DRHO           DT           GR          ILD          ILM         NPHI          PEF         POTA         RHOB         THOR         URAN
# ...
   5752.1855       7.1994    -999.2500      -0.0426    -999.2500     108.3512       5.4539       5.4497       0.1936      26.9096    -999.2500       2.6439    -999.2500    -999.2500
   5752.3379       7.2155    -999.2500      -0.0343    -999.2500     109.7823       5.4692       5.4690       0.1955      25.5752    -999.2500       2.6589    -999.2500    -999.2500
   5752.4902       7.2310    -999.2500      -0.0231    -999.2500     109.2276       5.4475       5.4469       0.1965      23.8644    -999.2500       2.6743    -999.2500    -999.2500
   5752.6426       7.2357    -999.2500      -0.0136    -999.2500     109.3506       5.4362       5.4354       0.2035      22.1689    -999.2500       2.6894    -999.2500    -999.2500
   5752.7949       7.2977    -999.2500      -0.0027    -999.2500     106.7192       5.4595       5.4612       0.1977      21.4736    -999.2500       2.6987    -999.2500    -999.2500
   5752.9473       7.2583    -999.2500      -0.0042    -999.2500     106.9757       5.4815       5.4846       0.2001      19.7828    -999.2500       2.6992    -999.2500    -999.2500
   5753.0996       7.2151    -999.2500      -0.0055    -999.2500     102.4653       5.4777       5.4817       0.1974      18.5150    -999.2500       2.6887    -999.2500    -999.2500
   5753.2520       7.2136    -999.2500      -0.0063    -999.2500     108.4920       5.4615       5.4663       0.1979      17.7432    -999.2500       2.6866    -999.2500    -999.2500
   5753.4048       7.1856    -999.2500      -0.0061    -999.2500     106.7836       5.4552       5.4614       0.1995      19.7378    -999.2500       2.6829    -999.2500    -999.2500
   5753.5571       7.1777    -999.2500      -0.0086    -999.2500     109.8064       5.4516       5.4573       0.1995      19.8704    -999.2500       2.6847    -999.2500    -999.2500
   5753.7095       7.1686    -999.2500      -0.0114    -999.2500     106.3054       5.4488       5.4531       0.1961      21.1477    -999.2500       2.6782    -999.2500    -999.2500
   5753.8618       7.1536    -999.2500      -0.0112    -999.2500     106.4145       5.4339       5.4436       0.1932      21.2538    -999.2500       2.6792    -999.2500    -999.2500
   5754.0142       7.1732    -999.2500      -0.0166    -999.2500     107.7682       5.4429       5.4523       0.1904      22.3615    -999.2500       2.6735    -999.2500    -999.2500
   5754.1665       7.1801    -999.2500      -0.0184    -999.2500     104.2883       5.4460       5.4579       0.1942      26.3243    -999.2500       2.6737    -999.2500    -999.2500
   5754.3188       7.1384    -999.2500      -0.0157    -999.2500     104.4838       5.4746       5.4889       0.1978      25.9626    -999.2500       2.6774    -999.2500    -999.2500
   5754.4712       7.0869    -999.2500      -0.0240    -999.2500     102.0550       5.4581       5.4731       0.1989      22.9746    -999.2500       2.6609    -999.2500    -999.2500
   5754.6240       7.0788    -999.2500      -0.0315    -999.2500     103.4704       5.4571       5.4729       0.2004      26.7818    -999.2500       2.6528    -999.2500    -999.2500
   5754.7764       7.0833    -999.2500      -0.0335    -999.2500     102.9552       5.4418       5.4576       0.1975      24.4778    -999.2500       2.6492    -999.2500    -999.2500
   5754.9287       7.0380    -999.2500      -0.0337    -999.2500     100.8919       5.4172       5.4332       0.1964      23.4370    -999.2500       2.6515    -999.2500    -999.2500
   5755.0811       7.0447    -999.2500      -0.0365    -999.2500      99.6639       5.4404       5.4563       0.1945      22.0729    -999.2500       2.6480    -999.2500    -999.2500
   5755.2334       7.0459    -999.2500      -0.0238    -999.2500      99.2131       5.4340       5.4525       0.1950      21.2806    -999.2500       2.6627    -999.2500    -999.2500
   5755.3857       7.0516    -999.2500      -0.0228    -999.2500      99.5192       5.4280       5.4453       0.1970      24.0493    -999.2500       2.6611    -999.2500    -999.2500
   5755.5381       7.0502    -999.2500      -0.0230    -999.2500      99.4981       5.4618       5.4799       0.1970      26.5658    -999.2500       2.6576    -999.2500    -999.2500
   5755.6904       7.0486    -999.2500      -0.0259    -999.2500     102.7077       5.4847       5.5041       0.1923      24.0350    -999.2500       2.6542    -999.2500    -999.2500
   5755.8428       7.0472    -999.2500      -0.0199    -999.2500      99.4488       5.4892       5.5094       0.1901      19.7681    -999.2500       2.6665    -999.2500    -999.2500
   5755.9956       7.0873    -999.2500      -0.0171    -999.2500     100.9405       5.4855       5.5069       0.1843      19.6356    -999.2500       2.6803    -999.2500    -999.2500
   5756.1479       7.0569    -999.2500      -0.0142    -999.2500      98.7378       5.4765       5.4991       0.1869      23.6657    -999.2500       2.6891    -999.2500    -999.2500
   5756.3003       7.0529    -999.2500      -0.0129    -999.2500     101.8621       5.4649       5.4884       0.1790      23.3654    -999.2500       2.6910    -999.2500    -999.2500
   5756.4526       7.0552    -999.2500      -0.0082    -999.2500     100.0306       5.4777       5.5021       0.1811      20.6233    -999.2500       2.6951    -999.2500    -999.2500
   5756.6050       7.1124    -999.2500      -0.0141    -999.2500      98.3950       5.4962       5.5221       0.1762      19.0833    -999.2500       2.6790    -999.2500    -999.2500
   5756.7573       7.1495    -999.2500      -0.0135    -999.2500      98.0543       5.4855       5.5113       0.1803      17.4691    -999.2500       2.6821    -999.2500    -999.2500
   5756.9097       7.1468    -999.2500      -0.0159    -999.2500     100.3905       5.4814       5.5078       0.1823      17.8421    -999.2500       2.6709    -999.2500    -999.2500
   5757.0620       7.1482    -999.2500      -0.0096    -999.2500     100.2924       5.4845       5.5122       0.1847      16.6197    -999.2500       2.6904    -999.2500    -999.2500
   5757.2144       7.1561    -999.2500      -0.0105    -999.2500      99.2780       5.5035       5.5320       0.1835      20.9379    -999.2500       2.6914    -999.2500    -999.2500
   5757.3672       7.1759    -999.2500      -0.0053    -999.2500      97.0937       5.5104       5.5374       0.1829      20.8991    -999.2500       2.7060    -999.2500    -999.2500
   5757.5195       7.1761    -999.2500      -0.0126    -999.2500      96.0982       5.5114       5.5407       0.1835      20.0563    -999.2500       2.6893    -999.2500    -999.2500
   5757.6719       7.1805    -999.2500      -0.0147    -999.2500      97.0059       5.5113       5.5426       0.1855      17.9576    -999.2500       2.6899    -999.2500    -999.2500
   5757.8242       7.1710    -999.2500      -0.0173    -999.2500      98.0064       5.5130       5.5444       0.1798      17.5766    -999.2500       2.6891    -999.2500    -999.2500
   5757.9766       7.1588    -999.2500      -0.0167    -999.2500      97.5985       5.5198       5.5496       0.1793      18.9893    -999.2500       2.6929    -999.2500    -999.2500
   5758.1289       7.1485    -999.2500      -0.0137    -999.2500      99.3275       5.5392       5.5682       0.1749      20.3602    -999.2500       2.6918    -999.2500    -999.2500
   5758.2812       7.1430    -999.2500      -0.0104    -999.2500      98.3769       5.5255       5.5508       0.1783      23.8308    -999.2500       2.6955    -999.2500    -999.2500
   5758.4336       7.1608    -999.2500      -0.0088    -999.2500      96.4755       5.5113       5.5364       0.1774      22.7601    -999.2500       2.6971    -999.2500    -999.2500
   5758.5864       7.1749    -999.2500      -0.0082    -999.2500      96.1564       5.5564       5.5835       0.1811      25.2150    -999.2500       2.6876    -999.2500    -999.2500
   5758.7388       7.1805    -999.2500      -0.0060    -999.2500      96.7238       5.5378       5.5647       0.1779      20.6876    -999.2500       2.6847    -999.2500    -999.2500
