#------------------------------------------------------------------------------
#
#   Created by  : [OpenWorks] Log Export Utility (LEXP)
#   Created on  : 2016-05-12 17:01:14
#   Project     : CANT971
#   User        : R5K
#   Interpreter : PEP
#
#------------------------------------------------------------------------------
~VERSION INFORMATION
VERS. 2.0 : CWLS Log ASCII Standard - version 2.0
WRAP.  NO : One line per depth step
~WELL INFORMATION
#MNEMONIC   .UNIT                                           VALUE :DESCRIPTION
#------------------------------------------------------------------------------
STRT        .M                                          1708.0991 :START DEPTH
STOP        .M                                          2834.0303 :STOP DEPTH
STEP        .M                                             0.1524 :STEP
NULL        .                                           -999.2500 :NULL VALUE
COMP        .                                             UNKNOWN :COMPANY
WELL        .                                                3016 :WELL
FLD         .                                           CANTARELL :FIELD
LOC         .                                             UNKNOWN :LOCATION
CNTY        .                                             UNKNOWN :COUNTY
STAT        .                                            CAMPECHE :STATE
CTRY        .                                              MEXICO :COUNTRY
SRVC        .                                             UNKNOWN :SERVICE COMPANY
DATE        .                                             UNKNOWN :LOG DATE
UWI         .                                                3016 :UNIQUE WELL ID
XCOORD      .                                       192548.498000 :SURFACE X
YCOORD      .                                        92151.948000 :SURFACE Y
LAT         .                                            0.832805 :LATITUDE
LON         .                                          -95.762171 :LONGITUDE
ELEV        .M                                            46.0000 :SURFACE ELEV
ELEV_TYPE   .                                                  KB :ELEV TYPE
~CURVE INFORMATION
#MNEMONIC.UNIT        API CODE       : CURVE DESCRIPTION
#------------------------------------------------------------------------------
DEPTH    .M                          : Measured Depth
CALI     .inches      UNKNOWN        : CALI:litodensidad:rC:NONE:v0 (auto-composite)
CGR      .API         UNKNOWN        : CGR:Espectrometria:rC:NONE:v0 (auto-composite)
DRHO     .g/cm3       UNKNOWN        : DRHO:litodensidad:rC:NONE:v0 (auto-composite)
DT       .us/ft       UNKNOWN        : DT:DT-Load:rC:NONE:v0 (auto-composite)
GR       .API         UNKNOWN        : GR:PETROWORKS:rC:NONE:v1 
GR-LWD   .API         UNKNOWN        : GR-LWD:PETROWORKS:rC:NONE:v1 
ILD-LWD  .ohm.m       UNKNOWN        : ILD-LWD:PETROWORKS:rC:NONE:v1 
ILM-LWD  .ohm.m       UNKNOWN        : ILM-LWD:PETROWORKS:rC:NONE:v1 
LLD      .ohm.m       UNKNOWN        : LLD:Resistivos:rC:NONE:v0 (auto-composite)
LLS      .ohm.m       UNKNOWN        : LLS:Resistivos:rC:NONE:v0 (auto-composite)
MSFL     .ohm.m       UNKNOWN        : MSFL:Resistivos:rC:NONE:v0 (auto-composite)
NPHI     .v/v_decimal UNKNOWN        : NPHI:Porosidad:rC:NONE:v0 (auto-composite)
PEF      .UNKNOWN     UNKNOWN        : PEF:litodensidad:rC:NONE:v0 (auto-composite)
POTA     .wtpercent   UNKNOWN        : POTA:Espectrometria:rC:NONE:v0 (auto-composite)
RHOB     .g/cm3       UNKNOWN        : RHOB:litodensidad:rC:NONE:v0 (auto-composite)
SP       .mV          UNKNOWN        : SP:SP-Load:rC:NONE:v0 (auto-composite)
THOR     .ppm         UNKNOWN        : THOR:Espectrometria:rC:NONE:v0 (auto-composite)
URAN     .ppm         UNKNOWN        : URAN:Espectrometria:rC:NONE:v0 (auto-composite)
~A     DEPTH         CALI          CGR         DRHO           DT           GR       GR-LWD      ILD-LWD      ILM-LWD          LLD          LLS         MSFL         NPHI          PEF         POTA         RHOB           SP         THOR         URAN
# ...
   2120.4934    -999.2500      11.6302    -999.2500    -999.2500      40.2222      40.2222       1.4928       1.3972    -999.2500    -999.2500    -999.2500       0.3419    -999.2500       0.0034    -999.2500    -245.5625       1.7811       0.4588
   2120.6460    -999.2500      10.2283    -999.2500    -999.2500      41.2106      41.2106       1.6000       1.4925    -999.2500    -999.2500    -999.2500       0.3438    -999.2500       0.0032    -999.2500    -246.3750       1.4081       0.5826
   2120.7983    -999.2500       9.4385    -999.2500    -999.2500      39.5495      39.5495       1.6026       1.4948    -999.2500    -999.2500    -999.2500       0.3244    -999.2500       0.0030    -999.2500    -245.9375       1.2647       0.7207
   2120.9507    -999.2500       8.7890    -999.2500    -999.2500      40.8813      40.8813       1.6552       1.5253    -999.2500    -999.2500    -999.2500       0.3263    -999.2500       0.0028    -999.2500    -244.3750       1.2047       0.8120
   2121.1030    -999.2500       9.0239    -999.2500    -999.2500      41.0109      41.0109       1.6584       1.5301    -999.2500    -999.2500    -999.2500       0.3268    -999.2500       0.0027    -999.2500    -243.5625       1.3129       0.8113
   2121.2556    -999.2500       8.9451    -999.2500    -999.2500      40.9410      40.9410       1.6165       1.5187    -999.2500    -999.2500    -999.2500       0.3245    -999.2500       0.0025    -999.2500    -244.2500       1.4007       0.8562
   2121.4080    -999.2500       9.9441    -999.2500    -999.2500      40.7708      40.7708       1.5600       1.5044    -999.2500    -999.2500    -999.2500       0.3263    -999.2500       0.0032    -999.2500    -245.4375       1.3401       0.9936
   2121.5603    -999.2500       9.6568    -999.2500    -999.2500      41.2478      41.2478       1.5298       1.4238    -999.2500    -999.2500    -999.2500       0.3428    -999.2500       0.0030    -999.2500    -247.0625       1.3399       1.2286
   2121.7126    -999.2500       9.4152    -999.2500    -999.2500      43.7370      43.7370       1.5367       1.3435    -999.2500    -999.2500    -999.2500       0.3461    -999.2500       0.0030    -999.2500    -249.5000       1.2912       1.2383
   2121.8652    -999.2500       9.5526    -999.2500    -999.2500      41.9680      41.9680       1.5943       1.3970    -999.2500    -999.2500    -999.2500       0.3430    -999.2500       0.0032    -999.2500    -251.6250       1.2186       1.1082
   2122.0176    -999.2500       8.3898    -999.2500    -999.2500      41.1303      41.1303       1.6267       1.5468    -999.2500    -999.2500    -999.2500       0.3189    -999.2500       0.0026    -999.2500    -253.1250       1.1850       1.0190
   2122.1699    -999.2500       8.7057    -999.2500    -999.2500      40.3894      40.3894       1.6462       1.6655    -999.2500    -999.2500    -999.2500       0.3598    -999.2500       0.0028    -999.2500    -253.3125       1.1519       0.8939
   2122.3223    -999.2500       8.4393    -999.2500    -999.2500      39.7234      39.7234       1.6148       1.6764    -999.2500    -999.2500    -999.2500       0.3853    -999.2500       0.0028    -999.2500    -253.8750       1.1005       0.9607
   2122.4746    -999.2500       8.7394    -999.2500    -999.2500      41.2956      41.2956       1.6645       1.6527    -999.2500    -999.2500    -999.2500       0.4068    -999.2500       0.0028    -999.2500    -254.1250       1.1618       0.9139
   2122.6272    -999.2500       8.9557    -999.2500    -999.2500      39.9857      39.9857       1.8772       1.6932    -999.2500    -999.2500    -999.2500       0.3862    -999.2500       0.0030    -999.2500    -255.4375       1.1321       0.8685
   2122.7795    -999.2500       8.3406    -999.2500    -999.2500      41.8079      41.8079       2.0089       1.8014    -999.2500    -999.2500    -999.2500       0.3644    -999.2500       0.0028    -999.2500    -255.5625       1.0439       0.8333
   2122.9319    -999.2500       8.9728    -999.2500    -999.2500      39.0612      39.0612       2.1043       1.9500    -999.2500    -999.2500    -999.2500       0.3403    -999.2500       0.0030    -999.2500    -256.3750       1.1349       0.8232
   2123.0842    -999.2500       9.2545    -999.2500    -999.2500      39.2098      39.2098       2.0724       2.1416    -999.2500    -999.2500    -999.2500       0.3235    -999.2500       0.0030    -999.2500    -256.0000       1.2176       0.8998
   2123.2368    -999.2500      10.6057    -999.2500    -999.2500      36.8808      36.8808       2.0105       2.2315    -999.2500    -999.2500    -999.2500       0.3150    -999.2500       0.0034    -999.2500    -254.0000       1.4366       0.7467
   2123.3892    -999.2500      11.1975    -999.2500    -999.2500      38.0293      38.0293       2.0264       2.1179    -999.2500    -999.2500    -999.2500       0.3137    -999.2500       0.0034    -999.2500    -253.3125       1.5874       0.5645
   2123.5415    -999.2500      10.3632    -999.2500    -999.2500      40.8705      40.8705       2.1801       2.0503    -999.2500    -999.2500    -999.2500       0.3170    -999.2500       0.0029    -999.2500    -251.5000       1.6337       0.5222
   2123.6938    -999.2500      10.2309    -999.2500    -999.2500      41.3482      41.3482       2.1764       2.0516    -999.2500    -999.2500    -999.2500       0.3227    -999.2500       0.0028    -999.2500    -248.6875       1.6299       0.5018
   2123.8464    -999.2500       9.8928    -999.2500    -999.2500      41.1896      41.1896       2.1340       2.0302    -999.2500    -999.2500    -999.2500       0.3123    -999.2500       0.0026    -999.2500    -248.3750       1.6508       0.6148
   2123.9988    -999.2500      10.9033    -999.2500    -999.2500      39.0193      39.0193       2.1008       2.0196    -999.2500    -999.2500    -999.2500       0.2870    -999.2500       0.0028    -999.2500    -249.6875       1.8674       0.5947
   2124.1511    -999.2500      11.1100    -999.2500    -999.2500      39.6911      39.6911       2.0322       2.0488    -999.2500    -999.2500    -999.2500       0.2942    -999.2500       0.0028    -999.2500    -250.6250       1.9276       0.6606
   2124.3035    -999.2500      12.0383    -999.2500    -999.2500      39.7077      39.7077       2.0306       1.9962    -999.2500    -999.2500    -999.2500       0.2913    -999.2500       0.0032    -999.2500    -250.5625       2.0081       0.7105
   2124.4558    -999.2500      12.7385    -999.2500    -999.2500      39.5310      39.5310       2.0915       1.8482    -999.2500    -999.2500    -999.2500       0.2918    -999.2500       0.0035    -999.2500    -249.9375       2.0405       0.5584
   2124.6084    -999.2500      12.5435    -999.2500    -999.2500      40.9875      40.9875       2.1725       1.7360    -999.2500    -999.2500    -999.2500       0.2785    -999.2500       0.0036    -999.2500    -249.1875       1.9121       0.5202
   2124.7607    -999.2500      12.2364    -999.2500    -999.2500      41.2195      41.2195       2.0880       1.7098    -999.2500    -999.2500    -999.2500       0.2724    -999.2500       0.0035    -999.2500    -248.9375       1.9187       0.4883
   2124.9131    -999.2500      11.9346    -999.2500    -999.2500      41.9801      41.9801       2.0313       1.6909    -999.2500    -999.2500    -999.2500       0.2784    -999.2500       0.0032    -999.2500    -249.1875       1.9783       0.5004
   2125.0654    -999.2500      10.8915    -999.2500    -999.2500      39.6764      39.6764       2.0850       1.6288    -999.2500    -999.2500    -999.2500       0.3028    -999.2500       0.0030    -999.2500    -248.9375       1.7715       0.4908
   2125.2180    -999.2500      10.6758    -999.2500    -999.2500      39.3074      39.3074       2.2321       1.6259    -999.2500    -999.2500    -999.2500       0.3203    -999.2500       0.0028    -999.2500    -248.7500       1.8019       0.4452
   2125.3704    -999.2500      10.6364    -999.2500    -999.2500      38.6838      38.6838       2.2252       1.7210    -999.2500    -999.2500    -999.2500       0.3152    -999.2500       0.0030    -999.2500    -248.6250       1.6917       0.5841
