#------------------------------------------------------------------------------
#
#   Created by  : [OpenWorks] Log Export Utility (LEXP)
#   Created on  : 2016-05-12 17:18:19
#   Project     : CANT971
#   User        : R5K
#   Interpreter : PEP
#
#------------------------------------------------------------------------------
~VERSION INFORMATION
VERS. 2.0 : CWLS Log ASCII Standard - version 2.0
WRAP.  NO : One line per depth step
~WELL INFORMATION
#MNEMONIC   .UNIT                                           VALUE :DESCRIPTION
#------------------------------------------------------------------------------
STRT        .M                                           134.7982 :START DEPTH
STOP        .M                                          2692.2227 :STOP DEPTH
STEP        .M                                             0.1524 :STEP
NULL        .                                           -999.2500 :NULL VALUE
COMP        .                                   PEMEX EXPL & PROD :COMPANY
WELL        .                                                 57A :WELL
FLD         .                                           CANTARELL :FIELD
LOC         .                                             UNKNOWN :LOCATION
CNTY        .                                      CD. DEL CARMEN :COUNTY
STAT        .                                            CAMPECHE :STATE
CTRY        .                                              MEXICO :COUNTRY
SRVC        .                                             UNKNOWN :SERVICE COMPANY
DATE        .                                             UNKNOWN :LOG DATE
UWI         .                                          3060000169 :UNIQUE WELL ID
XCOORD      .                                       602151.210000 :SURFACE X
YCOORD      .                                      2147168.830000 :SURFACE Y
LAT         .                                           19.417362 :LATITUDE
LON         .                                          -92.027041 :LONGITUDE
ELEV        .M                                            28.1700 :SURFACE ELEV
ELEV_TYPE   .                                                  KB :ELEV TYPE
~CURVE INFORMATION
#MNEMONIC.UNIT        API CODE       : CURVE DESCRIPTION
#------------------------------------------------------------------------------
DEPTH    .M                          : Measured Depth
CALI     .inches      UNKNOWN        : CALI:UNKNOWN:r1:MAIN:v1 
DRHO     .UNKNOWN     UNKNOWN        : DRHO:UNKNOWN:r1:MAIN:v1 
DT       .us/ft       UNKNOWN        : DT:UNKNOWN:r1:MAIN:v1 
GR       .API         UNKNOWN        : GR:GR:r1:MAIN:v1 
ILD      .UNKNOWN     UNKNOWN        : ILD:UNKNOWN:r1:MAIN:v1 
LLD      .UNKNOWN     UNKNOWN        : LLD:UNKNOWN:r1:MAIN:v1 
LLS      .UNKNOWN     UNKNOWN        : LLS:UNKNOWN:r1:MAIN:v1 
MSFL     .UNKNOWN     UNKNOWN        : MSFL:UNKNOWN:r1:MAIN:v1 
NORM     .UNKNOWN     UNKNOWN        : NORM:NORM-Load:r1:MAIN:v1 
NPHI     .v/v_decimal UNKNOWN        : NPHI:UNKNOWN:r1:MAIN:v1 
RHOB     .UNKNOWN     UNKNOWN        : RHOB:UNKNOWN:r1:MAIN:v1 
SP       .mV          UNKNOWN        : SP:PETROWORKS:rC:NONE:v1 
~A     DEPTH         CALI         DRHO           DT           GR          ILD          LLD          LLS         MSFL         NORM         NPHI         RHOB           SP
# ...
   1883.1310       8.4236       0.0470      70.1230      36.9001       0.2000     497.2632     149.5866      19.4927    -999.2500       0.1174       2.3837     149.6462
   1883.2834       8.5013       0.0355      69.2381      36.5376       0.2000     460.6161     129.6584      13.1305    -999.2500       0.1193       2.3692     149.4737
   1883.4358       8.6991       0.0290      69.3680      36.4221       0.2000     443.1107     115.1305      15.5454    -999.2500       0.1196       2.3553     149.3805
   1883.5883       9.0505       0.0290      70.7985      36.6232       0.2000     450.1347     107.5229      29.2078    -999.2500       0.1176       2.3422     149.3223
   1883.7406       9.1679       0.0314      70.9173      36.9214       0.2000     531.6534     110.6244      36.8191    -999.2500       0.1181       2.3463     149.3974
   1883.8931       8.9920       0.0370      69.3927      37.3414       0.2000     706.5116     127.1441      36.8487    -999.2500       0.1218       2.3719     149.5296
   1884.0454       8.7724       0.0431      66.7632      37.5368       0.2000     987.7358     160.3222      39.4930    -999.2500       0.1244       2.4065     149.6812
   1884.1979       8.4992       0.0502      62.7756      37.4561       0.2000    1399.6993     213.9759      45.3513    -999.2500       0.1259       2.4521     149.8408
   1884.3502       8.3056       0.0606      60.9802      37.3594       0.2000    1566.3694     263.5695      43.2057    -999.2500       0.1284       2.4770     149.9122
   1884.5026       8.2078       0.0751      61.8195      37.2436       0.2000    1438.2130     308.2829      31.4401    -999.2500       0.1322       2.4770     149.9476
   1884.6550       8.1550       0.0805      73.2048      36.6495       0.2000    1285.6741     327.3448      23.8748    -999.2500       0.1357       2.4613     149.8976
   1884.8074       8.1550       0.0750      96.9857      35.4932       0.2000    1104.4764     316.2565      21.2466    -999.2500       0.1387       2.4273     149.8138
   1884.9598       8.1594       0.0645     114.5492      34.3254       0.2000     935.2974     304.9123      68.6863    -999.2500       0.1435       2.3941     149.6464
   1885.1122       8.1690       0.0485     124.9430      33.1441       0.2000     779.9778     293.2731     173.8624    -999.2500       0.1505       2.3620     149.4467
   1885.2646       8.1648       0.0351     131.9800      32.1871       0.2000     660.2046     290.8669     323.6562    -999.2500       0.1603       2.3365     149.3098
   1885.4170       8.1453       0.0245     135.2312      31.4829       0.2000     580.5191     298.8734     523.7683    -999.2500       0.1733       2.3185     149.1966
   1885.5695       8.1350       0.0197     136.5424      30.7741       0.2000     562.8884     291.1552     679.7222    -999.2500       0.1944       2.3107     149.1308
   1885.7218       8.1350       0.0212     135.7071      30.0601       0.2000     613.9214     266.0375     786.8151    -999.2500       0.2246       2.3142     149.0823
   1885.8743       8.1817       0.0206     134.8008      29.2864       0.2000     816.2670     250.2954     792.6448    -999.2500       0.2324       2.3076     148.9523
   1886.0266       8.2790       0.0175     133.8176      28.4481       0.2000    1182.3608     244.6994     688.8892    -999.2500       0.2160       2.2900     148.7932
   1886.1791       8.3100       0.0206     130.7060      27.8071       0.2000    1476.0709     299.1140     500.9879    -999.2500       0.2035       2.2705     148.6210
   1886.3314       8.2709       0.0301     125.3418      27.3751       0.2000    1693.1682     417.0452     224.0251    -999.2500       0.1950       2.2490     148.4442
   1886.4838       8.2271       0.0348     123.2620      26.9841       0.2000    2209.7900     636.3323      66.2914    -999.2500       0.1908       2.2375     148.3576
   1886.6362       8.1785       0.0343     124.5932      26.6356       0.2000    3037.4741     960.8795      32.3794    -999.2500       0.1910       2.2365     148.3016
   1886.7886       8.1540       0.0330     126.7554      26.8463       0.2000    3672.8599    1162.8708      18.0552    -999.2500       0.1881       2.2524     148.2982
   1886.9410       8.1540       0.0310     129.7618      27.6249       0.2000    4112.9214    1240.3778      23.6272    -999.2500       0.1822       2.2855     148.3121
   1887.0934       8.1832       0.0345     127.2849      29.0144       0.2000    4201.8491    1202.4053      40.6520    -999.2500       0.1750       2.3266     148.4232
   1887.2458       8.2413       0.0435     119.3606      31.0106       0.2000    3941.9397    1049.7086      69.0549    -999.2500       0.1665       2.3758     148.5653
   1887.3982       8.3342       0.0465     112.3075      32.6338       0.2000    3388.4756     894.9606    1394.5409    -999.2500       0.1584       2.4010     148.7210
   1887.5507       8.4611       0.0435     106.1039      33.8933       0.2000    2548.8582     738.2131    3984.4077    -999.2500       0.1507       2.4030     148.8809
   1887.7030       8.5579       0.0425     103.3793      34.5249       0.2000    1756.4857     596.8298    5770.7432    -999.2500       0.1451       2.3894     148.9462
   1887.8555       8.6261       0.0435     103.9717      34.5580       0.2000    1009.1569     470.0948    6790.9912    -999.2500       0.1413       2.3608     148.9829
   1888.0078       8.6238       0.0445     107.2361      34.2257       0.2000     626.8288     388.6652    7518.9966    -999.2500       0.1374       2.3408     148.9475
   1888.1603       8.5556       0.0455     113.0001      33.5526       0.2000     585.9474     349.6174    7973.6177    -999.2500       0.1333       2.3287     148.8909
   1888.3126       8.4822       0.0460     110.8941      32.8427       0.2000     553.6241     337.4757    7821.3076    -999.2500       0.1315       2.3293     148.7392
   1888.4650       8.4039       0.0460     101.5878      32.0991       0.2000     529.1308     349.9508    7113.7036    -999.2500       0.1317       2.3413     148.5605
   1888.6174       8.3154       0.0486      91.5950      31.4909       0.2000     581.0052     413.4775    6949.0195    -999.2500       0.1320       2.3713     148.4082
   1888.7698       8.2177       0.0537      80.9878      31.0037       0.2000     701.2137     522.6855    7270.1426    -999.2500       0.1322       2.4174     148.2630
   1888.9222       8.1824       0.0557      75.2037      30.2300       0.2000     826.7542     569.1678    7202.2622    -999.2500       0.1319       2.4443     148.2012
   1889.0746       8.2020       0.0552      73.6539      29.2047       0.2000     956.9757     560.5815    6792.8657    -999.2500       0.1309       2.4544     148.1616
   1889.2271       8.2188       0.0512      70.6069      28.8424       0.2000     950.0330     525.8795    6816.4360    -999.2500       0.1302       2.4493     148.1446
   1889.3794       8.2334       0.0442      66.2744      29.0495       0.2000     825.3243     468.7551    7211.7417    -999.2500       0.1298       2.4312     148.1335
   1889.5319       8.2160       0.0459      65.6630      29.4837       0.2000     743.7084     400.0269    7613.8228    -999.2500       0.1290       2.4056     148.1224
   1889.6842       8.1719       0.0549      68.1760      30.1087       0.2000     698.2741     321.5558    8021.5928    -999.2500       0.1278       2.3735     148.1111
   1889.8367       8.1652       0.0524      69.6901      30.6076       0.2000     629.5893     290.8168    8057.2271    -999.2500       0.1275       2.3502     148.1018
   1889.9890       8.1893       0.0404      70.3815      31.0027       0.2000     541.7528     299.3950    7786.3301    -999.2500       0.1278       2.3342     148.0929
   1890.1414       8.2675       0.0292      69.2726      31.5254       0.2000     486.2041     334.5286    7404.2163    -999.2500       0.1295       2.3364     148.0846
   1890.2938       8.3893       0.0186      66.7135      32.1509       0.2000     456.6617     391.0513    6932.5225    -999.2500       0.1323       2.3535     148.0766
