#------------------------------------------------------------------------------
#
#   Created by  : [OpenWorks] Log Export Utility (LEXP)
#   Created on  : 2016-05-23 11:57:24
#   Project     : CANT971
#   User        : R5K
#   Interpreter : PEP
#
#------------------------------------------------------------------------------
~VERSION INFORMATION
VERS. 2.0 : CWLS Log ASCII Standard - version 2.0
WRAP.  NO : One line per depth step
~WELL INFORMATION
#MNEMONIC   .UNIT                                           VALUE :DESCRIPTION
#------------------------------------------------------------------------------
STRT        .M                                           648.1292 :START DEPTH
STOP        .M                                          2685.5647 :STOP DEPTH
STEP        .M                                             0.1524 :STEP
NULL        .                                           -999.2500 :NULL VALUE
COMP        .                                   PEMEX EXPL & PROD :COMPANY
WELL        .                                                 81D :WELL
FLD         .                                           CANTARELL :FIELD
LOC         .                                             UNKNOWN :LOCATION
CNTY        .                                      CD. DEL CARMEN :COUNTY
STAT        .                                            CAMPECHE :STATE
CTRY        .                                              MEXICO :COUNTRY
SRVC        .                                             UNKNOWN :SERVICE COMPANY
DATE        .                                             UNKNOWN :LOG DATE
UWI         .                                          3060000666 :UNIQUE WELL ID
XCOORD      .                                       601717.100000 :SURFACE X
YCOORD      .                                      2142375.260000 :SURFACE Y
LAT         .                                           19.374067 :LATITUDE
LON         .                                          -92.031430 :LONGITUDE
ELEV        .M                                            30.0000 :SURFACE ELEV
ELEV_TYPEF  .b/elec                                            KB :ELEV TYPE
~CURVE INFORMATION
#MNEMONIC.UNIT        API CODE       : CURVE DESCRIPTION
#------------------------------------------------------------------------------
DEPTH    .M                          : Measured Depth
CALI     .in          UNKNOWN        : CALI:UNKNOWN:rC:NONE:v0 (auto-composite)
CGR      .API         UNKNOWN        : CGR:UNKNOWN:rC:NONE:v0 (auto-composite)
DRHO     .g/cm3       UNKNOWN        : DRHO:UNKNOWN:rC:NONE:v0 (auto-composite)
DT       .us/ft       UNKNOWN        : DT:DT:rC:NONE:v0 (auto-composite)
GR       .API         UNKNOWN        : GR:UNKNOWN:rC:NONE:v0 (auto-composite)
ILD      .ohmm        UNKNOWN        : ILD:UNKNOWN:rC:NONE:v0 (auto-composite)
ILM      .ohmm        UNKNOWN        : ILM:UNKNOWN:rC:NONE:v0 (auto-composite)
LLD      .ohmm        UNKNOWN        : LLD:UNKNOWN:rC:NONE:v0 (auto-composite)
LLS      .ohmm        UNKNOWN        : LLS:UNKNOWN:rC:NONE:v0 (auto-composite)
NPHI     .v/v_decimal UNKNOWN        : NPHI:NPHI:rC:NONE:v0 (auto-composite)
PEF      .b/elec      UNKNOWN        : PEF:UNKNOWN:rC:NONE:v0 (auto-composite)
POTA     .%           UNKNOWN        : POTA:UNKNOWN:rC:NONE:v0 (auto-composite)
RHOB     .g/cm3       UNKNOWN        : RHOB:UNKNOWN:rC:NONE:v0 (auto-composite)
THOR     .ppm         UNKNOWN        : THOR:UNKNOWN:rC:NONE:v0 (auto-composite)
URAN     .ppm         UNKNOWN        : URAN:UNKNOWN:rC:NONE:v0 (auto-composite)
~A     DEPTH         CALI          CGR         DRHO           DT           GR          ILD          ILM          LLD          LLS         NPHI          PEF         POTA         RHOB         THOR         URAN
# ...
   1979.4956      13.0948       4.9565    -999.2500    -999.2500      50.2152    -999.2500    -999.2500     157.6431     127.7328       3.8366    -999.2500       0.1456    -999.2500       0.8134       5.0116
   1979.6481      13.0908       5.5715    -999.2500    -999.2500      49.8286    -999.2500    -999.2500     161.8280     127.4223       6.0400    -999.2500       0.1661    -999.2500       0.9039       4.8976
   1979.8004      13.0868       5.2564    -999.2500    -999.2500      49.6988    -999.2500    -999.2500     169.7825     132.5703       9.1321    -999.2500       0.1380    -999.2500       0.9579       4.9254
   1979.9528      13.0828       4.7239    -999.2500    -999.2500      49.6293    -999.2500    -999.2500     178.6087     138.9806      12.4614    -999.2500       0.0985    -999.2500       1.0034       4.9864
   1980.1052      13.0869       4.3000    -999.2500    -999.2500      50.0585    -999.2500    -999.2500     184.6211     143.6353      14.4070    -999.2500       0.0744    -999.2500       0.9731       5.0535
   1980.2576      13.0929       3.9015    -999.2500    -999.2500      50.6060    -999.2500    -999.2500     189.9826     147.8839      15.7337    -999.2500       0.0539    -999.2500       0.9251       5.1220
   1980.4100      13.0891       4.2377    -999.2500    -999.2500      51.2680    -999.2500    -999.2500     183.3133     142.7779      15.7215    -999.2500       0.0743    -999.2500       0.9553       5.1808
   1980.5624      13.0831       4.7457    -999.2500    -999.2500      51.9562    -999.2500    -999.2500     173.8741     135.5181      15.3235    -999.2500       0.1043    -999.2500       1.0038       5.2373
   1980.7148      13.0800       5.1033    -999.2500    -999.2500      52.9162    -999.2500    -999.2500     164.8632     128.4928      15.0009    -999.2500       0.1517    -999.2500       0.8513       5.3173
   1980.8672      13.0775       5.4258    -999.2500    -999.2500      53.9388    -999.2500    -999.2500     155.9510     121.5215      14.7167    -999.2500       0.2032    -999.2500       0.6518       5.4028
   1981.0197      13.0932       5.6418    -999.2500    -999.2500      54.2872    -999.2500    -999.2500     150.6123     114.4921      14.5455    -999.2500       0.2264    -999.2500       0.5832       5.3967
   1981.1720      13.1132       5.8328    -999.2500    -999.2500      54.4785    -999.2500    -999.2500     146.0969     107.4494      14.3644    -999.2500       0.2429    -999.2500       0.5452       5.3692
   1981.3245      13.1130       5.4473    -999.2500    -999.2500      53.3867    -999.2500    -999.2500     146.3273     105.7221      14.0129    -999.2500       0.2112    -999.2500       0.6101       5.3016
   1981.4768      13.1080       4.9268    -999.2500    -999.2500      51.9928    -999.2500    -999.2500     147.6518     105.2201      13.5682    -999.2500       0.1682    -999.2500       0.6991       5.2246
   1981.6292      13.1119       3.8971    -999.2500    -999.2500      52.9321    -999.2500    -999.2500     155.3087     113.4675      13.1887    -999.2500       0.1106    -999.2500       0.6763       5.4409
   1981.7816      13.1179       2.7481    -999.2500    -999.2500      54.4236    -999.2500    -999.2500     164.4259     123.7327      12.8729    -999.2500       0.0496    -999.2500       0.6273       5.7259
   1981.9340      13.1283       2.9351    -999.2500    -999.2500      54.6451    -999.2500    -999.2500     177.4354     135.5172      12.8228    -999.2500       0.0376    -999.2500       0.7480       5.7294
   1982.0864      13.1398       3.4350    -999.2500    -999.2500      54.5751    -999.2500    -999.2500     191.3430     147.6524      12.9239    -999.2500       0.0371    -999.2500       0.9085       5.6669
   1982.2388      13.1375       3.8026    -999.2500    -999.2500      54.2401    -999.2500    -999.2500     191.7151     148.7946      13.3440    -999.2500       0.0374    -999.2500       1.0269       5.5886
   1982.3912      13.1320       4.1391    -999.2500    -999.2500      53.8440    -999.2500    -999.2500     188.9632     147.3997      13.8132    -999.2500       0.0379    -999.2500       1.1354       5.5066
   1982.5436      13.1294       3.0358    -999.2500    -999.2500      54.9571    -999.2500    -999.2500     167.6657     130.6258      13.7480    -999.2500       0.0380    -999.2500       0.7781       5.7478
   1982.6960      13.1274       1.5949    -999.2500    -999.2500      56.4225    -999.2500    -999.2500     142.0860     110.3010      13.5212    -999.2500       0.0380    -999.2500       0.3117       6.0648
   1982.8484      13.1290       1.6693    -999.2500    -999.2500      56.4979    -999.2500    -999.2500     131.4945     101.2841      13.5761    -999.2500       0.0384    -999.2500       0.3352       6.0829
   1983.0009      13.1315       2.0993    -999.2500    -999.2500      56.2471    -999.2500    -999.2500     124.3653      94.8793      13.7580    -999.2500       0.0389    -999.2500       0.4737       6.0309
   1983.1532      13.1028       2.3536    -999.2500    -999.2500      55.6487    -999.2500    -999.2500     143.1597     110.7117      13.5817    -999.2500       0.0382    -999.2500       0.5587       5.9303
   1983.3057      13.0667       2.5666    -999.2500    -999.2500      54.9678    -999.2500    -999.2500     167.9449     131.6831      13.3700    -999.2500       0.0372    -999.2500       0.6313       5.8182
   1983.4580      13.0295       2.3622    -999.2500    -999.2500      54.3421    -999.2500    -999.2500     191.2970     151.9466      13.4034    -999.2500       0.0370    -999.2500       0.5660       5.7508
   1983.6104      12.9920       2.0602    -999.2500    -999.2500      53.7291    -999.2500    -999.2500     214.3178     172.0465      13.5672    -999.2500       0.0370    -999.2500       0.4685       5.6938
   1983.7628      12.9700       1.7432    -999.2500    -999.2500      54.1835    -999.2500    -999.2500     205.4899     165.5806      13.2770    -999.2500       0.0370    -999.2500       0.3681       5.7831
   1983.9152      12.9515       1.4227    -999.2500    -999.2500      54.8847    -999.2500    -999.2500     189.2959     152.9705      12.8738    -999.2500       0.0370    -999.2500       0.2671       5.9066
   1984.0676      12.9403       1.5966    -999.2500    -999.2500      53.9620    -999.2500    -999.2500     178.9987     145.1279      12.4329    -999.2500       0.0362    -999.2500       0.3266       5.7894
   1984.2200      12.9308       1.8861    -999.2500    -999.2500      52.6616    -999.2500    -999.2500     170.0659     138.3884      11.9740    -999.2500       0.0352    -999.2500       0.4236       5.6159
   1984.3724      12.9302       2.0593    -999.2500    -999.2500      52.7729    -999.2500    -999.2500     154.0507     126.9522      12.1190    -999.2500       0.0350    -999.2500       0.4797       5.6146
   1984.5248      12.9317       2.2053    -999.2500    -999.2500      53.2162    -999.2500    -999.2500     136.4048     114.4346      12.4018    -999.2500       0.0350    -999.2500       0.5262       5.6536
   1984.6772      12.9288       2.1106    -999.2500    -999.2500      53.5973    -999.2500    -999.2500     127.7450     102.8948      12.6324    -999.2500       0.0350    -999.2500       0.4957       5.7489
   1984.8296      12.9247       1.9596    -999.2500    -999.2500      53.9637    -999.2500    -999.2500     121.1552      91.5801      12.7738    -999.2500       0.0350    -999.2500       0.4472       5.8574
   1984.9821      12.9175       2.4143    -999.2500    -999.2500      54.4239    -999.2500    -999.2500     145.8164     115.3515      12.2933    -999.2500       0.0354    -999.2500       0.5915       5.7609
   1985.1344      12.9095       3.0108    -999.2500    -999.2500      54.9057    -999.2500    -999.2500     177.6794     147.2085      11.6146    -999.2500       0.0359    -999.2500       0.7810       5.6164
   1985.2869      12.9100       3.0085    -999.2500    -999.2500      53.5864    -999.2500    -999.2500     221.8410     177.1616      11.6117    -999.2500       0.0360    -999.2500       0.7797       5.5080
