#------------------------------------------------------------------------------
#
#   Created by  : [OpenWorks] Log Export Utility (LEXP)
#   Created on  : 2016-05-23 11:53:36
#   Project     : CANT971
#   User        : R5K
#   Interpreter : PEP
#
#------------------------------------------------------------------------------
~VERSION INFORMATION
VERS. 2.0 : CWLS Log ASCII Standard - version 2.0
WRAP.  NO : One line per depth step
~WELL INFORMATION
#MNEMONIC   .UNIT                                           VALUE :DESCRIPTION
#------------------------------------------------------------------------------
STRT        .M                                           940.3716 :START DEPTH
STOP        .M                                          3167.2405 :STOP DEPTH
STEP        .M                                             0.1524 :STEP
NULL        .                                           -999.2500 :NULL VALUE
COMP        .                                   PEMEX EXPL & PROD :COMPANY
WELL        .                                                  24 :WELL
FLD         .                                           CANTARELL :FIELD
LOC         .                                             UNKNOWN :LOCATION
CNTY        .                                      CD. DEL CARMEN :COUNTY
STAT        .                                            CAMPECHE :STATE
CTRY        .                                              MEXICO :COUNTRY
SRVC        .                                             UNKNOWN :SERVICE COMPANY
DATE        .                                             UNKNOWN :LOG DATE
UWI         .                                          3060000153 :UNIQUE WELL ID
XCOORD      .                                       598455.290000 :SURFACE X
YCOORD      .                                      2145024.750000 :SURFACE Y
LAT         .                                           19.398172 :LATITUDE
LON         .                                          -92.062351 :LONGITUDE
ELEV        .M                                            26.5400 :SURFACE ELEV
ELEV_TYPE   .                                                  KB :ELEV TYPE
~CURVE INFORMATION
#MNEMONIC.UNIT        API CODE       : CURVE DESCRIPTION
#------------------------------------------------------------------------------
DEPTH    .M                          : Measured Depth
CALI     .inches      UNKNOWN        : CALI:Import:rC:NONE:v0 (auto-composite)
DRHO     .g/cm3       UNKNOWN        : DRHO:Import:rC:NONE:v0 (auto-composite)
DT       .us/ft       UNKNOWN        : DT:Import:rC:NONE:v0 (auto-composite)
GR       .API         UNKNOWN        : GR:Import:rC:NONE:v0 (auto-composite)
ILD      .ohm.m       UNKNOWN        : ILD:Import:rC:NONE:v0 (auto-composite)
LLD      .ohm.m       UNKNOWN        : LLD:Import:rC:NONE:v0 (auto-composite)
LLS      .ohm.m       UNKNOWN        : LLS:Import:rC:NONE:v0 (auto-composite)
MSFL     .ohm.m       UNKNOWN        : MSFL:Import:rC:NONE:v0 (auto-composite)
NPHI     .v/v_decimal UNKNOWN        : NPHI:Import:rC:NONE:v0 (auto-composite)
RHOB     .g/cm3       UNKNOWN        : RHOB:Import:rC:NONE:v0 (auto-composite)
~A     DEPTH         CALI         DRHO           DT           GR          ILD          LLD          LLS         MSFL         NPHI         RHOB
# ...
   2459.4949    -999.2500    -999.2500    -999.2500      66.6814    -999.2500     896.7336    1077.8856     940.7137       0.0540    -999.2500
   2459.6472    -999.2500    -999.2500    -999.2500      59.1719    -999.2500    1063.0901    1156.2405    1087.6288       0.0476    -999.2500
   2459.7996    -999.2500    -999.2500    -999.2500      50.0431    -999.2500     857.8812     938.9030     886.0099       0.0406    -999.2500
   2459.9519    -999.2500    -999.2500    -999.2500      41.2064    -999.2500     670.0050     758.4679     715.6044       0.0350    -999.2500
   2460.1045    -999.2500    -999.2500    -999.2500      34.7082    -999.2500     620.8812     873.4462     795.0701       0.0320    -999.2500
   2460.2568    -999.2500    -999.2500    -999.2500      28.6642    -999.2500     585.9147     997.1121     887.5630       0.0298    -999.2500
   2460.4092    -999.2500    -999.2500    -999.2500      26.2877    -999.2500     665.2804    1190.9369    1085.2621       0.0265    -999.2500
   2460.5615    -999.2500    -999.2500    -999.2500      24.1486    -999.2500     739.1243    1377.8572    1286.4904       0.0231    -999.2500
   2460.7139    -999.2500    -999.2500    -999.2500      23.9433    -999.2500     767.9788    1508.5232    1516.4734       0.0200    -999.2500
   2460.8665    -999.2500    -999.2500    -999.2500      23.9833    -999.2500     788.5555    1640.1360    1726.3955       0.0180    -999.2500
   2461.0188    -999.2500    -999.2500    -999.2500      26.0734    -999.2500     739.9415    1779.6643    1768.6364       0.0177    -999.2500
   2461.1711    -999.2500    -999.2500    -999.2500      28.0195    -999.2500     689.6114    1905.3477    1792.6246       0.0180    -999.2500
   2461.3235    -999.2500    -999.2500    -999.2500      28.7505    -999.2500     624.8068    1914.2504    1662.6543       0.0184    -999.2500
   2461.4761    -999.2500    -999.2500    -999.2500      29.0255    -999.2500     569.7457    1908.1661    1551.6333       0.0193    -999.2500
   2461.6284    -999.2500    -999.2500    -999.2500      25.6680    -999.2500     592.3009    1782.6979    1591.5610       0.0210    -999.2500
   2461.7808    -999.2500    -999.2500    -999.2500      22.6216    -999.2500     613.8925    1646.8633    1595.9930       0.0215    -999.2500
   2461.9331    -999.2500    -999.2500    -999.2500      22.0763    -999.2500     627.7405    1427.7269    1315.1842       0.0191    -999.2500
   2462.0857    -999.2500    -999.2500    -999.2500      21.4759    -999.2500     629.7637    1215.5581    1045.7687       0.0150    -999.2500
   2462.2380    -999.2500    -999.2500    -999.2500      20.4214    -999.2500     534.3300    1060.8140     870.2545       0.0103    -999.2500
   2462.3904    -999.2500    -999.2500    -999.2500      19.6176    -999.2500     449.7585     935.7611     725.5037       0.0064    -999.2500
   2462.5427    -999.2500    -999.2500    -999.2500      20.8991    -999.2500     455.5210    1057.6274     836.5877       0.0047    -999.2500
   2462.6951    -999.2500    -999.2500    -999.2500      22.1413    -999.2500     464.9953    1177.7728     951.8349       0.0043    -999.2500
   2462.8477    -999.2500    -999.2500    -999.2500      23.0739    -999.2500     503.6396    1284.3932    1099.7999       0.0043    -999.2500
   2463.0000    -999.2500    -999.2500    -999.2500      24.1485    -999.2500     547.2521    1356.2047    1211.9467       0.0045    -999.2500
   2463.1523    -999.2500    -999.2500    -999.2500      26.3488    -999.2500     630.2473    1152.0879    1040.1630       0.0047    -999.2500
   2463.3047    -999.2500    -999.2500    -999.2500      28.4198    -999.2500     685.6385     950.8839     873.2692       0.0052    -999.2500
   2463.4573    -999.2500    -999.2500    -999.2500      29.4404    -999.2500     516.6680     773.3540     746.1196       0.0059    -999.2500
   2463.6096    -999.2500    -999.2500    -999.2500      30.3344    -999.2500     362.1223     620.4370     644.9880       0.0067    -999.2500
   2463.7620    -999.2500    -999.2500    -999.2500      30.1910    -999.2500     325.8665     669.3559     757.2145       0.0072    -999.2500
   2463.9143    -999.2500    -999.2500    -999.2500      29.9192    -999.2500     296.4642     701.9478     838.1055       0.0078    -999.2500
   2464.0669    -999.2500    -999.2500    -999.2500      28.5855    -999.2500     323.7694     599.4487     659.7225       0.0085    -999.2500
   2464.2192    -999.2500    -999.2500    -999.2500      27.2619    -999.2500     359.3064     525.6221     497.7849       0.0092    -999.2500
   2464.3716    -999.2500    -999.2500    -999.2500      26.0169    -999.2500     459.2213     676.0317     464.4594       0.0098    -999.2500
   2464.5239    -999.2500    -999.2500    -999.2500      24.9458    -999.2500     554.9683     792.9795     442.3932       0.0098    -999.2500
   2464.6763    -999.2500    -999.2500    -999.2500      25.2681    -999.2500     617.3040     641.6743     510.5888       0.0090    -999.2500
   2464.8289    -999.2500    -999.2500    -999.2500      25.7164    -999.2500     649.4756     492.2518     550.1705       0.0080    -999.2500
   2464.9812    -999.2500    -999.2500    -999.2500      27.1827    -999.2500     437.6965     358.0553     358.3384       0.0076    -999.2500
   2465.1335    -999.2500    -999.2500    -999.2500      28.8612    -999.2500     247.7016     243.9061     191.2459       0.0076    -999.2500
   2465.2859    -999.2500    -999.2500    -999.2500      32.2705    -999.2500     235.4522     293.3306     226.0140       0.0079    -999.2500
   2465.4385    -999.2500    -999.2500    -999.2500      36.1270    -999.2500     229.4236     355.0712     269.6211       0.0085    -999.2500
   2465.5908    -999.2500    -999.2500    -999.2500      43.7273    -999.2500     275.4687     519.9095     387.2193       0.0091    -999.2500
   2465.7432    -999.2500    -999.2500    -999.2500      51.6665    -999.2500     314.7183     678.0377     484.9639       0.0104    -999.2500
   2465.8955    -999.2500    -999.2500    -999.2500      62.4700    -999.2500     296.5630     779.4824     414.9950       0.0123    -999.2500
   2466.0481    -999.2500    -999.2500    -999.2500      70.8717    -999.2500     284.0181     878.9366     357.1452       0.0135    -999.2500
   2466.2004    -999.2500    -999.2500    -999.2500      60.1138    -999.2500     316.2292     962.5120     395.9734       0.0128    -999.2500
   2466.3528    -999.2500    -999.2500    -999.2500      50.3013    -999.2500     340.2144    1003.6083     420.9749       0.0111    -999.2500
   2466.5051    -999.2500    -999.2500    -999.2500      48.0965    -999.2500     298.0030     702.8567     334.7062       0.0092    -999.2500
   2466.6575    -999.2500    -999.2500    -999.2500      46.5166    -999.2500     260.2178     430.9851     261.6882       0.0081    -999.2500
   2466.8101    -999.2500    -999.2500    -999.2500      50.0940    -999.2500     258.9669     397.4871     298.0390       0.0087    -999.2500
   2466.9624    -999.2500    -999.2500    -999.2500      53.3225    -999.2500     259.9121     376.3050     346.3760       0.0113    -999.2500
   2467.1147    -999.2500    -999.2500    -999.2500      53.6444    -999.2500     279.1484     457.6956     494.5397       0.0159    -999.2500
   2467.2671    -999.2500    -999.2500    -999.2500      53.2511    -999.2500     298.9874     549.3582     642.5798       0.0201    -999.2500
   2467.4197    -999.2500    -999.2500    -999.2500      47.2297    -999.2500     323.5688     721.8587     789.6468       0.0219    -999.2500
   2467.5720    -999.2500    -999.2500    -999.2500      41.5712    -999.2500     342.3526     861.8694     905.8961       0.0215    -999.2500
   2467.7244    -999.2500    -999.2500    -999.2500      38.7937    -999.2500     315.1147     743.9688     777.5084       0.0190    -999.2500
   2467.8767    -999.2500    -999.2500    -999.2500      36.2858    -999.2500     287.3498     629.6807     657.0901       0.0153    -999.2500
