#------------------------------------------------------------------------------
#
#   Created by  : [OpenWorks] Log Export Utility (LEXP)
#   Created on  : 2016-05-11 12:45:43
#   Project     : CANT971
#   User        : R5K
#   Interpreter : PEP
#
#------------------------------------------------------------------------------
~VERSION INFORMATION
VERS. 2.0 : CWLS Log ASCII Standard - version 2.0
WRAP.  NO : One line per depth step
~WELL INFORMATION
#MNEMONIC   .UNIT                                           VALUE :DESCRIPTION
#------------------------------------------------------------------------------
STRT        .M                                            80.3144 :START DEPTH
STOP        .M                                          1350.4160 :STOP DEPTH
STEP        .M                                             0.1524 :STEP
NULL        .                                           -999.2500 :NULL VALUE
COMP        .                                   PEMEX EXPL & PROD :COMPANY
WELL        .                                         CANTARELL-3 :WELL
FLD         .                                           CANTARELL :FIELD
LOC         .                                             UNKNOWN :LOCATION
CNTY        .                                      CD. DEL CARMEN :COUNTY
STAT        .                                            CAMPECHE :STATE
CTRY        .                                              MEXICO :COUNTRY
SRVC        .                                             UNKNOWN :SERVICE COMPANY
DATE        .                                             UNKNOWN :LOG DATE
UWI         .                                          3060000139 :UNIQUE WELL ID
XCOORD      .                                       600825.370000 :SURFACE X
YCOORD      .                                      2145118.460000 :SURFACE Y
LAT         .                                           19.398901 :LATITUDE
LON         .                                          -92.039777 :LONGITUDE
ELEV        .M                                            27.7000 :SURFACE ELEV
ELEV_TYPE   .                                                  KB :ELEV TYPE
~CURVE INFORMATION
#MNEMONIC.UNIT        API CODE       : CURVE DESCRIPTION
#------------------------------------------------------------------------------
DEPTH    .M                          : Measured Depth
CALI     .inches      UNKNOWN        : CALI:Import:rC:NONE:v0 (auto-composite)
DRHO     .g/cm3       UNKNOWN        : DRHO:Import:rC:NONE:v0 (auto-composite)
DT       .us/ft       UNKNOWN        : DT:Import:rC:NONE:v0 (auto-composite)
GR       .API         UNKNOWN        : GR:Import:rC:NONE:v0 (auto-composite)
ILD      .ohm.m       UNKNOWN        : ILD:Import:rC:NONE:v0 (auto-composite)
NPHI     .v/v_decimal UNKNOWN        : NPHI:Import:rC:NONE:v0 (auto-composite)
RHOB     .g/cm3       UNKNOWN        : RHOB:Import:rC:NONE:v0 (auto-composite)
SP       .mV          UNKNOWN        : SP:Import:rC:NONE:v0 (auto-composite)
~A     DEPTH         CALI         DRHO           DT           GR          ILD         NPHI         RHOB           SP
# ...
   1279.0928      14.5129       0.0165      68.6810      34.0486       1.9845       0.2054       2.4650     132.3740
   1279.2452      14.4840       0.0120      68.5572      34.5340       1.9910       0.2057       2.4680     132.4160
   1279.3976      14.4945       0.0140      68.4340      34.6723       2.0450       0.2035       2.4770     132.5943
   1279.5500      14.5050       0.0160      67.2645      34.8100       2.0990       0.2002       2.4860     132.7730
   1279.7024      14.4664       0.0325      66.1010      35.3827       2.3219       0.1926       2.4955     133.1506
   1279.8549      14.4280       0.0490      63.6861      35.9530       2.5450       0.1839       2.5050     133.5290
   1280.0072      14.4485       0.0465      61.2850      35.2681       2.5425       0.1742       2.5587     133.5090
   1280.1595      14.4690       0.0440      59.6183      34.5860       2.5400       0.1656       2.6120     133.4890
   1280.3120      14.4670       0.0214      57.9610      32.4214       2.4900       0.1643       2.6030     133.0584
   1280.4644      14.4650      -0.0010      59.4701      30.2670       2.4400       0.1649       2.5940     132.6270
   1280.6168      14.4359      -0.0005      60.9710      30.4806       2.2526       0.1680       2.5539     132.7050
   1280.7692      14.4070       0.0000      70.4147      30.6930       2.0650       0.1705       2.5140     132.7830
   1280.9216      14.3319       0.0085      79.8080      30.5967       1.8251       0.1677       2.4679     133.0708
   1281.0740      14.2570       0.0170      79.5373      30.5010       1.5850       0.1624       2.4220     133.3590
   1281.2264      14.1698       0.0110      79.2680      29.2353       1.6035       0.1500       2.4375     133.5264
   1281.3788      14.0830       0.0050      76.5586      27.9760       1.6220       0.1358       2.4530     133.6940
   1281.5312      14.2213       0.0075      73.8630      28.1865       1.7055       0.1198       2.5252     133.7270
   1281.6836      14.3590       0.0100      67.8791      28.3960       1.7890       0.1073       2.5970     133.7600
   1281.8361      14.3374       0.0316      61.9250      28.3258       1.9200       0.1134       2.5920     133.7525
   1281.9884      14.3160       0.0530      59.3232      28.2560       2.0510       0.1268       2.5870     133.7450
   1282.1407      14.2378       0.0510      56.7340      27.6626       2.4275       0.1576       2.5680     133.6056
   1282.2932      14.1600       0.0490      65.0336      27.0720       2.8040       0.1916       2.5490     133.4660
   1282.4456      14.1044       0.0425      73.2940      27.3000       2.7960       0.2239       2.5355     132.8890
   1282.5980      14.0490       0.0360      73.2905      27.5270       2.7880       0.2449       2.5220     132.3110
   1282.7504      14.0515       0.0270      73.2870      28.3899       2.7295       0.2124       2.5029     132.3150
   1282.9028      14.0540       0.0180      73.7741      29.2490       2.6710       0.1756       2.4840     132.3190
   1283.0552      14.0645       0.0195      74.2590      29.8829       2.5555       0.1702       2.4855     132.3979
   1283.2076      14.0750       0.0210      72.2917      30.5140       2.4400       0.1721       2.4870     132.4770
   1283.3600      14.0835       0.0305      70.3330      30.9374       2.3590       0.1782       2.4935     132.8641
   1283.5125      14.0920       0.0400      70.7220      31.3590       2.2780       0.1871       2.5000     133.2520
   1283.6648      14.0870       0.0390      71.1090      31.2638       2.1585       0.2056       2.4980     134.1330
   1283.8173      14.0820       0.0380      70.4441      31.1690       2.0390       0.2227       2.4960     135.0160
   1283.9696      14.0099       0.0275      69.7830      30.8623       2.0425       0.2241       2.4905     134.8981
   1284.1219      13.9380       0.0170      66.2617      30.5570       2.0460       0.2214       2.4850     134.7800
   1284.2744      13.9385       0.0185      62.7600      30.4457       2.0650       0.2145       2.4790     134.3449
   1284.4268      13.9390       0.0200      63.6625      30.3350       2.0840       0.2082       2.4730     133.9090
   1284.5792      13.9270       0.0250      64.5600      30.0277       2.1170       0.2089       2.4810     133.6107
   1284.7316      13.9150       0.0300      68.0237      29.7220       2.1500       0.2104       2.4890     133.3120
   1284.8840      13.8644       0.0295      71.4690      29.1159       2.1835       0.2091       2.4885     132.9667
   1285.0364      13.8140       0.0290      66.9929      28.5130       2.2170       0.2077       2.4880     132.6210
   1285.1888      13.7604       0.0270      62.5400      28.7265       2.2465       0.2093       2.4825     132.6380
   1285.3412      13.7070       0.0250      62.6122      28.9390       2.2760       0.2112       2.4770     132.6550
   1285.4937      13.7145       0.0215      62.6840      28.8683       2.3050       0.2115       2.4770     132.8204
   1285.6460      13.7220       0.0180      65.9441      28.7980       2.3340       0.2113       2.4770     132.9860
   1285.7983      13.7456       0.0185      69.1880      28.3985       2.3790       0.2105       2.4805     133.3352
   1285.9508      13.7690       0.0190      67.5145      28.0010       2.4240       0.2092       2.4840     133.6850
   1286.1031      13.7399       0.0200      65.8490      28.2025       2.4475       0.2065       2.4785     133.7195
   1286.2556      13.7110       0.0210      70.1185      28.4030       2.4710       0.2038       2.4730     133.7540
   1286.4080      13.7110       0.0215      74.3680      29.3266       2.4995       0.2024       2.4795     133.6746
   1286.5604      13.7110       0.0220      73.9891      30.2460       2.5280       0.2008       2.4860     133.5950
   1286.7128      13.7125       0.0215      73.6120      29.9764       2.5855       0.1970       2.4810     133.1255
   1286.8652      13.7140       0.0210      69.6101      29.7080       2.6430       0.1923       2.4760     132.6550
   1287.0176      13.7095       0.0200      65.6260      28.6051       2.6710       0.1855       2.4775     131.9013
   1287.1700      13.7050       0.0190      69.1114      27.5070       2.6990       0.1786       2.4790     131.1460
   1287.3224      13.6885       0.0170      72.5790      26.4994       2.8195       0.1729       2.4880     130.9212
   1287.4749      13.6720       0.0150      71.2477      25.4960       2.9400       0.1675       2.4970     130.6960
   1287.6272      13.6264       0.0120      69.9240      24.9599       3.1704       0.1620       2.5115     130.5891
   1287.7795      13.5810       0.0090      71.1986      24.4260       3.4010       0.1552       2.5260     130.4820
   1287.9320      13.5860       0.0070      72.4660      23.6201       3.8238       0.1431       2.5420     130.2478
   1288.0844      13.5910       0.0050      63.5142      22.8180       4.2470       0.1271       2.5580     130.0130
   1288.2368      13.6366      -0.0010      54.6120      20.8502       4.8867       0.0998       2.5856     129.6343
   1288.3892      13.6820      -0.0070      55.1018      18.8930       5.5270       0.0748       2.6130     129.2550
   1288.5416      13.5943      -0.0065      55.5890      19.0700       5.4865       0.0701       2.6060     129.3295
   1288.6940      13.5070      -0.0060      61.0364      19.2460       5.4460       0.0703       2.5990     129.4040
   1288.8464      13.5070      -0.0010      66.4550      20.5002       5.2246       0.0713       2.5574     129.6454
   1288.9988      13.5070       0.0040      66.2545      21.7480       5.0030       0.0742       2.5160     129.8870
   1289.1512      13.5777       0.0261      66.0550      24.2518       4.6303       0.0845       2.5205     129.9415
   1289.3036      13.6480       0.0480      74.0602      26.7430       4.2570       0.1027       2.5250     129.9960
   1289.4561      13.6290       0.0335      82.0250      28.1770       4.0021       0.1462       2.5215     130.0280
