#------------------------------------------------------------------------------
#
#   Created by  : [OpenWorks] Log Export Utility (LEXP)
#   Created on  : 2016-05-23 11:56:14
#   Project     : CANT971
#   User        : R5K
#   Interpreter : PEP
#
#------------------------------------------------------------------------------
~VERSION INFORMATION
VERS. 2.0 : CWLS Log ASCII Standard - version 2.0
WRAP.  NO : One line per depth step
~WELL INFORMATION
#MNEMONIC   .UNIT                                           VALUE :DESCRIPTION
#------------------------------------------------------------------------------
STRT        .M                                          1862.0000 :START DEPTH
STOP        .M                                          3052.8535 :STOP DEPTH
STEP        .M                                             0.1524 :STEP
NULL        .                                           -999.2500 :NULL VALUE
COMP        .                                   PEMEX EXPL & PROD :COMPANY
WELL        .                                                446D :WELL
FLD         .                                           CANTARELL :FIELD
LOC         .                                             UNKNOWN :LOCATION
CNTY        .                                      CD. DEL CARMEN :COUNTY
STAT        .                                            CAMPECHE :STATE
CTRY        .                                              MEXICO :COUNTRY
SRVC        .                                             UNKNOWN :SERVICE COMPANY
DATE        .                                             UNKNOWN :LOG DATE
UWI         .                                            W-C-446D :UNIQUE WELL ID
XCOORD      .                                       598705.170000 :SURFACE X
YCOORD      .                                      2143305.170000 :SURFACE Y
LAT         .                                           19.382621 :LATITUDE
LON         .                                          -92.060061 :LONGITUDE
ELEV        .M                                            28.0000 :SURFACE ELEV
ELEV_TYPE   .                                                  KB :ELEV TYPE
~CURVE INFORMATION
#MNEMONIC.UNIT        API CODE       : CURVE DESCRIPTION
#------------------------------------------------------------------------------
DEPTH    .M                          : Measured Depth
CALI     .inches      UNKNOWN        : CALI:litodensidad:rC:NONE:v0 (auto-composite)
CGR      .API         UNKNOWN        : CGR:CGR-Load:rC:NONE:v0 (auto-composite)
DRHO     .g/cm3       UNKNOWN        : DRHO:litodensidad:rC:NONE:v0 (auto-composite)
DT       .us/ft       UNKNOWN        : DT:DT-Load:rC:NONE:v0 (auto-composite)
GR       .UNKNOWN     UNKNOWN        : GR:PETROWORKS:rC:NONE:v1 
LLD      .ohm.m       UNKNOWN        : LLD:PETROWORKS:rC:NONE:v1 
LLS      .UNKNOWN     UNKNOWN        : LLS:PETROWORKS:rC:NONE:v1 
MSFL     .UNKNOWN     UNKNOWN        : MSFL:PETROWORKS:rC:NONE:v1 
NPHI     .v/v_decimal UNKNOWN        : NPHI:PETROWORKS:rC:NONE:v2 
PEF      .UNKNOWN     UNKNOWN        : PEF:litodensidad:rC:NONE:v0 (auto-composite)
POTA     .UNKNOWN     UNKNOWN        : POTA:radioactividad:rC:NONE:v0 (auto-composite)
RHOB     .g/cm3       UNKNOWN        : RHOB:litodensidad:rC:NONE:v0 (auto-composite)
THOR     .ppm         UNKNOWN        : THOR:radioactividad:rC:NONE:v0 (auto-composite)
URAN     .ppm         UNKNOWN        : URAN:radioactividad:rC:NONE:v0 (auto-composite)
~A     DEPTH         CALI          CGR         DRHO           DT           GR          LLD          LLS         MSFL         NPHI          PEF         POTA         RHOB         THOR         URAN
# ...
   3014.1440       6.6208       5.3615       0.0152      57.6642      20.2352     144.2225     142.4692      68.9398       0.0743       2.9305       0.0025       2.6001       0.2195       1.7303
   3014.2964       6.6497       8.9749       0.0224      56.4409      16.5048     148.7617     155.3271      65.7887       0.0781       3.0404       0.0032       2.6067       0.7707       0.8536
   3014.4487       6.6708       9.1897       0.0254      55.6061      16.0113     155.5361     161.3931      43.9766       0.0873       3.1758       0.0030       2.6197       0.9130       0.7430
   3014.6013       6.6818       9.8264       0.0156      54.3968      18.2088     167.9026     173.3147      57.1243       0.0948       3.3015       0.0032       2.6203       0.9777       0.9531
   3014.7537       6.6373       8.9507       0.0141      55.5583      17.2150     173.8348     184.2235     115.6471       0.0925       3.4010       0.0030       2.6224       0.8232       0.8968
   3014.9060       6.5994      10.0688       0.0115      56.4370      18.3530     187.1889     194.9333     143.0040       0.0866       3.3572       0.0038       2.6100       0.8106       0.9465
   3015.0583       6.6157      10.6982       0.0056      56.4228      18.6353     183.7349     196.2745      80.1134       0.0871       3.2467       0.0044       2.5868       0.6939       0.9091
   3015.2107       6.6412      10.3213       0.0080      56.8242      17.7106     165.8138     181.6946      76.8113       0.0943       3.1705       0.0042       2.5827       0.6538       0.8368
   3015.3633       6.6531      10.3477       0.0111      56.9000      16.8642     150.8689     166.3795      92.0590       0.1010       3.1239       0.0045       2.5934       0.5709       0.7185
   3015.5156       6.6303      11.8941       0.0112      56.7302      18.3286     140.3671     156.9019      67.9142       0.1017       3.1077       0.0046       2.5963       0.8795       0.7360
   3015.6680       6.5747      12.4996       0.0143      56.5726      19.6965     132.9877     151.4271      67.1361       0.1023       3.0577       0.0049       2.5951       0.9064       0.8277
   3015.8203       6.6140      11.8876       0.0131      56.3803      18.9242     137.1461     153.1981      43.3605       0.1065       3.0429       0.0049       2.5812       0.7345       0.7922
   3015.9729       6.6633      11.4594       0.0093      55.9681      18.0999     144.5810     160.6516      49.6237       0.1092       3.0905       0.0051       2.5778       0.5867       0.7550
   3016.1252       6.6219      10.5332       0.0063      55.4755      16.8255     147.1758     166.8612      91.3119       0.1060       3.0451       0.0048       2.5899       0.5063       0.6976
   3016.2776       6.5754      10.1702       0.0029      55.7398      16.5005     149.8263     168.7498     131.1607       0.0984       3.1088       0.0042       2.6141       0.6627       0.7178
   3016.4299       6.5957      10.2929       0.0012      55.3758      17.1944     142.5674     165.4298     105.9980       0.0904       3.2067       0.0038       2.6311       0.8561       0.7664
   3016.5825       6.6113      11.1543       0.0060      55.2151      18.9951     134.4624     152.5776      92.9130       0.0888       3.2091       0.0034       2.6276       1.1681       0.8892
   3016.7349       6.5605      10.7387       0.0054      56.0489      19.1912     109.8168     129.2212     114.7476       0.0856       3.0877       0.0029       2.6013       1.3295       0.9568
   3016.8872       6.5606      10.5393       0.0032      57.1767      19.1265      83.5375     102.4296      85.6402       0.0890       2.9755       0.0029       2.5786       1.2709       0.9737
   3017.0396       6.5685       9.2542       0.0065      57.6893      17.7121      66.4703      80.7423      64.3114       0.0958       2.9571       0.0026       2.5676       1.1125       0.9124
   3017.1919       6.6525      10.2961       0.0064      58.5560      18.7571      53.9133      66.6089      48.1500       0.1067       2.9893       0.0030       2.5615       1.1814       0.9593
   3017.3445       6.6523       8.7580       0.0044      58.6151      16.9145      47.7889      59.0949      34.7073       0.1122       2.9334       0.0025       2.5554       1.0075       0.8710
   3017.4968       6.6025       9.1226       0.0055      57.5385      17.5843      46.5970      57.3267      54.3147       0.1168       2.9444       0.0031       2.5750       0.8499       0.9595
   3017.6492       6.6165       7.8879       0.0172      56.4155      16.6076      47.5340      58.1952      56.4676       0.1165       3.0316       0.0029       2.6069       0.6211       0.9984
   3017.8015       6.6359       6.0072       0.0260      55.8681      14.5104      47.3868      59.0156      65.3620       0.1125       3.1920       0.0025       2.6418       0.3969       0.9614
   3017.9541       6.6448       7.7325       0.0244      57.3276      17.0010      46.6987      58.0077      68.5889       0.1080       3.1360       0.0031       2.6487       0.5464       1.1311
   3018.1064       6.6344       5.7714       0.0211      56.1990      14.6946      41.1791      54.2296      66.9605       0.1021       3.0940       0.0025       2.6459       0.3154       0.9940
   3018.2588       6.6685       5.8809       0.0248      57.0967      14.4466      40.2261      51.4258      96.5206       0.0981       3.1273       0.0024       2.6451       0.3903       0.9818
   3018.4111       6.6010       5.7249       0.0160      56.3667      14.3256      41.2027      51.9919      53.9380       0.0934       3.2799       0.0018       2.6322       0.5917       0.9629
   3018.5637       6.5554       6.8231       0.0118      55.1817      15.4887      40.8818      51.5945      45.8991       0.0938       3.2912       0.0021       2.6349       0.7181       0.9933
   3018.7161       6.5634       7.4528       0.0138      54.8727      15.8026      36.4452      46.4576      65.6779       0.0952       3.1806       0.0024       2.6433       0.7761       0.9535
   3018.8684       6.6168       7.3101       0.0121      57.8226      15.1576      27.4326      37.0989      68.6513       0.0981       3.1647       0.0022       2.6371       0.8053       0.8834
   3019.0208       6.6645       7.6316       0.0131      58.9014      15.2659      23.9757      30.5233      51.0153       0.0978       3.2220       0.0025       2.6312       0.7446       0.8892
   3019.1731       6.6930       6.3233       0.0209      59.6788      13.8914      23.7620      29.7530      37.4948       0.1000       3.1982       0.0022       2.6310       0.5650       0.8448
   3019.3257       6.6313       8.8446       0.0292      59.6302      16.8062      26.1232      32.6848      39.2253       0.0996       3.2466       0.0033       2.6481       0.7029       0.9562
   3019.4780       6.6265       8.6775       0.0335      58.1139      17.1461      34.5068      41.1669     103.4643       0.0977       3.1901       0.0032       2.6591       0.7153       0.9610
   3019.6304       6.7049       5.9060       0.0378      56.0235      14.4062      43.5977      51.1881      91.3388       0.0915       3.3102       0.0021       2.6697       0.5022       0.9405
   3019.7827       6.6427       4.6691       0.0301      55.3606      12.7637      45.5202      53.8695      75.5615       0.0868       3.2598       0.0016       2.6590       0.4225       0.9178
   3019.9353       6.6126       6.7589       0.0160      54.7059      15.1726      42.3387      51.2092      74.2442       0.0859       3.1555       0.0011       2.6450       1.1451       1.0439
   3020.0876       6.6288       2.5078       0.0095      56.0434      12.9599      42.6373      51.1878      45.1707       0.0858       3.0076       0.0003       2.6422       0.4491       1.1849
   3020.2400       6.6315       2.1348       0.0073      58.3386      13.1807      45.6212      54.3132      48.2000       0.0864       2.9687       0.0007       2.6420       0.2057       1.2633
   3020.3923       6.6252       2.0129       0.0067      56.1547      13.5779      49.1225      58.8505      33.5389       0.0842       3.1131       0.0008       2.6389       0.1556       1.3113
