#------------------------------------------------------------------------------
#
#   Created by  : [OpenWorks] Log Export Utility (LEXP)
#   Created on  : 2016-05-23 11:57:02
#   Project     : CANT971
#   User        : R5K
#   Interpreter : PEP
#
#------------------------------------------------------------------------------
~VERSION INFORMATION
VERS. 2.0 : CWLS Log ASCII Standard - version 2.0
WRAP.  NO : One line per depth step
~WELL INFORMATION
#MNEMONIC   .UNIT                                           VALUE :DESCRIPTION
#------------------------------------------------------------------------------
STRT        .M                                           493.3184 :START DEPTH
STOP        .M                                          2467.0508 :STOP DEPTH
STEP        .M                                             0.1524 :STEP
NULL        .                                           -999.2500 :NULL VALUE
COMP        .                                   PEMEX EXPL & PROD :COMPANY
WELL        .                                                  63 :WELL
FLD         .                                           CANTARELL :FIELD
LOC         .                                             UNKNOWN :LOCATION
CNTY        .                                      CD. DEL CARMEN :COUNTY
STAT        .                                            CAMPECHE :STATE
CTRY        .                                              MEXICO :COUNTRY
SRVC        .                                             UNKNOWN :SERVICE COMPANY
DATE        .                                             UNKNOWN :LOG DATE
UWI         .                                          3060000615 :UNIQUE WELL ID
XCOORD      .                                       601716.240000 :SURFACE X
YCOORD      .                                      2142344.800000 :SURFACE Y
LAT         .                                           19.373792 :LATITUDE
LON         .                                          -92.031441 :LONGITUDE
ELEV        .M                                            24.0000 :SURFACE ELEV
ELEV_TYPE   .                                                  KB :ELEV TYPE
~CURVE INFORMATION
#MNEMONIC.UNIT        API CODE       : CURVE DESCRIPTION
#------------------------------------------------------------------------------
DEPTH    .M                          : Measured Depth
CALI     .inches      UNKNOWN        : CALI:Import:rC:NONE:v0 (auto-composite)
DRHO     .g/cm3       UNKNOWN        : DRHO:Import:rC:NONE:v0 (auto-composite)
DT       .us/ft       UNKNOWN        : DT:Import:rC:NONE:v0 (auto-composite)
GR       .API         UNKNOWN        : GR:Import:rC:NONE:v0 (auto-composite)
ILD      .ohm.m       UNKNOWN        : ILD:Import:rC:NONE:v0 (auto-composite)
ILM      .ohm.m       UNKNOWN        : ILM:Import:rC:NONE:v0 (auto-composite)
LLD      .ohm.m       UNKNOWN        : LLD:Import:rC:NONE:v0 (auto-composite)
LLS      .ohm.m       UNKNOWN        : LLS:Import:rC:NONE:v0 (auto-composite)
MSFL     .ohm.m       UNKNOWN        : MSFL:Import:rC:NONE:v0 (auto-composite)
NPHI     .v/v_decimal UNKNOWN        : NPHI:Import:rC:NONE:v0 (auto-composite)
PEF      .b/elec      UNKNOWN        : PEF:Import:rC:NONE:v0 (auto-composite)
RHOB     .g/cm3       UNKNOWN        : RHOB:Import:rC:NONE:v0 (auto-composite)
~A     DEPTH         CALI         DRHO           DT           GR          ILD          ILM          LLD          LLS         MSFL         NPHI          PEF         RHOB
# ...
   2387.9551       6.0185       0.0500      53.1087      36.1006    -999.2500    -999.2500     378.0511     182.0766     160.1589       0.0533       3.1839       2.7780
   2388.1077       6.0330       0.0560      52.8500      40.7500    -999.2500    -999.2500     399.8130     195.5360     285.1250       0.0545       3.2200       2.7800
   2388.2600       6.0205       0.0585      52.7596      44.3187    -999.2500    -999.2500     397.0464     198.1644     682.6099       0.0576       3.2055       2.7695
   2388.4124       6.0080       0.0610      52.6690      47.9000    -999.2500    -999.2500     394.2700     200.8020    1081.5000       0.0610       3.1910       2.7590
   2388.5647       6.0080       0.0745      52.5921      50.8286    -999.2500    -999.2500     388.2851     195.7082     871.5511       0.0651       3.0471       2.7550
   2388.7170       6.0080       0.0880      52.5150      53.7680    -999.2500    -999.2500     382.2880     190.6040     661.1710       0.0685       2.9030       2.7510
   2388.8696       6.0175       0.1085      52.3921      56.6366    -999.2500    -999.2500     374.8366     188.6701     335.3688       0.0682       2.9854       2.7730
   2389.0220       6.0270       0.1290      52.2690      59.5160    -999.2500    -999.2500     367.3690     186.7320       8.8570       0.0663       3.0680       2.7950
   2389.1743       6.0085       0.1345      51.3201      59.1160    -999.2500    -999.2500     508.1337     254.9823      20.6229       0.0599       3.1719       2.8050
   2389.3267       5.9900       0.1400      50.3690      58.7150    -999.2500    -999.2500     649.2230     323.3900      32.4160       0.0520       3.2760       2.8150
   2389.4792       6.0614       0.1460      49.1175      48.2657    -999.2500    -999.2500     863.2320     446.3821      87.2194       0.0402       3.2580       2.8185
   2389.6316       6.1330       0.1520      47.8630      37.7910    -999.2500    -999.2500    1077.7610     569.6730     142.1560       0.0296       3.2400       2.8220
   2389.7839       6.0801       0.1765      47.1574      27.6350    -999.2500    -999.2500    1117.5096     598.6005      95.1067       0.0289       3.1721       2.8300
   2389.9363       6.0270       0.2010      46.4500      17.4530    -999.2500    -999.2500    1157.3600     627.6020      47.9370       0.0307       3.1040       2.8380
   2390.0889       6.0320       0.1990      47.4052      18.2614    -999.2500    -999.2500     709.4615     389.8847      74.6192       0.0359       3.1714       2.8365
   2390.2412       6.0370       0.1970      48.3630      19.0720    -999.2500    -999.2500     260.3620     151.5300     101.3730       0.0418       3.2390       2.8350
   2390.3936       6.0899       0.1745      50.0541      21.5325    -999.2500    -999.2500     205.8061     123.9058     120.8312       0.0485       3.1082       2.8215
   2390.5459       6.1430       0.1520      51.7500      24.0000    -999.2500    -999.2500     151.0970      96.2040     140.3440       0.0544       2.9770       2.8080
   2390.6982       6.1575       0.1340      51.2847      24.5232    -999.2500    -999.2500     150.0131      94.8769     147.9194       0.0554       2.9271       2.7900
   2390.8508       6.1720       0.1160      50.8180      25.0480    -999.2500    -999.2500     148.9260      93.5460     155.5170       0.0558       2.8770       2.7720
   2391.0032       6.0637       0.1160      49.8605      25.3790    -999.2500    -999.2500     341.5207     210.9872     246.0574       0.0578       3.2130       2.7855
   2391.1555       5.9550       0.1160      48.9000      25.7110    -999.2500    -999.2500     534.7050     328.7880     336.8750       0.0590       3.5500       2.7990
   2391.3079       6.0179       0.1365      48.9000      23.8270    -999.2500    -999.2500     678.2055     433.4184     335.5536       0.0551       3.6204       2.7740
   2391.4604       6.0810       0.1570      48.9000      21.9370    -999.2500    -999.2500     822.1630     538.3820     334.2280       0.0500       3.6910       2.7490
   2391.6128       6.1264       0.2024      49.1496      22.9433    -999.2500    -999.2500     814.1448     534.2109     181.3753       0.0436       3.6156       2.7166
   2391.7651       6.1720       0.2480      49.4000      23.9530    -999.2500    -999.2500     806.1000     530.0260      28.0160       0.0375       3.5400       2.6840
   2391.9175       6.0587       0.2884      48.6197      22.7206    -999.2500    -999.2500    1000.8173     631.0649      51.1243       0.0339       3.3828       2.8043
   2392.0701       5.9450       0.3290      47.8380      21.4840    -999.2500    -999.2500    1196.2040     732.4510      74.3120       0.0307       3.2250       2.9250
   2392.2224       5.9859       0.2846      47.4269      19.9822    -999.2500    -999.2500    1444.3306     847.1330      64.1506       0.0272       3.1067       2.9025
   2392.3748       6.0270       0.2400      47.0150      18.4750    -999.2500    -999.2500    1693.3420     962.2240      53.9530       0.0241       2.9880       2.8800
   2392.5271       6.0225       0.2405      46.7008      17.3840    -999.2500    -999.2500    1682.5648     957.5869      54.9045       0.0236       2.9940       2.8815
   2392.6794       6.0180       0.2410      46.3860      16.2890    -999.2500    -999.2500    1671.7650     952.9400      55.8580       0.0237       3.0000       2.8830
   2392.8320       5.9146       0.2495      46.2432      15.3398    -999.2500    -999.2500    1473.1628     864.5836      86.1301       0.0242       3.1239       2.9050
   2392.9844       5.8110       0.2580      46.1000      14.3870    -999.2500    -999.2500    1274.1219     776.0320     116.4690       0.0248       3.2480       2.9270
   2393.1367       5.9029       0.2255      46.8476      15.2395    -999.2500    -999.2500    1201.3235     732.2581     100.5346       0.0251       3.3559       2.9235
   2393.2891       5.9950       0.1930      47.5970      16.0940    -999.2500    -999.2500    1128.3550     688.3820      84.5630       0.0255       3.4640       2.9200
   2393.4417       6.0015       0.1516      47.6984      15.6860    -999.2500    -999.2500    1140.9050     705.9484     117.9364       0.0263       3.4041       2.8815
   2393.5940       6.0080       0.1100      47.8000      15.2770    -999.2500    -999.2500    1153.4860     723.5580     151.3920       0.0269       3.3440       2.8430
   2393.7463       5.9221       0.1180      47.4015      15.9951    -999.2500    -999.2500    1536.8064     918.7604     165.6775       0.0268       3.2242       2.8485
   2393.8987       5.8360       0.1260      47.0020      16.7150    -999.2500    -999.2500    1921.1190    1114.4680     180.0000       0.0265       3.1040       2.8540
   2394.0513       5.9239       0.1250      46.8277      17.7701    -999.2500    -999.2500    2453.3477    1422.3044     151.7838       0.0255       3.1639       2.8225
   2394.2036       6.0120       0.1240      46.6530      18.8280    -999.2500    -999.2500    2987.0200    1730.9760     123.4910       0.0250       3.2240       2.7910
   2394.3560       5.8482       0.1055      46.5267      17.9542    -999.2500    -999.2500    3203.6428    1861.3783      76.5816       0.0275       3.1152       2.7635
   2394.5083       5.6840       0.0870      46.4000      17.0780    -999.2500    -999.2500    3420.8811    1992.1510      29.5390       0.0309       3.0060       2.7360
   2394.6606       5.7015       0.0780      47.1444      17.1519    -999.2500    -999.2500    2567.1824    1550.8071      56.1581       0.0366       3.0699       2.7545
   2394.8132       5.7190       0.0690      47.8910      17.2260    -999.2500    -999.2500    1710.9530    1108.1550      82.8560       0.0421       3.1340       2.7730
   2394.9656       5.8243       0.0685      48.7691      17.6708    -999.2500    -999.2500    1132.8464     762.4760     130.1364       0.0443       3.1904       2.7860
   2395.1179       5.9300       0.0680      49.6500      18.1170    -999.2500    -999.2500     552.9520     415.7280     177.5630       0.0456       3.2470       2.7990
