#------------------------------------------------------------------------------
#
#   Created by  : [OpenWorks] Log Export Utility (LEXP)
#   Created on  : 2016-05-12 17:01:25
#   Project     : CANT971
#   User        : R5K
#   Interpreter : PEP
#
#------------------------------------------------------------------------------
~VERSION INFORMATION
VERS. 2.0 : CWLS Log ASCII Standard - version 2.0
WRAP.  NO : One line per depth step
~WELL INFORMATION
#MNEMONIC   .UNIT                                           VALUE :DESCRIPTION
#------------------------------------------------------------------------------
STRT        .M                                           310.6675 :START DEPTH
STOP        .M                                          2665.7046 :STOP DEPTH
STEP        .M                                             0.1524 :STEP
NULL        .                                           -999.2500 :NULL VALUE
COMP        .                                   PEMEX EXPL & PROD :COMPANY
WELL        .                                                 77A :WELL
FLD         .                                           CANTARELL :FIELD
LOC         .                                             UNKNOWN :LOCATION
CNTY        .                                      CD. DEL CARMEN :COUNTY
STAT        .                                            CAMPECHE :STATE
CTRY        .                                              MEXICO :COUNTRY
SRVC        .                                             UNKNOWN :SERVICE COMPANY
DATE        .                                             UNKNOWN :LOG DATE
UWI         .                                          3060000181 :UNIQUE WELL ID
XCOORD      .                                       602151.310000 :SURFACE X
YCOORD      .                                      2147165.430000 :SURFACE Y
LAT         .                                           19.417331 :LATITUDE
LON         .                                          -92.027040 :LONGITUDE
ELEV        .M                                            28.1700 :SURFACE ELEV
ELEV_TYPE   .                                                  KB :ELEV TYPE
~CURVE INFORMATION
#MNEMONIC.UNIT        API CODE       : CURVE DESCRIPTION
#------------------------------------------------------------------------------
DEPTH    .M                          : Measured Depth
CALI     .inches      UNKNOWN        : CALI:UNKNOWN:rC:NONE:v0 (auto-composite)
DRHO     .UNKNOWN     UNKNOWN        : DRHO:PETROWORKS:rC:NONE:v1 
DT       .us/ft       UNKNOWN        : DT:DT:rC:NONE:v0 (auto-composite)
GR       .API         UNKNOWN        : GR:UNKNOWN:rC:NONE:v0 (auto-composite)
ILD      .UNKNOWN     UNKNOWN        : ILD:UNKNOWN:rC:NONE:v0 (auto-composite)
LLD      .ohm.m       UNKNOWN        : LLD:UNKNOWN:rC:NONE:v0 (auto-composite)
LLS      .ohm.m       UNKNOWN        : LLS:UNKNOWN:rC:NONE:v0 (auto-composite)
MSFL     .ohm.m       UNKNOWN        : MSFL:UNKNOWN:rC:NONE:v0 (auto-composite)
NPHI     .v/v_decimal UNKNOWN        : NPHI:PETROWORKS:rC:NONE:v1 
RHOB     .UNKNOWN     UNKNOWN        : RHOB:PETROWORKS:rC:NONE:v1 
SP       .UNKNOWN     UNKNOWN        : SP:UNKNOWN:rC:NONE:v0 (auto-composite)
~A     DEPTH         CALI         DRHO           DT           GR          ILD          LLD          LLS         MSFL         NPHI         RHOB           SP
# ...
    873.3283      22.8512       0.0144     129.9625      49.9390       1.2513    -999.2500    -999.2500    -999.2500       0.3672       2.2535     121.2790
    873.4807      22.8913       0.0135     129.8501      49.2778       1.2483    -999.2500    -999.2500    -999.2500       0.3565       2.2491     121.2790
    873.6331      22.9090       0.0130     129.5885      48.8157       1.2436    -999.2500    -999.2500    -999.2500       0.3514       2.2464     121.3392
    873.7855      22.9090       0.0132     129.1790      48.5109       1.2376    -999.2500    -999.2500    -999.2500       0.3521       2.2457     121.4470
    873.9379      22.9014       0.0159     128.7821      48.4495       1.2350    -999.2500    -999.2500    -999.2500       0.3567       2.2490     121.5853
    874.0903      22.8878       0.0204     128.3976      48.5764       1.2350    -999.2500    -999.2500    -999.2500       0.3652       2.2557     121.7473
    874.2427      22.8897       0.0187     127.8074      47.6758       1.2336    -999.2500    -999.2500    -999.2500       0.3633       2.2578     121.8170
    874.3951      22.9032       0.0115     127.0130      45.9980       1.2311    -999.2500    -999.2500    -999.2500       0.3508       2.2558     121.8170
    874.5475      22.8549       0.0080     126.7156      45.5322       1.2314    -999.2500    -999.2500    -999.2500       0.3519       2.2535     121.7240
    874.6999      22.7606       0.0079     126.9121      45.9643       1.2339    -999.2500    -999.2500    -999.2500       0.3664       2.2513     121.5621
    874.8523      22.3842       0.0071     127.4414      45.5716       1.2350    -999.2500    -999.2500    -999.2500       0.3736       2.2515     121.4940
    875.0047      21.8033       0.0058     128.3009      44.5805       1.2350    -999.2500    -999.2500    -999.2500       0.3735       2.2541     121.4940
    875.1571      21.2621       0.0068     129.2472      44.6000       1.2350    -999.2500    -999.2500    -999.2500       0.3730       2.2577     121.4940
    875.3095      20.7491       0.0099     130.2796      45.3370       1.2350    -999.2500    -999.2500    -999.2500       0.3722       2.2619     121.4940
    875.4619      20.5310       0.0140     130.2418      45.9843       1.2368    -999.2500    -999.2500    -999.2500       0.3705       2.2631     121.4304
    875.6143      20.5175       0.0185     129.1413      46.5693       1.2398    -999.2500    -999.2500    -999.2500       0.3680       2.2616     121.3226
    875.7667      20.5201       0.0186     128.6023      48.5919       1.2428    -999.2500    -999.2500    -999.2500       0.3631       2.2601     121.3432
    875.9191      20.5336       0.0148     128.6208      51.5911       1.2458    -999.2500    -999.2500    -999.2500       0.3559       2.2584     121.4510
    876.0715      20.6688       0.0130     128.9032      52.2395       1.2434    -999.2500    -999.2500    -999.2500       0.3555       2.2547     121.4940
    876.2239      20.8848       0.0130     129.4476      51.3247       1.2374    -999.2500    -999.2500    -999.2500       0.3618       2.2497     121.4940
    876.3763      21.0353       0.0133     129.6187      49.3467       1.2350    -999.2500    -999.2500    -999.2500       0.3647       2.2491     121.4940
    876.5287      21.1431       0.0139     129.4186      46.6768       1.2350    -999.2500    -999.2500    -999.2500       0.3642       2.2527     121.4940
    876.6811      21.1026       0.0155     128.9671      45.7944       1.2350    -999.2500    -999.2500    -999.2500       0.3624       2.2568     121.5602
    876.8335      20.9677       0.0179     128.2662      46.0485       1.2350    -999.2500    -999.2500    -999.2500       0.3593       2.2609     121.6685
    876.9859      21.1073       0.0193     127.9501      47.2587       1.2350    -999.2500    -999.2500    -999.2500       0.3537       2.2624     121.6766
    877.1383      21.4176       0.0199     128.0161      49.0639       1.2350    -999.2500    -999.2500    -999.2500       0.3456       2.2613     121.6225
    877.2907      21.7282       0.0209     128.1759      51.1373       1.2350    -999.2500    -999.2500    -999.2500       0.3424       2.2601     121.6357
    877.4431      22.0390       0.0230     128.4289      53.3741       1.2350    -999.2500    -999.2500    -999.2500       0.3443       2.2591     121.6898
    877.5955      22.2819       0.0290     128.7150      53.6035       1.2388    -999.2500    -999.2500    -999.2500       0.3491       2.2618     121.8787
    877.7479      22.4845       0.0376     129.0340      52.6373       1.2448    -999.2500    -999.2500    -999.2500       0.3567       2.2676     122.1480
    877.9003      22.6103       0.0394     129.0676      51.6392       1.2451    -999.2500    -999.2500    -999.2500       0.3636       2.2716     122.1789
    878.0527      22.6916       0.0352     128.8176      50.6226       1.2421    -999.2500    -999.2500    -999.2500       0.3697       2.2727     122.0711
    878.2051      22.7724       0.0292     128.6993      49.6869       1.2391    -999.2500    -999.2500    -999.2500       0.3751       2.2644     121.9978
    878.3575      22.8532       0.0226     128.7118      48.7971       1.2361    -999.2500    -999.2500    -999.2500       0.3797       2.2498     121.9442
    878.5099      22.8907       0.0219     128.8371      48.7892       1.2350    -999.2500    -999.2500    -999.2500       0.3815       2.2485     122.0287
    878.6623      22.9042       0.0255     129.0747      49.2721       1.2350    -999.2500    -999.2500    -999.2500       0.3806       2.2577     122.1902
    878.8147      22.9090       0.0234     129.1649      48.9313       1.2350    -999.2500    -999.2500    -999.2500       0.3777       2.2617     122.2122
    878.9671      22.9090       0.0168     129.1089      48.1433       1.2350    -999.2500    -999.2500    -999.2500       0.3728       2.2606     122.1586
    879.1195      22.9090       0.0130     128.6007      46.8739       1.2350    -999.2500    -999.2500    -999.2500       0.3670       2.2564     122.2104
    879.2719      22.9090       0.0117     127.6438      45.3489       1.2350    -999.2500    -999.2500    -999.2500       0.3605       2.2503     122.3182
    879.4243      22.9001       0.0113     127.2295      45.0455       1.2390    -999.2500    -999.2500    -999.2500       0.3548       2.2497     122.4260
    879.5767      22.8866       0.0119     127.3540      45.3758       1.2450    -999.2500    -999.2500    -999.2500       0.3501       2.2538     122.5337
    879.7291      20.6238       0.0127     128.0063      46.3643       1.2507    -999.2500    -999.2500    -999.2500       0.3481       2.2587     122.5700
    879.8815      17.2203       0.0134     129.1827      47.6864       1.2562    -999.2500    -999.2500    -999.2500       0.3489       2.2633     122.5700
    880.0339      14.2688       0.0127     129.7469      49.0084       1.2580    -999.2500    -999.2500    -999.2500       0.3525       2.2630     122.5700
    880.1863      11.5408       0.0109     129.7029      50.3303       1.2580    -999.2500    -999.2500    -999.2500       0.3590       2.2588     122.5700
    880.3387      10.6703       0.0103     129.5759      51.4123       1.2580    -999.2500    -999.2500    -999.2500       0.3618       2.2563     122.5700
    880.4911      10.6973       0.0112     129.3664      52.3783       1.2580    -999.2500    -999.2500    -999.2500       0.3611       2.2551     122.5700
    880.6435      11.1004       0.0137     129.1317      53.0507       1.2580    -999.2500    -999.2500    -999.2500       0.3616       2.2529     122.4236
    880.7959      11.6809       0.0187     128.8723      53.5846       1.2580    -999.2500    -999.2500    -999.2500       0.3635       2.2516     122.2080
    880.9483      13.0473       0.0283     128.4542      52.6915       1.2563    -999.2500    -999.2500    -999.2500       0.3682       2.2587     122.0291
    881.1007      14.7761       0.0393     127.8787      51.1407       1.2538    -999.2500    -999.2500    -999.2500       0.3757       2.2706     121.8672
