#------------------------------------------------------------------------------
#
#   Created by  : [OpenWorks] Log Export Utility (LEXP)
#   Created on  : 2015-10-01 09:50:16
#   Project     : CANT971
#   User        : R5K
#   Interpreter : PEP
#
#------------------------------------------------------------------------------
~VERSION INFORMATION
VERS. 2.0 : CWLS Log ASCII Standard - version 2.0
WRAP.  NO : One line per depth step
~WELL INFORMATION
#MNEMONIC   .UNIT                                           VALUE :DESCRIPTION
#------------------------------------------------------------------------------
STRT        .M                                           352.7300 :START DEPTH
STOP        .M                                          2346.8840 :STOP DEPTH
STEP        .M                                             0.1524 :STEP
NULL        .                                           -999.2500 :NULL VALUE
COMP        .                                   PEMEX EXPL & PROD :COMPANY
WELL        .                                        CANTARELL-64 :WELL
FLD         .                                           CANTARELL :FIELD
LOC         .                                             UNKNOWN :LOCATION
CNTY        .                                      CD. DEL CARMEN :COUNTY
STAT        .                                            CAMPECHE :STATE
CTRY        .                                              MEXICO :COUNTRY
SRVC        .                                             UNKNOWN :SERVICE COMPANY
DATE        .                                             UNKNOWN :LOG DATE
UWI         .                                          3060000172 :UNIQUE WELL ID
XCOORD      .                                       599695.280000 :SURFACE X
YCOORD      .                                      2143036.290000 :SURFACE Y
LAT         .                                           19.380142 :LATITUDE
LON         .                                          -92.050647 :LONGITUDE
ELEV        .M                                            26.7400 :SURFACE ELEV
ELEV_TYPE   .                                                  KB :ELEV TYPE
~CURVE INFORMATION
#MNEMONIC.UNIT        API CODE       : CURVE DESCRIPTION
#------------------------------------------------------------------------------
DEPTH    .M                          : Measured Depth
CALI     .inches      UNKNOWN        : CALI:UNKNOWN:rC:NONE:v0 (auto-composite)
DRHO     .g/cm3       UNKNOWN        : DRHO:UNKNOWN:rC:NONE:v0 (auto-composite)
DT       .us/ft       UNKNOWN        : DT:DT:rC:NONE:v0 (auto-composite)
GR       .API         UNKNOWN        : GR:GR-Load:rC:NONE:v0 (auto-composite)
ILD      .ohm.m       UNKNOWN        : ILD:ILD-Load:rC:NONE:v0 (auto-composite)
LLD      .ohm.m       UNKNOWN        : LLD:UNKNOWN:rC:NONE:v0 (auto-composite)
LLS      .ohm.m       UNKNOWN        : LLS:UNKNOWN:rC:NONE:v0 (auto-composite)
MSFL     .ohm.m       UNKNOWN        : MSFL:UNKNOWN:rC:NONE:v0 (auto-composite)
NPHI     .v/v_decimal UNKNOWN        : NPHI:NPHI:rC:NONE:v0 (auto-composite)
PEF      .b/elec      UNKNOWN        : PEF:UNKNOWN:rC:NONE:v0 (auto-composite)
RHOB     .g/cm3       UNKNOWN        : RHOB:RHOB-Load:rC:NONE:v0 (auto-composite)
~A     DEPTH        CALI         DRHO           DT           GR          ILD          LLD          LLS         MSFL         NPHI          PEF         RHOB
# ...
   1834.6676      0.0000      -0.2500    -999.2500      24.3512    -999.2500       5.1213       0.1485       0.1030    -999.2500       0.0000    -999.2500 
   1834.8201      0.0000      -0.2500    -999.2500      29.3170    -999.2500       5.2877       0.1466       0.1031    -999.2500       0.0000    -999.2500 
   1834.9724      0.0000      -0.2500    -999.2500      33.8836    -999.2500       7.5861       0.1451       0.1036    -999.2500       0.0000    -999.2500 
   1835.1249      0.0000      -0.2500    -999.2500      38.0560    -999.2500      11.4186       0.1418       0.1042    -999.2500       0.0000    -999.2500 
   1835.2772      0.0000      -0.2500    -999.2500      41.5778    -999.2500      20.0656       0.1328       0.1052    -999.2500       0.0000    -999.2500 
   1835.4297      0.0000      -0.2500    -999.2500      44.4572    -999.2500      27.0952       0.1232       0.1060    -999.2500       0.0000    -999.2500 
   1835.5820      0.0000      -0.2500    -999.2500      43.1264    -999.2500      29.1997       0.1116       0.1060    -999.2500       0.0000    -999.2500 
   1835.7345      0.0000      -0.2500    -999.2500      37.6371    -999.2500      26.9310       0.1065       0.1066    -999.2500       0.0000    -999.2500 
   1835.8868      0.0000      -0.2500    -999.2500      34.1003    -999.2500      11.6777       0.1206       0.1091    -999.2500       0.0000    -999.2500 
   1836.0392      0.0000      -0.2500    -999.2500      32.4927    -999.2500       0.3422       0.1336       0.1109    -999.2500       0.0000    -999.2500 
   1836.1917      0.0000      -0.2500    -999.2500      32.7849    -999.2500       0.3041       0.1436       0.1104    -999.2500       0.0000    -999.2500 
   1836.3440      0.0000      -0.2500    -999.2500      34.9483    -999.2500       0.2718       0.1528       0.1091    -999.2500       0.0000    -999.2500 
   1836.4965      0.0000      -0.2500    -999.2500      33.1364    -999.2500       0.2557       0.1599       0.1056    -999.2500       0.0000    -999.2500 
   1836.6488      0.0000      -0.2500    -999.2500      27.4076    -999.2500       0.2388       0.1671       0.1026    -999.2500       0.0000    -999.2500 
   1836.8013      0.0000      -0.2500    -999.2500      22.9743    -999.2500       0.2192       0.1752       0.1011    -999.2500       0.0000    -999.2500 
   1836.9536      0.0000      -0.2500    -999.2500      19.8179    -999.2500       0.4781       0.9307       0.1001    -999.2500       0.0000    -999.2500 
   1837.1061      0.0000      -0.2500    -999.2500      19.1476    -999.2500       1.4775       3.6737       0.1006    -999.2500       0.0000    -999.2500 
   1837.2584      0.0000      -0.2500    -999.2500      20.9280    -999.2500       5.7570       5.0001       0.1010    -999.2500       0.0000    -999.2500 
   1837.4109      0.0000      -0.2500    -999.2500      23.5493    -999.2500      18.5524       2.6486       0.1010    -999.2500       0.0000    -999.2500 
   1837.5632      0.0000      -0.2500    -999.2500      26.9997    -999.2500      31.8324       0.8387       0.1014    -999.2500       0.0000    -999.2500 
   1837.7157      0.0000      -0.2500    -999.2500      27.6555    -999.2500      46.3361       0.3970       0.1029    -999.2500       0.0000    -999.2500 
   1837.8680      0.0000      -0.2500    -999.2500      25.5551    -999.2500      57.8743       1.3466       0.1039    -999.2500       0.0000    -999.2500 
   1838.0204      0.0000      -0.2500    -999.2500      23.8861    -999.2500      62.1224       5.7164       0.1034    -999.2500       0.0000    -999.2500 
   1838.1729      0.0000      -0.2500    -999.2500      22.6426    -999.2500      65.6538      13.6565       0.1029    -999.2500       0.0000    -999.2500 
   1838.3252      0.0000      -0.2500    -999.2500      20.9983    -999.2500      67.4633      30.1743       0.1024    -999.2500       0.0000    -999.2500 
   1838.4777      0.0000      -0.2500    -999.2500      18.9583    -999.2500      68.7001      35.5220       0.1023    -999.2500       0.0000    -999.2500 
   1838.6300      0.0000      -0.2500    -999.2500      17.3393    -999.2500      68.5968      14.7368       0.1033    -999.2500       0.0000    -999.2500 
   1838.7825      0.0000      -0.2500    -999.2500      16.1359    -999.2500      68.9946       0.2559       0.1040    -999.2500       0.0000    -999.2500 
   1838.9348      0.0000      -0.2500    -999.2500      15.7144    -999.2500      70.5384       0.1962       0.1040    -999.2500       0.0000    -999.2500 
   1839.0873      0.0000      -0.2500    -999.2500      16.0649    -999.2500      72.0873       0.1552       0.1040    -999.2500       0.0000    -999.2500 
   1839.2396      0.0000      -0.2500    -999.2500      16.8420    -999.2500      73.6476       0.1557       0.1040    -999.2500       0.0000    -999.2500 
   1839.3921      0.0000      -0.2500    -999.2500      18.0404    -999.2500      82.5254       0.1551       0.1042    -999.2500       0.0000    -999.2500 
   1839.5444      0.0000      -0.2500    -999.2500      19.3139    -999.2500     107.2956       0.1520       0.1047    -999.2500       0.0000    -999.2500 
   1839.6969      0.0000      -0.2500    -999.2500      20.6613    -999.2500     123.4744       0.1502       0.1052    -999.2500       0.0000    -999.2500 
   1839.8492      0.0000      -0.2500    -999.2500      21.4082    -999.2500     121.3977       0.1507       0.1057    -999.2500       0.0000    -999.2500 
   1840.0016      0.0000      -0.2500    -999.2500      21.5618    -999.2500     114.5607       0.1512       0.1063    -999.2500       0.0000    -999.2500 
   1840.1541      0.0000      -0.2500    -999.2500      20.4535    -999.2500      97.8624       0.1517       0.1073    -999.2500       0.0000    -999.2500 
   1840.3064      0.0000      -0.2500    -999.2500      18.1021    -999.2500      87.5728       0.1513       0.1078    -999.2500       0.0000    -999.2500 
   1840.4589      0.0000      -0.2500    -999.2500      16.4752    -999.2500      90.2301       0.1493       0.1073    -999.2500       0.0000    -999.2500 
   1840.6112      0.0000      -0.2500    -999.2500      15.5622    -999.2500      99.5751       0.1468       0.1080    -999.2500       0.0000    -999.2500 
   1840.7637      0.0000      -0.2500    -999.2500      15.1234    -999.2500     122.1451       0.1433       0.1110    -999.2500       0.0000    -999.2500 
   1840.9160      0.0000      -0.2500    -999.2500      15.1519    -999.2500     131.7034       0.1444       0.1135    -999.2500       0.0000    -999.2500 
   1841.0685      0.0000      -0.2500    -999.2500      15.0013    -999.2500     116.1593       0.1545       0.1150    -999.2500       0.0000    -999.2500 
   1841.2208      0.0000      -0.2500    -999.2500      14.6744    -999.2500     105.2332       0.1615       0.1141    -999.2500       0.0000    -999.2500 
   1841.3733      0.0000      -0.2500    -999.2500      14.6467    -999.2500     102.9999       0.1630       0.1086    -999.2500       0.0000    -999.2500 
   1841.5256      0.0000      -0.2500    -999.2500      14.9142    -999.2500      99.3007       0.1589       0.1039    -999.2500       0.0000    -999.2500 
   1841.6781      0.0000      -0.2500    -999.2500      15.9693    -999.2500      92.8989       0.1443       0.1009    -999.2500       0.0000    -999.2500 
   1841.8304      0.0000      -0.2500    -999.2500      17.8012    -999.2500      91.4620       0.1293       0.0990    -999.2500       0.0000    -999.2500 
   1841.9828      0.0000      -0.2500    -999.2500      19.6742    -999.2500      98.9588       0.1132       0.0990    -999.2500       0.0000    -999.2500 
   1842.1353      0.0000      -0.2500    -999.2500      21.5876    -999.2500      93.1866       0.1019       0.0990    -999.2500       0.0000    -999.2500 
   1842.2876      0.0000      -0.2500    -999.2500      22.1230    -999.2500      64.0253       0.0989       0.0990    -999.2500       0.0000    -999.2500 
   1842.4401      0.0000      -0.2500    -999.2500      21.2986    -999.2500      38.6418       0.1086       0.0990    -999.2500       0.0000    -999.2500 
