#------------------------------------------------------------------------------
#
#   Created by  : [OpenWorks] Log Export Utility (LEXP)
#   Created on  : 2016-05-23 11:56:46
#   Project     : CANT971
#   User        : R5K
#   Interpreter : PEP
#
#------------------------------------------------------------------------------
~VERSION INFORMATION
VERS. 2.0 : CWLS Log ASCII Standard - version 2.0
WRAP.  NO : One line per depth step
~WELL INFORMATION
#MNEMONIC   .UNIT                                           VALUE :DESCRIPTION
#------------------------------------------------------------------------------
STRT        .M                                           170.6880 :START DEPTH
STOP        .M                                          2221.8396 :STOP DEPTH
STEP        .M                                             0.1524 :STEP
NULL        .                                           -999.2500 :NULL VALUE
COMP        .                                   PEMEX EXPL & PROD :COMPANY
WELL        .                                                  51 :WELL
FLD         .                                           CANTARELL :FIELD
LOC         .                                             UNKNOWN :LOCATION
CNTY        .                                      CD. DEL CARMEN :COUNTY
STAT        .                                            CAMPECHE :STATE
CTRY        .                                              MEXICO :COUNTRY
SRVC        .                                             UNKNOWN :SERVICE COMPANY
DATE        .                                             UNKNOWN :LOG DATE
UWI         .                                          3060000165 :UNIQUE WELL ID
XCOORD      .                                       599727.990000 :SURFACE X
YCOORD      .                                      2147220.270000 :SURFACE Y
LAT         .                                           19.417949 :LATITUDE
LON         .                                          -92.050116 :LONGITUDE
ELEV        .M                                            27.8000 :SURFACE ELEV
ELEV_TYPE   .                                                  KB :ELEV TYPE
~CURVE INFORMATION
#MNEMONIC.UNIT        API CODE       : CURVE DESCRIPTION
#------------------------------------------------------------------------------
DEPTH    .M                          : Measured Depth
CAL      .inches      UNKNOWN        : CAL:CAL-Load:rC:NONE:v0 (auto-composite)
DRHO     .UNKNOWN     UNKNOWN        : DRHO:DRHO-Load:rC:NONE:v0 (auto-composite)
DT       .us/ft       UNKNOWN        : DT:DT:rC:NONE:v0 (auto-composite)
GR       .UNKNOWN     UNKNOWN        : GR:GR-Load:rC:NONE:v0 (auto-composite)
ILD      .UNKNOWN     UNKNOWN        : ILD:ILD-Load:rC:NONE:v0 (auto-composite)
NPHI     .v/v_decimal UNKNOWN        : NPHI:NPHI:rC:NONE:v0 (auto-composite)
RHOB     .UNKNOWN     UNKNOWN        : RHOB:RHOB-Load:rC:NONE:v0 (auto-composite)
SN       .UNKNOWN     UNKNOWN        : SN:SN-Load:rC:NONE:v0 (auto-composite)
~A     DEPTH          CAL         DRHO           DT           GR          ILD         NPHI         RHOB           SN
# ...
   1085.5452    -999.2500    -999.2500    -999.2500      27.5595       0.9110      38.3979    -999.2500       0.9774
   1085.6976    -999.2500    -999.2500    -999.2500      28.2800       0.8800      39.1200    -999.2500       0.9510
   1085.8500    -999.2500    -999.2500    -999.2500      28.1388       0.8515      39.3265    -999.2500       0.9239
   1086.0024    -999.2500    -999.2500    -999.2500      27.9980       0.8230      39.5330    -999.2500       0.8970
   1086.1548    -999.2500    -999.2500    -999.2500      27.8052       0.8080      39.5325    -999.2500       0.8745
   1086.3073    -999.2500    -999.2500    -999.2500      27.6130       0.7930      39.5320    -999.2500       0.8520
   1086.4596    -999.2500    -999.2500    -999.2500      27.4748       0.7880      39.7536    -999.2500       0.8525
   1086.6121    -999.2500    -999.2500    -999.2500      27.3370       0.7830      39.9750    -999.2500       0.8530
   1086.7644    -999.2500    -999.2500    -999.2500      27.4411       0.7870      40.6087    -999.2500       0.8595
   1086.9167    -999.2500    -999.2500    -999.2500      27.5450       0.7910      41.2420    -999.2500       0.8660
   1087.0692    -999.2500    -999.2500    -999.2500      27.4023       0.7940      41.0209    -999.2500       0.8690
   1087.2216    -999.2500    -999.2500    -999.2500      27.2600       0.7970      40.8000    -999.2500       0.8720
   1087.3740    -999.2500    -999.2500    -999.2500      26.9942       0.8000      40.3504    -999.2500       0.8650
   1087.5264    -999.2500    -999.2500    -999.2500      26.7290       0.8030      39.9010    -999.2500       0.8580
   1087.6788    -999.2500    -999.2500    -999.2500      26.4652       0.8055      39.4429    -999.2500       0.8550
   1087.8312    -999.2500    -999.2500    -999.2500      26.2020       0.8080      38.9850    -999.2500       0.8520
   1087.9836    -999.2500    -999.2500    -999.2500      26.2811       0.8070      38.4314    -999.2500       0.8520
   1088.1360    -999.2500    -999.2500    -999.2500      26.3600       0.8060      37.8780    -999.2500       0.8520
   1088.2885    -999.2500    -999.2500    -999.2500      26.7600       0.8065      37.5540    -999.2500       0.8520
   1088.4408    -999.2500    -999.2500    -999.2500      27.1590       0.8070      37.2300    -999.2500       0.8520
   1088.5933    -999.2500    -999.2500    -999.2500      27.5111       0.8080      37.2960    -999.2500       0.8520
   1088.7456    -999.2500    -999.2500    -999.2500      27.8620       0.8090      37.3620    -999.2500       0.8520
   1088.8979    -999.2500    -999.2500    -999.2500      27.9421       0.8055      37.8935    -999.2500       0.8525
   1089.0504    -999.2500    -999.2500    -999.2500      28.0220       0.8020      38.4250    -999.2500       0.8530
   1089.2028    -999.2500    -999.2500    -999.2500      28.4742       0.7960      38.9919    -999.2500       0.8500
   1089.3552    -999.2500    -999.2500    -999.2500      28.9250       0.7900      39.5590    -999.2500       0.8470
   1089.5076    -999.2500    -999.2500    -999.2500      29.5219       0.7835      40.5988    -999.2500       0.8390
   1089.6600    -999.2500    -999.2500    -999.2500      30.1170       0.7770      41.6390    -999.2500       0.8310
   1089.8124    -999.2500    -999.2500    -999.2500      30.3724       0.7685      42.0869    -999.2500       0.8190
   1089.9648    -999.2500    -999.2500    -999.2500      30.6270       0.7600      42.5350    -999.2500       0.8070
   1090.1172    -999.2500    -999.2500    -999.2500      30.3356       0.7600      42.3580    -999.2500       0.8075
   1090.2697    -999.2500    -999.2500    -999.2500      30.0450       0.7600      42.1810    -999.2500       0.8080
   1090.4220    -999.2500    -999.2500    -999.2500      29.2896       0.7670      41.7903    -999.2500       0.8175
   1090.5745    -999.2500    -999.2500    -999.2500      28.5360       0.7740      41.4000    -999.2500       0.8270
   1090.7268    -999.2500    -999.2500    -999.2500      28.1240       0.7890      41.1119    -999.2500       0.8495
   1090.8792    -999.2500    -999.2500    -999.2500      27.7130       0.8040      40.8240    -999.2500       0.8720
   1091.0316    -999.2500    -999.2500    -999.2500      27.7185       0.8220      40.6544    -999.2500       0.8885
   1091.1840    -999.2500    -999.2500    -999.2500      27.7240       0.8400      40.4850    -999.2500       0.9050
   1091.3364    -999.2500    -999.2500    -999.2500      27.7305       0.8540      40.3150    -999.2500       0.9145
   1091.4888    -999.2500    -999.2500    -999.2500      27.7370       0.8680      40.1450    -999.2500       0.9240
   1091.6412    -999.2500    -999.2500    -999.2500      27.7455       0.8725      39.9825    -999.2500       0.9370
   1091.7936    -999.2500    -999.2500    -999.2500      27.7540       0.8770      39.8200    -999.2500       0.9500
   1091.9460    -999.2500    -999.2500    -999.2500      27.6624       0.8780      40.0555    -999.2500       0.9455
   1092.0984    -999.2500    -999.2500    -999.2500      27.5710       0.8790      40.2910    -999.2500       0.9410
   1092.2509    -999.2500    -999.2500    -999.2500      27.7268       0.8800      40.1805    -999.2500       0.9390
   1092.4032    -999.2500    -999.2500    -999.2500      27.8820       0.8810      40.0700    -999.2500       0.9370
   1092.5557    -999.2500    -999.2500    -999.2500      28.0382       0.8820      39.3910    -999.2500       0.9380
   1092.7080    -999.2500    -999.2500    -999.2500      28.1940       0.8830      38.7120    -999.2500       0.9390
   1092.8604    -999.2500    -999.2500    -999.2500      27.9051       0.8820      38.3215    -999.2500       0.9435
   1093.0128    -999.2500    -999.2500    -999.2500      27.6170       0.8810      37.9310    -999.2500       0.9480
   1093.1652    -999.2500    -999.2500    -999.2500      27.7237       0.8870      38.0780    -999.2500       0.9535
   1093.3176    -999.2500    -999.2500    -999.2500      27.8300       0.8930      38.2250    -999.2500       0.9590
   1093.4700    -999.2500    -999.2500    -999.2500      27.7264       0.9060      38.1955    -999.2500       0.9675
   1093.6224    -999.2500    -999.2500    -999.2500      27.6230       0.9190      38.1660    -999.2500       0.9760
   1093.7748    -999.2500    -999.2500    -999.2500      27.3331       0.9175      38.4760    -999.2500       0.9735
   1093.9272    -999.2500    -999.2500    -999.2500      27.0440       0.9160      38.7860    -999.2500       0.9710
   1094.0796    -999.2500    -999.2500    -999.2500      26.6710       0.9060      39.0656    -999.2500       0.9530
   1094.2321    -999.2500    -999.2500    -999.2500      26.2990       0.8960      39.3450    -999.2500       0.9350
   1094.3844    -999.2500    -999.2500    -999.2500      26.4512       0.8880      39.6246    -999.2500       0.9135
   1094.5367    -999.2500    -999.2500    -999.2500      26.6030       0.8800      39.9040    -999.2500       0.8920
   1094.6892    -999.2500    -999.2500    -999.2500      27.0255       0.8685      40.1766    -999.2500       0.8965
   1094.8416    -999.2500    -999.2500    -999.2500      27.4470       0.8570      40.4490    -999.2500       0.9010
   1094.9940    -999.2500    -999.2500    -999.2500      27.7989       0.8470      40.6261    -999.2500       0.9030
   1095.1464    -999.2500    -999.2500    -999.2500      28.1500       0.8370      40.8030    -999.2500       0.9050
   1095.2988    -999.2500    -999.2500    -999.2500      28.3042       0.8325      41.2821    -999.2500       0.8995
   1095.4512    -999.2500    -999.2500    -999.2500      28.4580       0.8280      41.7610    -999.2500       0.8940
   1095.6036    -999.2500    -999.2500    -999.2500      29.1557       0.8310      41.5840    -999.2500       0.8895
   1095.7560    -999.2500    -999.2500    -999.2500      29.8520       0.8340      41.4070    -999.2500       0.8850
   1095.9084    -999.2500    -999.2500    -999.2500      30.3727       0.8330      41.4510    -999.2500       0.8870
