#------------------------------------------------------------------------------
#
#   Created by  : [OpenWorks] Log Export Utility (LEXP)
#   Created on  : 2016-05-23 11:55:55
#   Project     : CANT971
#   User        : R5K
#   Interpreter : PEP
#
#------------------------------------------------------------------------------
~VERSION INFORMATION
VERS. 2.0 : CWLS Log ASCII Standard - version 2.0
WRAP.  NO : One line per depth step
~WELL INFORMATION
#MNEMONIC   .UNIT                                           VALUE :DESCRIPTION
#------------------------------------------------------------------------------
STRT        .M                                          2870.4541 :START DEPTH
STOP        .M                                          3966.9722 :STOP DEPTH
STEP        .M                                             0.1524 :STEP
NULL        .                                           -999.2500 :NULL VALUE
COMP        .                                             UNKNOWN :COMPANY
WELL        .                                            418D-ST1 :WELL
FLD         .                                             UNKNOWN :FIELD
LOC         .                                             UNKNOWN :LOCATION
CNTY        .                                             UNKNOWN :COUNTY
STAT        .                                             UNKNOWN :STATE
CTRY        .                                             UNKNOWN :COUNTRY
SRVC        .                                             UNKNOWN :SERVICE COMPANY
DATE        .                                             UNKNOWN :LOG DATE
UWI         .                                            418D-ST1 :UNIQUE WELL ID
XCOORD      .                                       597130.010000 :SURFACE X
YCOORD      .                                      2144879.410000 :SURFACE Y
LAT         .                                           19.396924 :LATITUDE
LON         .                                          -92.074978 :LONGITUDE
ELEV        .M                                             0.0000 :SURFACE ELEV
ELEV_TYPE   .                                                  NA :ELEV TYPE
~CURVE INFORMATION
#MNEMONIC.UNIT        API CODE       : CURVE DESCRIPTION
#------------------------------------------------------------------------------
DEPTH    .M                          : Measured Depth
CALI     .inches      UNKNOWN        : CALI:litodensidad:rC:NONE:v0 (auto-composite)
CGR      .API         UNKNOWN        : CGR:litodensidad:rC:NONE:v0 (auto-composite)
DRHO     .g/cm3       UNKNOWN        : DRHO:litodensidad:rC:NONE:v0 (auto-composite)
DT       .us/ft       UNKNOWN        : DT:DT-Load:rC:NONE:v0 (auto-composite)
GR       .API         UNKNOWN        : GR:litodensidad:rC:NONE:v0 (auto-composite)
LLD      .ohm.m       UNKNOWN        : LLD:PETROWORKS:rC:NONE:v1 
LLS      .ohm.m       UNKNOWN        : LLS:PETROWORKS:rC:NONE:v1 
MSFL     .ohm.m       UNKNOWN        : MSFL:resistivos:rC:NONE:v0 (auto-composite)
NPHI     .v/v_decimal UNKNOWN        : NPHI:litodensidad:rC:NONE:v0 (auto-composite)
PEF      .UNKNOWN     UNKNOWN        : PEF:litodensidad:rC:NONE:v0 (auto-composite)
POTA     .UNKNOWN     UNKNOWN        : POTA:litodensidad:rC:NONE:v0 (auto-composite)
RHOB     .g/cm3       UNKNOWN        : RHOB:litodensidad:rC:NONE:v0 (auto-composite)
THOR     .ppm         UNKNOWN        : THOR:litodensidad:rC:NONE:v0 (auto-composite)
URAN     .ppm         UNKNOWN        : URAN:litodensidad:rC:NONE:v0 (auto-composite)
~A     DEPTH         CALI          CGR         DRHO           DT           GR          LLD          LLS         MSFL         NPHI          PEF         POTA         RHOB         THOR         URAN
   2870.4541      10.7734      43.1227      -0.8887    -999.2500      70.4117    -999.2500    -999.2500    -999.2500       0.3188      21.3438       0.0149       2.1911       5.2339       3.5073
   2870.6064      10.8125      39.7013      -0.8855    -999.2500      65.7689    -999.2500    -999.2500    -999.2500       0.3222      21.5000       0.0138       2.1791       4.7705       3.3503
   2870.7588      10.8203      38.4028      -0.8775    -999.2500      64.3457    -999.2500    -999.2500    -999.2500       0.3122      23.0000       0.0134       2.2075       4.6180       3.3343
   2870.9114      10.8047      37.2810      -0.8887    -999.2500      62.7463    -999.2500    -999.2500    -999.2500       0.2800      25.0469       0.0130       2.2114       4.4767       3.2729
   2871.0637      10.7734      35.8850      -0.8896    -999.2500      60.8758    -999.2500    -999.2500    -999.2500       0.2457      30.6875       0.0123       2.2148       4.4210       3.2119
   2871.2161      10.8125      38.0957      -0.8843    -999.2500      64.0115     140.4928       0.1509       0.1323       0.2339      28.3125       0.0129       2.2095       4.7432       3.3308
   2871.3684      10.8125      39.1059      -0.9097    -999.2500      65.7040     150.0701       0.1514       0.1323       0.2513      29.8594       0.0133       2.1472       4.8533       3.4185
   2871.5210      10.8203      39.9504      -0.9041    -999.2500      67.0341     152.4964       0.1505       0.1763       0.2727      37.6875       0.0137       2.1585       4.9058       3.4809
   2871.6733      10.8047      41.1117      -0.9026    -999.2500      68.2607     147.0054       0.1497       0.1729       0.2991      31.1719       0.0143       2.1524       4.9772       3.4893
   2871.8257      10.7813      40.6745      -0.8954    -999.2500      66.6531     149.8147       0.1495       0.1318       0.3279      30.9375       0.0142       2.1588       4.8699       3.3389
   2871.9780      10.8047      42.8567      -0.8991    -999.2500      69.8004     147.0054       0.1480       0.1318       0.3538      32.3438       0.0148       2.1541       5.2286       3.4629
   2872.1306      10.7734      42.5415      -0.8961    -999.2500      68.9605     141.5144       0.1489       0.1313       0.3606      42.2500       0.0145       2.1608       5.2420       3.3955
   2872.2830      10.8359      40.3565      -0.8848    -999.2500      65.6394     142.6636       0.1496       0.2075       0.3409      37.5000       0.0136       2.1794       5.0491       3.2494
   2872.4353      10.8125      40.9204      -0.8716    -999.2500      66.4789     151.6025       0.1495       0.1357       0.3220      41.7188       0.0136       2.1896       5.2200       3.2849
   2872.5876      10.8203      39.3238      -0.8619    -999.2500      63.4079     150.1978       0.1528       0.1318       0.3054      63.4063       0.0127       2.2006       5.1720       3.0954
   2872.7400      10.8359      38.7110      -0.8660    -999.2500      62.4124     139.5989       0.1529       0.3081       0.2947      48.9063       0.0122       2.1800       5.2181       3.0462
   2872.8926      10.8047      38.2582      -0.8563    -999.2500      61.5670     158.8812       0.1489       0.1313       0.3001      34.6563       0.0118       2.1944       5.2538       2.9957
   2873.0449      10.8281      37.5516      -0.8580    -999.2500      60.2232     145.9838       0.1454       0.1563       0.3111      24.1094       0.0115       2.2101       5.2145       2.9138
   2873.1973      10.8125      37.9067      -0.8577    -999.2500      60.2396     155.8165       0.1442       0.1714       0.3188      27.0625       0.0116       2.2427       5.2596       2.8703
   2873.3496      10.8125      40.2412      -0.8686    -999.2500      63.5180     150.1978       0.1453       0.1309       0.3225      27.5938       0.0125       2.2375       5.5085       2.9916
   2873.5022      10.8047      40.1741      -0.8692    -999.2500      62.9312     143.4298       0.1493       0.1675       0.3132      40.2188       0.0126       2.2364       5.4207       2.9248
   2873.6545      10.7813      45.5386      -0.8846    -999.2500      72.4682     157.4766       0.1532       0.1509       0.3355      42.0313       0.0159       2.2109       5.4687       3.4611
   2873.8069      10.8125      45.6218      -0.9018    -999.2500      73.1433     145.8561       0.1542       0.1577       0.3297      32.7813       0.0159       2.1651       5.4767       3.5372
   2873.9592      10.8047      49.3754      -0.9149    -999.2500      82.2955     148.4100       0.1526       0.1899       0.3278      35.4375       0.0182       2.1412       5.5342       4.2310
   2874.1118      10.8125      49.3574      -0.9183    -999.2500      82.1816     154.0287       0.1518       0.1597       0.3050      26.6563       0.0182       2.1382       5.5068       4.2187
   2874.2642      10.8125      42.4873      -0.9169    -999.2500      69.8832     144.3237       0.1504       0.1450       0.3023      26.6094       0.0160       2.1547       4.5957       3.5210
   2874.4165      10.7891      41.4034      -0.9149    -999.2500      68.6798     144.0683       0.1473       0.5161       0.3101      21.1406       0.0156       2.1590       4.4812       3.5056
   2874.5688      10.7734      42.7795      -0.9201    -999.2500      71.1016     166.2877       0.1474       0.2002       0.3062      26.9219       0.0161       2.1496       4.6341       3.6401
   2874.7212      10.7734      46.0552      -0.9213    -999.2500      76.5366     152.8795       0.1477       0.3096       0.2988      34.0000       0.0173       2.1495       4.9928       3.9176
   2874.8738      10.7891      44.2367      -0.9210    -999.2500      74.1400     292.0697       0.1474       3.9180       0.3012      56.4688       0.0168       2.1621       4.7482       3.8433
   2875.0261      10.8359      41.1854      -0.9228    -999.2500      70.3747     168.3308       0.1478       1.9482       0.3109      45.7188       0.0157       2.1812       4.3756       3.7515
   2875.1785      10.8359      39.4192      -0.9232    -999.2500      68.5218     117.1242       0.1479       1.8613       0.3246      73.3750       0.0151       2.2000       4.1579       3.7404
   2875.3308      10.8359      37.5841      -0.9242    -999.2500      66.3002     149.1762       0.1521       0.1670       0.3102      42.7188       0.0143       2.2033       4.0213       3.6907
   2875.4834      10.8359      36.6121      -0.9315    -999.2500      65.1884     150.7086       0.1537       0.1333       0.2893      31.0000       0.0138       2.1664       3.9634       3.6727
   2875.6357      10.8359      35.0079      -0.9258    -999.2500      63.1733     143.6852       0.1539       0.5303       0.2786      24.7500       0.0130       2.1619       3.8646       3.6199
   2875.7881      10.8359      38.3515      -0.9037    -999.2500      68.8041     151.8579       0.1537       0.5728       0.2756      29.2656       0.0136       2.1766       4.5057       3.9139
   2875.9404      10.8359      38.9019      -0.8827    -999.2500      69.7843     132.3202       0.1473       0.1616       0.2915      35.3125       0.0138       2.1940       4.5739       3.9691
   2876.0930      10.8359      39.1911      -0.8639    -999.2500      69.8311     149.0485       0.1427       0.1890       0.2887      39.8438       0.0141       2.2096       4.5236       3.9380
   2876.2454      10.8359      46.0616      -0.8492    -999.2500      77.9386     145.8561       0.1435       0.1953       0.3040      28.8906       0.0183       2.2078       4.5947       4.0969
   2876.3977      10.8438      46.5546      -0.8520    -999.2500      78.7348     142.2805       0.1470       0.1323       0.3099      38.2813       0.0186       2.1959       4.6038       4.1359
   2876.5500      10.8516      44.9822      -0.8604    -999.2500      76.6092     132.0648       0.1509       0.1323       0.3260      38.3750       0.0182       2.1851       4.3445       4.0648
   2876.7024      10.8438      45.3365      -0.8720    -999.2500      77.2263     191.1887       0.1493       0.1318       0.3301      38.9688       0.0184       2.1662       4.3267       4.0986
