#------------------------------------------------------------------------------
#
#   Created by  : [OpenWorks] Log Export Utility (LEXP)
#   Created on  : 2016-05-23 11:50:23
#   Project     : CANT971
#   User        : R5K
#   Interpreter : PEP
#
#------------------------------------------------------------------------------
~VERSION INFORMATION
VERS. 2.0 : CWLS Log ASCII Standard - version 2.0
WRAP.  NO : One line per depth step
~WELL INFORMATION
#MNEMONIC   .UNIT                                           VALUE :DESCRIPTION
#------------------------------------------------------------------------------
STRT        .M                                           790.6004 :START DEPTH
STOP        .M                                          2649.8804 :STOP DEPTH
STEP        .M                                             0.1524 :STEP
NULL        .                                           -999.2500 :NULL VALUE
COMP        .                                             UNKNOWN :COMPANY
WELL        .                                               1012D :WELL
FLD         .                                             UNKNOWN :FIELD
LOC         .                                             UNKNOWN :LOCATION
CNTY        .                                             UNKNOWN :COUNTY
STAT        .                                             UNKNOWN :STATE
CTRY        .                                             UNKNOWN :COUNTRY
SRVC        .                                             UNKNOWN :SERVICE COMPANY
DATE        .                                             UNKNOWN :LOG DATE
UWI         .                                               1012D :UNIQUE WELL ID
XCOORD      .                                       594334.990000 :SURFACE X
YCOORD      .                                      2152041.060000 :SURFACE Y
LAT         .                                           19.461774 :LATITUDE
LON         .                                          -92.101239 :LONGITUDE
ELEV        .M                                             0.0000 :SURFACE ELEV
ELEV_TYPE   .                                                  KB :ELEV TYPE
~CURVE INFORMATION
#MNEMONIC.UNIT        API CODE       : CURVE DESCRIPTION
#------------------------------------------------------------------------------
DEPTH    .M                          : Measured Depth
DT       .us/ft       UNKNOWN        : DT:UNKNOWN:rC:NONE:v0 (auto-composite)
GR       .API         UNKNOWN        : GR:PETROWORKS:rC:NONE:v1 
GR-LWD   .API         UNKNOWN        : GR-LWD:PETROWORKS:rC:NONE:v1 
ILD      .ohm.m       UNKNOWN        : ILD:resistivos:rC:NONE:v0 (auto-composite)
ILD-LWD  .ohm.m       UNKNOWN        : ILD-LWD:PETROWORKS:rC:NONE:v1 
ILM      .ohm.m       UNKNOWN        : ILM:resistivos:rC:NONE:v0 (auto-composite)
ILM-LWD  .ohm.m       UNKNOWN        : ILM-LWD:PETROWORKS:rC:NONE:v1 
~A     DEPTH           DT           GR       GR-LWD          ILD      ILD-LWD          ILM      ILM-LWD
# ...
   2245.7156      92.0178      30.8994      51.2253    -999.2500       1.8047    -999.2500       1.8163
   2245.8679      92.2670      30.6710      51.5670    -999.2500       1.8113    -999.2500       1.8232
   2246.0205      91.8990      29.4990      52.9343    -999.2500       1.8298    -999.2500       1.8348
   2246.1729      92.0060      26.8710      53.9688    -999.2500       1.8673    -999.2500       1.8700
   2246.3252      90.0650      25.6980      54.5417    -999.2500       1.9225    -999.2500       1.9281
   2246.4775      89.5040      26.6750      52.9640    -999.2500       1.9271    -999.2500       1.9301
   2246.6299      88.4410      27.1550      51.7174    -999.2500       1.9014    -999.2500       1.9046
   2246.7825      88.2300      27.9360      52.0510    -999.2500       1.8719    -999.2500       1.8753
   2246.9348      88.8740      24.8100      52.9874    -999.2500       1.8430    -999.2500       1.8478
   2247.0872      90.6130      24.6150      54.0749    -999.2500       1.8352    -999.2500       1.8384
   2247.2395      90.6150      25.3960      54.4563    -999.2500       1.8312    -999.2500       1.8287
   2247.3921      91.7050      27.9360      54.2315    -999.2500       1.8074    -999.2500       1.8056
   2247.5444      90.5090      26.9590      53.7929    -999.2500       1.7616    -999.2500       1.7619
   2247.6968      90.7231      26.1459      53.2002    -999.2500       1.7162    -999.2500       1.7170
   2247.8491      91.3290      24.0290      52.6310    -999.2500       1.7137    -999.2500       1.7161
   2248.0017      90.9886      25.3297      52.7985    -999.2500       1.7305    -999.2500       1.7365
   2248.1541      90.9675      26.4054      54.0807    -999.2500       1.7567    -999.2500       1.7612
   2248.3064      91.0736      28.0333      56.4086    -999.2500       1.7838    -999.2500       1.7846
   2248.4587      90.4605      29.4661      57.2945    -999.2500       1.7923    -999.2500       1.7903
   2248.6111      90.7502      27.5066      57.6593    -999.2500       1.7830    -999.2500       1.7815
   2248.7637      90.6234      26.5782      57.8865    -999.2500       1.7678    -999.2500       1.7700
   2248.9160      90.5277      25.0159      58.0597    -999.2500       1.7365    -999.2500       1.7428
   2249.0684      90.7736      26.5858      57.4799    -999.2500       1.7310    -999.2500       1.7307
   2249.2207      91.7962      27.9344      57.5669    -999.2500       1.7394    -999.2500       1.7400
   2249.3733      92.4090      27.6433      58.7125    -999.2500       1.7468    -999.2500       1.7495
   2249.5256      92.4289      27.0570      58.2202    -999.2500       1.7518    -999.2500       1.7504
   2249.6780      91.9609      26.0481      56.6290    -999.2500       1.7909    -999.2500       1.7880
   2249.8303      91.9061      26.4049      54.9828    -999.2500       1.8065    -999.2500       1.8004
   2249.9829      92.2356      25.1052      53.8528    -999.2500       1.8028    -999.2500       1.7986
   2250.1353      93.3099      24.1598      55.0596    -999.2500       1.8166    -999.2500       1.8196
   2250.2876      94.0662      25.4933      56.4000    -999.2500       1.8043    -999.2500       1.8082
   2250.4399      94.2970      26.6011      58.1809    -999.2500       1.8266    -999.2500       1.8301
   2250.5923      93.5752      26.1730      56.3653    -999.2500       1.8651    -999.2500       1.8704
   2250.7449      93.2269      24.5898      55.9489    -999.2500       1.8893    -999.2500       1.8904
   2250.8972      92.6740      25.9223      55.4314    -999.2500       1.8786    -999.2500       1.8793
   2251.0496      92.5217      26.0717      56.4117    -999.2500       1.8339    -999.2500       1.8361
   2251.2019      92.6801      24.8445      55.4580    -999.2500       1.8022    -999.2500       1.8062
   2251.3545      92.1261      24.1273      54.1918    -999.2500       1.7894    -999.2500       1.7908
   2251.5068      91.9970      24.8425      53.3262    -999.2500       1.7820    -999.2500       1.7873
   2251.6592      90.9749      25.6570      54.1451    -999.2500       1.7726    -999.2500       1.7782
   2251.8115      90.1104      25.3323      56.9345    -999.2500       1.7976    -999.2500       1.7971
   2251.9641      89.9982      25.2010      56.7768    -999.2500       1.8430    -999.2500       1.8424
   2252.1165      89.7527      25.2010      56.0826    -999.2500       1.8651    -999.2500       1.8662
   2252.2688      89.9632      23.7367      51.5736    -999.2500       1.8740    -999.2500       1.8756
   2252.4211      90.1917      23.9313      52.0542    -999.2500       1.8916    -999.2500       1.8879
   2252.5735      90.7006      23.5413      53.7679    -999.2500       1.8913    -999.2500       1.8909
   2252.7261      90.1983      26.0451      54.7454    -999.2500       1.8947    -999.2500       1.8930
   2252.8784      89.9123      26.0810      53.0868    -999.2500       1.9031    -999.2500       1.9056
   2253.0308      89.7444      23.6392      51.5413    -999.2500       1.8951    -999.2500       1.8951
   2253.1831      89.6637      21.0030      51.5889    -999.2500       1.8852    -999.2500       1.8845
   2253.3357      88.9494      20.0571      53.7302    -999.2500       1.8948    -999.2500       1.8862
   2253.4880      88.7569      24.1559      53.3489    -999.2500       1.8874    -999.2500       1.8792
   2253.6404      88.7073      26.1777      54.5527    -999.2500       1.8628    -999.2500       1.8564
   2253.7927      89.0376      27.3811      52.7995    -999.2500       1.8232    -999.2500       1.8216
   2253.9453      89.1594      27.2205      52.8578    -999.2500       1.8113    -999.2500       1.8057
   2254.0977      89.6554      26.6671      51.8138    -999.2500       1.8024    -999.2500       1.7966
   2254.2500      89.4606      26.2433      54.3170    -999.2500       1.7853    -999.2500       1.7808
   2254.4023      89.4770      24.2248      56.8830    -999.2500       1.7944    -999.2500       1.7903
   2254.5547      89.3763      23.6709      56.1408    -999.2500       1.7878    -999.2500       1.7805
   2254.7073      89.8683      23.8012      54.6406    -999.2500       1.7892    -999.2500       1.7803
   2254.8596      89.1659      25.4604      51.0447    -999.2500       1.7790    -999.2500       1.7714
   2255.0120      88.7434      26.4381      52.7636    -999.2500       1.7893    -999.2500       1.7826
   2255.1643      88.7012      28.2420      53.1018    -999.2500       1.7887    -999.2500       1.7822
   2255.3169      89.1343      28.3228      55.1384    -999.2500       1.7713    -999.2500       1.7670
   2255.4692      89.7176      27.5546      54.6081    -999.2500       1.7538    -999.2500       1.7448
   2255.6216      91.0444      27.6886      55.5688    -999.2500       1.7201    -999.2500       1.7184
   2255.7739      91.2260      29.4619      56.1733    -999.2500       1.7199    -999.2500       1.7158
   2255.9265      91.3215      30.3627      55.6164    -999.2500       1.7246    -999.2500       1.7211
   2256.0789      90.7731      30.6383      56.3216    -999.2500       1.7403    -999.2500       1.7315
   2256.2312      90.7719      29.5324      56.2663    -999.2500       1.7490    -999.2500       1.7448
   2256.3835      92.1249      28.4899      57.0833    -999.2500       1.7346    -999.2500       1.7301
   2256.5359      92.3977      29.1402      57.9835    -999.2500       1.7540    -999.2500       1.7489
   2256.6885      92.5472      28.4907      57.6710    -999.2500       1.7634    -999.2500       1.7560
   2256.8408      92.7494      30.7670      56.5114    -999.2500       1.7667    -999.2500       1.7548
   2256.9932      92.5614      28.3928      55.2693    -999.2500       1.7361    -999.2500       1.7303
   2257.1455      92.0664      26.4713      56.3784    -999.2500       1.7446    -999.2500       1.7335
   2257.2981      92.1496      24.5844      58.2441    -999.2500       1.7760    -999.2500       1.7603
