#------------------------------------------------------------------------------
#
#   Created by  : [OpenWorks] Log Export Utility (LEXP)
#   Created on  : 2016-05-23 11:55:49
#   Project     : CANT971
#   User        : R5K
#   Interpreter : PEP
#
#------------------------------------------------------------------------------
~VERSION INFORMATION
VERS. 2.0 : CWLS Log ASCII Standard - version 2.0
WRAP.  NO : One line per depth step
~WELL INFORMATION
#MNEMONIC   .UNIT                                           VALUE :DESCRIPTION
#------------------------------------------------------------------------------
STRT        .M                                           773.4315 :START DEPTH
STOP        .M                                          2865.1216 :STOP DEPTH
STEP        .M                                             0.1524 :STEP
NULL        .                                           -999.2500 :NULL VALUE
COMP        .                                             UNKNOWN :COMPANY
WELL        .                                                408D :WELL
FLD         .                                             UNKNOWN :FIELD
LOC         .                                             UNKNOWN :LOCATION
CNTY        .                                             UNKNOWN :COUNTY
STAT        .                                             UNKNOWN :STATE
CTRY        .                                             UNKNOWN :COUNTRY
SRVC        .                                             UNKNOWN :SERVICE COMPANY
DATE        .                                             UNKNOWN :LOG DATE
UWI         .                                                408D :UNIQUE WELL ID
XCOORD      .                                       597130.770000 :SURFACE X
YCOORD      .                                      2144867.260000 :SURFACE Y
LAT         .                                           19.396814 :LATITUDE
LON         .                                          -92.074972 :LONGITUDE
ELEV        .M                                             0.0000 :SURFACE ELEV
ELEV_TYPE   .                                                  KB :ELEV TYPE
~CURVE INFORMATION
#MNEMONIC.UNIT        API CODE       : CURVE DESCRIPTION
#------------------------------------------------------------------------------
DEPTH    .M                          : Measured Depth
CALI     .inches      UNKNOWN        : CALI:litodensidad:rC:NONE:v0 (auto-composite)
CGR      .API         UNKNOWN        : CGR:PETROWORKS:rC:NONE:v1 
DRHO     .g/cm3       UNKNOWN        : DRHO:litodensidad:rC:NONE:v0 (auto-composite)
DT       .us/ft       UNKNOWN        : DT:PETROWORKS:rC:NONE:v1 
GR       .API         UNKNOWN        : GR:PETROWORKS:rC:NONE:v3 
GR-LWD   .UNKNOWN     UNKNOWN        : GR-LWD:resistivos-LWD:rC:NONE:v0 (auto-composite)
LLD      .ohm.m       UNKNOWN        : LLD:PETROWORKS:rC:NONE:v1 
LLD-LWD  .UNKNOWN     UNKNOWN        : LLD-LWD:resistivos-LWD:rC:NONE:v0 (auto-composite)
LLS      .UNKNOWN     UNKNOWN        : LLS:PETROWORKS:rC:NONE:v1 
LLS-LWD  .UNKNOWN     UNKNOWN        : LLS-LWD:resistivos-LWD:rC:NONE:v0 (auto-composite)
MSFL     .UNKNOWN     UNKNOWN        : MSFL:PETROWORKS:rC:NONE:v1 
MSFL-LWD .UNKNOWN     UNKNOWN        : MSFL-LWD:resistivos-LWD:rC:NONE:v0 (auto-composite)
NPHI     .v/v_decimal UNKNOWN        : NPHI:PETROWORKS:rC:NONE:v3 
PEF      .UNKNOWN     UNKNOWN        : PEF:litodensidad:rC:NONE:v0 (auto-composite)
POTA     .wtpercent   UNKNOWN        : POTA:PETROWORKS:rC:NONE:v1 
RHOB     .g/cm3       UNKNOWN        : RHOB:litodensidad:rC:NONE:v0 (auto-composite)
THOR     .ppm         UNKNOWN        : THOR:PETROWORKS:rC:NONE:v1 
URAN     .ppm         UNKNOWN        : URAN:PETROWORKS:rC:NONE:v1 
~A     DEPTH         CALI          CGR         DRHO           DT           GR       GR-LWD          LLD      LLD-LWD          LLS      LLS-LWD         MSFL     MSFL-LWD         NPHI          PEF         POTA         RHOB         THOR         URAN
# ...
   1899.9723    -999.2500    -999.2500    -999.2500     104.3484      45.4207      45.4550      77.0201      75.6910      14.9901      14.9520       8.5598       8.5540    -999.2500    -999.2500    -999.2500    -999.2500    -999.2500    -999.2500
   1900.1248    -999.2500    -999.2500    -999.2500     129.2216      48.0193      48.0400     727.9603     717.4350      20.6374      20.5870       9.1019       9.0980    -999.2500    -999.2500    -999.2500    -999.2500    -999.2500    -999.2500
   1900.2771    -999.2500    -999.2500    -999.2500     130.8804      48.4475      48.4410    1686.7428    1678.8101      25.1269      25.0910       9.4213       9.4190    -999.2500    -999.2500    -999.2500    -999.2500    -999.2500    -999.2500
   1900.4296    -999.2500    -999.2500    -999.2500     125.2840      47.9262      47.9320    1964.8236    1964.9460      30.1584      30.1000       9.6356       9.6360    -999.2500    -999.2500    -999.2500    -999.2500    -999.2500    -999.2500
   1900.5819    -999.2500    -999.2500    -999.2500     125.2000      47.8057      47.8930    1832.5516    1834.7400      34.0110      33.9940       9.3403       9.3450    -999.2500    -999.2500    -999.2500    -999.2500    -999.2500    -999.2500
   1900.7344    -999.2500    -999.2500    -999.2500     161.6527      47.2078      47.2190    1117.6865    1127.7180      27.1586      27.2810       8.3533       8.3660    -999.2500    -999.2500    -999.2500    -999.2500    -999.2500    -999.2500
   1900.8867    -999.2500    -999.2500    -999.2500     162.2000      46.0597      46.0150     441.6858     445.6320      16.2998      16.3910       7.2263       7.2360    -999.2500    -999.2500    -999.2500    -999.2500    -999.2500    -999.2500
   1901.0391    -999.2500    -999.2500    -999.2500     162.2000      45.2561      45.2510    1110.9794    1100.6331      14.2827      14.2660       7.0311       7.0290    -999.2500    -999.2500    -999.2500    -999.2500    -999.2500    -999.2500
   1901.1915    -999.2500    -999.2500    -999.2500     171.5624      45.1727      45.0900    1895.2965    1889.4260      15.7115      15.6990       7.3612       7.3570    -999.2500    -999.2500    -999.2500    -999.2500    -999.2500    -999.2500
   1901.3439    -999.2500    -999.2500    -999.2500     169.0403      46.1699      46.1610    2000.0000    2000.0000      15.9146      15.9060       8.1105       8.1010    -999.2500    -999.2500    -999.2500    -999.2500    -999.2500    -999.2500
   1901.4963    -999.2500    -999.2500    -999.2500     146.2361      47.6473      47.8960    2000.0000    2000.0000      18.2574      18.2260       8.8530       8.8470    -999.2500    -999.2500    -999.2500    -999.2500    -999.2500    -999.2500
   1901.6487    -999.2500    -999.2500    -999.2500     145.9000      46.5261      46.5980    1790.3903    1795.2930      17.7317      17.7700       8.3384       8.3470    -999.2500    -999.2500    -999.2500    -999.2500    -999.2500    -999.2500
   1901.8011    -999.2500    -999.2500    -999.2500     143.4365      42.5509      42.3590    1027.4299    1030.0770      13.8875      13.8990       7.7525       7.7540    -999.2500    -999.2500    -999.2500    -999.2500    -999.2500    -999.2500
   1901.9535    -999.2500    -999.2500    -999.2500     140.3466      40.6176      40.5090    1238.7604    1230.6390      14.1360      14.1250       7.7469       7.7470    -999.2500    -999.2500    -999.2500    -999.2500    -999.2500    -999.2500
   1902.1060    -999.2500    -999.2500    -999.2500     133.2057      42.5883      42.4200    1925.2704    1924.1560      14.5537      14.5600       7.8454       7.8420    -999.2500    -999.2500    -999.2500    -999.2500    -999.2500    -999.2500
   1902.2583    -999.2500    -999.2500    -999.2500     125.3192      46.0920      46.1250    2000.0000    2000.0000      14.1252      14.1240       8.2701       8.2640    -999.2500    -999.2500    -999.2500    -999.2500    -999.2500    -999.2500
   1902.4108    -999.2500    -999.2500    -999.2500     125.2000      48.6001      48.7550    1932.4149    1935.6520      15.1442      15.1380       8.6796       8.6820    -999.2500    -999.2500    -999.2500    -999.2500    -999.2500    -999.2500
   1902.5631    -999.2500    -999.2500    -999.2500     106.1925      48.6512      48.7140    1373.4771    1381.5640      14.6048      14.6270       8.1670       8.1750    -999.2500    -999.2500    -999.2500    -999.2500    -999.2500    -999.2500
   1902.7156    -999.2500    -999.2500    -999.2500     106.6882      47.0702      47.0680     436.2672     442.0220      10.9949      11.0330       7.0807       7.0930    -999.2500    -999.2500    -999.2500    -999.2500    -999.2500    -999.2500
   1902.8679    -999.2500    -999.2500    -999.2500      85.8060      46.5110      46.2940      51.9608      53.3160       7.4338       7.4650       5.7153       5.7300    -999.2500    -999.2500    -999.2500    -999.2500    -999.2500    -999.2500
   1903.0203    -999.2500    -999.2500    -999.2500      79.0965      49.2450      49.0900       5.8124       5.8570       4.3269       4.3530       3.8168       3.8360    -999.2500    -999.2500    -999.2500    -999.2500    -999.2500    -999.2500
   1903.1727    -999.2500    -999.2500    -999.2500      83.8290      54.1561      54.3060       2.6369       2.6530       2.2786       2.2920       2.2129       2.2240    -999.2500    -999.2500    -999.2500    -999.2500    -999.2500    -999.2500
   1903.3251    -999.2500    -999.2500    -999.2500     101.9271      56.9852      57.0880       2.0975       2.0980       1.6536       1.6560       1.6762       1.6780    -999.2500    -999.2500    -999.2500    -999.2500    -999.2500    -999.2500
   1903.4775    -999.2500    -999.2500    -999.2500      59.3332      55.4254      55.4910       2.1796       2.1780       1.4760       1.4770       1.5978       1.5980    -999.2500    -999.2500    -999.2500    -999.2500    -999.2500    -999.2500
   1903.6299    -999.2500    -999.2500    -999.2500      93.0773      52.6515      52.6890       2.6555       2.6490       1.5799       1.5770       1.7846       1.7820    -999.2500    -999.2500    -999.2500    -999.2500    -999.2500    -999.2500
   1903.7823    -999.2500    -999.2500    -999.2500      92.4175      51.2043      51.1790       3.1689       3.1650       1.8835       1.8800       2.1049       2.1020    -999.2500    -999.2500    -999.2500    -999.2500    -999.2500    -999.2500
   1903.9347    -999.2500    -999.2500    -999.2500      93.7789      50.4252      50.4210       2.7894       2.7980       2.0470       2.0480       2.2394       2.2400    -999.2500    -999.2500    -999.2500    -999.2500    -999.2500    -999.2500
   1904.0872    -999.2500    -999.2500    -999.2500      95.7706      50.8772      50.7110       1.9080       1.9160       1.8613       1.8640       2.0531       2.0560    -999.2500    -999.2500    -999.2500    -999.2500    -999.2500    -999.2500
   1904.2395    -999.2500    -999.2500    -999.2500      98.3607      52.9162      52.8770       1.4522       1.4540       1.5662       1.5690       1.7552       1.7580    -999.2500    -999.2500    -999.2500    -999.2500    -999.2500    -999.2500
   1904.3920    -999.2500    -999.2500    -999.2500      98.3015      56.2495      56.1960       1.2940       1.2950       1.3691       1.3710       1.5681       1.5700    -999.2500    -999.2500    -999.2500    -999.2500    -999.2500    -999.2500
   1904.5443    -999.2500    -999.2500    -999.2500     100.3681      59.7407      59.7450       1.2284       1.2290       1.2553       1.2560       1.4773       1.4780    -999.2500    -999.2500    -999.2500    -999.2500    -999.2500    -999.2500
   1904.6968    -999.2500    -999.2500    -999.2500     100.4985      61.8484      61.9980       1.2031       1.2030       1.2057       1.2060       1.4308       1.4310    -999.2500    -999.2500    -999.2500    -999.2500    -999.2500    -999.2500
   1904.8491    -999.2500    -999.2500    -999.2500      99.5152      62.4580      62.4490       1.1081       1.1090       1.2012       1.2010       1.4162       1.4160    -999.2500    -999.2500    -999.2500    -999.2500    -999.2500    -999.2500
