#------------------------------------------------------------------------------
#
#   Created by  : [OpenWorks] Log Export Utility (LEXP)
#   Created on  : 2016-05-23 11:50:15
#   Project     : CANT971
#   User        : R5K
#   Interpreter : PEP
#
#------------------------------------------------------------------------------
~VERSION INFORMATION
VERS. 2.0 : CWLS Log ASCII Standard - version 2.0
WRAP.  NO : One line per depth step
~WELL INFORMATION
#MNEMONIC   .UNIT                                           VALUE :DESCRIPTION
#------------------------------------------------------------------------------
STRT        .M                                          2144.1199 :START DEPTH
STOP        .M                                          3100.2776 :STOP DEPTH
STEP        .M                                             0.1524 :STEP
NULL        .                                           -999.2500 :NULL VALUE
COMP        .                                   PEMEX EXPL & PROD :COMPANY
WELL        .                                               1004D :WELL
FLD         .                                           CANTARELL :FIELD
LOC         .                                             UNKNOWN :LOCATION
CNTY        .                                      CD. DEL CARMEN :COUNTY
STAT        .                                            CAMPECHE :STATE
CTRY        .                                              MEXICO :COUNTRY
SRVC        .                                             UNKNOWN :SERVICE COMPANY
DATE        .                                             UNKNOWN :LOG DATE
UWI         .                                               1004D :UNIQUE WELL ID
XCOORD      .                                       594534.600000 :SURFACE X
YCOORD      .                                      2142053.350000 :SURFACE Y
LAT         .                                           19.371510 :LATITUDE
LON         .                                          -92.099834 :LONGITUDE
ELEV        .M                                            30.0000 :SURFACE ELEV
ELEV_TYPE   .                                                  KB :ELEV TYPE
~CURVE INFORMATION
#MNEMONIC.UNIT        API CODE       : CURVE DESCRIPTION
#------------------------------------------------------------------------------
DEPTH    .M                          : Measured Depth
CALI     .in          UNKNOWN        : CALI:litodensidad:rC:NONE:v0 (auto-composite)
DRHO     .g/cm3       UNKNOWN        : DRHO:litodensidad:rC:NONE:v0 (auto-composite)
DT       .us/ft       UNKNOWN        : DT:DT-Load:rC:NONE:v0 (auto-composite)
GR       .API         UNKNOWN        : GR:TMDL:rC:NONE:v0 (auto-composite)
GR-LWD   .API         UNKNOWN        : GR-LWD:PETROWORKS:rC:NONE:v1 
ILD-LWD  .ohm.m       UNKNOWN        : ILD-LWD:resistivos-LWD:rC:NONE:v0 (auto-composite)
ILM-LWD  .ohm.m       UNKNOWN        : ILM-LWD:resistivos-LWD:rC:NONE:v0 (auto-composite)
LLD-LWD  .ohm.m       UNKNOWN        : LLD-LWD:resistivos-LWD:rC:NONE:v0 (auto-composite)
LLS      .ohm.m       UNKNOWN        : LLS:resistivos:rC:NONE:v0 (auto-composite)
LLS-LWD  .ohm.m       UNKNOWN        : LLS-LWD:resistivos-LWD:rC:NONE:v0 (auto-composite)
MSFL     .ohm.m       UNKNOWN        : MSFL:resistivos:rC:NONE:v0 (auto-composite)
MSFL-LWD .ohm.m       UNKNOWN        : MSFL-LWD:resistivos-LWD:rC:NONE:v0 (auto-composite)
NPHI     .v/v_decimal UNKNOWN        : NPHI:PETROWORKS:rC:NONE:v2 
PEF      .b/elec      UNKNOWN        : PEF:litodensidad:rC:NONE:v0 (auto-composite)
RHOB     .g/cm3       UNKNOWN        : RHOB:litodensidad:rC:NONE:v0 (auto-composite)
~A     DEPTH         CALI         DRHO           DT           GR       GR-LWD      ILD-LWD      ILM-LWD      LLD-LWD          LLS      LLS-LWD         MSFL     MSFL-LWD         NPHI          PEF         RHOB
# ...
   2940.5623      11.4933       0.0206      70.4695      74.5246    -999.2500    -999.2500    -999.2500    -999.2500      95.9870    -999.2500     106.8683    -999.2500       0.0587       3.2736       2.6838
   2940.7146      11.2777       0.0391      57.6125      88.7818    -999.2500    -999.2500    -999.2500    -999.2500      29.6111    -999.2500       9.2913    -999.2500       0.0764       3.1943       2.6435
   2940.8672      11.2991       0.0514      56.7659     100.5299    -999.2500    -999.2500    -999.2500    -999.2500      53.7709    -999.2500       9.2869    -999.2500       0.0901       3.1464       2.6225
   2941.0195      11.7434       0.0587      58.7036      92.6108    -999.2500    -999.2500    -999.2500    -999.2500      91.9911    -999.2500       9.6291    -999.2500       0.1125       3.1601       2.6440
   2941.1719      11.4021       0.0600      60.4944      94.3779    -999.2500    -999.2500    -999.2500    -999.2500      70.9899    -999.2500      15.6015    -999.2500       0.1070       3.1736       2.6593
   2941.3242      11.4636       0.0500      59.5677      94.3343    -999.2500    -999.2500    -999.2500    -999.2500     192.8316    -999.2500      15.8493    -999.2500       0.0951       3.1746       2.6776
   2941.4766      11.2700       0.0286      58.1551      69.2422    -999.2500    -999.2500    -999.2500    -999.2500     628.9346    -999.2500      17.0316    -999.2500       0.0620       3.1811       2.6863
   2941.6292      11.2057      -0.0024      57.6843      58.4828    -999.2500    -999.2500    -999.2500    -999.2500    1467.5862    -999.2500     620.2070    -999.2500       0.0646       3.1881       2.6590
   2941.7815      11.2579      -0.0096      61.4205      48.1896    -999.2500    -999.2500    -999.2500    -999.2500    3166.0269    -999.2500     683.4660    -999.2500       0.0639       3.2010       2.6318
   2941.9338      11.3067      -0.0173      58.7926      39.0415    -999.2500    -999.2500    -999.2500    -999.2500    4861.0552    -999.2500    1134.2148    -999.2500       0.0599       3.1878       2.6063
   2942.0862      11.3610      -0.0070      53.2593      38.1004    -999.2500    -999.2500    -999.2500    -999.2500    2874.4390    -999.2500    1981.9434    -999.2500       0.0460       3.1940       2.6154
   2942.2388      11.3425      -0.0046      62.8312      39.6751    -999.2500    -999.2500    -999.2500    -999.2500    1259.5399    -999.2500    1999.9503    -999.2500       0.0445       3.1872       2.6267
   2942.3911      11.3368       0.0043      64.7767      37.2337    -999.2500    -999.2500    -999.2500    -999.2500     800.7414    -999.2500    1962.1254    -999.2500       0.0487       3.1844       2.6196
   2942.5435      11.4114       0.0022      64.5284      33.5778    -999.2500    -999.2500    -999.2500    -999.2500     523.6691    -999.2500    1215.2577    -999.2500       0.0670       3.1515       2.5723
   2942.6958      11.4827       0.0003      65.3648      33.8235    -999.2500    -999.2500    -999.2500    -999.2500     222.0258    -999.2500     772.7711    -999.2500       0.0775       3.1411       2.5183
   2942.8484      11.6809      -0.0038      59.0479      32.1958    -999.2500    -999.2500    -999.2500    -999.2500     237.0846    -999.2500     642.6649    -999.2500       0.0887       3.1254       2.4777
   2943.0007      11.5133      -0.0040      60.3352      30.0005    -999.2500    -999.2500    -999.2500    -999.2500     448.0644    -999.2500      81.2400    -999.2500       0.0870       3.0963       2.4791
   2943.1531      11.4623      -0.0030      59.6040      31.8982    -999.2500    -999.2500    -999.2500    -999.2500     479.0840    -999.2500      84.2041    -999.2500       0.0934       3.0613       2.4941
   2943.3054      11.4884      -0.0011      57.3701      35.4667    -999.2500    -999.2500    -999.2500    -999.2500     532.9464    -999.2500      81.1464    -999.2500       0.0824       3.0500       2.5143
   2943.4578      11.9050      -0.0007      55.8785      42.0656    -999.2500    -999.2500    -999.2500    -999.2500     637.8666    -999.2500     571.6143    -999.2500       0.0689       3.0678       2.5412
   2943.6104      11.6337      -0.0001      56.5268      41.6183    -999.2500    -999.2500    -999.2500    -999.2500     738.2621    -999.2500     597.4947    -999.2500       0.0533       3.1222       2.5850
   2943.7627      11.4402      -0.0018      55.3431      44.5702    -999.2500    -999.2500    -999.2500    -999.2500     682.4694    -999.2500    1011.4642    -999.2500       0.0478       3.1734       2.6316
   2943.9150      11.7047       0.0007      56.3502      45.5843    -999.2500    -999.2500    -999.2500    -999.2500     558.5076    -999.2500     578.1283    -999.2500       0.0421       3.2345       2.6790
   2944.0674      11.4838       0.0007      56.5160      45.0043    -999.2500    -999.2500    -999.2500    -999.2500     384.9614    -999.2500      84.5270    -999.2500       0.0414       3.2192       2.6991
   2944.2200      11.4267       0.0031      55.9528      51.4059    -999.2500    -999.2500    -999.2500    -999.2500     564.6550    -999.2500      85.5842    -999.2500       0.0377       3.1808       2.6989
   2944.3723      11.3893      -0.0004      58.0199      52.2652    -999.2500    -999.2500    -999.2500    -999.2500     741.8750    -999.2500     126.4177    -999.2500       0.0448       3.1489       2.6531
   2944.5247      11.3444      -0.0015      59.8256      47.7518    -999.2500    -999.2500    -999.2500    -999.2500     699.8351    -999.2500    1505.7057    -999.2500       0.0650       3.1484       2.6031
   2944.6770      11.3555      -0.0037      59.7511      48.0854    -999.2500    -999.2500    -999.2500    -999.2500     741.5719    -999.2500    1499.0623    -999.2500       0.0807       3.1659       2.5511
   2944.8296      11.3593      -0.0022      60.6374      42.2171    -999.2500    -999.2500    -999.2500    -999.2500    1021.4305    -999.2500    1682.4364    -999.2500       0.0888       3.1532       2.5298
   2944.9819      11.3593       0.0044      61.9661      45.1388    -999.2500    -999.2500    -999.2500    -999.2500    1043.5675    -999.2500     513.5066    -999.2500       0.0797       3.1763       2.5318
   2945.1343      11.4525       0.0113      61.5973      45.5488    -999.2500    -999.2500    -999.2500    -999.2500     886.9332    -999.2500     214.6990    -999.2500       0.0839       3.2025       2.5484
   2945.2866      11.4903       0.0119      63.0243      39.0117    -999.2500    -999.2500    -999.2500    -999.2500     885.3017    -999.2500     175.4447    -999.2500       0.0790       3.2288       2.5614
   2945.4390      11.5315       0.0038      61.0628      42.1586    -999.2500    -999.2500    -999.2500    -999.2500     911.0488    -999.2500     218.9342    -999.2500       0.0753       3.2553       2.5560
   2945.5916      11.4644       0.0025      62.1632      48.6062    -999.2500    -999.2500    -999.2500    -999.2500     767.0619    -999.2500     356.2401    -999.2500       0.0696       3.2432       2.5508
   2945.7439      11.4678      -0.0012      60.9186      48.3197    -999.2500    -999.2500    -999.2500    -999.2500     671.6735    -999.2500     491.5121    -999.2500       0.0714       3.2556       2.5434
   2945.8962      11.4436       0.0023      61.1891      45.3750    -999.2500    -999.2500    -999.2500    -999.2500     740.7015    -999.2500     457.4459    -999.2500       0.0724       3.1916       2.5611
   2946.0486      11.4473       0.0011      59.7901      46.2722    -999.2500    -999.2500    -999.2500    -999.2500     795.0942    -999.2500     165.3018    -999.2500       0.0729       3.1720       2.5739
   2946.2012      11.4492       0.0045      59.1005      48.2954    -999.2500    -999.2500    -999.2500    -999.2500     994.6089    -999.2500     159.6209    -999.2500       0.0749       3.1572       2.5720
   2946.3535      11.4678       0.0131      57.7988      48.3064    -999.2500    -999.2500    -999.2500    -999.2500    1100.3776    -999.2500     177.4286    -999.2500       0.0800       3.1966       2.5682
