#------------------------------------------------------------------------------
#
#   Created by  : [OpenWorks] Log Export Utility (LEXP)
#   Created on  : 2016-05-23 11:51:18
#   Project     : CANT971
#   User        : R5K
#   Interpreter : PEP
#
#------------------------------------------------------------------------------
~VERSION INFORMATION
VERS. 2.0 : CWLS Log ASCII Standard - version 2.0
WRAP.  NO : One line per depth step
~WELL INFORMATION
#MNEMONIC   .UNIT                                           VALUE :DESCRIPTION
#------------------------------------------------------------------------------
STRT        .M                                           690.7880 :START DEPTH
STOP        .M                                          2950.1179 :STOP DEPTH
STEP        .M                                             0.1524 :STEP
NULL        .                                           -999.2500 :NULL VALUE
COMP        .                                   PEMEX EXPL & PROD :COMPANY
WELL        .                                                1066 :WELL
FLD         .                                           CANTARELL :FIELD
LOC         .                                             UNKNOWN :LOCATION
CNTY        .                                      CD. DEL CARMEN :COUNTY
STAT        .                                            CAMPECHE :STATE
CTRY        .                                              MEXICO :COUNTRY
SRVC        .                                             UNKNOWN :SERVICE COMPANY
DATE        .                                             UNKNOWN :LOG DATE
UWI         .                                          3060000505 :UNIQUE WELL ID
XCOORD      .                                       596157.670000 :SURFACE X
YCOORD      .                                      2150605.920000 :SURFACE Y
LAT         .                                           19.448718 :LATITUDE
LON         .                                          -92.083948 :LONGITUDE
ELEV        .M                                            30.0000 :SURFACE ELEV
ELEV_TYPE   .                                                  KB :ELEV TYPE
~CURVE INFORMATION
#MNEMONIC.UNIT        API CODE       : CURVE DESCRIPTION
#------------------------------------------------------------------------------
DEPTH    .M                          : Measured Depth
CALI     .inches      UNKNOWN        : CALI:litodensidad:rC:NONE:v0 (auto-composite)
DRHO     .g/cm3       UNKNOWN        : DRHO:litodensidad:rC:NONE:v0 (auto-composite)
DT       .us/ft       UNKNOWN        : DT:DT:rC:NONE:v0 (auto-composite)
GR       .API         UNKNOWN        : GR:UNKNOWN:rC:NONE:v0 (auto-composite)
ILD      .ohmm        UNKNOWN        : ILD:UNKNOWN:rC:NONE:v0 (auto-composite)
ILM      .ohmm        UNKNOWN        : ILM:UNKNOWN:rC:NONE:v0 (auto-composite)
LLD      .ohmm        UNKNOWN        : LLD:UNKNOWN:rC:NONE:v0 (auto-composite)
LLS      .ohmm        UNKNOWN        : LLS:UNKNOWN:rC:NONE:v0 (auto-composite)
MSFL     .ohmm        UNKNOWN        : MSFL:UNKNOWN:rC:NONE:v0 (auto-composite)
NPHI     .v/v_decimal UNKNOWN        : NPHI:PETROWORKS:rC:NONE:v2 
PEF      .b/elec      UNKNOWN        : PEF:litodensidad:rC:NONE:v0 (auto-composite)
RHOB     .g/cm3       UNKNOWN        : RHOB:litodensidad:rC:NONE:v0 (auto-composite)
~A     DEPTH         CALI         DRHO           DT           GR          ILD          ILM          LLD          LLS         MSFL         NPHI          PEF         RHOB
# ...
    837.0920    -999.2500    -999.2500    -999.2500      25.7556       1.5217       1.5273       0.2000       0.2000       0.2000      -0.1500    -999.2500    -999.2500
    837.2444    -999.2500    -999.2500    -999.2500      25.4784       1.5267       1.5244       0.2000       0.2000       0.2000      -0.1500    -999.2500    -999.2500
    837.3969    -999.2500    -999.2500    -999.2500      24.8809       1.5182       1.5109       0.2000       0.2000       0.2000      -0.1500    -999.2500    -999.2500
    837.5493    -999.2500    -999.2500    -999.2500      24.3848       1.5059       1.4927       0.2000       0.2000       0.2000      -0.1500    -999.2500    -999.2500
    837.7016    -999.2500    -999.2500    -999.2500      24.1622       1.4833       1.4621       0.2000       0.2000       0.2000      -0.1500    -999.2500    -999.2500
    837.8540    -999.2500    -999.2500    -999.2500      24.3546       1.4637       1.4392       0.2000       0.2000       0.2000      -0.1500    -999.2500    -999.2500
    838.0064    -999.2500    -999.2500    -999.2500      25.6373       1.4517       1.4362       0.2000       0.2000       0.2000      -0.1500    -999.2500    -999.2500
    838.1588    -999.2500    -999.2500    -999.2500      26.5965       1.4437       1.4354       0.2000       0.2000       0.2000      -0.1500    -999.2500    -999.2500
    838.3112    -999.2500    -999.2500    -999.2500      26.7002       1.4462       1.4404       0.2000       0.2000       0.2000      -0.1500    -999.2500    -999.2500
    838.4636    -999.2500    -999.2500    -999.2500      26.4729       1.4522       1.4496       0.2000       0.2000       0.2000      -0.1500    -999.2500    -999.2500
    838.6160    -999.2500    -999.2500    -999.2500      25.3920       1.4672       1.4696       0.2000       0.2000       0.2000      -0.1500    -999.2500    -999.2500
    838.7684    -999.2500    -999.2500    -999.2500      24.8631       1.4801       1.4871       0.2000       0.2000       0.2000      -0.1500    -999.2500    -999.2500
    838.9208    -999.2500    -999.2500    -999.2500      25.7654       1.4876       1.4981       0.2000       0.2000       0.2000      -0.1500    -999.2500    -999.2500
    839.0732    -999.2500    -999.2500    -999.2500      26.4711       1.4950       1.5053       0.2000       0.2000       0.2000      -0.1500    -999.2500    -999.2500
    839.2256    -999.2500    -999.2500    -999.2500      26.6797       1.5020       1.5028       0.2000       0.2000       0.2000      -0.1500    -999.2500    -999.2500
    839.3781    -999.2500    -999.2500    -999.2500      26.7762       1.5087       1.5016       0.2000       0.2000       0.2000      -0.1500    -999.2500    -999.2500
    839.5304    -999.2500    -999.2500    -999.2500      26.5968       1.5147       1.5036       0.2000       0.2000       0.2000      -0.1500    -999.2500    -999.2500
    839.6828    -999.2500    -999.2500    -999.2500      26.2765       1.5194       1.5075       0.2000       0.2000       0.2000      -0.1500    -999.2500    -999.2500
    839.8352    -999.2500    -999.2500    -999.2500      25.6072       1.5209       1.5160       0.2000       0.2000       0.2000      -0.1500    -999.2500    -999.2500
    839.9876    -999.2500    -999.2500    -999.2500      25.1274       1.5204       1.5236       0.2000       0.2000       0.2000      -0.1500    -999.2500    -999.2500
    840.1400    -999.2500    -999.2500    -999.2500      25.1049       1.5149       1.5291       0.2000       0.2000       0.2000      -0.1500    -999.2500    -999.2500
    840.2924    -999.2500    -999.2500    -999.2500      25.0014       1.5097       1.5288       0.2000       0.2000       0.2000      -0.1500    -999.2500    -999.2500
    840.4448    -999.2500    -999.2500    -999.2500      24.7012       1.5052       1.5142       0.2000       0.2000       0.2000      -0.1500    -999.2500    -999.2500
    840.5972    -999.2500    -999.2500    -999.2500      24.6791       1.5027       1.5013       0.2000       0.2000       0.2000      -0.1500    -999.2500    -999.2500
    840.7496    -999.2500    -999.2500    -999.2500      25.3162       1.5053       1.4923       0.2000       0.2000       0.2000      -0.1500    -999.2500    -999.2500
    840.9020    -999.2500    -999.2500    -999.2500      25.6462       1.5073       1.4898       0.2000       0.2000       0.2000      -0.1500    -999.2500    -999.2500
    841.0544    -999.2500    -999.2500    -999.2500      25.2659       1.5083       1.5023       0.2000       0.2000       0.2000      -0.1500    -999.2500    -999.2500
    841.2068    -999.2500    -999.2500    -999.2500      24.7634       1.5125       1.5151       0.2000       0.2000       0.2000      -0.1500    -999.2500    -999.2500
    841.3593    -999.2500    -999.2500    -999.2500      23.9764       1.5240       1.5286       0.2000       0.2000       0.2000      -0.1500    -999.2500    -999.2500
    841.5116    -999.2500    -999.2500    -999.2500      23.4204       1.5416       1.5458       0.2000       0.2000       0.2000      -0.1500    -999.2500    -999.2500
    841.6640    -999.2500    -999.2500    -999.2500      23.3889       1.5731       1.5713       0.2000       0.2000       0.2000      -0.1500    -999.2500    -999.2500
    841.8164    -999.2500    -999.2500    -999.2500      23.8887       1.6043       1.5979       0.2000       0.2000       0.2000      -0.1500    -999.2500    -999.2500
    841.9688    -999.2500    -999.2500    -999.2500      25.6019       1.6349       1.6269       0.2000       0.2000       0.2000      -0.1500    -999.2500    -999.2500
    842.1212    -999.2500    -999.2500    -999.2500      26.6746       1.6653       1.6573       0.2000       0.2000       0.2000      -0.1500    -999.2500    -999.2500
    842.2736    -999.2500    -999.2500    -999.2500      26.3217       1.6954       1.6903       0.2000       0.2000       0.2000      -0.1500    -999.2500    -999.2500
    842.4260    -999.2500    -999.2500    -999.2500      25.7885       1.7215       1.7199       0.2000       0.2000       0.2000      -0.1500    -999.2500    -999.2500
    842.5784    -999.2500    -999.2500    -999.2500      24.8636       1.7390       1.7419       0.2000       0.2000       0.2000      -0.1500    -999.2500    -999.2500
    842.7308    -999.2500    -999.2500    -999.2500      24.7886       1.7540       1.7567       0.2000       0.2000       0.2000      -0.1500    -999.2500    -999.2500
    842.8832    -999.2500    -999.2500    -999.2500      26.5712       1.7635       1.7557       0.2000       0.2000       0.2000      -0.1500    -999.2500    -999.2500
    843.0356    -999.2500    -999.2500    -999.2500      27.8308       1.7702       1.7537       0.2000       0.2000       0.2000      -0.1500    -999.2500    -999.2500
    843.1880    -999.2500    -999.2500    -999.2500      27.9742       1.7707       1.7497       0.2000       0.2000       0.2000      -0.1500    -999.2500    -999.2500
    843.3405    -999.2500    -999.2500    -999.2500      27.6291       1.7662       1.7457       0.2000       0.2000       0.2000      -0.1500    -999.2500    -999.2500
    843.4928    -999.2500    -999.2500    -999.2500      26.2355       1.7512       1.7417       0.2000       0.2000       0.2000      -0.1500    -999.2500    -999.2500
    843.6452    -999.2500    -999.2500    -999.2500      24.9253       1.7340       1.7341       0.2000       0.2000       0.2000      -0.1500    -999.2500    -999.2500
    843.7976    -999.2500    -999.2500    -999.2500      23.7899       1.7125       1.7191       0.2000       0.2000       0.2000      -0.1500    -999.2500    -999.2500
    843.9500    -999.2500    -999.2500    -999.2500      22.8480       1.6883       1.7001       0.2000       0.2000       0.2000      -0.1500    -999.2500    -999.2500
    844.1024    -999.2500    -999.2500    -999.2500      22.3023       1.6588       1.6732       0.2000       0.2000       0.2000      -0.1500    -999.2500    -999.2500
    844.2548    -999.2500    -999.2500    -999.2500      22.3766       1.6252       1.6399       0.2000       0.2000       0.2000      -0.1500    -999.2500    -999.2500
