#------------------------------------------------------------------------------
#
#   Created by  : [OpenWorks] Log Export Utility (LEXP)
#   Created on  : 2016-05-12 17:01:25
#   Project     : CANT971
#   User        : R5K
#   Interpreter : PEP
#
#------------------------------------------------------------------------------
~VERSION INFORMATION
VERS. 2.0 : CWLS Log ASCII Standard - version 2.0
WRAP.  NO : One line per depth step
~WELL INFORMATION
#MNEMONIC   .UNIT                                           VALUE :DESCRIPTION
#------------------------------------------------------------------------------
STRT        .M                                           310.6675 :START DEPTH
STOP        .M                                          2665.7046 :STOP DEPTH
STEP        .M                                             0.1524 :STEP
NULL        .                                           -999.2500 :NULL VALUE
COMP        .                                   PEMEX EXPL & PROD :COMPANY
WELL        .                                                 77A :WELL
FLD         .                                           CANTARELL :FIELD
LOC         .                                             UNKNOWN :LOCATION
CNTY        .                                      CD. DEL CARMEN :COUNTY
STAT        .                                            CAMPECHE :STATE
CTRY        .                                              MEXICO :COUNTRY
SRVC        .                                             UNKNOWN :SERVICE COMPANY
DATE        .                                             UNKNOWN :LOG DATE
UWI         .                                          3060000181 :UNIQUE WELL ID
XCOORD      .                                       602151.310000 :SURFACE X
YCOORD      .                                      2147165.430000 :SURFACE Y
LAT         .                                           19.417331 :LATITUDE
LON         .                                          -92.027040 :LONGITUDE
ELEV        .M                                            28.1700 :SURFACE ELEV
ELEV_TYPE   .                                                  KB :ELEV TYPE
~CURVE INFORMATION
#MNEMONIC.UNIT        API CODE       : CURVE DESCRIPTION
#------------------------------------------------------------------------------
DEPTH    .M                          : Measured Depth
CALI     .inches      UNKNOWN        : CALI:UNKNOWN:rC:NONE:v0 (auto-composite)
DRHO     .UNKNOWN     UNKNOWN        : DRHO:PETROWORKS:rC:NONE:v1 
DT       .us/ft       UNKNOWN        : DT:DT:rC:NONE:v0 (auto-composite)
GR       .API         UNKNOWN        : GR:UNKNOWN:rC:NONE:v0 (auto-composite)
ILD      .UNKNOWN     UNKNOWN        : ILD:UNKNOWN:rC:NONE:v0 (auto-composite)
LLD      .ohm.m       UNKNOWN        : LLD:UNKNOWN:rC:NONE:v0 (auto-composite)
LLS      .ohm.m       UNKNOWN        : LLS:UNKNOWN:rC:NONE:v0 (auto-composite)
MSFL     .ohm.m       UNKNOWN        : MSFL:UNKNOWN:rC:NONE:v0 (auto-composite)
NPHI     .v/v_decimal UNKNOWN        : NPHI:PETROWORKS:rC:NONE:v1 
RHOB     .UNKNOWN     UNKNOWN        : RHOB:PETROWORKS:rC:NONE:v1 
SP       .UNKNOWN     UNKNOWN        : SP:UNKNOWN:rC:NONE:v0 (auto-composite)
~A     DEPTH         CALI         DRHO           DT           GR          ILD          LLD          LLS         MSFL         NPHI         RHOB           SP
# ...
    318.5923    -999.2500    -999.2500      47.2783    -999.2500    -999.2500    -999.2500    -999.2500    -999.2500       0.5437    -999.2500    -999.2500
    318.7447    -999.2500    -999.2500      55.0601    -999.2500    -999.2500    -999.2500    -999.2500    -999.2500       0.5822    -999.2500    -999.2500
    318.8971    -999.2500    -999.2500      63.2724    -999.2500    -999.2500    -999.2500    -999.2500    -999.2500       0.5978    -999.2500    -999.2500
    319.0495    -999.2500    -999.2500      71.9120    -999.2500    -999.2500    -999.2500    -999.2500    -999.2500       0.5905    -999.2500    -999.2500
    319.2019    -999.2500    -999.2500      78.5814    -999.2500    -999.2500    -999.2500    -999.2500    -999.2500       0.5683    -999.2500    -999.2500
    319.3543    -999.2500    -999.2500      83.2967    -999.2500    -999.2500    -999.2500    -999.2500    -999.2500       0.5311    -999.2500    -999.2500
    319.5067    -999.2500    -999.2500      93.3720    -999.2500    -999.2500    -999.2500    -999.2500    -999.2500       0.5175    -999.2500    -999.2500
    319.6591    -999.2500    -999.2500     108.7645    -999.2500    -999.2500    -999.2500    -999.2500    -999.2500       0.5274    -999.2500    -999.2500
    319.8115    -999.2500    -999.2500     128.8636    -999.2500    -999.2500    -999.2500    -999.2500    -999.2500       0.5308    -999.2500    -999.2500
    319.9639      19.7840    -999.2500     153.6328      26.2680       1.5990    -999.2500    -999.2500    -999.2500       0.5279    -999.2500      81.7090
    320.1163      21.2557      -0.0010     165.9331      27.7923       1.2036    -999.2500    -999.2500    -999.2500       0.5375       1.6620      84.6724
    320.2687      22.7210       0.0066     165.8676      29.3100       0.8100    -999.2500    -999.2500    -999.2500       0.5594       1.5090      87.6230
    320.4211      22.7346       0.0075     161.5796      29.8721       0.7657    -999.2500    -999.2500    -999.2500       0.5689       1.4317      88.9770
    320.5735      22.7480       0.0065     153.1028      30.4260       0.7220    -999.2500    -999.2500    -999.2500       0.5658       1.4040      90.3110
    320.7259      22.7480       0.0085     149.0906      30.1951       0.7352    -999.2500    -999.2500    -999.2500       0.5473       1.3981      91.1277
    320.8783      22.7480       0.0109     149.5081      29.9474       0.7489    -999.2500    -999.2500    -999.2500       0.5134       1.4014      91.9281
    321.0307      22.7480       0.0110     150.5294      28.4726       0.8091    -999.2500    -999.2500    -999.2500       0.4973       1.4015      92.1978
    321.1831      22.7480       0.0100     152.1493      27.0067       0.8674    -999.2500    -999.2500    -999.2500       0.4989       1.4000      92.4675
    321.3355      22.7480       0.0090     156.1902      25.9644       0.8399    -999.2500    -999.2500    -999.2500       0.5028       1.3985      92.7367
    321.4879      22.7480       0.0080     162.6325      24.9713       0.8138    -999.2500    -999.2500    -999.2500       0.5092       1.3972      93.0087
    321.6403      22.7480       0.0070     165.6327      25.8355       0.8428    -999.2500    -999.2500    -999.2500       0.5187       1.3965      93.3862
    321.7927      22.7480       0.0068     165.2177      26.7013       0.8720    -999.2500    -999.2500    -999.2500       0.5314       1.3963      93.7487
    321.9451      22.7480       0.0081     163.9925      27.6168       0.9036    -999.2500    -999.2500    -999.2500       0.5343       1.3965      93.6409
    322.0975      22.7480       0.0151     161.9641      28.4870       0.9355    -999.2500    -999.2500    -999.2500       0.5275       1.4080      93.5311
    322.2499      22.7480       0.0313     158.6560      28.1567       0.9756    -999.2500    -999.2500    -999.2500       0.5128       1.4396      93.3697
    322.4023      22.7480       0.0486     154.0786      27.9453       1.0153    -999.2500    -999.2500    -999.2500       0.4903       1.4859      93.2195
    322.5547      22.7480       0.0599     145.1391      30.4876       1.0464    -999.2500    -999.2500    -999.2500       0.4755       1.5417      93.3273
    322.7071      22.7480       0.0665     131.8717      32.9134       1.0762    -999.2500    -999.2500    -999.2500       0.4683       1.5877      93.4401
    322.8595      22.7480       0.0696     125.7812      32.9640       1.0812    -999.2500    -999.2500    -999.2500       0.4656       1.6084      93.6556
    323.0119      22.7480       0.0697     126.8071      32.9341       1.0863    -999.2500    -999.2500    -999.2500       0.4674       1.6115      93.8628
    323.1643      22.7480       0.0673     129.7491      31.4341       1.0913    -999.2500    -999.2500    -999.2500       0.4715       1.6038      93.9164
    323.3167      22.7480       0.0641     134.5914      30.1146       1.0952    -999.2500    -999.2500    -999.2500       0.4779       1.5909      93.9763
    323.4691      22.7480       0.0613     141.1016      31.7669       1.0806    -999.2500    -999.2500    -999.2500       0.4831       1.5772      94.1382
    323.6215      22.7480       0.0563     149.2663      33.3255       1.0662    -999.2500    -999.2500    -999.2500       0.4871       1.5614      94.3001
    323.7739      22.7480       0.0467     152.9872      33.4785       1.0537    -999.2500    -999.2500    -999.2500       0.4950       1.5427      94.4615
    323.9263      22.7480       0.0382     152.2981      33.6658       1.0418    -999.2500    -999.2500    -999.2500       0.5070       1.5228      94.6193
    324.0787      22.7480       0.0349     150.0844      34.3265       1.0393    -999.2500    -999.2500    -999.2500       0.5081       1.5031      94.7271
    324.2311      22.7480       0.0329     146.3585      34.8834       1.0369    -999.2500    -999.2500    -999.2500       0.4983       1.4836      94.8309
    324.3835      22.7480       0.0292     144.6298      34.1209       1.0348    -999.2500    -999.2500    -999.2500       0.4959       1.4640      94.8851
    324.5359      22.7491       0.0270     144.8822      33.4260       1.0328    -999.2500    -999.2500    -999.2500       0.5010       1.4515      94.9434
    324.6883      22.7626       0.0288     145.6151      33.5277       1.0303    -999.2500    -999.2500    -999.2500       0.5168       1.4509      95.0512
    324.8407      22.7784       0.0305     146.8247      33.5510       1.0274    -999.2500    -999.2500    -999.2500       0.5433       1.4530      95.1545
    324.9931      22.8190       0.0293     148.1372      32.7118       1.0204    -999.2500    -999.2500    -999.2500       0.5536       1.4512      95.2087
    325.1455      22.8536       0.0275     149.5516      31.9132       1.0126    -999.2500    -999.2500    -999.2500       0.5477       1.4465      95.2532
    325.2979      22.8265       0.0270     150.9676      31.5322       0.9965    -999.2500    -999.2500    -999.2500       0.5322       1.4398      95.1991
    325.4503      22.7995       0.0255     152.3850      31.1918       0.9812    -999.2500    -999.2500    -999.2500       0.5072       1.4357      95.1348
    325.6027      22.7724       0.0215     155.4749      31.2424       0.9721    -999.2500    -999.2500    -999.2500       0.4961       1.4374      94.9729
    325.7551      22.7480       0.0173     160.2242      31.4318       0.9634    -999.2500    -999.2500    -999.2500       0.4988       1.4352      94.8110
    325.9075      22.7480       0.0142     160.2027      32.8812       0.9568    -999.2500    -999.2500    -999.2500       0.5112       1.4228      94.6496
    326.0599      22.7480       0.0139     155.4498      34.1125       0.9503    -999.2500    -999.2500    -999.2500       0.5334       1.4113      94.4543
    326.2123      22.7480       0.0170     153.0830      33.4769       0.9438    -999.2500    -999.2500    -999.2500       0.5425       1.4080      93.9690
    326.3647      22.7480       0.0204     153.0830      32.9975       0.9382    -999.2500    -999.2500    -999.2500       0.5386       1.4089      93.4069
