#------------------------------------------------------------------------------
#
#   Created by  : [OpenWorks] Log Export Utility (LEXP)
#   Created on  : 2016-05-23 11:57:25
#   Project     : CANT971
#   User        : R5K
#   Interpreter : PEP
#
#------------------------------------------------------------------------------
~VERSION INFORMATION
VERS. 2.0 : CWLS Log ASCII Standard - version 2.0
WRAP.  NO : One line per depth step
~WELL INFORMATION
#MNEMONIC   .UNIT                                           VALUE :DESCRIPTION
#------------------------------------------------------------------------------
STRT        .M                                           497.5860 :START DEPTH
STOP        .M                                          2904.1343 :STOP DEPTH
STEP        .M                                             0.1524 :STEP
NULL        .                                           -999.2500 :NULL VALUE
COMP        .                                   PEMEX EXPL & PROD :COMPANY
WELL        .                                                 82A :WELL
FLD         .                                           CANTARELL :FIELD
LOC         .                                             UNKNOWN :LOCATION
CNTY        .                                      CD. DEL CARMEN :COUNTY
STAT        .                                            CAMPECHE :STATE
CTRY        .                                              MEXICO :COUNTRY
SRVC        .                                             UNKNOWN :SERVICE COMPANY
DATE        .                                             UNKNOWN :LOG DATE
UWI         .                                          3060000184 :UNIQUE WELL ID
XCOORD      .                                       601716.340000 :SURFACE X
YCOORD      .                                      2142348.150000 :SURFACE Y
LAT         .                                           19.373822 :LATITUDE
LON         .                                          -92.031440 :LONGITUDE
ELEV        .M                                            24.0000 :SURFACE ELEV
ELEV_TYPE   .                                                  KB :ELEV TYPE
~CURVE INFORMATION
#MNEMONIC.UNIT        API CODE       : CURVE DESCRIPTION
#------------------------------------------------------------------------------
DEPTH    .M                          : Measured Depth
CAL      .inches      UNKNOWN        : CAL:UNKNOWN:rC:NONE:v0 (auto-composite)
DRHO     .g/cm3       UNKNOWN        : DRHO:UNKNOWN:rC:NONE:v0 (auto-composite)
DT       .us/ft       UNKNOWN        : DT:DT:rC:NONE:v0 (auto-composite)
GR       .api         UNKNOWN        : GR:GR-Load:rC:NONE:v0 (auto-composite)
ILD      .ohm.m       UNKNOWN        : ILD:PETROWORKS:rC:NONE:v1 
LLD      .ohmm        UNKNOWN        : LLD:UNKNOWN:rC:NONE:v0 (auto-composite)
LLS      .ohmm        UNKNOWN        : LLS:UNKNOWN:rC:NONE:v0 (auto-composite)
MSFL     .ohmm        UNKNOWN        : MSFL:PETROWORKS:rC:NONE:v1 
NPHI     .v/v_decimal UNKNOWN        : NPHI:NPHI:rC:NONE:v0 (auto-composite)
PEF      .b/elec      UNKNOWN        : PEF:UNKNOWN:rC:NONE:v0 (auto-composite)
RG       .API         UNKNOWN        : RG:UNKNOWN:rC:NONE:v0 (auto-composite)
RHOB     .g/cm3       UNKNOWN        : RHOB:UNKNOWN:rC:NONE:v0 (auto-composite)
~A     DEPTH          CAL         DRHO           DT           GR          ILD          LLD          LLS         MSFL         NPHI          PEF           RG         RHOB
# ...
   1821.6372       8.3877      -0.4663    -999.2500      20.9362      23.1197       0.2000       0.2000       4.8020      10.6267       3.7042      21.0204       2.9175
   1821.7896       8.3897      -0.4670    -999.2500      20.7792      21.8242       0.2000       0.2000       4.3960      10.6087       3.2344      21.4555       2.9067
   1821.9420       8.3912      -0.4710    -999.2500      20.9452      20.1477       0.2000       0.2000       4.1895      11.0463       2.4735      20.7766       2.8857
   1822.0944       8.3903      -0.4742    -999.2500      21.5507      17.6700       0.2000       0.2000       4.4568      12.5789       2.2374      20.7400       2.8665
   1822.2468       8.3868      -0.4767    -999.2500      22.5527      15.5141       0.2000       0.2000       4.6594      13.8956       2.5518      21.3772       2.8490
   1822.3992       8.3850      -0.4778    -999.2500      23.2396      14.2726       0.2000       0.2000       4.6995      14.6954       2.8167      22.0591       2.8256
   1822.5516       8.3850      -0.4773    -999.2500      23.6420      12.9583       0.2000       0.2000       4.8696      15.4970       3.0295      22.7880       2.7962
   1822.7040       8.3852      -0.4802    -999.2500      24.4573      11.5574       0.2000       0.2000       5.3271      16.3028       3.5009      23.4837       2.7730
   1822.8564       8.3857      -0.4866    -999.2500      25.6453      10.2164       0.2000       0.2000       5.3839      17.3292       4.2463      24.1441       2.7565
   1823.0088       8.3867      -0.4936    -999.2500      26.2685       9.1085       0.2000       0.2000       4.5188      18.8803       4.3234      24.8947       2.7398
   1823.1613       8.3882      -0.5011    -999.2500      26.3835       8.2117       0.2000       0.2000       3.8470      20.2247       3.6877      25.7413       2.7228
   1823.3136       8.3890      -0.5048    -999.2500      26.7979       7.8811       0.2000       0.2000       3.6604      21.0795       3.2948      26.3720       2.7068
   1823.4659       8.3890      -0.5043    -999.2500      27.4819       7.5585       0.2000       0.2000       3.3265      21.4783       3.1619      26.7717       2.6918
   1823.6184       8.3878      -0.5064    -999.2500      26.7214       7.2768       0.2000       0.2000       2.6783      20.8006       3.4158      26.9453       2.6749
   1823.7708       8.3853      -0.5114    -999.2500      24.6601       7.0412       0.2000       0.2000       4.6345      20.6146       4.0865      26.8754       2.6559
   1823.9232       8.3833      -0.5128    -999.2500      23.5048       6.9318       0.2000       0.2000      12.3900      21.5854       3.8997      26.0279       2.6515
   1824.0756       8.3818      -0.5103    -999.2500      23.1628       6.9719       0.2000       0.2000      15.7485      22.6584       2.7857      24.3398       2.6630
   1824.2280       8.3803      -0.5052    -999.2500      22.5287       7.3685       0.2000       0.2000       8.9131      23.9709       2.5491      23.2291       2.6836
   1824.3804       8.3788      -0.4972    -999.2500      21.6322       7.8191       0.2000       0.2000       3.8647      24.6851       3.2678      22.7468       2.7141
   1824.5328       8.3778      -0.4928    -999.2500      21.3769       8.3696       0.2000       0.2000       3.1853      24.0016       3.4945      22.2292       2.7300
   1824.6852       8.3773      -0.4923    -999.2500      21.6975       8.9909       0.2000       0.2000       2.7079      23.4407       3.1837      21.6732       2.7300
   1824.8376       8.3775      -0.4922    -999.2500      21.3595       9.7408       0.2000       0.2000       2.7174      23.1661       3.1642      21.3806       2.7288
   1824.9900       8.3785      -0.4927    -999.2500      20.4315      10.4659       0.2000       0.2000       2.8737      22.5465       3.4650      21.3776       2.7263
   1825.1425       8.3809      -0.4944    -999.2500      20.6217      11.0827       0.2000       0.2000       3.3510      21.1235       3.6657      21.1193       2.7250
   1825.2948       8.3849      -0.4974    -999.2500      21.8137      11.6780       0.2000       0.2000       4.0076      19.7577       3.7557      20.5786       2.7250
   1825.4471       8.3863      -0.5007    -999.2500      22.7494      12.1820       0.2000       0.2000       5.0252      18.5247       3.4399      20.9512       2.7257
   1825.5996       8.3848      -0.5042    -999.2500      23.4564      12.6122       0.2000       0.2000       5.3547      17.6860       2.6736      22.3386       2.7272
   1825.7520       8.3835      -0.5055    -999.2500      23.5444      12.8364       0.2000       0.2000       4.1202      17.7591       2.3301      23.1845       2.7266
   1825.9044       8.3825      -0.5045    -999.2500      23.0794      12.8986       0.2000       0.2000       3.0462      17.7010       2.4596      23.4249       2.7236
   1826.0568       8.3827      -0.5026    -999.2500      22.5238      12.5670       0.2000       0.2000       2.3995      17.3409       2.6838      23.3051       2.7357
   1826.2092       8.3842      -0.4996    -999.2500      21.8870      12.0008       0.2000       0.2000       2.0412      17.1455       3.0146      22.7810       2.7646
   1826.3616       8.3838      -0.5003    -999.2500      22.6713      10.9082       0.2000       0.2000       2.3492      17.3286       3.3179      22.4159       2.7779
   1826.5140       8.3813      -0.5053    -999.2500      24.7218       9.9444       0.2000       0.2000       2.3816      17.7476       3.5903      22.2305       2.7734
   1826.6664       8.3786      -0.5052    -999.2500      26.3812       9.3549       0.2000       0.2000       1.7983      18.7065       3.9776      23.2482       2.7762
   1826.8188       8.3756      -0.4992    -999.2500      27.6921       8.8894       0.2000       0.2000       1.3842      19.8178       4.4951      25.6297       2.7871
   1826.9712       8.3756      -0.4923    -999.2500      27.6280       8.7538       0.2000       0.2000       1.3724      21.2768       4.6683      27.0806       2.7986
   1827.1237       8.3791      -0.4843    -999.2500      26.3380       8.4874       0.2000       0.2000       1.5740      22.1127       4.4484      27.4694       2.8106
   1827.2760       8.3805      -0.4788    -999.2500      25.2606       7.9240       0.2000       0.2000       2.2360      21.5325       4.1421      27.0948       2.8098
   1827.4283       8.3795      -0.4763    -999.2500      24.3721       7.2170       0.2000       0.2000       2.6560      21.1824       3.7370      25.8458       2.7943
   1827.5808       8.3755      -0.4759    -999.2500      25.6718       6.2111       0.2000       0.2000       2.5144      21.3534       3.7541      25.0904       2.7825
   1827.7332       8.3680      -0.4779    -999.2500      28.9167       5.2398       0.2000       0.2000       2.4486      21.9919       4.2582      24.9041       2.7750
   1827.8856       8.3656      -0.4804    -999.2500      32.5281       4.4171       0.2000       0.2000       2.5540      23.6896       4.3328      26.7197       2.7654
   1828.0380       8.3691      -0.4834    -999.2500      36.4656       3.7104       0.2000       0.2000       2.5876      25.6963       3.9090      30.8590       2.7535
   1828.1904       8.3685      -0.4887    -999.2500      37.5355       3.3307       0.2000       0.2000       2.4608      28.4008       3.6775      34.2111       2.7375
   1828.3428       8.3630      -0.4967    -999.2500      36.0631       2.9951       0.2000       0.2000       2.3331      30.9344       3.6700      36.6466       2.7171
   1828.4952       8.3609      -0.5010    -999.2500      34.5636       2.7882       0.2000       0.2000       2.2113      33.0837       3.6658      37.1370       2.6940
   1828.6476       8.3629      -0.5010    -999.2500      33.0401       2.6103       0.2000       0.2000       2.1376      33.5850       3.6653      35.3467       2.6680
   1828.8000       8.3663      -0.5003    -999.2500      32.6885       2.5142       0.2000       0.2000       2.1737      30.3918       3.3173      33.9261       2.6570
