#------------------------------------------------------------------------------
#
#   Created by  : [OpenWorks] Log Export Utility (LEXP)
#   Created on  : 2016-05-11 12:45:43
#   Project     : CANT971
#   User        : R5K
#   Interpreter : PEP
#
#------------------------------------------------------------------------------
~VERSION INFORMATION
VERS. 2.0 : CWLS Log ASCII Standard - version 2.0
WRAP.  NO : One line per depth step
~WELL INFORMATION
#MNEMONIC   .UNIT                                           VALUE :DESCRIPTION
#------------------------------------------------------------------------------
STRT        .M                                            80.3144 :START DEPTH
STOP        .M                                          1350.4160 :STOP DEPTH
STEP        .M                                             0.1524 :STEP
NULL        .                                           -999.2500 :NULL VALUE
COMP        .                                   PEMEX EXPL & PROD :COMPANY
WELL        .                                         CANTARELL-3 :WELL
FLD         .                                           CANTARELL :FIELD
LOC         .                                             UNKNOWN :LOCATION
CNTY        .                                      CD. DEL CARMEN :COUNTY
STAT        .                                            CAMPECHE :STATE
CTRY        .                                              MEXICO :COUNTRY
SRVC        .                                             UNKNOWN :SERVICE COMPANY
DATE        .                                             UNKNOWN :LOG DATE
UWI         .                                          3060000139 :UNIQUE WELL ID
XCOORD      .                                       600825.370000 :SURFACE X
YCOORD      .                                      2145118.460000 :SURFACE Y
LAT         .                                           19.398901 :LATITUDE
LON         .                                          -92.039777 :LONGITUDE
ELEV        .M                                            27.7000 :SURFACE ELEV
ELEV_TYPE   .                                                  KB :ELEV TYPE
~CURVE INFORMATION
#MNEMONIC.UNIT        API CODE       : CURVE DESCRIPTION
#------------------------------------------------------------------------------
DEPTH    .M                          : Measured Depth
CALI     .inches      UNKNOWN        : CALI:Import:rC:NONE:v0 (auto-composite)
DRHO     .g/cm3       UNKNOWN        : DRHO:Import:rC:NONE:v0 (auto-composite)
DT       .us/ft       UNKNOWN        : DT:Import:rC:NONE:v0 (auto-composite)
GR       .API         UNKNOWN        : GR:Import:rC:NONE:v0 (auto-composite)
ILD      .ohm.m       UNKNOWN        : ILD:Import:rC:NONE:v0 (auto-composite)
NPHI     .v/v_decimal UNKNOWN        : NPHI:Import:rC:NONE:v0 (auto-composite)
RHOB     .g/cm3       UNKNOWN        : RHOB:Import:rC:NONE:v0 (auto-composite)
SP       .mV          UNKNOWN        : SP:Import:rC:NONE:v0 (auto-composite)
~A     DEPTH         CALI         DRHO           DT           GR          ILD         NPHI         RHOB           SP
# ...
    238.0484      15.7210       0.0760     161.1721    -999.2500    -999.2500    -999.2500       1.8480    -999.2500
    238.2008      15.5297       0.0760     158.6790    -999.2500    -999.2500    -999.2500       1.8550    -999.2500
    238.3532      15.3380       0.0760     156.3672    -999.2500    -999.2500    -999.2500       1.8620    -999.2500
    238.5056      15.1057       0.0705     154.0570    -999.2500    -999.2500    -999.2500       1.8685    -999.2500
    238.6580      14.8730       0.0650     148.9594    -999.2500    -999.2500    -999.2500       1.8750    -999.2500
    238.8104      14.9165       0.0405     143.8650    -999.2500    -999.2500    -999.2500       1.8775    -999.2500
    238.9628      14.9600       0.0160     133.7009    -999.2500    -999.2500    -999.2500       1.8800    -999.2500
    239.1152      15.1099       0.0170     123.5430    -999.2500    -999.2500    -999.2500       1.8890    -999.2500
    239.2676      15.2600       0.0180     115.7203    -999.2500    -999.2500    -999.2500       1.8980    -999.2500
    239.4200      15.3319       0.0240     107.9030    -999.2500    -999.2500    -999.2500       1.8970    -999.2500
    239.5724      15.4040       0.0300     109.1489    -999.2500    -999.2500    -999.2500       1.8960    -999.2500
    239.7248      15.4719       0.0490     110.3940    -999.2500    -999.2500    -999.2500       1.8900    -999.2500
    239.8772      15.5400       0.0680     118.4210    -999.2500    -999.2500    -999.2500       1.8840    -999.2500
    240.0296      15.6209       0.0680     126.4430    -999.2500    -999.2500    -999.2500       1.8765    -999.2500
    240.1820      15.7020       0.0680     143.8472    -999.2500    -999.2500    -999.2500       1.8690    -999.2500
    240.3344      15.7849       0.0670     161.2390    -999.2500    -999.2500    -999.2500       1.8630    -999.2500
    240.4868      15.8680       0.0660     154.5377    -999.2500    -999.2500    -999.2500       1.8570    -999.2500
    240.6392      16.0289       0.0660     147.8410    -999.2500    -999.2500    -999.2500       1.8500    -999.2500
    240.7916      16.1900       0.0660     148.1986    -999.2500    -999.2500    -999.2500       1.8430    -999.2500
    240.9440      16.0686       0.0670     148.5560    -999.2500    -999.2500    -999.2500       1.8370    -999.2500
    241.0964      15.9470       0.0680     149.7915    -999.2500    -999.2500    -999.2500       1.8310    -999.2500
    241.2488      15.9550       0.0660     151.0260    -999.2500    -999.2500    -999.2500       1.8230    -999.2500
    241.4012      15.9630       0.0640     151.6527    -999.2500    -999.2500    -999.2500       1.8150    -999.2500
    241.5536      16.0579       0.0570     152.2790    -999.2500    -999.2500    -999.2500       1.8155    -999.2500
    241.7060      16.1530       0.0500     152.9502    -999.2500    -999.2500    -999.2500       1.8160    -999.2500
    241.8584      16.4318       0.0505     153.6210    -999.2500    -999.2500    -999.2500       1.8175    -999.2500
    242.0108      16.7110       0.0510     154.6913    -999.2500    -999.2500    -999.2500       1.8190    -999.2500
    242.1632      16.9383       0.0520     155.7610    -999.2500    -999.2500    -999.2500       1.8210    -999.2500
    242.3156      17.1660       0.0530     158.3603    -999.2500    -999.2500    -999.2500       1.8230    -999.2500
    242.4680      17.3024       0.0520     160.9580    -999.2500    -999.2500    -999.2500       1.8280    -999.2500
    242.6204      17.4390       0.0510     166.1403    -999.2500    -999.2500    -999.2500       1.8330    -999.2500
    242.7728      17.4110       0.0445     171.3190    -999.2500    -999.2500    -999.2500       1.8330    -999.2500
    242.9252      17.3830       0.0380     170.4122    -999.2500    -999.2500    -999.2500       1.8330    -999.2500
    243.0776      17.1242       0.0385     169.5060    -999.2500    -999.2500    -999.2500       1.8320    -999.2500
    243.2300      16.8650       0.0390     165.5817    -999.2500    -999.2500    -999.2500       1.8310    -999.2500
    243.3824      16.8655       0.0420     161.6600    -999.2500    -999.2500    -999.2500       1.8295    -999.2500
    243.5348      16.8660       0.0450     155.3952    -999.2500    -999.2500    -999.2500       1.8280    -999.2500
    243.6872      16.9085       0.0440     149.1350    -999.2500    -999.2500    -999.2500       1.8250    -999.2500
    243.8396      16.9510       0.0430     149.9368    -999.2500    -999.2500    -999.2500       1.8220    -999.2500
    243.9920      17.0864       0.0450     150.7380    -999.2500    -999.2500    -999.2500       1.8100    -999.2500
    244.1444      17.2220       0.0470     150.6755    -999.2500    -999.2500    -999.2500       1.7980    -999.2500
    244.2968      17.2565       0.0560     150.6130    -999.2500    -999.2500    -999.2500       1.8005    -999.2500
    244.4492      17.2910       0.0650     151.0412    -999.2500    -999.2500    -999.2500       1.8030    -999.2500
    244.6016      17.3499       0.0715     151.4690    -999.2500    -999.2500    -999.2500       1.8030    -999.2500
    244.7540      17.4090       0.0780     153.7973    -999.2500    -999.2500    -999.2500       1.8030    -999.2500
    244.9064      17.3950       0.0805     156.1240    -999.2500    -999.2500    -999.2500       1.8015    -999.2500
    245.0588      17.3810       0.0830     159.8433    -999.2500    -999.2500    -999.2500       1.8000    -999.2500
    245.2112      17.3300       0.0835     163.5600    -999.2500    -999.2500    -999.2500       1.8005    -999.2500
    245.3636      17.2790       0.0840     165.5567    -999.2500    -999.2500    -999.2500       1.8010    -999.2500
    245.5160      17.2330       0.0840     167.5520    -999.2500    -999.2500    -999.2500       1.8035    -999.2500
    245.6684      17.1870       0.0840     171.0451    -999.2500    -999.2500    -999.2500       1.8060    -999.2500
    245.8208      17.0421       0.0825     174.5360    -999.2500    -999.2500    -999.2500       1.8075    -999.2500
    245.9732      16.8970       0.0810     174.4805    -999.2500    -999.2500    -999.2500       1.8090    -999.2500
    246.1256      16.5418       0.0725     174.4250    -999.2500    -999.2500    -999.2500       1.8115    -999.2500
    246.2780      16.1860       0.0640     174.0083    -999.2500    -999.2500    -999.2500       1.8140    -999.2500
    246.4304      15.9077       0.0640     173.5920    -999.2500    -999.2500    -999.2500       1.8130    -999.2500
    246.5828      15.6290       0.0640     172.4696    -999.2500    -999.2500    -999.2500       1.8120    -999.2500
    246.7352      15.5526       0.0650     171.3480    -999.2500    -999.2500    -999.2500       1.8130    -999.2500
    246.8876      15.4760       0.0660     168.8136    -999.2500    -999.2500    -999.2500       1.8140    -999.2500
    247.0400      15.4191       0.0715     166.2810    -999.2500    -999.2500    -999.2500       1.8185    -999.2500
    247.1924      15.3620       0.0770     161.5258    -999.2500    -999.2500    -999.2500       1.8230    -999.2500
    247.3448      15.2901       0.0765     156.7740    -999.2500    -999.2500    -999.2500       1.8220    -999.2500
    247.4972      15.2180       0.0760     155.3150    -999.2500    -999.2500    -999.2500       1.8210    -999.2500
    247.6496      15.0626       0.0730     153.8570    -999.2500    -999.2500    -999.2500       1.8220    -999.2500
    247.8020      14.9070       0.0700     153.4824    -999.2500    -999.2500    -999.2500       1.8230    -999.2500
    247.9544      14.9265       0.0660     153.1080    -999.2500    -999.2500    -999.2500       1.8215    -999.2500
    248.1068      14.9460       0.0620     150.1724    -999.2500    -999.2500    -999.2500       1.8200    -999.2500
    248.2592      15.1398       0.0620     147.2390    -999.2500    -999.2500    -999.2500       1.8205    -999.2500
    248.4116      15.3340       0.0620     136.0325    -999.2500    -999.2500    -999.2500       1.8210    -999.2500
