#------------------------------------------------------------------------------
#
#   Created by  : [OpenWorks] Log Export Utility (LEXP)
#   Created on  : 2016-05-23 11:56:16
#   Project     : CANT971
#   User        : R5K
#   Interpreter : PEP
#
#------------------------------------------------------------------------------
~VERSION INFORMATION
VERS. 2.0 : CWLS Log ASCII Standard - version 2.0
WRAP.  NO : One line per depth step
~WELL INFORMATION
#MNEMONIC   .UNIT                                           VALUE :DESCRIPTION
#------------------------------------------------------------------------------
STRT        .M                                           785.0543 :START DEPTH
STOP        .M                                          3464.0940 :STOP DEPTH
STEP        .M                                             0.1524 :STEP
NULL        .                                           -999.2500 :NULL VALUE
COMP        .                                   PEMEX EXPL & PROD :COMPANY
WELL        .                                                448D :WELL
FLD         .                                           CANTARELL :FIELD
LOC         .                                             UNKNOWN :LOCATION
CNTY        .                                      CD. DEL CARMEN :COUNTY
STAT        .                                            CAMPECHE :STATE
CTRY        .                                              MEXICO :COUNTRY
SRVC        .                                             UNKNOWN :SERVICE COMPANY
DATE        .                                             UNKNOWN :LOG DATE
UWI         .                                          3060000822 :UNIQUE WELL ID
XCOORD      .                                       598710.240000 :SURFACE X
YCOORD      .                                      2143307.000000 :SURFACE Y
LAT         .                                           19.382637 :LATITUDE
LON         .                                          -92.060012 :LONGITUDE
ELEV        .M                                            28.0000 :SURFACE ELEV
ELEV_TYPE   .                                                  KB :ELEV TYPE
~CURVE INFORMATION
#MNEMONIC.UNIT        API CODE       : CURVE DESCRIPTION
#------------------------------------------------------------------------------
DEPTH    .M                          : Measured Depth
CALI     .inches      UNKNOWN        : CALI:registros:rC:NONE:v0 (auto-composite)
DRHO     .g/cm3       UNKNOWN        : DRHO:registros:rC:NONE:v0 (auto-composite)
DT       .us/ft       UNKNOWN        : DT:registros:rC:NONE:v0 (auto-composite)
GR       .API         UNKNOWN        : GR:registros:rC:NONE:v0 (auto-composite)
LLD      .ohm.m       UNKNOWN        : LLD:registros:rC:NONE:v0 (auto-composite)
LLS      .ohm.m       UNKNOWN        : LLS:registros:rC:NONE:v0 (auto-composite)
MSFL     .ohm.m       UNKNOWN        : MSFL:registros:rC:NONE:v0 (auto-composite)
NPHI     .v/v_decimal UNKNOWN        : NPHI:registros:rC:NONE:v0 (auto-composite)
PEF      .b/elec      UNKNOWN        : PEF:registros:rC:NONE:v0 (auto-composite)
RHOB     .g/cm3       UNKNOWN        : RHOB:registros:rC:NONE:v0 (auto-composite)
~A     DEPTH         CALI         DRHO           DT           GR          LLD          LLS         MSFL         NPHI          PEF         RHOB
# ...
   3063.7390      16.7172       0.0067      52.2057      40.8540     166.1439     118.2458     174.2702       0.0258       3.7996       2.8012
   3063.8916      16.7575       0.0079      52.9449      36.6226     159.1399     112.9441     181.6738       0.0277       3.8046       2.7777
   3064.0439      16.9638       0.0064      53.9010      29.2491     195.0220     128.1415     223.7483       0.0273       3.7492       2.7715
   3064.1963      17.3258       0.0051      52.8024      25.8464     187.0318     122.9090     648.7499       0.0298       3.6578       2.7852
   3064.3486      17.6817       0.0041      50.8459      27.0898     186.8689     121.3858     821.9243       0.0280       3.5638       2.8054
   3064.5012      17.7500       0.0029      50.2526      27.7081     212.3990     130.0117     924.7348       0.0232       3.5396       2.8246
   3064.6536      17.7548       0.0022      51.0392      24.5492     215.2527     129.6344    1343.7216       0.0171       3.5755       2.8248
   3064.8059      17.7561       0.0046      52.6955      20.2601     240.4966     134.3208     609.3614       0.0173       3.4546       2.8004
   3064.9583      17.4471       0.0014      53.0711      18.4151     275.2807     145.3713    1839.8580       0.0271       3.4710       2.7673
   3065.1108      17.3800       0.0054      51.4222      18.7240     276.6328     147.2935    1363.1418       0.0340       3.4124       2.7640
   3065.2632      17.5165       0.0101      48.6377      19.8932     282.1634     146.1843     506.3041       0.0390       3.4775       2.7792
   3065.4155      17.5768       0.0126      47.9487      20.1864     289.7067     143.3388     450.7756       0.0357       3.4098       2.8095
   3065.5679      17.5759       0.0099      50.7679      21.4710     331.0824     151.8656     733.0027       0.0384       3.5402       2.8222
   3065.7202      17.5720       0.0111      52.2699      19.5278     375.5808     163.0614     850.6736       0.0356       3.7500       2.8422
   3065.8728      17.5578       0.0064      52.6498      19.0254     384.5908     166.6453    1110.8619       0.0276       3.9417       2.8313
   3066.0251      17.5025       0.0023      52.7647      17.7232     396.9857     171.6399     569.7460       0.0242       4.0338       2.8165
   3066.1775      17.5435      -0.0012      52.8793      18.6344     434.1476     179.6431     222.9909       0.0223       3.8005       2.8065
   3066.3298      17.7489      -0.0030      53.6804      21.4023     407.9532     173.8195     249.7395       0.0254       3.5808       2.7959
   3066.4824      18.0491       0.0009      55.2738      26.6799     346.7037     162.9994     362.8289       0.0280       3.5533       2.7846
   3066.6348      17.7599       0.0049      56.8569      28.7605     342.3695     164.4154     296.0541       0.0361       3.7404       2.7591
   3066.7871      17.4945       0.0083      57.4129      28.7570     301.1746     154.0325     118.5745       0.0457       3.9261       2.7376
   3066.9395      17.5004       0.0121      57.8397      29.9553     216.0807     125.4961      79.6228       0.0577       3.9347       2.7216
   3067.0920      17.4563       0.0172      56.8240      32.0370     183.9483     112.6499      71.0902       0.0625       3.9492       2.7253
   3067.2444      17.2852       0.0140      56.9532      32.5969     181.7803     111.3779      81.1356       0.0687       3.8032       2.7306
   3067.3967      16.9415       0.0112      57.4679      30.0374     154.6367      98.3722      85.3965       0.0708       3.7279       2.7314
   3067.5491      16.7844       0.0097      56.4751      28.4570     153.4973      96.3486     137.8366       0.0703       3.6701       2.7247
   3067.7014      16.7204       0.0068      55.7108      25.2496     174.4800     106.0244     197.4944       0.0623       3.7116       2.7054
   3067.8540      16.7207       0.0058      55.2840      21.4668     174.0352     104.7022     185.3114       0.0491       3.6628       2.6965
   3068.0063      16.6931       0.0104      57.6817      18.0771     212.1192     118.1066     322.7343       0.0399       3.5565       2.7084
   3068.1587      16.6256       0.0137      59.3957      18.0657     276.4574     142.4529     166.2720       0.0355       3.5453       2.7378
   3068.3110      16.8240       0.0201      58.9706      19.1688     258.6444     136.2875     169.9729       0.0331       3.5326       2.7660
   3068.4636      17.1420       0.0266      58.5622      19.2521     230.5157     127.3030     170.0765       0.0347       3.5796       2.7707
   3068.6160      16.9183       0.0219      59.3018      20.2046     215.8959     123.8031     223.6052       0.0390       3.5641       2.7489
   3068.7683      16.8323       0.0186      62.5032      20.7414     184.0885     110.7163     303.4913       0.0516       3.6385       2.7316
   3068.9207      16.8290       0.0237      69.4555      23.7514     181.0621     109.1702     114.1952       0.0744       3.7189       2.7318
   3069.0732      16.7800       0.0246      73.6004      27.7096     170.9987     104.1946      62.6303       0.0955       3.9055       2.7104
   3069.2256      16.4590       0.0349      73.0278      30.8583     148.9326      92.8076      68.7612       0.1093       4.0833       2.6677
   3069.3779      16.0248       0.0353      71.1019      30.8571     139.1069      86.7126      73.1790       0.1170       4.0664       2.6229
   3069.5303      16.5836       0.0432      70.5453      28.2082     135.0363      84.8783      45.4801       0.1213       3.8906       2.6121
   3069.6826      17.7877       0.0455      70.2404      29.7685     131.6511      85.6491      44.7529       0.1237       3.9862       2.6329
   3069.8352      18.1569       0.0372      65.8361      32.0863     121.3427      80.7695      49.1602       0.1272       4.1237       2.6358
   3069.9875      18.1712       0.0090      59.7801      32.8959     116.0147      76.1843      78.5046       0.1245       4.2580       2.6002
   3070.1399      17.4432       0.0033      57.6899      30.5590     117.9981      75.8175     116.9881       0.1254       4.0490       2.5799
   3070.2922      15.5511      -0.0025      58.1950      29.1779     122.7938      78.2005     140.5607       0.1264       3.9408       2.5892
   3070.4448      15.5331       0.0008      59.6608      30.3927     129.8560      81.6693      64.1632       0.1233       3.7150       2.6112
   3070.5972      15.6896       0.0006      61.4683      31.3731     140.9727      87.6549      40.5417       0.1228       3.4802       2.6058
   3070.7495      15.7261      -0.0032      64.5518      32.0541     135.2628      85.8535      45.8610       0.1323       3.2514       2.5781
   3070.9019      15.7753      -0.0062      64.6142      32.4405     125.4890      80.9909      61.8234       0.1448       3.3516       2.5715
   3071.0542      15.7913       0.0014      65.9950      33.3353     120.0685      78.3336      94.8764       0.1446       3.6414       2.6036
   3071.2068      15.7013       0.0103      63.4977      34.1170     118.0833      77.1591     144.3849       0.1395       3.8508       2.6357
   3071.3591      15.5834       0.0260      63.3236      35.2650     122.4293      79.3543      88.6789       0.1333       3.8070       2.6495
   3071.5115      15.6544       0.0243      65.3082      34.7729     119.1919      77.9911      47.3262       0.1279       3.6346       2.6304
   3071.6638      15.7234       0.0214      66.8156      35.0464     112.8452      74.5218      37.8275       0.1255       3.6413       2.5907
   3071.8164      15.7703       0.0243      66.8858      34.6488     101.4576      67.4682      26.3414       0.1298       3.6967       2.5559
   3071.9688      15.7781       0.0376      67.0265      36.2801      91.7181      62.3751      32.0178       0.1560       3.7184       2.5070
   3072.1211      15.7086       0.0443      66.6249      38.1943      87.2222      59.4041      49.3032       0.1814       3.6486       2.4442
