#------------------------------------------------------------------------------
#
#   Created by  : [OpenWorks] Log Export Utility (LEXP)
#   Created on  : 2016-05-23 11:56:43
#   Project     : CANT971
#   User        : R5K
#   Interpreter : PEP
#
#------------------------------------------------------------------------------
~VERSION INFORMATION
VERS. 2.0 : CWLS Log ASCII Standard - version 2.0
WRAP.  NO : One line per depth step
~WELL INFORMATION
#MNEMONIC   .UNIT                                           VALUE :DESCRIPTION
#------------------------------------------------------------------------------
STRT        .M                                           650.2150 :START DEPTH
STOP        .M                                          2618.6135 :STOP DEPTH
STEP        .M                                             0.1524 :STEP
NULL        .                                           -999.2500 :NULL VALUE
COMP        .                                   PEMEX EXPL & PROD :COMPANY
WELL        .                                                  4D :WELL
FLD         .                                           CANTARELL :FIELD
LOC         .                                             UNKNOWN :LOCATION
CNTY        .                                      CD. DEL CARMEN :COUNTY
STAT        .                                            CAMPECHE :STATE
CTRY        .                                              MEXICO :COUNTRY
SRVC        .                                             UNKNOWN :SERVICE COMPANY
DATE        .                                             UNKNOWN :LOG DATE
UWI         .                                          3060000662 :UNIQUE WELL ID
XCOORD      .                                       598468.500000 :SURFACE X
YCOORD      .                                      2145023.700000 :SURFACE Y
LAT         .                                           19.398162 :LATITUDE
LON         .                                          -92.062225 :LONGITUDE
ELEV        .M                                            26.5400 :SURFACE ELEV
ELEV_TYPE   .                                                  KB :ELEV TYPE
~CURVE INFORMATION
#MNEMONIC.UNIT        API CODE       : CURVE DESCRIPTION
#------------------------------------------------------------------------------
DEPTH    .M                          : Measured Depth
CAL      .inches      UNKNOWN        : CAL:UNKNOWN:rC:NONE:v0 (auto-composite)
CGR      .UNKNOWN     UNKNOWN        : CGR:UNKNOWN:rC:NONE:v0 (auto-composite)
DRHO     .UNKNOWN     UNKNOWN        : DRHO:UNKNOWN:rC:NONE:v0 (auto-composite)
DT       .us/ft       UNKNOWN        : DT:DT:rC:NONE:v0 (auto-composite)
GR       .API         UNKNOWN        : GR:UNKNOWN:rC:NONE:v0 (auto-composite)
ILD      .UNKNOWN     UNKNOWN        : ILD:UNKNOWN:rC:NONE:v0 (auto-composite)
ILM      .UNKNOWN     UNKNOWN        : ILM:UNKNOWN:rC:NONE:v0 (auto-composite)
LLD      .UNKNOWN     UNKNOWN        : LLD:UNKNOWN:rC:NONE:v0 (auto-composite)
LLS      .UNKNOWN     UNKNOWN        : LLS:UNKNOWN:rC:NONE:v0 (auto-composite)
MSFL     .UNKNOWN     UNKNOWN        : MSFL:UNKNOWN:rC:NONE:v0 (auto-composite)
NPHI     .v/v_decimal UNKNOWN        : NPHI:PETROWORKS:rC:NONE:v1 
PEF      .UNKNOWN     UNKNOWN        : PEF:UNKNOWN:rC:NONE:v0 (auto-composite)
POTA     .UNKNOWN     UNKNOWN        : POTA:UNKNOWN:rC:NONE:v0 (auto-composite)
RHOB     .UNKNOWN     UNKNOWN        : RHOB:UNKNOWN:rC:NONE:v0 (auto-composite)
THOR     .UNKNOWN     UNKNOWN        : THOR:UNKNOWN:rC:NONE:v0 (auto-composite)
URAN     .UNKNOWN     UNKNOWN        : URAN:UNKNOWN:rC:NONE:v0 (auto-composite)
~A     DEPTH          CAL          CGR         DRHO           DT           GR          ILD          ILM          LLD          LLS         MSFL         NPHI          PEF         POTA         RHOB         THOR         URAN
# ...
   2533.5742       6.7703      10.1378       0.0366      52.8230      23.1551    -999.2500    -999.2500     373.8174     255.6892      13.6949       0.0487       3.4212       0.0036       2.7899       1.2559       1.5478
   2533.7266       6.8511      10.6802       0.0423      54.4531      23.8831    -999.2500    -999.2500     411.1933     275.2709      13.8225       0.0475       3.2211       0.0039       2.7936       1.2974       1.5706
   2533.8789       6.7525       9.9879       0.0443      53.5868      22.6781    -999.2500    -999.2500     458.0721     305.1364      79.7358       0.0482       3.3786       0.0034       2.7911       1.0998       1.5096
   2534.0315       6.6601       9.0969       0.0444      52.7398      21.3921    -999.2500    -999.2500     497.6081     331.1022     125.4597       0.0498       3.5278       0.0031       2.7866       0.8814       1.4687
   2534.1838       6.5972       7.2422       0.0349      51.9857      19.7216    -999.2500    -999.2500     501.5394     338.3701      73.2847       0.0537       3.6368       0.0036       2.7726       0.5620       1.5251
   2534.3362       6.5840       5.8091       0.0269      51.0448      18.6307    -999.2500    -999.2500     484.8252     331.3989      49.6416       0.0580       3.7305       0.0038       2.7607       0.3239       1.5880
   2534.4885       6.8111       6.4328       0.0264      49.2031      20.3355    -999.2500    -999.2500     367.3879     255.7404     165.1968       0.0629       3.7510       0.0028       2.7592       0.4819       1.6820
   2534.6411       6.9845       6.9859       0.0265      48.0922      21.8475    -999.2500    -999.2500     264.8233     189.1620     239.0578       0.0676       3.7893       0.0021       2.7537       0.6213       1.7680
   2534.7935       6.9006       7.1964       0.0295      50.4881      22.4241    -999.2500    -999.2500     234.4404     166.1580     110.5647       0.0711       3.9127       0.0026       2.7287       0.6698       1.8150
   2534.9458       6.8372       6.9781       0.0357      52.9576      22.4619    -999.2500    -999.2500     212.0054     149.7591       4.6445       0.0749       4.0079       0.0028       2.7028       0.6710       1.8568
   2535.0981       6.8732       4.6668       0.0572      55.7822      19.9840    -999.2500    -999.2500     228.3805     165.2508       8.9481       0.0793       3.9664       0.0018       2.6723       0.4414       1.8733
   2535.2507       6.8868       2.8874       0.0746      57.8956      17.5257    -999.2500    -999.2500     250.1597     182.5428      11.9188       0.0829       3.8862       0.0010       2.6532       0.2789       1.8151
   2535.4031       6.7928       3.6922       0.0721      56.5931      15.1607    -999.2500    -999.2500     298.1898     208.4816       8.4150       0.0824       3.6203       0.0010       2.6892       0.4425       1.3939
   2535.5554       6.7147       4.5632       0.0697      55.2699      13.4346    -999.2500    -999.2500     340.1536     231.4706      20.7628       0.0808       3.4069       0.0012       2.7190       0.5653       1.0483
   2535.7078       6.7132       5.7542       0.0682      53.8464      14.7616    -999.2500    -999.2500     352.8016     240.2054     109.7114       0.0767       3.4475       0.0022       2.7190       0.4913       1.0678
   2535.8601       6.7252       6.9513       0.0629      52.8148      16.1631    -999.2500    -999.2500     347.8883     238.0594     168.9166       0.0766       3.4809       0.0031       2.7130       0.4419       1.0949
   2536.0127       6.8017       8.1783       0.0389      53.6674      17.9233    -999.2500    -999.2500     257.5930     183.6059      83.5121       0.0894       3.4804       0.0036       2.6780       0.5120       1.1589
   2536.1650       6.8786       9.1346       0.0207      54.4617      19.3485    -999.2500    -999.2500     185.1385     139.4335      12.1876       0.0986       3.5052       0.0040       2.6578       0.5566       1.2179
   2536.3174       6.9570       8.7823       0.0307      54.9734      19.1527    -999.2500    -999.2500     198.9746     144.9870       8.9635       0.0934       3.6506       0.0040       2.7088       0.4787       1.2524
   2536.4697       6.9988       8.3154       0.0383      55.6092      18.8100    -999.2500    -999.2500     232.6177     162.1406      12.2333       0.0844       3.7563       0.0039       2.7499       0.4348       1.2907
   2536.6223       6.8643       7.2910       0.0343      56.8427      17.7440    -999.2500    -999.2500     362.6467     235.1091      47.1042       0.0698       3.6708       0.0034       2.7434       0.5568       1.3477
   2536.7747       6.7428       6.2996       0.0319      57.0176      17.0911    -999.2500    -999.2500     469.3686     293.7067      79.4624       0.0581       3.5628       0.0029       2.7354       0.6438       1.4042
   2536.9270       6.6838       5.4680       0.0369      52.1252      18.3930    -999.2500    -999.2500     463.2622     282.7357      99.6566       0.0646       3.3474       0.0024       2.7204       0.5608       1.4582
   2537.0793       6.6436       4.6297       0.0406      48.4030      19.0969    -999.2500    -999.2500     467.0877     276.1523     107.7038       0.0677       3.1883       0.0019       2.7116       0.4721       1.4980
   2537.2319       6.6936       3.7594       0.0381      50.3168      16.9528    -999.2500    -999.2500     519.2870     290.6991      56.5874       0.0641       3.3003       0.0014       2.7326       0.3550       1.4685
   2537.3843       6.7375       3.1169       0.0363      51.4725      15.3645    -999.2500    -999.2500     563.3032     303.4284      17.4124       0.0603       3.3777       0.0010       2.7479       0.2810       1.4565
   2537.5366       6.7520       3.5782       0.0383      48.9971      16.4387    -999.2500    -999.2500     567.6702     307.4497      36.0964       0.0623       3.2893       0.0010       2.7359       0.4154       1.5295
   2537.6890       6.7958       4.1669       0.0394      46.9231      17.4764    -999.2500    -999.2500     555.9504     301.8839      47.4335       0.0670       3.2258       0.0011       2.7246       0.5288       1.5771
   2537.8413       6.9809       5.3763       0.0359      46.7841      18.3365    -999.2500    -999.2500     465.8081     250.1072      22.9560       0.0769       3.2828       0.0016       2.7166       0.5393       1.5010
   2537.9939       7.1291       6.3147       0.0338      47.1454      18.9381    -999.2500    -999.2500     389.2892     209.5375       4.2725       0.0855       3.3240       0.0020       2.7109       0.5713       1.4471
   2538.1462       7.1006       5.9383       0.0383      49.9062      18.2712    -999.2500    -999.2500     378.8372     222.7073      13.6875       0.0848       3.2896       0.0020       2.7159       0.7078       1.5000
   2538.2986       7.0426       5.7413       0.0413      52.7203      17.9166    -999.2500    -999.2500     372.4659     234.7341      38.7766       0.0808       3.2644       0.0020       2.7175       0.8086       1.5260
   2538.4509       6.8420       6.4190       0.0373      55.7914      19.0351    -999.2500    -999.2500     386.0049     241.2465     140.3436       0.0693       3.2844       0.0020       2.7030       0.7356       1.4199
   2538.6035       6.6781       6.9040       0.0356      57.9555      19.6624    -999.2500    -999.2500     388.2654     242.4603     215.7755       0.0602       3.2901       0.0020       2.6969       0.6905       1.3246
   2538.7559       6.6901       6.4532       0.0451      55.7659      17.9580    -999.2500    -999.2500     335.7826     218.2432     164.3527       0.0596       3.2272       0.0020       2.7314       0.7809       1.2811
   2538.9082       6.7079       6.4453       0.0521      53.7709      17.0777    -999.2500    -999.2500     287.6644     193.7778     112.0580       0.0604       3.1836       0.0021       2.7614       0.8838       1.2641
   2539.0605       6.7539       8.6006       0.0466      52.7155      20.1769    -999.2500    -999.2500     260.8610     168.1134      55.5051       0.0623       3.2336       0.0026       2.7694       1.0474       1.3767
