#------------------------------------------------------------------------------
#
#   Created by  : [OpenWorks] Log Export Utility (LEXP)
#   Created on  : 2016-05-23 11:55:55
#   Project     : CANT971
#   User        : R5K
#   Interpreter : PEP
#
#------------------------------------------------------------------------------
~VERSION INFORMATION
VERS. 2.0 : CWLS Log ASCII Standard - version 2.0
WRAP.  NO : One line per depth step
~WELL INFORMATION
#MNEMONIC   .UNIT                                           VALUE :DESCRIPTION
#------------------------------------------------------------------------------
STRT        .M                                          2870.4541 :START DEPTH
STOP        .M                                          3966.9722 :STOP DEPTH
STEP        .M                                             0.1524 :STEP
NULL        .                                           -999.2500 :NULL VALUE
COMP        .                                             UNKNOWN :COMPANY
WELL        .                                            418D-ST1 :WELL
FLD         .                                             UNKNOWN :FIELD
LOC         .                                             UNKNOWN :LOCATION
CNTY        .                                             UNKNOWN :COUNTY
STAT        .                                             UNKNOWN :STATE
CTRY        .                                             UNKNOWN :COUNTRY
SRVC        .                                             UNKNOWN :SERVICE COMPANY
DATE        .                                             UNKNOWN :LOG DATE
UWI         .                                            418D-ST1 :UNIQUE WELL ID
XCOORD      .                                       597130.010000 :SURFACE X
YCOORD      .                                      2144879.410000 :SURFACE Y
LAT         .                                           19.396924 :LATITUDE
LON         .                                          -92.074978 :LONGITUDE
ELEV        .M                                             0.0000 :SURFACE ELEV
ELEV_TYPE   .                                                  NA :ELEV TYPE
~CURVE INFORMATION
#MNEMONIC.UNIT        API CODE       : CURVE DESCRIPTION
#------------------------------------------------------------------------------
DEPTH    .M                          : Measured Depth
CALI     .inches      UNKNOWN        : CALI:litodensidad:rC:NONE:v0 (auto-composite)
CGR      .API         UNKNOWN        : CGR:litodensidad:rC:NONE:v0 (auto-composite)
DRHO     .g/cm3       UNKNOWN        : DRHO:litodensidad:rC:NONE:v0 (auto-composite)
DT       .us/ft       UNKNOWN        : DT:DT-Load:rC:NONE:v0 (auto-composite)
GR       .API         UNKNOWN        : GR:litodensidad:rC:NONE:v0 (auto-composite)
LLD      .ohm.m       UNKNOWN        : LLD:PETROWORKS:rC:NONE:v1 
LLS      .ohm.m       UNKNOWN        : LLS:PETROWORKS:rC:NONE:v1 
MSFL     .ohm.m       UNKNOWN        : MSFL:resistivos:rC:NONE:v0 (auto-composite)
NPHI     .v/v_decimal UNKNOWN        : NPHI:litodensidad:rC:NONE:v0 (auto-composite)
PEF      .UNKNOWN     UNKNOWN        : PEF:litodensidad:rC:NONE:v0 (auto-composite)
POTA     .UNKNOWN     UNKNOWN        : POTA:litodensidad:rC:NONE:v0 (auto-composite)
RHOB     .g/cm3       UNKNOWN        : RHOB:litodensidad:rC:NONE:v0 (auto-composite)
THOR     .ppm         UNKNOWN        : THOR:litodensidad:rC:NONE:v0 (auto-composite)
URAN     .ppm         UNKNOWN        : URAN:litodensidad:rC:NONE:v0 (auto-composite)
~A     DEPTH         CALI          CGR         DRHO           DT           GR          LLD          LLS         MSFL         NPHI          PEF         POTA         RHOB         THOR         URAN
# ...
   3081.6804      12.3359      36.0149       0.0030    -999.2500      60.3917     135.5797      98.3787       0.7642       0.0132       4.4414       0.0158       2.7693       2.9317       3.1330
   3081.8330      12.3359      33.9885       0.0044    -999.2500      57.1645     134.4263      98.4177       0.8384       0.0129       4.0195       0.0152       2.7918       2.6694       2.9787
   3081.9854      12.3359      28.7193       0.0057    -999.2500      49.2073     103.7983      77.8593       0.9189       0.0112       4.0547       0.0119       2.8068       2.6629       2.6332
   3082.1377      12.3359      30.7636       0.0062    -999.2500      56.2912      89.5658      66.9366       0.9795       0.0089       3.7090       0.0117       2.8202       3.2895       3.2809
   3082.2900      12.3359      31.9550       0.0044    -999.2500      58.3500      86.6623      64.3974       1.0371       0.0082       3.7832       0.0120       2.7949       3.4915       3.3924
   3082.4424      12.3359      42.7906       0.0023    -999.2500      71.2354      84.9897      61.9575       0.8950       0.0093       3.5664       0.0118       2.7687       6.4692       3.6558
   3082.5950      12.3359      57.6996       0.0005    -999.2500      94.9857      88.5232      62.5252       0.8198       0.0123       3.5684       0.0138       2.7535       9.6621       4.7921
   3082.7473      12.3594      56.5459       0.0018    -999.2500      93.0483      98.5825      68.4343       0.7783       0.0151       3.6719       0.0134       2.7623       9.5219       4.6914
   3082.8997      12.3594      46.9631       0.0067    -999.2500      76.3672      89.9656      63.7252       0.7861       0.0142       3.6504       0.0111       2.7905       7.9123       3.7791
   3083.0520      12.3750      44.2454       0.0043    -999.2500      66.6077      78.7837      57.2196       0.8052       0.0118       3.5703       0.0139       2.7869       5.9579       2.8741
   3083.2046      12.3516      45.7307       0.0045    -999.2500      68.4993      64.2523      47.5147       0.8301       0.0102       3.4141       0.0147       2.7804       6.0219       2.9263
   3083.3569      12.3750      46.7206       0.0057    -999.2500      69.5146      50.1257      37.2244       0.9478       0.0108       3.4883       0.0153       2.7708       6.0359       2.9296
   3083.5093      12.3984      46.0711       0.0069    -999.2500      67.9061      38.6772      28.9533       0.9956       0.0126       3.5801       0.0156       2.7633       5.7532       2.8063
   3083.6616      12.3672      55.1638       0.0062    -999.2500      77.2507      31.8365      24.6615       0.9160       0.0145       3.5879       0.0182       2.7514       7.0849       2.8387
   3083.8142      12.3828      54.7644       0.0031    -999.2500      76.3459      29.0602      22.7583       0.8135       0.0180       3.6016       0.0181       2.7271       7.0040       2.7737
   3083.9666      12.3438      65.4580       0.0026    -999.2500      86.5114      28.1324      21.9607       0.7583       0.0208       3.5078       0.0214       2.7021       8.4792       2.7059
   3084.1189      12.3516      66.1850       0.0003    -999.2500      87.1066      29.1404      22.7494       0.7739       0.0237       3.5313       0.0216       2.6785       8.5837       2.6889
   3084.2712      12.3594      65.6536      -0.0019    -999.2500      85.5960      30.9700      24.0387       0.8203       0.0254       3.5566       0.0214       2.6676       8.5112       2.5631
   3084.4236      12.3672      65.0419      -0.0016    -999.2500      84.1839      29.0275      22.6922       0.9775       0.0277       3.5664       0.0214       2.6654       8.3841       2.4602
   3084.5762      12.3828      63.1971       0.0023    -999.2500      80.9650      25.9642      20.3917       0.9951       0.0303       3.6094       0.0208       2.6663       8.1356       2.2836
   3084.7285      12.3750      62.4913       0.0020    -999.2500      79.7189      23.7706      18.4808       1.0273       0.0311       3.3945       0.0205       2.6620       8.0690       2.2141
   3084.8809      12.3828      73.9798       0.0027    -999.2500      92.4723      20.4456      15.9419       1.0703       0.0361       3.4063       0.0271       2.6540       8.3158       2.3767
   3085.0332      12.3906      74.9547       0.0015    -999.2500      94.0182      20.9143      16.1612       0.9966       0.0381       3.3867       0.0274       2.6536       8.4809       2.4501
   3085.1858      12.3438      83.5748       0.0010    -999.2500     105.5952      22.5250      17.3135       0.8955       0.0434       3.3750       0.0270       2.6476      10.9551       2.8301
   3085.3381      12.3906      82.6928       0.0003    -999.2500     104.0295      23.7474      18.4570       0.8940       0.0435       3.3477       0.0265       2.6377      10.9531       2.7423
   3085.4905      12.3594      83.0024      -0.0042    -999.2500     104.1022      26.3667      20.1493       0.9204       0.0497       3.3223       0.0264       2.6207      11.0669       2.7118
   3085.6428      12.4063      78.8613      -0.0066    -999.2500      96.8682      25.7704      19.7114       0.9351       0.0513       3.3555       0.0247       2.6055      10.6807       2.3143
   3085.7954      12.3750      78.3029      -0.0033    -999.2500      95.3730      22.7057      17.5490       0.9375       0.0504       3.3301       0.0245       2.6020      10.6106       2.1939
   3085.9478      12.4297      78.1132      -0.0031    -999.2500      94.4874      21.7238      16.6705       1.0010       0.0411       3.2227       0.0246       2.5921      10.5190       2.1045
   3086.1001      12.3359      76.6476      -0.0050    -999.2500      91.8798      21.8565      16.8631       1.0537       0.0373       3.2695       0.0242       2.5951      10.2954       1.9577
   3086.2524      12.3828      81.2354      -0.0020    -999.2500      97.9974      23.0618      17.7573       1.0381       0.0351       3.3809       0.0261       2.6181      10.7162       2.1543
   3086.4048      12.3750      78.8876      -0.0030    -999.2500      93.9911      24.8502      18.9609       0.9541       0.0387       3.5371       0.0255       2.6381      10.3591       1.9412
   3086.5574      12.3750      78.3828      -0.0049    -999.2500      93.1782      25.9656      19.6769       0.8896       0.0414       3.5586       0.0255       2.6439      10.2214       1.9016
   3086.7097      12.3828      77.6915      -0.0045    -999.2500      92.1954      26.8797      20.3235       0.8789       0.0435       3.4590       0.0254       2.6427      10.0602       1.8641
   3086.8621      12.3516      79.0299      -0.0036    -999.2500      94.0296      27.2762      20.6108       0.8540       0.0445       3.2402       0.0262       2.6386      10.0699       1.9278
   3087.0144      12.3672      79.2629      -0.0032    -999.2500      94.1409      28.5836      21.2994       0.7998       0.0453       3.2383       0.0263       2.6317      10.0912       1.9122
   3087.1670      12.3594      79.9237      -0.0005    -999.2500      94.6911      31.8826      23.5123       0.9385       0.0440       3.4688       0.0267       2.6412      10.0951       1.8979
   3087.3193      12.4297      65.8610       0.0022    -999.2500      77.9561      34.2856      24.9384       0.9937       0.0382       3.9277       0.0239       2.6736       7.5378       1.5545
   3087.4717      12.3906      57.1640       0.0033    -999.2500      69.4280      35.9506      25.9429       1.0098       0.0310       4.1406       0.0218       2.7211       6.0747       1.5762
   3087.6240      12.3594      57.4675       0.0040    -999.2500      70.2371      37.2243      27.0164       0.9165       0.0275       4.0547       0.0218       2.7558       6.1702       1.6412
   3087.7766      12.3828      58.5202       0.0044    -999.2500      72.2056      37.4106      27.0837       0.8218       0.0269       4.0547       0.0221       2.7696       6.2914       1.7589
   3087.9290      12.4063      59.7706       0.0023    -999.2500      74.5819      37.0047      27.0736       0.7715       0.0273       3.8320       0.0225       2.7658       6.4966       1.9036
