#------------------------------------------------------------------------------
#
#   Created by  : [OpenWorks] Log Export Utility (LEXP)
#   Created on  : 2016-05-23 11:53:49
#   Project     : CANT971
#   User        : R5K
#   Interpreter : PEP
#
#------------------------------------------------------------------------------
~VERSION INFORMATION
VERS. 2.0 : CWLS Log ASCII Standard - version 2.0
WRAP.  NO : One line per depth step
~WELL INFORMATION
#MNEMONIC   .UNIT                                           VALUE :DESCRIPTION
#------------------------------------------------------------------------------
STRT        .M                                           293.9797 :START DEPTH
STOP        .M                                          2713.7869 :STOP DEPTH
STEP        .M                                             0.1524 :STEP
NULL        .                                           -999.2500 :NULL VALUE
COMP        .                                   PEMEX EXPL & PROD :COMPANY
WELL        .                                                  28 :WELL
FLD         .                                           CANTARELL :FIELD
LOC         .                                             UNKNOWN :LOCATION
CNTY        .                                      CD. DEL CARMEN :COUNTY
STAT        .                                            CAMPECHE :STATE
CTRY        .                                              MEXICO :COUNTRY
SRVC        .                                             UNKNOWN :SERVICE COMPANY
DATE        .                                             UNKNOWN :LOG DATE
UWI         .                                          3060000156 :UNIQUE WELL ID
XCOORD      .                                       598450.720000 :SURFACE X
YCOORD      .                                      2145024.710000 :SURFACE Y
LAT         .                                           19.398172 :LATITUDE
LON         .                                          -92.062394 :LONGITUDE
ELEV        .M                                            26.5400 :SURFACE ELEV
ELEV_TYPE   .                                                  KB :ELEV TYPE
~CURVE INFORMATION
#MNEMONIC.UNIT        API CODE       : CURVE DESCRIPTION
#------------------------------------------------------------------------------
DEPTH    .M                          : Measured Depth
CALI     .inches      UNKNOWN        : CALI:Import:rC:NONE:v0 (auto-composite)
DRHO     .g/cm3       UNKNOWN        : DRHO:Import:rC:NONE:v0 (auto-composite)
DT       .us/ft       UNKNOWN        : DT:Import:rC:NONE:v0 (auto-composite)
GR       .API         UNKNOWN        : GR:Import:rC:NONE:v0 (auto-composite)
ILD      .ohm.m       UNKNOWN        : ILD:Import:rC:NONE:v0 (auto-composite)
LLD      .ohm.m       UNKNOWN        : LLD:Import:rC:NONE:v0 (auto-composite)
LLS      .ohm.m       UNKNOWN        : LLS:Import:rC:NONE:v0 (auto-composite)
MSFL     .ohm.m       UNKNOWN        : MSFL:Import:rC:NONE:v0 (auto-composite)
NPHI     .v/v_decimal UNKNOWN        : NPHI:Import:rC:NONE:v0 (auto-composite)
PEF      .b/elec      UNKNOWN        : PEF:Import:rC:NONE:v0 (auto-composite)
RHOB     .g/cm3       UNKNOWN        : RHOB:Import:rC:NONE:v0 (auto-composite)
~A     DEPTH         CALI         DRHO           DT           GR          ILD          LLD          LLS         MSFL         NPHI          PEF         RHOB
# ...
   2608.0212       5.9220       0.0975       0.0000      21.3440    -999.2500     850.5732     571.8395     248.9982       0.0535       2.9868       2.7180
   2608.1736       5.9090       0.1080       0.0000      22.0194    -999.2500     700.6780     514.0200     153.3660       0.0551       3.1110       2.7240
   2608.3262       5.8694       0.1185       0.0000      22.6910    -999.2500     492.1516     390.2350     264.0387       0.0585       3.0864       2.7044
   2608.4785       5.8300       0.1290       0.0000      32.4527    -999.2500     284.7640     267.1260     374.1070       0.0625       3.0620       2.6850
   2608.6309       5.8210       0.1195       0.0000      42.1610    -999.2500     244.9301     230.0510     237.4486       0.0800       3.0229       2.6469
   2608.7832       5.8120       0.1100       0.0000      35.3954    -999.2500     205.3090     193.1740     101.5200       0.0985       2.9840       2.6090
   2608.9358       5.8451       0.1240       0.0000      28.6660    -999.2500     137.0366     133.9288      63.3556       0.1325       3.0743       2.6346
   2609.0881       5.8780       0.1380       0.0000      31.2985    -999.2500      69.2290      75.0870      25.4510       0.1658       3.1640       2.6600
   2609.2405       5.9983       0.1245       0.0000      33.9130    -999.2500      90.4468      99.2858     680.6362       0.1720       3.2859       2.6414
   2609.3928       6.1180       0.1110       0.0000      39.5212    -999.2500     111.5230     123.3230    1331.4460       0.1753       3.4070       2.6230
   2609.5452       5.8694       0.1205       0.0000      45.0920    -999.2500    2220.1707    1133.8118     832.1266       0.1314       3.1201       2.6074
   2609.6978       5.6220       0.1300       0.0000      46.9682    -999.2500    4314.9888    2137.6731     336.0820       0.0878       2.8350       2.5920
   2609.8501       5.6255       0.1129       0.0000      48.8320    -999.2500    3810.1638    2102.9375     229.1849       0.0930       2.9449       2.6146
   2610.0024       5.6290       0.0960       0.0000      44.3330    -999.2500    3308.5840    2068.4250     122.9750       0.0996       3.0540       2.6370
   2610.1548       5.6641       0.0880       0.0000      39.8630    -999.2500    2938.1038    1911.1359     297.9781       0.0960       2.9457       2.6646
   2610.3074       5.6990       0.0800       0.0000      41.3873    -999.2500    2569.9609    1754.8390     471.8770       0.0924       2.8380       2.6920
   2610.4597       5.7196       0.0840       0.0000      42.9020    -999.2500    1924.0740    1405.8433     266.3821       0.1000       3.0607       2.6689
   2610.6121       5.7400       0.0880       0.0000      45.8426    -999.2500    1282.1780    1059.0040      62.1570       0.1077       3.2820       2.6460
   2610.7644       5.7761       0.1106       0.0000      48.7650    -999.2500    1031.8977     856.2568     111.7959       0.1050       3.0934       2.6505
   2610.9170       5.8120       0.1330       0.0000      49.7440    -999.2500     783.1340     654.7380     161.1340       0.1025       2.9060       2.6550
   2611.0693       5.8416       0.1240       0.0000      50.7170    -999.2500     725.3667     607.1183     327.7229       0.1175       2.8724       2.6645
   2611.2217       5.8710       0.1150       0.0000      49.7577    -999.2500     667.9420     559.7810     493.3240       0.1323       2.8390       2.6740
   2611.3740       5.7622       0.1005       0.0000      48.8040    -999.2500     778.1592     638.8126     251.2960       0.1215       2.8932       2.6384
   2611.5264       5.6540       0.0860       0.0000      50.1359    -999.2500     887.7360     717.3850      10.6740       0.1100       2.9470       2.6030
   2611.6790       5.6485       0.0960       0.0000      51.4600    -999.2500    1481.7479    1117.7024     163.5276       0.0940       2.8151       2.6336
   2611.8313       5.6430       0.1060       0.0000      43.3896    -999.2500    2072.3860    1515.7460     315.5130       0.0786       2.6840       2.6640
   2611.9836       5.7373       0.0970       0.0000      35.3650    -999.2500    1826.5276    1379.6025     407.7233       0.0845       2.8249       2.6926
   2612.1360       5.8310       0.0880       0.0000      33.8322    -999.2500    1582.0360    1244.2159     499.4210       0.0910       2.9650       2.7210
   2612.2886       5.7137       0.1015       0.0000      32.3080    -999.2500    1385.8708    1090.0916     434.3197       0.0980       3.0694       2.6834
   2612.4409       5.5970       0.1150       0.0000      35.1472    -999.2500    1190.7710     936.8040     369.5720       0.1047       3.1730       2.6460
   2612.5933       5.6607       0.1466       0.0000      37.9710    -999.2500    1252.5204     994.5418     308.2397       0.0990       3.0220       2.6003
   2612.7456       5.7240       0.1780       0.0000      35.3561    -999.2500    1313.9420    1051.9730     247.2330       0.0931       2.8720       2.5550
   2612.8982       5.6724       0.1579       0.0000      32.7550    -999.2500    1464.8590    1154.5271     134.7363       0.0900       2.9262       2.5234
   2613.0505       5.6210       0.1380       0.0000      32.3451    -999.2500    1614.7531    1256.3860      23.0020       0.0870       2.9800       2.4920
   2613.2029       5.6365       0.1465       0.0000      31.9380    -999.2500    1748.5994    1346.7012     139.1009       0.0835       3.0728       2.6079
   2613.3552       5.6520       0.1550       0.0000      33.8167    -999.2500    1881.5560    1436.4160     254.4280       0.0802       3.1650       2.7230
   2613.5076       5.6510       0.1284       0.0000      35.6830    -999.2500    1835.3031    1398.5865     413.9377       0.0860       3.0195       2.7024
   2613.6602       5.6500       0.1020       0.0000      28.6806    -999.2500    1789.3521    1361.0040     572.4060       0.0919       2.8750       2.6820
   2613.8125       5.6370       0.0990       0.0000      21.7240    -999.2500    1737.3462    1306.8939     358.4335       0.0950       2.9738       2.6960
   2613.9648       5.6240       0.0960       0.0000      20.8186    -999.2500    1685.6730    1253.1300     145.8300       0.0978       3.0720       2.7100
   2614.1172       5.6792       0.0825       0.0000      19.9190    -999.2500    1602.8776    1187.8059     902.6011       0.0871       3.0279       2.6709
   2614.2698       5.7340       0.0690       0.0000      29.6200    -999.2500    1520.6021    1122.8920    1654.6210       0.0762       2.9840       2.6320
   2614.4221       5.6979       0.0735       0.0000      39.2600    -999.2500    1434.3539    1045.1254    1113.9027       0.0745       2.9484       2.5974
   2614.5745       5.6620       0.0780       0.0000      42.4789    -999.2500    1348.6360     967.8370     576.5090       0.0730       2.9130       2.5630
   2614.7268       5.6369       0.0971       0.0000      45.6780    -999.2500    1397.7646    1015.5909     373.8195       0.0824       2.9616       2.6001
   2614.8794       5.6120       0.1160       0.0000      52.3421    -999.2500    1446.5970    1063.0570     172.3520       0.0919       3.0100       2.6370
   2615.0317       5.6331       0.0964       0.0000      58.9660    -999.2500    1818.6564    1367.2522     547.8862       0.0955       2.9558       2.6445
   2615.1841       5.6540       0.0770       0.0000      61.2131    -999.2500    2188.5210    1669.6530     921.2050       0.0990       2.9020       2.6520
   2615.3364       5.6380       0.0720       0.0000      63.4470    -999.2500    2359.2454    1783.0542     958.3634       0.1049       2.9336       2.6746
   2615.4888       5.6220       0.0670       0.0000      60.2132    -999.2500    2528.9829    1895.8000     995.3070       0.1109       2.9650       2.6970
   2615.6414       5.6340       0.0570       0.0000      56.9980    -999.2500    1657.8925    1271.4098     813.0171       0.1184       3.0352       2.6900
   2615.7937       5.6460       0.0470       0.0000      52.0169    -999.2500     791.7230     650.5470     631.7570       0.1259       3.1050       2.6830
