#------------------------------------------------------------------------------
#
#   Created by  : [OpenWorks] Log Export Utility (LEXP)
#   Created on  : 2016-05-23 11:55:55
#   Project     : CANT971
#   User        : R5K
#   Interpreter : PEP
#
#------------------------------------------------------------------------------
~VERSION INFORMATION
VERS. 2.0 : CWLS Log ASCII Standard - version 2.0
WRAP.  NO : One line per depth step
~WELL INFORMATION
#MNEMONIC   .UNIT                                           VALUE :DESCRIPTION
#------------------------------------------------------------------------------
STRT        .M                                          1803.5016 :START DEPTH
STOP        .M                                          3154.9849 :STOP DEPTH
STEP        .M                                             0.1524 :STEP
NULL        .                                           -999.2500 :NULL VALUE
COMP        .                                             UNKNOWN :COMPANY
WELL        .                                             418D-ST :WELL
FLD         .                                             UNKNOWN :FIELD
LOC         .                                             UNKNOWN :LOCATION
CNTY        .                                             UNKNOWN :COUNTY
STAT        .                                             UNKNOWN :STATE
CTRY        .                                             UNKNOWN :COUNTRY
SRVC        .                                             UNKNOWN :SERVICE COMPANY
DATE        .                                             UNKNOWN :LOG DATE
UWI         .                                             418D-ST :UNIQUE WELL ID
XCOORD      .                                       597130.010000 :SURFACE X
YCOORD      .                                      2144879.410000 :SURFACE Y
LAT         .                                           19.396924 :LATITUDE
LON         .                                          -92.074978 :LONGITUDE
ELEV        .M                                             0.0000 :SURFACE ELEV
ELEV_TYPE   .                                                  NA :ELEV TYPE
~CURVE INFORMATION
#MNEMONIC.UNIT        API CODE       : CURVE DESCRIPTION
#------------------------------------------------------------------------------
DEPTH    .M                          : Measured Depth
CALI     .inches      UNKNOWN        : CALI:PETROWORKS:rC:NONE:v1 
CGR      .API         UNKNOWN        : CGR:PETROWORKS:rC:NONE:v1 
DRHO     .g/cm3       UNKNOWN        : DRHO:PETROWORKS:rC:NONE:v1 
DT       .us/ft       UNKNOWN        : DT:PETROWORKS:rC:NONE:v1 
GR       .API         UNKNOWN        : GR:PETROWORKS:rC:NONE:v3 
ILD      .ohm.m       UNKNOWN        : ILD:registros:rC:NONE:v0 (auto-composite)
ILM      .ohm.m       UNKNOWN        : ILM:registros:rC:NONE:v0 (auto-composite)
LLD      .ohm.m       UNKNOWN        : LLD:PETROWORKS:rC:NONE:v2 
LLS      .ohm.m       UNKNOWN        : LLS:PETROWORKS:rC:NONE:v2 
MSFL     .ohm.m       UNKNOWN        : MSFL:PETROWORKS:rC:NONE:v1 
NPHI     .v/v_decimal UNKNOWN        : NPHI:PETROWORKS:rC:NONE:v1 
PEF      .b/elec      UNKNOWN        : PEF:PETROWORKS:rC:NONE:v1 
POTA     .wtpercent   UNKNOWN        : POTA:PETROWORKS:rC:NONE:v1 
RHOB     .g/cm3       UNKNOWN        : RHOB:PETROWORKS:rC:NONE:v1 
THOR     .ppm         UNKNOWN        : THOR:PETROWORKS:rC:NONE:v1 
URAN     .ppm         UNKNOWN        : URAN:PETROWORKS:rC:NONE:v1 
~A     DEPTH         CALI          CGR         DRHO           DT           GR          ILD          ILM          LLD          LLS         MSFL         NPHI          PEF         POTA         RHOB         THOR         URAN
# ...
   2401.2144      13.4922       2.0767       0.0043      61.7000      27.9269    -999.2500    -999.2500    2612.9780     125.4999     143.6250       0.0708       3.6563       0.0000       2.6629       0.5902       3.5999
   2401.3667      13.5625       3.5751       0.0071      59.7000      30.1041    -999.2500    -999.2500    2811.8457     125.9383     143.7500       0.0641       3.6328       0.0006       2.7027       0.8091       3.6944
   2401.5193      13.7734       4.7329       0.0086      55.7000      31.2284    -999.2500    -999.2500    5018.9805     134.1668     143.6250       0.0570       3.5605       0.0011       2.7394       0.8986       3.6898
   2401.6716      13.7813       4.3387       0.0091      58.4000      29.6593    -999.2500    -999.2500    8246.0977     144.2606     143.6250       0.0549       3.5957       0.0014       2.7675       0.6581       3.5261
   2401.8240      13.7813       5.9279       0.0070      58.0000      30.9715    -999.2500    -999.2500    7929.0654     142.9911     144.0000       0.0556       3.5605       0.0024       2.7690       0.7160       3.4876
   2401.9763      13.7500       6.4775       0.0064      58.3000      31.1291    -999.2500    -999.2500    7598.1777     142.1845     143.7500       0.0575       3.6797       0.0024       2.7757       0.8809       3.4330
   2402.1289      13.5469       7.0007       0.0051      55.5000      31.6773    -999.2500    -999.2500    8000.4893     136.8521     144.2500       0.0587       3.6563       0.0026       2.7757       0.9322       3.4365
   2402.2812      13.6172       6.0766       0.0019      58.4000      30.1424    -999.2500    -999.2500    8244.8223     131.3935     144.0000       0.0507       3.5957       0.0027       2.7735       0.6078       3.3514
   2402.4336      13.6328       4.3368       0.0018      55.9000      27.5531    -999.2500    -999.2500    7189.3740     127.5898     144.1250       0.0433       3.7344       0.0023       2.7717       0.2815       3.2331
   2402.5859      13.6719       4.5338       0.0015      56.1000      28.7131    -999.2500    -999.2500    7031.4844     127.2747     144.2500       0.0371       3.7578       0.0018       2.7585       0.5376       3.3672
   2402.7383      13.7422       4.4289      -0.0015      33.0000      29.1203    -999.2500    -999.2500    6979.9346     125.9630     151.8750       0.0389       3.7520       0.0016       2.7253       0.6112       3.4385
   2402.8909      13.7813       0.9384      -0.0018      35.5000      25.0376    -999.2500    -999.2500    4269.9736     115.1615     197.2500       0.0386       3.5371       0.0002       2.6995       0.2027       3.3560
   2403.0432      13.7813       2.7661      -0.0008      46.1000      28.7354    -999.2500    -999.2500    3349.5996     111.6301     323.2500       0.0390       3.4727       0.0006       2.7036       0.5363       3.6165
   2403.1956      13.6953       2.0041      -0.0016      45.6000      28.1402    -999.2500    -999.2500    3291.4102     110.9229     324.2500       0.0444       3.4434      -0.0000       2.7295       0.6079       3.6397
   2403.3479      13.5938       2.4166      -0.0015      43.8000      29.1307    -999.2500    -999.2500    3193.3032     110.9109     326.0000       0.0516       3.5527      -0.0002       2.7571       0.7857       3.7202
   2403.5005      13.6328       1.5825       0.0028      41.6000      27.7101    -999.2500    -999.2500    3375.0957     112.5953     328.5000       0.0586       3.6855      -0.0005       2.7767       0.6958       3.6385
   2403.6528      13.6328       2.1098       0.0033      37.9000      27.9700    -999.2500    -999.2500    2234.0615      97.9928     330.5000       0.0616       3.8125      -0.0000       2.7774       0.6257       3.6013
   2403.8052      13.6328       3.2403       0.0015      37.4000      29.4894    -999.2500    -999.2500    1967.5457      94.7969     333.0000       0.0629       3.8145       0.0005       2.7605       0.7140       3.6554
   2403.9575      13.6016       4.1067       0.0015      36.9000      30.7690    -999.2500    -999.2500    1876.9226      93.9502     337.0000       0.0777       3.7734       0.0011       2.7097       0.7132       3.7130
   2404.1101      13.9141       3.6052       0.0006      36.8000      30.3330    -999.2500    -999.2500    1204.0283      87.3161     342.7500       0.0893       3.7480       0.0010       2.6675       0.6247       3.7221
   2404.2625      13.9375       2.8816      -0.0038      67.7000      29.7329    -999.2500    -999.2500    1048.0293      90.8448     348.5000       0.1002       3.5996       0.0005       2.6312       0.6248       3.7393
   2404.4148      13.9375       3.6853       0.0021      72.1000      31.4653    -999.2500    -999.2500    1052.4023      94.6496      59.9375       0.0972       3.6523       0.0004       2.6394       0.9245       3.8686
   2404.5671      13.9375       4.6004       0.0111      73.0000      33.0131    -999.2500    -999.2500    1069.5469      94.7999      53.7188       0.0968       3.5371       0.0004       2.6474       1.1585       3.9567
   2404.7195      13.9375       2.0727       0.0131      75.7000      28.8791    -999.2500    -999.2500    1168.1162      97.0835      56.3125       0.1013       3.4668      -0.0001       2.6520       0.6613       3.7330
   2404.8721      13.9375       3.8068       0.0140      71.3000      31.6170    -999.2500    -999.2500    1492.9329      98.8603      56.3438       0.1026       3.3750       0.0003       2.6548       0.9647       3.8728
   2405.0244      13.9219       4.0308       0.0143      65.3000      31.6806    -999.2500    -999.2500    1675.2454      97.1973      56.3438       0.1022       3.4805       0.0003       2.6447       1.0549       3.8505
   2405.1768      13.8359       2.9951       0.0046      69.5000      30.3637    -999.2500    -999.2500    1732.9641      97.5163      56.0313       0.1012       3.6504      -0.0004       2.5827       1.0543       3.8113
   2405.3291      13.9219       2.8685      -0.0079      72.8000      30.2620    -999.2500    -999.2500    1818.7642      97.9677      55.6875       0.1259       3.6895      -0.0006       2.5191       1.0939       3.8148
   2405.4817      13.8438       3.4470      -0.0147      71.6000      30.9527    -999.2500    -999.2500    2797.1973     106.8217      55.3750       0.1577       3.7188      -0.0005       2.4759       1.2268       3.8304
   2405.6340      13.9063       3.0479      -0.0184      68.9000      29.9452    -999.2500    -999.2500    4087.0840     122.4995      50.2188       0.1735       3.6211      -0.0005       2.4710       1.0982       3.7457
   2405.7864      13.9375       3.8134      -0.0173      73.7000      30.8406    -999.2500    -999.2500    4003.8862     123.3239      70.1250       0.1465       3.7148      -0.0002       2.4936       1.2234       3.7638
   2405.9387      13.8047       1.9484      -0.0075      72.5000      22.4798    -999.2500    -999.2500    3878.7031     123.0841      63.3750       0.1114       3.6152       0.0003       2.5887       0.4246       2.8592
   2406.0913      13.6875       1.6503       0.0003      66.1000      21.7579    -999.2500    -999.2500    4339.9814     124.5639      63.0625       0.0882       3.6836       0.0007       2.6945       0.1960       2.8002
   2406.2437      13.7813       0.8050       0.0062      57.8000      20.4085    -999.2500    -999.2500    5700.6123     132.2791     216.7500       0.0782       3.7871       0.0006       2.7785      -0.0014       2.7300
   2406.3960      13.7813       2.3941       0.0059      55.3000      22.0470    -999.2500    -999.2500    1978.0122     107.5929     160.3750       0.0562       3.8320       0.0016       2.7586       0.0180       2.7369
   2406.5483      13.8750       3.0667       0.0047      55.5000      22.8382    -999.2500    -999.2500    1851.0137     106.6236     121.4375       0.0365       3.8711       0.0020       2.7354       0.0396       2.7534
   2406.7007      13.8281       2.7887       0.0087      55.0000      22.4028    -999.2500    -999.2500    1823.6611     106.3597      29.4063       0.0243       3.6055       0.0019       2.7217       0.0178       2.7315
