#------------------------------------------------------------------------------
#
#   Created by  : [OpenWorks] Log Export Utility (LEXP)
#   Created on  : 2016-05-23 11:50:23
#   Project     : CANT971
#   User        : R5K
#   Interpreter : PEP
#
#------------------------------------------------------------------------------
~VERSION INFORMATION
VERS. 2.0 : CWLS Log ASCII Standard - version 2.0
WRAP.  NO : One line per depth step
~WELL INFORMATION
#MNEMONIC   .UNIT                                           VALUE :DESCRIPTION
#------------------------------------------------------------------------------
STRT        .M                                           790.6004 :START DEPTH
STOP        .M                                          2649.8804 :STOP DEPTH
STEP        .M                                             0.1524 :STEP
NULL        .                                           -999.2500 :NULL VALUE
COMP        .                                             UNKNOWN :COMPANY
WELL        .                                               1012D :WELL
FLD         .                                             UNKNOWN :FIELD
LOC         .                                             UNKNOWN :LOCATION
CNTY        .                                             UNKNOWN :COUNTY
STAT        .                                             UNKNOWN :STATE
CTRY        .                                             UNKNOWN :COUNTRY
SRVC        .                                             UNKNOWN :SERVICE COMPANY
DATE        .                                             UNKNOWN :LOG DATE
UWI         .                                               1012D :UNIQUE WELL ID
XCOORD      .                                       594334.990000 :SURFACE X
YCOORD      .                                      2152041.060000 :SURFACE Y
LAT         .                                           19.461774 :LATITUDE
LON         .                                          -92.101239 :LONGITUDE
ELEV        .M                                             0.0000 :SURFACE ELEV
ELEV_TYPE   .                                                  KB :ELEV TYPE
~CURVE INFORMATION
#MNEMONIC.UNIT        API CODE       : CURVE DESCRIPTION
#------------------------------------------------------------------------------
DEPTH    .M                          : Measured Depth
DT       .us/ft       UNKNOWN        : DT:UNKNOWN:rC:NONE:v0 (auto-composite)
GR       .API         UNKNOWN        : GR:PETROWORKS:rC:NONE:v1 
GR-LWD   .API         UNKNOWN        : GR-LWD:PETROWORKS:rC:NONE:v1 
ILD      .ohm.m       UNKNOWN        : ILD:resistivos:rC:NONE:v0 (auto-composite)
ILD-LWD  .ohm.m       UNKNOWN        : ILD-LWD:PETROWORKS:rC:NONE:v1 
ILM      .ohm.m       UNKNOWN        : ILM:resistivos:rC:NONE:v0 (auto-composite)
ILM-LWD  .ohm.m       UNKNOWN        : ILM-LWD:PETROWORKS:rC:NONE:v1 
~A     DEPTH           DT           GR       GR-LWD          ILD      ILD-LWD          ILM      ILM-LWD
# ...
   2222.2461     108.6439      30.4309      75.0231    -999.2500       1.2816    -999.2500       1.2563
   2222.3984     108.4861      31.8671      73.6011    -999.2500       1.4005    -999.2500       1.3769
   2222.5508     108.6320      34.5330      69.6323    -999.2500       1.4435    -999.2500       1.4242
   2222.7031     109.5558      31.2062      66.6782    -999.2500       1.4587    -999.2500       1.4416
   2222.8557     109.6777      30.0449      64.2223    -999.2500       1.4628    -999.2500       1.4492
   2223.0081     108.5307      29.9526      62.5130    -999.2500       1.4586    -999.2500       1.4447
   2223.1604     108.1983      33.6010      60.8314    -999.2500       1.4301    -999.2500       1.4214
   2223.3127     106.6434      35.7325      60.5066    -999.2500       1.4232    -999.2500       1.4153
   2223.4651     105.7193      36.5993      61.5723    -999.2500       1.4352    -999.2500       1.4254
   2223.6177     105.8141      36.2309      62.0711    -999.2500       1.4539    -999.2500       1.4449
   2223.7700     104.4698      34.8229      61.7102    -999.2500       1.4816    -999.2500       1.4779
   2223.9224     104.2830      34.2960      60.7322    -999.2500       1.5205    -999.2500       1.5167
   2224.0747     105.1214      32.8663      61.5795    -999.2500       1.5526    -999.2500       1.5455
   2224.2273     104.1983      30.6614      62.4392    -999.2500       1.5961    -999.2500       1.5827
   2224.3796     104.7947      28.9882      62.9163    -999.2500       1.6670    -999.2500       1.6505
   2224.5320     103.2320      26.8710      63.9127    -999.2500       1.7156    -999.2500       1.7117
   2224.6843      90.7790      30.7307      64.4737    -999.2500       1.6700    -999.2500       1.6695
   2224.8369      89.6078      28.4897      63.7771    -999.2500       1.5974    -999.2500       1.6102
   2224.9893      83.6770      27.9054      62.6755    -999.2500       1.5871    -999.2500       1.6176
   2225.1416      84.0459      26.1445      63.2961    -999.2500       1.7098    -999.2500       1.7471
   2225.2939      87.2607      28.0662      65.4498    -999.2500       1.9674    -999.2500       1.9976
   2225.4463      90.5731      28.5798      65.6435    -999.2500       2.1302    -999.2500       2.1392
   2225.5989      92.9240      28.0125      63.8205    -999.2500       2.2287    -999.2500       2.1944
   2225.7512      95.3911      28.6316      62.4412    -999.2500       2.2685    -999.2500       2.2486
   2225.9036      97.4480      28.4690      61.7343    -999.2500       2.1877    -999.2500       2.2262
   2226.0559     104.0193      31.1267      61.1688    -999.2500       2.1664    -999.2500       2.2162
   2226.2085     108.3517      32.2300      59.4715    -999.2500       2.2060    -999.2500       2.2044
   2226.3608     109.2460      35.9463      55.7979    -999.2500       2.1858    -999.2500       2.1198
   2226.5132     110.1817      34.9203      53.3589    -999.2500       2.0321    -999.2500       1.9539
   2226.6655     100.5144      33.9956      51.0339    -999.2500       1.9074    -999.2500       1.8308
   2226.8181      98.1608      31.9419      48.9276    -999.2500       1.7939    -999.2500       1.7286
   2226.9705      91.2539      31.7123      48.1816    -999.2500       1.6493    -999.2500       1.5998
   2227.1228      87.4159      32.8408      50.3196    -999.2500       1.5074    -999.2500       1.4478
   2227.2751      84.9138      31.8848      55.9435    -999.2500       1.2954    -999.2500       1.2385
   2227.4275      85.0594      31.9206      60.7806    -999.2500       1.1992    -999.2500       1.1563
   2227.5801      85.4987      33.7611      64.5984    -999.2500       1.1787    -999.2500       1.1450
   2227.7324      85.1220      31.7556      65.1340    -999.2500       1.1192    -999.2500       1.0921
   2227.8848      85.0570      32.8420      66.3608    -999.2500       1.0695    -999.2500       1.0499
   2228.0371      90.4910      28.1482      67.6839    -999.2500       1.0430    -999.2500       1.0278
   2228.1897      93.0148      29.3187      67.2217    -999.2500       1.0209    -999.2500       1.0120
   2228.3420      96.7978      29.1444      65.6287    -999.2500       1.0469    -999.2500       1.0397
   2228.4944      98.7363      27.6100      63.8329    -999.2500       1.0958    -999.2500       1.0861
   2228.6467     103.7454      28.4238      63.9736    -999.2500       1.1103    -999.2500       1.0967
   2228.7993     105.5202      29.1394      65.3696    -999.2500       1.0835    -999.2500       1.0712
   2228.9517     107.4399      31.0259      67.8258    -999.2500       1.0441    -999.2500       1.0338
   2229.1040     108.4800      35.0014      69.1849    -999.2500       1.0062    -999.2500       0.9937
   2229.2563     109.1605      36.5963      70.3973    -999.2500       0.9676    -999.2500       0.9616
   2229.4087     110.4359      37.9708      71.5847    -999.2500       0.9233    -999.2500       0.9246
   2229.5613     109.7713      33.1468      73.0372    -999.2500       0.9089    -999.2500       0.9091
   2229.7136     109.0389      31.4209      71.0862    -999.2500       1.0059    -999.2500       0.9991
   2229.8660     109.5200      29.3040      68.1680    -999.2500       1.1061    -999.2500       1.0955
   2230.0183     109.3808      32.0932      66.6102    -999.2500       1.1334    -999.2500       1.1217
   2230.1709     109.2791      34.6342      67.1784    -999.2500       1.1260    -999.2500       1.1150
   2230.3232     109.1401      36.3098      67.0495    -999.2500       1.1235    -999.2500       1.1177
   2230.4756     108.7950      37.1455      67.3397    -999.2500       1.1310    -999.2500       1.1286
   2230.6279     109.8371      35.8283      65.3267    -999.2500       1.1589    -999.2500       1.1592
   2230.7805     109.2079      36.6003      64.7916    -999.2500       1.1867    -999.2500       1.1805
   2230.9329     107.5893      33.8298      64.2073    -999.2500       1.1386    -999.2500       1.1355
   2231.0852     106.2752      32.6575      66.0258    -999.2500       1.1905    -999.2500       1.1803
   2231.2375     106.6384      31.0612      66.8727    -999.2500       1.1708    -999.2500       1.1656
   2231.3899     106.4718      32.2329      68.4933    -999.2500       1.1312    -999.2500       1.1303
   2231.5425     106.8114      33.5762      66.4118    -999.2500       1.1557    -999.2500       1.1574
   2231.6948     107.2402      35.3156      63.2992    -999.2500       1.2217    -999.2500       1.2192
   2231.8472     107.4120      34.8270      60.4780    -999.2500       1.3098    -999.2500       1.2987
   2231.9995     105.5083      31.7265      58.1263    -999.2500       1.4139    -999.2500       1.4026
   2232.1521     104.2168      30.6718      56.8322    -999.2500       1.5299    -999.2500       1.5188
   2232.3044     103.9399      30.2132      54.5520    -999.2500       1.4989    -999.2500       1.4868
   2232.4568     103.8658      32.8038      53.4618    -999.2500       1.5048    -999.2500       1.4929
   2232.6091     104.0840      32.7863      51.5910    -999.2500       1.5138    -999.2500       1.5036
   2232.7617     103.9456      33.5363      51.7419    -999.2500       1.5202    -999.2500       1.5086
   2232.9141     103.6420      32.8200      51.4208    -999.2500       1.5304    -999.2500       1.5154
   2233.0664     102.2170      32.2340      51.0959    -999.2500       1.5182    -999.2500       1.5026
   2233.2188     102.0810      30.8660      51.1996    -999.2500       1.5253    -999.2500       1.5107
   2233.3711     100.5880      27.7410      50.8742    -999.2500       1.5206    -999.2500       1.5073
   2233.5237     100.2570      24.0470      54.3873    -999.2500       1.4694    -999.2500       1.4592
   2233.6760      98.4240      25.6100      55.0134    -999.2500       1.3150    -999.2500       1.3136
   2233.8284      97.7009      25.7725      57.6032    -999.2500       1.1598    -999.2500       1.1592
