#------------------------------------------------------------------------------
#
#   Created by  : [OpenWorks] Log Export Utility (LEXP)
#   Created on  : 2016-05-12 17:18:19
#   Project     : CANT971
#   User        : R5K
#   Interpreter : PEP
#
#------------------------------------------------------------------------------
~VERSION INFORMATION
VERS. 2.0 : CWLS Log ASCII Standard - version 2.0
WRAP.  NO : One line per depth step
~WELL INFORMATION
#MNEMONIC   .UNIT                                           VALUE :DESCRIPTION
#------------------------------------------------------------------------------
STRT        .M                                           134.7982 :START DEPTH
STOP        .M                                          2692.2227 :STOP DEPTH
STEP        .M                                             0.1524 :STEP
NULL        .                                           -999.2500 :NULL VALUE
COMP        .                                   PEMEX EXPL & PROD :COMPANY
WELL        .                                                 57A :WELL
FLD         .                                           CANTARELL :FIELD
LOC         .                                             UNKNOWN :LOCATION
CNTY        .                                      CD. DEL CARMEN :COUNTY
STAT        .                                            CAMPECHE :STATE
CTRY        .                                              MEXICO :COUNTRY
SRVC        .                                             UNKNOWN :SERVICE COMPANY
DATE        .                                             UNKNOWN :LOG DATE
UWI         .                                          3060000169 :UNIQUE WELL ID
XCOORD      .                                       602151.210000 :SURFACE X
YCOORD      .                                      2147168.830000 :SURFACE Y
LAT         .                                           19.417362 :LATITUDE
LON         .                                          -92.027041 :LONGITUDE
ELEV        .M                                            28.1700 :SURFACE ELEV
ELEV_TYPE   .                                                  KB :ELEV TYPE
~CURVE INFORMATION
#MNEMONIC.UNIT        API CODE       : CURVE DESCRIPTION
#------------------------------------------------------------------------------
DEPTH    .M                          : Measured Depth
CALI     .inches      UNKNOWN        : CALI:UNKNOWN:r1:MAIN:v1 
DRHO     .UNKNOWN     UNKNOWN        : DRHO:UNKNOWN:r1:MAIN:v1 
DT       .us/ft       UNKNOWN        : DT:UNKNOWN:r1:MAIN:v1 
GR       .API         UNKNOWN        : GR:GR:r1:MAIN:v1 
ILD      .UNKNOWN     UNKNOWN        : ILD:UNKNOWN:r1:MAIN:v1 
LLD      .UNKNOWN     UNKNOWN        : LLD:UNKNOWN:r1:MAIN:v1 
LLS      .UNKNOWN     UNKNOWN        : LLS:UNKNOWN:r1:MAIN:v1 
MSFL     .UNKNOWN     UNKNOWN        : MSFL:UNKNOWN:r1:MAIN:v1 
NORM     .UNKNOWN     UNKNOWN        : NORM:NORM-Load:r1:MAIN:v1 
NPHI     .v/v_decimal UNKNOWN        : NPHI:UNKNOWN:r1:MAIN:v1 
RHOB     .UNKNOWN     UNKNOWN        : RHOB:UNKNOWN:r1:MAIN:v1 
SP       .mV          UNKNOWN        : SP:PETROWORKS:rC:NONE:v1 
~A     DEPTH         CALI         DRHO           DT           GR          ILD          LLD          LLS         MSFL         NORM         NPHI         RHOB           SP
# ...
   2409.8254       8.5804       0.1246      52.4256      20.9208       0.2000     244.1109     290.8578      38.2802    -999.2500       0.1032       2.6464     169.9630
   2409.9778       8.5713       0.1430      51.9816      20.6517       0.2000     300.2055     349.9884      65.7858    -999.2500       0.1023       2.6807     169.6276
   2410.1301       8.5417       0.1655      50.7066      20.7981       0.2000     337.2126     384.5768     111.1350    -999.2500       0.1014       2.7103     169.2641
   2410.2827       8.5385       0.1730      50.3281      21.1616       0.2000     373.2271     415.8678     122.3105    -999.2500       0.1018       2.7294     169.0501
   2410.4351       8.5580       0.1675      50.7257      21.7132       0.2000     408.3826     444.3047     103.9054    -999.2500       0.1036       2.7394     168.8754
   2410.5874       8.6628       0.1552      51.4151      22.2845       0.2000     349.0561     384.9119      79.0171    -999.2500       0.1060       2.7459     168.7667
   2410.7397       8.8396       0.1372      52.3514      22.8727       0.2000     209.7515     251.1723      48.6408    -999.2500       0.1089       2.7494     168.6748
   2410.8923       8.9845       0.1194      52.3500      22.8175       0.2000     130.7519     167.1021      31.6075    -999.2500       0.1098       2.7589     168.4528
   2411.0447       9.1029       0.1019      51.5674      22.2264       0.2000     101.9952     124.4137      25.6911    -999.2500       0.1090       2.7735     168.1986
   2411.1970       9.1939       0.0835      51.3530      22.1635       0.2000      92.5489     107.4756      23.4610    -999.2500       0.1081       2.7880     168.1997
   2411.3494       9.2625       0.0644      51.6017      22.5310       0.2000      98.8348     111.5163      24.2342    -999.2500       0.1072       2.8026     168.2616
   2411.5017       9.2654       0.0566      51.5501      22.9809       0.2000      95.9094     114.6554      37.0973    -999.2500       0.1043       2.8012     168.3123
   2411.6543       9.2157       0.0576      51.2593      23.4963       0.2000      85.6459     117.0761      59.5917    -999.2500       0.1000       2.7871     168.3604
   2411.8066       9.1827       0.0628      51.1337      23.4726       0.2000      77.8617     109.9490      59.8890    -999.2500       0.0975       2.7768     168.0777
   2411.9590       9.1627       0.0713      51.1367      23.0288       0.2000      72.0084      95.3852      42.8969    -999.2500       0.0963       2.7693     167.7216
   2412.1113       9.1426       0.0796      51.2794      22.8782       0.2000      67.7852      89.5275      31.9780    -999.2500       0.0964       2.7515     167.5994
   2412.2639       9.1226       0.0876      51.5283      22.9509       0.2000      64.8034      90.3001      25.6841    -999.2500       0.0973       2.7259     167.5271
   2412.4163       9.0971       0.0947      51.8055      22.7914       0.2000      61.7860      83.8971      25.6257    -999.2500       0.0982       2.6958     167.5315
   2412.5686       9.0675       0.1012      52.1039      22.4580       0.2000      58.7421      72.1170      30.2400    -999.2500       0.0990       2.6622     167.5518
   2412.7209       8.9864       0.1072      52.1753      21.6783       0.2000      69.7332      69.7498      32.4538    -999.2500       0.1014       2.6324     167.6305
   2412.8735       8.8676       0.1127      52.0805      20.5718       0.2000      91.0061      74.2783      32.9090    -999.2500       0.1052       2.6053     167.7209
   2413.0259       8.8063       0.1127      51.9285      19.8085       0.2000     121.9765      83.2481      29.8437    -999.2500       0.1082       2.5914     167.4613
   2413.1782       8.7863       0.1087      51.7355      19.2910       0.2000     159.8911      95.3983      24.2572    -999.2500       0.1107       2.5869     167.1346
   2413.3306       8.8591       0.1108      50.7614      19.3594       0.2000     174.8186     147.7953      22.2673    -999.2500       0.1091       2.5997     166.4480
   2413.4829       8.9970       0.1174      49.2407      19.8377       0.2000     173.6569     228.3622      22.7947    -999.2500       0.1046       2.6248     165.6951
   2413.6355       9.0938       0.1194      48.6254      19.8565       0.2000     163.8078     243.0322      28.6524    -999.2500       0.1016       2.6502     165.1876
   2413.7878       9.1624       0.1184      48.6294      19.5609       0.2000     148.0162     212.6253      38.1561    -999.2500       0.0997       2.6757     164.7234
   2413.9402       9.1897       0.1108      49.0737      19.3530       0.2000     128.5849     178.8704      41.7503    -999.2500       0.1017       2.6908     164.3662
   2414.0925       9.1892       0.0988      49.8142      19.2041       0.2000     106.7042     142.8626      41.3678    -999.2500       0.1064       2.6988     164.0270
   2414.2451       9.3318       0.0898      50.5847      19.0775       0.2000      95.4571     122.0776      34.5559    -999.2500       0.1113       2.6890     163.6238
   2414.3975       9.5684       0.0827      51.3749      18.9657       0.2000      91.2023     111.3027      23.5163    -999.2500       0.1164       2.6674     163.2101
   2414.5498       9.7028       0.0742      53.0626      18.9889       0.2000      86.0470     103.9538      18.6583    -999.2500       0.1206       2.6471     162.9973
   2414.7021       9.7715       0.0647      55.3268      19.0987       0.2000      80.3131      98.8061      17.7718    -999.2500       0.1243       2.6275     162.8157
   2414.8547       9.8464       0.0669      57.4399      19.4802       0.2000      78.3401      93.2588      16.8974    -999.2500       0.1301       2.6034     162.7315
   2415.0071       9.9251       0.0764      59.4580      20.0322       0.2000      78.7277      87.4607      16.0305    -999.2500       0.1371       2.5763     162.6617
   2415.1594       9.9367       0.0763      60.8675      20.2641       0.2000      90.2048      91.1151      15.1452    -999.2500       0.1408       2.5651     162.7410
   2415.3118       9.9071       0.0703      61.9038      20.2996       0.2000     108.4810     100.5648      14.2488    -999.2500       0.1424       2.5636     162.8415
   2415.4641       9.9204       0.0749      60.6967      20.2895       0.2000     118.0120     113.9708      13.8315    -999.2500       0.1415       2.5852     163.0755
   2415.6167       9.9595       0.0859      58.1462      20.2519       0.2000     122.3065     129.7459      13.7013    -999.2500       0.1391       2.6208     163.3275
   2415.7690       9.9923       0.0891      57.5125      20.8649       0.2000     123.5859     130.0034      17.0407    -999.2500       0.1375       2.6394     163.7762
   2415.9214      10.0214       0.0875      58.0073      21.8583       0.2000     123.0900     121.1243      22.4232    -999.2500       0.1363       2.6479     164.2501
   2416.0737      10.0320       0.0911      58.4086      22.6887       0.2000     114.9506     112.1767      26.4831    -999.2500       0.1321       2.6561     164.6176
   2416.2263      10.0320       0.0977      58.7561      23.4252       0.2000     102.4169     103.1898      29.7828    -999.2500       0.1260       2.6641     164.9722
   2416.3787       9.9938       0.1109      57.4352      23.3351       0.2000     102.4702     103.9543      29.9144    -999.2500       0.1212       2.6676     165.1063
   2416.5310       9.9341       0.1280      55.1780      22.7811       0.2000     109.5884     110.1921      28.2678    -999.2500       0.1171       2.6686     165.2150
   2416.6833       9.8939       0.1304      53.7457      22.0603       0.2000     119.3654     127.1911      28.3513    -999.2500       0.1162       2.6810     165.2742
   2416.8359       9.8643       0.1249      52.7655      21.2480       0.2000     130.5990     150.0861      29.3827    -999.2500       0.1172       2.6995     165.3281
   2416.9883       9.8729       0.1272      52.0427      20.6282       0.2000     151.6829     182.9208      51.0015    -999.2500       0.1172       2.7102     165.4658
