#------------------------------------------------------------------------------
#
#   Created by  : [OpenWorks] Log Export Utility (LEXP)
#   Created on  : 2016-05-23 11:50:23
#   Project     : CANT971
#   User        : R5K
#   Interpreter : PEP
#
#------------------------------------------------------------------------------
~VERSION INFORMATION
VERS. 2.0 : CWLS Log ASCII Standard - version 2.0
WRAP.  NO : One line per depth step
~WELL INFORMATION
#MNEMONIC   .UNIT                                           VALUE :DESCRIPTION
#------------------------------------------------------------------------------
STRT        .M                                           790.6004 :START DEPTH
STOP        .M                                          2649.8804 :STOP DEPTH
STEP        .M                                             0.1524 :STEP
NULL        .                                           -999.2500 :NULL VALUE
COMP        .                                             UNKNOWN :COMPANY
WELL        .                                               1012D :WELL
FLD         .                                             UNKNOWN :FIELD
LOC         .                                             UNKNOWN :LOCATION
CNTY        .                                             UNKNOWN :COUNTY
STAT        .                                             UNKNOWN :STATE
CTRY        .                                             UNKNOWN :COUNTRY
SRVC        .                                             UNKNOWN :SERVICE COMPANY
DATE        .                                             UNKNOWN :LOG DATE
UWI         .                                               1012D :UNIQUE WELL ID
XCOORD      .                                       594334.990000 :SURFACE X
YCOORD      .                                      2152041.060000 :SURFACE Y
LAT         .                                           19.461774 :LATITUDE
LON         .                                          -92.101239 :LONGITUDE
ELEV        .M                                             0.0000 :SURFACE ELEV
ELEV_TYPE   .                                                  KB :ELEV TYPE
~CURVE INFORMATION
#MNEMONIC.UNIT        API CODE       : CURVE DESCRIPTION
#------------------------------------------------------------------------------
DEPTH    .M                          : Measured Depth
DT       .us/ft       UNKNOWN        : DT:UNKNOWN:rC:NONE:v0 (auto-composite)
GR       .API         UNKNOWN        : GR:PETROWORKS:rC:NONE:v1 
GR-LWD   .API         UNKNOWN        : GR-LWD:PETROWORKS:rC:NONE:v1 
ILD      .ohm.m       UNKNOWN        : ILD:resistivos:rC:NONE:v0 (auto-composite)
ILD-LWD  .ohm.m       UNKNOWN        : ILD-LWD:PETROWORKS:rC:NONE:v1 
ILM      .ohm.m       UNKNOWN        : ILM:resistivos:rC:NONE:v0 (auto-composite)
ILM-LWD  .ohm.m       UNKNOWN        : ILM-LWD:PETROWORKS:rC:NONE:v1 
~A     DEPTH           DT           GR       GR-LWD          ILD      ILD-LWD          ILM      ILM-LWD
# ...
   2515.6160    -999.2500       5.7137       8.3428       2.1217       2.0233       2.0824       2.0067
   2515.7683    -999.2500       5.7424       7.9297       2.1427       2.0267       2.1081       2.0167
   2515.9209    -999.2500       6.7858       8.0972       2.1608       2.0166       2.1410       2.0066
   2516.0732    -999.2500       8.2543       8.4536       2.1785       1.9366       2.1754       1.9333
   2516.2256    -999.2500       8.7387       8.8836       2.1910       1.8867       2.2050       1.8867
   2516.3779    -999.2500       8.2655       9.7744       2.1950       1.8533       2.2245       1.8666
   2516.5305    -999.2500       7.5837      10.7279       2.1930       1.8600       2.2289       1.8734
   2516.6829    -999.2500       7.4333      11.1735       2.1922       1.8900       2.2156       1.8933
   2516.8352    -999.2500       7.3904      10.9364       2.1849       1.9133       2.1859       1.9133
   2516.9875    -999.2500       7.2026      10.5797       2.1734       1.8933       2.1469       1.9066
   2517.1399    -999.2500       7.7938      10.3999       2.1596       2.0136       2.1099       1.9735
   2517.2925    -999.2500       8.1289      10.4068       2.1428       1.9731       2.0839       1.9565
   2517.4448    -999.2500       8.2774      10.4634       2.1157       1.9400       2.0687       1.9300
   2517.5972    -999.2500       7.2464      10.7937       2.0928       1.8966       2.0568       1.8966
   2517.7495    -999.2500       7.0504      10.8699       2.0784       1.8566       2.0412       1.8466
   2517.9021    -999.2500       7.2726      10.0884       2.0704       1.7899       2.0217       1.7899
   2518.0544    -999.2500       7.1397       9.0192       2.0646       1.7867       2.0042       1.7833
   2518.2068    -999.2500       7.2833       8.3230       2.0582       1.8133       1.9946       1.8033
   2518.3591    -999.2500       7.2368       8.3102       2.0420       1.8934       1.9918       1.8567
   2518.5117    -999.2500       7.0108       8.6639       2.0250       2.0102       1.9885       1.9936
   2518.6641    -999.2500       6.5937       9.3339       2.0124       2.1167       1.9778       2.1101
   2518.8164    -999.2500       6.3142      10.0670       2.0030       2.2968       1.9595       2.2401
   2518.9688    -999.2500       6.7777      10.2666       1.9935       2.2498       1.9384       2.2166
   2519.1211    -999.2500       6.6437       9.6289       1.9869       2.1566       1.9210       2.1533
   2519.2737    -999.2500       6.2955       9.0059       1.9796       2.0999       1.9113       2.0865
   2519.4260    -999.2500       6.5544       9.0035       1.9709       1.9532       1.9091       1.9398
   2519.5784    -999.2500       6.7218       9.0066       1.9649       1.8566       1.9113       1.8400
   2519.7307    -999.2500       7.0552       8.8565       1.9611       1.9602       1.9149       1.9335
   2519.8833    -999.2500       6.8879       8.2922       1.9575       2.0000       1.9172       2.0034
   2520.0356    -999.2500       7.3502       8.3470       1.9545       2.0300       1.9160       2.0033
   2520.1880    -999.2500       8.1428       8.8870       1.9493       2.0100       1.9092       1.9666
   2520.3403    -999.2500       8.9000       9.4606       1.9427       1.8965       1.8960       1.8766
   2520.4929    -999.2500       9.0825       9.5364       1.9391       1.8700       1.8780       1.8400
   2520.6453    -999.2500       8.6783       9.5267       1.9408       1.8266       1.8602       1.8133
   2520.7976    -999.2500       7.8294      10.2972       1.9484       1.8534       1.8501       1.8334
   2520.9500    -999.2500       7.8901      10.7902       1.9633       1.8733       1.8561       1.8567
   2521.1023    -999.2500       7.6454      10.7632       1.9822       1.9435       1.8851       1.9268
   2521.2549    -999.2500       7.3531      10.0518       2.0023       1.9934       1.9383       1.9934
   2521.4072    -999.2500       6.8890       9.6866       2.0178       2.1068       2.0062       2.1302
   2521.5596    -999.2500       6.9299       9.4698       2.0277       2.3335       2.0671       2.3435
   2521.7119    -999.2500       7.2765       9.8040       2.0307       2.5536       2.0949       2.5335
   2521.8645    -999.2500       8.0508       9.9398       2.0319       2.5265       2.0759       2.5232
   2522.0168    -999.2500       8.4252       9.9000       2.0372       2.4466       2.0211       2.4233
   2522.1692    -999.2500       8.3697       9.1193       2.0391       2.2298       1.9595       2.2165
   2522.3215    -999.2500       7.6680       8.7300       2.0323       2.0365       1.9180       2.0632
   2522.4741    -999.2500       7.7666       8.6899       2.0195       1.8965       1.9079       1.9298
   2522.6265    -999.2500       7.6900       8.5232       1.9950       1.8633       1.9225       1.8667
   2522.7788    -999.2500       7.3384       8.5634       1.9663       1.7633       1.9423       1.7799
   2522.9312    -999.2500       6.6571       9.0872       1.9470       1.7300       1.9475       1.7467
   2523.0835    -999.2500       6.5867       9.8209       1.9427       1.7467       1.9309       1.7567
   2523.2361    -999.2500       7.3300      10.3908       1.9432       1.8035       1.9012       1.7867
   2523.3884    -999.2500       7.1307      10.1962       1.9434       1.7499       1.8737       1.7599
   2523.5408    -999.2500       7.0381       9.6730       1.9467       1.7701       1.8606       1.7734
   2523.6931    -999.2500       7.5056       8.9925       1.9558       1.7399       1.8678       1.7566
   2523.8457    -999.2500       8.5105       8.8937       1.9755       1.7501       1.8974       1.7667
   2523.9980    -999.2500       9.6283       9.4372       2.0057       1.7767       1.9501       1.7733
   2524.1504    -999.2500       9.5422       9.7901       2.0436       1.7667       2.0253       1.7500
   2524.3027    -999.2500       8.6546       9.8099       2.0783       1.7199       2.1153       1.7200
   2524.4553    -999.2500       7.9265       9.7566       2.1036       1.7000       2.1997       1.6966
   2524.6077    -999.2500       7.7274      10.2805       2.1092       1.6867       2.2481       1.6833
   2524.7600    -999.2500       7.6529      10.4299       2.1029       1.6733       2.2371       1.6800
   2524.9124    -999.2500       7.2062      10.2899       2.0910       1.6567       2.1702       1.6800
   2525.0647    -999.2500       6.5074      10.0630       2.0679       1.6433       2.0749       1.6800
   2525.2173    -999.2500       6.4795       9.8497       2.0336       1.7469       1.9819       1.7535
   2525.3696    -999.2500       6.6059       9.7566       1.9926       1.8067       1.9090       1.8100
   2525.5220    -999.2500       7.0071       9.3463       1.9456       1.8834       1.8604       1.8867
   2525.6743    -999.2500       6.9842       9.0298       1.9037       1.9267       1.8314       1.9267
   2525.8269    -999.2500       6.9513       9.0903       1.8733       1.9100       1.8149       1.9300
   2525.9792    -999.2500       6.6771       9.3836       1.8533       1.8933       1.8046       1.9367
   2526.1316    -999.2500       7.2296       9.5334       1.8415       1.9634       1.7966       1.9867
   2526.2839    -999.2500       7.7448       9.6301       1.8336       2.0534       1.7891       2.0634
   2526.4365    -999.2500       7.3523       9.4830       1.8262       2.0600       1.7805       2.0766
   2526.5889    -999.2500       6.6425       9.5101       1.8189       2.0900       1.7700       2.0967
   2526.7412    -999.2500       6.5233       9.4833       1.8118       2.0766       1.7578       2.0967
   2526.8936    -999.2500       6.7412       9.5134       1.8048       2.0600       1.7451       2.0900
   2527.0459    -999.2500       6.6639       9.3163       1.7991       2.0867       1.7343       2.1100
   2527.1985    -999.2500       6.3884       8.6120       1.7936       2.1735       1.7279       2.1668
