#------------------------------------------------------------------------------
#
#   Created by  : [OpenWorks] Log Export Utility (LEXP)
#   Created on  : 2015-10-01 09:50:16
#   Project     : CANT971
#   User        : R5K
#   Interpreter : PEP
#
#------------------------------------------------------------------------------
~VERSION INFORMATION
VERS. 2.0 : CWLS Log ASCII Standard - version 2.0
WRAP.  NO : One line per depth step
~WELL INFORMATION
#MNEMONIC   .UNIT                                           VALUE :DESCRIPTION
#------------------------------------------------------------------------------
STRT        .M                                           352.7300 :START DEPTH
STOP        .M                                          2346.8840 :STOP DEPTH
STEP        .M                                             0.1524 :STEP
NULL        .                                           -999.2500 :NULL VALUE
COMP        .                                   PEMEX EXPL & PROD :COMPANY
WELL        .                                        CANTARELL-64 :WELL
FLD         .                                           CANTARELL :FIELD
LOC         .                                             UNKNOWN :LOCATION
CNTY        .                                      CD. DEL CARMEN :COUNTY
STAT        .                                            CAMPECHE :STATE
CTRY        .                                              MEXICO :COUNTRY
SRVC        .                                             UNKNOWN :SERVICE COMPANY
DATE        .                                             UNKNOWN :LOG DATE
UWI         .                                          3060000172 :UNIQUE WELL ID
XCOORD      .                                       599695.280000 :SURFACE X
YCOORD      .                                      2143036.290000 :SURFACE Y
LAT         .                                           19.380142 :LATITUDE
LON         .                                          -92.050647 :LONGITUDE
ELEV        .M                                            26.7400 :SURFACE ELEV
ELEV_TYPE   .                                                  KB :ELEV TYPE
~CURVE INFORMATION
#MNEMONIC.UNIT        API CODE       : CURVE DESCRIPTION
#------------------------------------------------------------------------------
DEPTH    .M                          : Measured Depth
CALI     .inches      UNKNOWN        : CALI:UNKNOWN:rC:NONE:v0 (auto-composite)
DRHO     .g/cm3       UNKNOWN        : DRHO:UNKNOWN:rC:NONE:v0 (auto-composite)
DT       .us/ft       UNKNOWN        : DT:DT:rC:NONE:v0 (auto-composite)
GR       .API         UNKNOWN        : GR:GR-Load:rC:NONE:v0 (auto-composite)
ILD      .ohm.m       UNKNOWN        : ILD:ILD-Load:rC:NONE:v0 (auto-composite)
LLD      .ohm.m       UNKNOWN        : LLD:UNKNOWN:rC:NONE:v0 (auto-composite)
LLS      .ohm.m       UNKNOWN        : LLS:UNKNOWN:rC:NONE:v0 (auto-composite)
MSFL     .ohm.m       UNKNOWN        : MSFL:UNKNOWN:rC:NONE:v0 (auto-composite)
NPHI     .v/v_decimal UNKNOWN        : NPHI:NPHI:rC:NONE:v0 (auto-composite)
PEF      .b/elec      UNKNOWN        : PEF:UNKNOWN:rC:NONE:v0 (auto-composite)
RHOB     .g/cm3       UNKNOWN        : RHOB:RHOB-Load:rC:NONE:v0 (auto-composite)
~A     DEPTH        CALI         DRHO           DT           GR          ILD          LLD          LLS         MSFL         NPHI          PEF         RHOB
# ...
   2341.8547      4.7540       0.3050      47.7059      19.3590       0.0000    2671.2791    2739.5959       9.2810      13.4760       2.4020       2.6680 
   2342.0073      4.7540       0.3050      47.6659      19.3590       0.0000    1375.1418    1425.1199       9.2810      13.4760       2.4020       2.6680 
   2342.1597      4.7540       0.3050      47.5610      19.3590       0.0000      67.1290      98.6000       9.2810      13.4760       2.4020       2.6680 
   2342.3120      4.7540       0.3050      47.3919      19.3590       0.0000      67.1290      98.6000       9.2810      13.4760       2.4020       2.6680 
   2342.4644      4.7540       0.3050      47.2702      19.3590       0.0000      67.1290      98.6000       9.2810      13.4760       2.4020       2.6680 
   2342.6169      4.7540       0.3050      47.1953      19.3590       0.0000      67.1290      98.6000       9.2810      13.4760       2.4020       2.6680 
   2342.7693      4.7540       0.3050      47.1105      19.3590       0.0000      67.1290      98.6000       9.2810      13.4760       2.4020       2.6680 
   2342.9216      4.7540       0.3050      47.0159      19.3590       0.0000      56.8415      83.4747       7.8855      13.4760       2.4020       2.6680 
   2343.0740      4.7540       0.3050      46.9776      19.3590       0.0000      46.7680      68.6640       6.5190      13.4760       2.4020       2.6680 
   2343.2266      4.7540       0.3050      46.9946      19.3590       0.0000      23.1098      33.8818       3.3087      13.4760       2.4020       2.6680 
   2343.3789      4.7540       0.3050      47.0426      19.0485       0.0000       0.2000       0.2000       0.2000      13.4760       2.4020       2.6680 
   2343.5312      4.7540       0.3050      47.1210      18.4308       0.0000       0.2000       0.2000       0.2000      13.4760       2.4020       2.6680 
   2343.6836      4.7540       0.3050      47.1952      13.5648       0.0000       0.2000       0.2000       0.2000      13.4760       2.4020       2.6680 
   2343.8359      4.7540       0.3050      47.2653       4.5067       0.0000       0.2000       0.2000       0.2000      13.4760       2.4020       2.6680 
   2343.9885      4.7540       0.3050      47.2995       0.0000       0.0000       0.2000       0.2000       0.2000      13.4760       2.4020       2.6680 
   2344.1409      4.7540       0.3050      47.2985       0.0000       0.0000       0.2000       0.2000       0.2000      13.4760       2.4020       2.6680 
   2344.2932      4.7540       0.3050      47.2899       0.0000       0.0000       0.2000       0.2000       0.2000      13.4760       2.4020       2.6680 
   2344.4456      4.7540       0.3050      47.2739       0.0000       0.0000       0.2000       0.2000       0.2000      13.4760       2.4020       2.6680 
   2344.5981      4.7540       0.3050      47.2678       0.0000       0.0000       0.2000       0.2000       0.2000      13.4760       2.4020       2.6680 
   2344.7505      4.7540       0.3050      47.2713       0.0000       0.0000       0.2000       0.2000       0.2000      13.4760       2.4020       2.6680 
   2344.9028      4.7540       0.3050      47.2813       0.0000       0.0000       0.2000       0.2000       0.2000      13.4760       2.4020       2.6680 
   2345.0552      4.7540       0.3050      47.2978       0.0000       0.0000       0.2000       0.2000       0.2000      13.4760       2.4020       2.6680 
   2345.2075      4.7540       0.3050      47.3113       0.0000       0.0000       0.2000       0.2000       0.2000      13.4760       2.4020       2.6680 
   2345.3601      4.7540       0.3050      47.3218       0.0000       0.0000       0.2000       0.2000       0.2000      13.4760       2.4020       2.6680 
   2345.5125      4.7540       0.3050      47.3255       0.0000       0.0000       0.2000       0.2000       0.2000      13.4760       2.4020       2.6680 
   2345.6648      4.7540       0.3050      47.3225       0.0000       0.0000       0.2000       0.2000       0.2000      13.4760       2.4020       2.6680 
   2345.8171      4.7540       0.3050      47.3150       0.0000       0.0000       0.2000       0.2000       0.2000      13.4760       2.4020       2.6680 
   2345.9697      4.7540       0.3050      47.3030       0.0000       0.0000       0.2000       0.2000       0.2000      13.4760       2.4020       2.6680 
   2346.1221      4.7540       0.3050      47.2887       0.0000       0.0000       0.2000       0.2000       0.2000      13.4760       2.4020       2.6680 
   2346.2744      4.7540       0.3050      47.2722       0.0000       0.0000       0.2000       0.2000       0.2000      13.4760       2.4020       2.6680 
   2346.4268      4.7540       0.3050      47.2660       0.0000    -999.2500       0.2000       0.2000       0.2000      13.4760       2.4020       2.6680 
   2346.5793      4.7540       0.3050      47.2700       0.0000    -999.2500       0.2000       0.2000       0.2000      13.4760       2.4020       2.6680 
   2346.7317      4.7540       0.3050      47.2790       0.0000    -999.2500       0.2000       0.2000       0.2000      13.4760       2.4020       2.6680 
   2346.8840      4.7540       0.3050      47.2930       0.0000    -999.2500       0.2000       0.2000       0.2000      13.4760       2.4020       2.6680 
