#------------------------------------------------------------------------------
#
#   Created by  : [OpenWorks] Log Export Utility (LEXP)
#   Created on  : 2016-05-23 11:57:24
#   Project     : CANT971
#   User        : R5K
#   Interpreter : PEP
#
#------------------------------------------------------------------------------
~VERSION INFORMATION
VERS. 2.0 : CWLS Log ASCII Standard - version 2.0
WRAP.  NO : One line per depth step
~WELL INFORMATION
#MNEMONIC   .UNIT                                           VALUE :DESCRIPTION
#------------------------------------------------------------------------------
STRT        .M                                           648.1292 :START DEPTH
STOP        .M                                          2685.5647 :STOP DEPTH
STEP        .M                                             0.1524 :STEP
NULL        .                                           -999.2500 :NULL VALUE
COMP        .                                   PEMEX EXPL & PROD :COMPANY
WELL        .                                                 81D :WELL
FLD         .                                           CANTARELL :FIELD
LOC         .                                             UNKNOWN :LOCATION
CNTY        .                                      CD. DEL CARMEN :COUNTY
STAT        .                                            CAMPECHE :STATE
CTRY        .                                              MEXICO :COUNTRY
SRVC        .                                             UNKNOWN :SERVICE COMPANY
DATE        .                                             UNKNOWN :LOG DATE
UWI         .                                          3060000666 :UNIQUE WELL ID
XCOORD      .                                       601717.100000 :SURFACE X
YCOORD      .                                      2142375.260000 :SURFACE Y
LAT         .                                           19.374067 :LATITUDE
LON         .                                          -92.031430 :LONGITUDE
ELEV        .M                                            30.0000 :SURFACE ELEV
ELEV_TYPEF  .b/elec                                            KB :ELEV TYPE
~CURVE INFORMATION
#MNEMONIC.UNIT        API CODE       : CURVE DESCRIPTION
#------------------------------------------------------------------------------
DEPTH    .M                          : Measured Depth
CALI     .in          UNKNOWN        : CALI:UNKNOWN:rC:NONE:v0 (auto-composite)
CGR      .API         UNKNOWN        : CGR:UNKNOWN:rC:NONE:v0 (auto-composite)
DRHO     .g/cm3       UNKNOWN        : DRHO:UNKNOWN:rC:NONE:v0 (auto-composite)
DT       .us/ft       UNKNOWN        : DT:DT:rC:NONE:v0 (auto-composite)
GR       .API         UNKNOWN        : GR:UNKNOWN:rC:NONE:v0 (auto-composite)
ILD      .ohmm        UNKNOWN        : ILD:UNKNOWN:rC:NONE:v0 (auto-composite)
ILM      .ohmm        UNKNOWN        : ILM:UNKNOWN:rC:NONE:v0 (auto-composite)
LLD      .ohmm        UNKNOWN        : LLD:UNKNOWN:rC:NONE:v0 (auto-composite)
LLS      .ohmm        UNKNOWN        : LLS:UNKNOWN:rC:NONE:v0 (auto-composite)
NPHI     .v/v_decimal UNKNOWN        : NPHI:NPHI:rC:NONE:v0 (auto-composite)
PEF      .b/elec      UNKNOWN        : PEF:UNKNOWN:rC:NONE:v0 (auto-composite)
POTA     .%           UNKNOWN        : POTA:UNKNOWN:rC:NONE:v0 (auto-composite)
RHOB     .g/cm3       UNKNOWN        : RHOB:UNKNOWN:rC:NONE:v0 (auto-composite)
THOR     .ppm         UNKNOWN        : THOR:UNKNOWN:rC:NONE:v0 (auto-composite)
URAN     .ppm         UNKNOWN        : URAN:UNKNOWN:rC:NONE:v0 (auto-composite)
~A     DEPTH         CALI          CGR         DRHO           DT           GR          ILD          ILM          LLD          LLS         NPHI          PEF         POTA         RHOB         THOR         URAN
# ...
   1789.3004    -999.2500      27.2268       0.0418     109.1369      47.8824       1.0381       1.1638    -999.2500    -999.2500      38.2610       4.5659       0.7996       2.4894       4.5653       2.2711
   1789.4528    -999.2500      22.3324       0.0428     109.1779      47.3778       1.0691       1.2068    -999.2500    -999.2500      38.2610       4.5089       0.7066       2.4924       3.4789       2.7880
   1789.6052    -999.2500      22.2434       0.0414     109.0204      47.6473       1.1086       1.2523    -999.2500    -999.2500      38.2610       4.4413       0.7012       2.5015       3.4785       2.8260
   1789.7576    -999.2500      23.2779       0.0394     108.7977      48.1005       1.1502       1.2984    -999.2500    -999.2500      38.2610       4.3711       0.7162       2.5120       3.7320       2.7520
   1789.9100    -999.2500      25.5949       0.0398     108.8785      49.2492       1.2320       1.3753    -999.2500    -999.2500      38.2610       4.2852       0.7559       2.5034       4.3068       2.6181
   1790.0624    -999.2500      28.2118       0.0408     108.9872      50.5571       1.3230       1.4593    -999.2500    -999.2500      38.2610       4.1957       0.8014       2.4904       4.9568       2.4701
   1790.2148    -999.2500      29.2528       0.0382     108.7649      51.2182       1.3181       1.4604    -999.2500    -999.2500      38.2610       4.2135       0.8647       2.4783       4.8717       2.4440
   1790.3672    -999.2500      29.9250       0.0347     108.3747      51.7303       1.2911       1.4424    -999.2500    -999.2500      38.2610       4.2560       0.9322       2.4663       4.6146       2.4465
   1790.5197    -999.2500      30.8931       0.0381     108.4919      51.9287       1.2285       1.4017    -999.2500    -999.2500      38.2610       4.3102       0.9778       2.4705       4.7225       2.3476
   1790.6720    -999.2500      31.9301       0.0430     108.6473      52.0541       1.1575       1.3558    -999.2500    -999.2500      38.2610       4.3671       1.0183       2.4785       4.9155       2.2251
   1790.8245    -999.2500      32.9658       0.0420     108.4273      51.9194       1.1521       1.3417    -999.2500    -999.2500      38.2610       4.4197       1.0576       2.4760       5.0643       2.1026
   1790.9768    -999.2500      34.0013       0.0395     108.0015      51.7235       1.1621       1.3352    -999.2500    -999.2500      38.2610       4.4711       1.0966       2.4710       5.2028       1.9802
   1791.1292    -999.2500      32.0929       0.0414     107.4345      51.3740       1.1567       1.3137    -999.2500    -999.2500      38.2610       4.4360       1.0160       2.4708       5.0640       2.1204
   1791.2816    -999.2500      29.4985       0.0444     106.9136      50.9880       1.1477       1.2887    -999.2500    -999.2500      38.2610       4.3804       0.9075       2.4718       4.8605       2.3219
   1791.4340    -999.2500      29.3656       0.0442     106.8338      51.0867       1.1135       1.2454    -999.2500    -999.2500      38.2610       4.3371       0.8740       2.4687       4.8702       2.3892
   1791.5864    -999.2500      29.8066       0.0432     106.9480      51.2966       1.0735       1.1979    -999.2500    -999.2500      38.2610       4.2966       0.8580       2.4647       4.9297       2.4252
   1791.7388    -999.2500      30.6368       0.0406     106.6930      51.7796       1.0546       1.2138    -999.2500    -999.2500      38.2610       4.2772       0.9438       2.4603       4.7813       2.3756
   1791.8912    -999.2500      31.5578       0.0376     106.3311      52.3257       1.0406       1.2442    -999.2500    -999.2500      38.1220       4.2627       1.0533       2.4559       4.5843       2.3061
   1792.0436    -999.2500      34.1137       0.0378     106.0908      53.0117       1.1340       1.3570    -999.2500    -999.2500      36.6049       4.3994       1.1835       2.4562       4.7489       2.0915
   1792.1960    -999.2500      37.0511       0.0388     105.9452      53.7304       1.2525       1.4889    -999.2500    -999.2500      34.6250       4.5713       1.3185       2.4577       4.9979       1.8430
   1792.3484    -999.2500      38.0395       0.0378     106.1230      53.8840       1.3304       1.5747    -999.2500    -999.2500      33.0653       4.6457       1.3639       2.4564       5.0835       1.7518
   1792.5009    -999.2500      38.5730       0.0363     106.4460      53.9050       1.3989       1.6496    -999.2500    -999.2500      31.7037       4.6971       1.3884       2.4544       5.1310       1.6973
   1792.6532    -999.2500      38.4527       0.0352     106.3953      54.0180       1.3630       1.6162    -999.2500    -999.2500      31.2690       4.6786       1.3817       2.4589       5.1132       1.7227
   1792.8057    -999.2500      38.1797       0.0342     106.3019      54.1529       1.3023       1.5570    -999.2500    -999.2500      31.0237       4.6435       1.3677       2.4649       5.0802       1.7667
   1792.9580    -999.2500      37.6039       0.0352     106.4413      54.2561       1.2386       1.4838    -999.2500    -999.2500      30.5798       4.5984       1.3164       2.4693       5.1863       1.8269
   1793.1104    -999.2500      36.9575       0.0367     106.7045      54.3520       1.1741       1.4074    -999.2500    -999.2500      30.0302       4.5509       1.2564       2.4732       5.3248       1.8909
   1793.2628    -999.2500      36.2060       0.0358     107.3170      53.8886       1.1356       1.3488    -999.2500    -999.2500      29.5081       4.5355       1.2146       2.4728       5.2947       1.9451
   1793.4152    -999.2500      35.4300       0.0343     107.9631      53.2958       1.1031       1.2943    -999.2500    -999.2500      29.1590       4.5275       1.1771       2.4713       5.2252       1.9971
   1793.5676    -999.2500      37.0081       0.0372     108.3801      53.2874       1.1112       1.2779    -999.2500    -999.2500      29.6197       4.5536       1.2478       2.4759       5.3895       1.8202
   1793.7200    -999.2500      39.1365       0.0412     108.6734      53.4147       1.1287       1.2704    -999.2500    -999.2500      30.5086       4.5875       1.3438       2.4819       5.6085       1.5897
   1793.8724    -999.2500      39.4399       0.0428     105.0930      53.7963       1.1441       1.2799    -999.2500    -999.2500      31.0888       4.6664       1.3758       2.4834       5.5463       1.5890
   1794.0248    -999.2500      39.3164       0.0438     100.7401      54.2376       1.1591       1.2934    -999.2500    -999.2500      31.4561       4.7559       1.3928       2.4839       5.4183       1.6419
   1794.1772    -999.2500      38.4540       0.0432      97.3426      54.1023       1.1511       1.2818    -999.2500    -999.2500      30.9203       4.8257       1.3040       2.4856       5.5938       1.7379
   1794.3296    -999.2500      37.4186       0.0422      94.8373      53.8307       1.1375       1.2643    -999.2500    -999.2500      30.1312       4.8908       1.1904       2.4876       5.8404       1.8440
   1794.4821    -999.2500      36.6698       0.0387      96.6678      53.4039       1.1338       1.2586    -999.2500    -999.2500      30.8350       4.8997       1.1126       2.4892       6.0014       1.8717
   1794.6344    -999.2500      35.9879       0.0347      99.9807      52.9416       1.1323       1.2556    -999.2500    -999.2500      31.9844       4.8957       1.0431       2.4907       6.1424       1.8812
   1794.7869    -999.2500      34.2662       0.0344     100.2671      52.4653       1.1466       1.2668    -999.2500    -999.2500      30.9952       4.9527       0.9963       2.4894       5.8199       2.0164
   1794.9392    -999.2500      32.3022       0.0349      99.6199      51.9857       1.1646       1.2813    -999.2500    -999.2500      29.6061       5.0236       0.9548       2.4874       5.3894       2.1809
   1795.0916    -999.2500      31.2259       0.0358      99.1144      51.6425       1.1879       1.3059    -999.2500    -999.2500      29.7523       5.0252       0.9385       2.4878       5.1207       2.2655
