#------------------------------------------------------------------------------
#
#   Created by  : [OpenWorks] Log Export Utility (LEXP)
#   Created on  : 2016-05-23 11:50:52
#   Project     : CANT971
#   User        : R5K
#   Interpreter : PEP
#
#------------------------------------------------------------------------------
~VERSION INFORMATION
VERS. 2.0 : CWLS Log ASCII Standard - version 2.0
WRAP.  NO : One line per depth step
~WELL INFORMATION
#MNEMONIC   .UNIT                                           VALUE :DESCRIPTION
#------------------------------------------------------------------------------
STRT        .M                                           540.4100 :START DEPTH
STOP        .M                                          3242.0049 :STOP DEPTH
STEP        .M                                             0.1524 :STEP
NULL        .                                           -999.2500 :NULL VALUE
COMP        .                                   PEMEX EXPL & PROD :COMPANY
WELL        .                                                1041 :WELL
FLD         .                                           CANTARELL :FIELD
LOC         .                                             UNKNOWN :LOCATION
CNTY        .                                      CD. DEL CARMEN :COUNTY
STAT        .                                            CAMPECHE :STATE
CTRY        .                                              MEXICO :COUNTRY
SRVC        .                                             UNKNOWN :SERVICE COMPANY
DATE        .                                             UNKNOWN :LOG DATE
UWI         .                                          3060000494 :UNIQUE WELL ID
XCOORD      .                                       596162.660000 :SURFACE X
YCOORD      .                                      2150607.940000 :SURFACE Y
LAT         .                                           19.448736 :LATITUDE
LON         .                                          -92.083900 :LONGITUDE
ELEV        .M                                            30.0000 :SURFACE ELEV
ELEV_TYPE   .                                                  KB :ELEV TYPE
~CURVE INFORMATION
#MNEMONIC.UNIT        API CODE       : CURVE DESCRIPTION
#------------------------------------------------------------------------------
DEPTH    .M                          : Measured Depth
CALI     .inches      UNKNOWN        : CALI:litodensidad:rC:NONE:v0 (auto-composite)
DRHO     .g/cm3      UNKNOWN        : DRHO:DRHO-Load:rC:NONE:v0 (auto-composite)
DT       .us/ft       UNKNOWN        : DT:DT:rC:NONE:v0 (auto-composite)
GR       .API         UNKNOWN        : GR:GR-Load:rC:NONE:v0 (auto-composite)
ILD      .ohmm        UNKNOWN        : ILD:ILD-Load:rC:NONE:v0 (auto-composite)
ILM      .ohmm        UNKNOWN        : ILM:ILM-Load:rC:NONE:v0 (auto-composite)
LLD      .ohmm        UNKNOWN        : LLD:LLD-Load:rC:NONE:v0 (auto-composite)
LLS      .ohmm        UNKNOWN        : LLS:LLS-Load:rC:NONE:v0 (auto-composite)
MSFL     .ohmm        UNKNOWN        : MSFL:MSFL-Load:rC:NONE:v0 (auto-composite)
NPHI     .v/v_decimal UNKNOWN        : NPHI:NPHI-Load:rC:NONE:v0 (auto-composite)
PEF      .b/elec      UNKNOWN        : PEF:PEF-Load:rC:NONE:v0 (auto-composite)
RHOB     .g/cm3       UNKNOWN        : RHOB:RHOB-Load:rC:NONE:v0 (auto-composite)
~A     DEPTH         CALI         DRHO           DT           GR          ILD          ILM          LLD          LLS         MSFL         NPHI          PEF         RHOB
# ...
   2647.1875    -999.2500      -0.0020      76.0220      37.1040    -999.2500    -999.2500     343.5140     259.4480     178.7950       0.1037       3.3030       2.6100
   2647.3401    -999.2500      -0.0010      73.1100      36.6430    -999.2500    -999.2500     333.2860     248.1150     167.5620       0.1045       3.2440       2.6090
   2647.4924    -999.2500      -0.0010      70.2020      36.1820    -999.2500    -999.2500     323.3800     237.2930     157.0510       0.1053       3.1850       2.6080
   2647.6448    -999.2500      -0.0020      71.5540      36.3220    -999.2500    -999.2500     270.0130     195.4910     129.9980       0.1202       3.2100       2.6000
   2647.7971    -999.2500      -0.0030      72.9070      36.4620    -999.2500    -999.2500     225.4540     161.0530     107.6050       0.1202       3.2350       2.5930
   2647.9495    -999.2500      -0.0040      74.9610      36.8600    -999.2500    -999.2500     179.7660     129.1510      75.8710       0.1195       3.3010       2.5840
   2648.1021    -999.2500      -0.0060      77.0170      37.2580    -999.2500    -999.2500     143.2850     103.5320      53.4650       0.1189       3.3680       2.5760
   2648.2544    -999.2500      -0.0050      76.1790      40.6290    -999.2500    -999.2500     130.9080      96.3380     114.9970       0.1099       3.2880       2.5810
   2648.4067    -999.2500      -0.0040      75.3410      40.6290    -999.2500    -999.2500     119.6000      89.6430     114.9970       0.1099       3.2880       2.5860
   2648.5591    -999.2500      -0.0010      73.7380      40.3390    -999.2500    -999.2500     114.5750      87.4490     103.5370       0.1116       3.3040       2.5900
   2648.7117    -999.2500       0.0010      72.1320      40.0490    -999.2500    -999.2500     109.7540      85.3050      93.2030       0.1133       3.3200       2.5950
   2648.8640    -999.2500       0.0000      73.9930      37.8660    -999.2500    -999.2500      96.2540      76.0550      68.7400       0.1246       3.3920       2.5620
   2649.0164    -999.2500      -0.0020      73.9930      35.6830    -999.2500    -999.2500      96.2540      76.0550      68.7400       0.1246       3.3920       2.5620
   2649.1687    -999.2500      -0.0040      73.7210      34.0890    -999.2500    -999.2500      97.9900      77.1170      74.9420       0.1236       3.3510       2.5680
   2649.3213    -999.2500      -0.0060      73.4480      32.4930    -999.2500    -999.2500      99.7600      78.1960      81.7150       0.1226       3.3100       2.5740
   2649.4736    -999.2500      -0.0060      71.4940      33.8610    -999.2500    -999.2500     105.5880      81.7440      93.3560       0.1174       3.3320       2.5840
   2649.6260    -999.2500      -0.0050      69.5390      35.2290    -999.2500    -999.2500     111.7560      85.4520     106.6560       0.1122       3.3540       2.5950
   2649.7783    -999.2500      -0.0050      71.4010      39.4730    -999.2500    -999.2500     118.5930      89.5420     139.1200       0.1010       3.4250       2.6020
   2649.9307    -999.2500      -0.0050      71.4010      39.4730    -999.2500    -999.2500     125.8470      93.8270     139.1200       0.1010       3.4250       2.6100
   2650.0833    -999.2500      -0.0030      68.9730      38.2970    -999.2500    -999.2500     130.2930      97.7020     135.9080       0.1040       3.3770       2.6130
   2650.2356    -999.2500      -0.0020      66.5490      37.1230    -999.2500    -999.2500     134.8880     101.7310     132.7740       0.1070       3.3300       2.6160
   2650.3879    -999.2500       0.0090      48.9280      37.2590    -999.2500    -999.2500     154.3750     118.9520     135.2480       0.1043       3.2450       2.6320
   2650.5403    -999.2500       0.0090      48.9280      37.3960    -999.2500    -999.2500     154.3750     118.9520     135.2480       0.1043       3.2450       2.6320
   2650.6929    -999.2500       0.0090      54.2140      38.2700    -999.2500    -999.2500     152.5850     118.0290     131.1520       0.1085       3.2840       2.6320
   2650.8452    -999.2500       0.0090      59.4910      39.1430    -999.2500    -999.2500     150.8190     117.1150     127.1880       0.1127       3.3230       2.6310
   2650.9976    -999.2500       0.0050      64.8620      37.0780    -999.2500    -999.2500     151.2410     115.6460      84.5140       0.1229       3.1620       2.6210
   2651.1499    -999.2500       0.0010      70.2320      37.0780    -999.2500    -999.2500     151.6640     115.6460      84.5140       0.1229       3.1620       2.6100
   2651.3025    -999.2500      -0.0020      78.9300      37.1510    -999.2500    -999.2500     175.5920     132.7790      86.9680       0.1228       3.1690       2.5990
   2651.4548    -999.2500      -0.0060      87.6130      37.2240    -999.2500    -999.2500     203.2490     152.4170      89.4900       0.1226       3.1750       2.5870
   2651.6072    -999.2500      -0.0070      85.5950      36.1680    -999.2500    -999.2500     249.7040     185.6730     103.8200       0.1219       3.2090       2.5760
   2651.7595    -999.2500      -0.0080      83.5780      36.1680    -999.2500    -999.2500     306.7780     226.1850     120.4450       0.1219       3.2090       2.5640
   2651.9119    -999.2500      -0.0090      82.0850      36.2240    -999.2500    -999.2500     354.1630     260.4000     130.5740       0.1244       3.1790       2.5580
   2652.0645    -999.2500      -0.0110      80.5890      36.2790    -999.2500    -999.2500     408.9620     299.8580     141.5740       0.1269       3.1500       2.5520
   2652.2168    -999.2500      -0.0090      76.3780      36.0590    -999.2500    -999.2500     516.4110     373.9570     155.4450       0.1171       3.1710       2.5610
   2652.3691    -999.2500      -0.0080      72.1660      35.8380    -999.2500    -999.2500     516.4110     373.9570     155.4450       0.1171       3.1920       2.5710
   2652.5215    -999.2500      -0.0050      61.7530      35.6010    -999.2500    -999.2500     507.8940     364.8560     152.3980       0.1177       3.2440       2.5820
   2652.6741    -999.2500      -0.0030      51.3230      35.3630    -999.2500    -999.2500     499.5050     355.9630     149.4060       0.1184       3.2960       2.5930
   2652.8264    -999.2500      -0.0050      55.1160      36.3220    -999.2500    -999.2500     428.7210     306.5940     116.4920       0.1334       3.2120       2.5570
   2652.9788    -999.2500      -0.0050      58.9080      36.3220    -999.2500    -999.2500     367.9670     264.0730      90.8290       0.1334       3.2120       2.5570
   2653.1311    -999.2500      -0.0030      64.8750      36.0410    -999.2500    -999.2500     313.1350     221.4480      74.8830       0.1250       3.2170       2.5740
   2653.2837    -999.2500      -0.0010      70.8510      35.7600    -999.2500    -999.2500     266.4050     185.6510      61.7170       0.1165       3.2220       2.5900
   2653.4360    -999.2500      -0.0030      70.8280      35.5220    -999.2500    -999.2500     253.5070     187.0840      73.1220       0.1168       3.3100       2.5870
   2653.5884    -999.2500      -0.0050      70.8060      35.2830    -999.2500    -999.2500     241.2340     188.5290      86.6330       0.1171       3.3980       2.5830
   2653.7407    -999.2500      -0.0060      72.0140      33.2690    -999.2500    -999.2500     251.1760     196.3820      83.1220       0.1236       3.5180       2.5670
   2653.8931    -999.2500      -0.0070      73.2230      33.2690    -999.2500    -999.2500     261.5280     204.5630      79.7530       0.1236       3.5180       2.5670
   2654.0457    -999.2500      -0.0070      74.2750      33.7590    -999.2500    -999.2500     278.6340     216.0780      74.4720       0.1228       3.4990       2.5680
   2654.1980    -999.2500      -0.0070      75.3250      34.2490    -999.2500    -999.2500     296.8290     228.2210      69.5480       0.1220       3.4800       2.5700
   2654.3503    -999.2500      -0.0030      73.7640      35.4100    -999.2500    -999.2500     326.9480     258.7440      72.3120       0.1178       3.3170       2.5870
