#------------------------------------------------------------------------------
#
#   Created by  : [OpenWorks] Log Export Utility (LEXP)
#   Created on  : 2016-05-12 17:01:28
#   Project     : CANT971
#   User        : R5K
#   Interpreter : PEP
#
#------------------------------------------------------------------------------
~VERSION INFORMATION
VERS. 2.0 : CWLS Log ASCII Standard - version 2.0
WRAP.  NO : One line per depth step
~WELL INFORMATION
#MNEMONIC   .UNIT                                           VALUE :DESCRIPTION
#------------------------------------------------------------------------------
STRT        .M                                           350.5962 :START DEPTH
STOP        .M                                          2218.5630 :STOP DEPTH
STEP        .M                                             0.1524 :STEP
NULL        .                                           -999.2500 :NULL VALUE
COMP        .                                   PEMEX EXPL & PROD :COMPANY
WELL        .                                                  79 :WELL
FLD         .                                           CANTARELL :FIELD
LOC         .                                             UNKNOWN :LOCATION
CNTY        .                                      CD. DEL CARMEN :COUNTY
STAT        .                                            CAMPECHE :STATE
CTRY        .                                              MEXICO :COUNTRY
SRVC        .                                             UNKNOWN :SERVICE COMPANY
DATE        .                                             UNKNOWN :LOG DATE
UWI         .                                          3060000183 :UNIQUE WELL ID
XCOORD      .                                       602154.470000 :SURFACE X
YCOORD      .                                      2147172.410000 :SURFACE Y
LAT         .                                           19.417394 :LATITUDE
LON         .                                          -92.027010 :LONGITUDE
ELEV        .M                                            28.1700 :SURFACE ELEV
ELEV_TYPE   .                                                  KB :ELEV TYPE
~CURVE INFORMATION
#MNEMONIC.UNIT        API CODE       : CURVE DESCRIPTION
#------------------------------------------------------------------------------
DEPTH    .M                          : Measured Depth
CALI     .inches      UNKNOWN        : CALI:CALI-Load:rC:NONE:v0 (auto-composite)
DT       .us/ft       UNKNOWN        : DT:DT:rC:NONE:v0 (auto-composite)
GR       .UNKNOWN     UNKNOWN        : GR:GR-Load:rC:NONE:v0 (auto-composite)
ILD      .UNKNOWN     UNKNOWN        : ILD:ILD-Load:rC:NONE:v0 (auto-composite)
LLD      .UNKNOWN     UNKNOWN        : LLD:LLD-Load:rC:NONE:v0 (auto-composite)
LLS      .UNKNOWN     UNKNOWN        : LLS:LLS-Load:rC:NONE:v0 (auto-composite)
MSFL     .UNKNOWN     UNKNOWN        : MSFL:MSFL-Load:rC:NONE:v0 (auto-composite)
NPHI     .v/v_decimal UNKNOWN        : NPHI:NPHI:rC:NONE:v0 (auto-composite)
RG       .API         UNKNOWN        : RG:UNKNOWN:rC:NONE:v0 (auto-composite)
RHOB     .UNKNOWN     UNKNOWN        : RHOB:RHOB-Load:rC:NONE:v0 (auto-composite)
SP       .UNKNOWN     UNKNOWN        : SP:SP-Load:rC:NONE:v0 (auto-composite)
~A     DEPTH         CALI           DT           GR          ILD          LLD          LLS         MSFL         NPHI           RG         RHOB           SP
    350.5962      18.1413    -999.2500      30.3615       0.8900    -999.2500    -999.2500    -999.2500       0.4818    -999.2500       2.0303     -20.4750
    350.7486      18.1698    -999.2500      29.8805       0.9400    -999.2500    -999.2500    -999.2500       0.4802    -999.2500       2.0228     -17.7371
    350.9010      18.2030    -999.2500      29.5210       0.9270    -999.2500    -999.2500    -999.2500       0.4833    -999.2500       2.0053     -15.7873
    351.0534      18.2410    -999.2500      29.2830       0.8510    -999.2500    -999.2500    -999.2500       0.4910    -999.2500       1.9777     -14.6257
    351.2058      18.3785    -999.2500      29.1640       0.8518    -999.2500    -999.2500    -999.2500       0.4915    -999.2500       1.9345     -14.2073
    351.3582      18.6155    -999.2500      29.1640       0.9293    -999.2500    -999.2500    -999.2500       0.4847    -999.2500       1.8755     -14.5318
    351.5106      19.2615    -999.2500      29.0390       0.9985    -999.2500    -999.2500    -999.2500       0.4733    -999.2500       1.7800     -14.8415
    351.6630      20.3165    -999.2500      28.7890       1.0595    -999.2500    -999.2500    -999.2500       0.4572    -999.2500       1.6480     -15.1365
    351.8154      21.0697    -999.2500      28.8895       1.1083    -999.2500    -999.2500    -999.2500       0.4516    -999.2500       1.5835     -15.0980
    351.9678      21.5213    -999.2500      29.3405       1.1448    -999.2500    -999.2500    -999.2500       0.4563    -999.2500       1.5865     -14.7260
    352.1202      21.7327    -999.2500      30.1661       1.1743    -999.2500    -999.2500    -999.2500       0.4629    -999.2500       1.6205     -14.3852
    352.2726      21.7042    -999.2500      31.3661       1.1968    -999.2500    -999.2500    -999.2500       0.4712    -999.2500       1.6855     -14.0757
    352.4250      21.4257    -999.2500      31.8535       1.1957    -999.2500    -999.2500    -999.2500       0.4787    -999.2500       1.7398     -14.0373
    352.5774      20.8973    -999.2500      31.6285       1.1713    -999.2500    -999.2500    -999.2500       0.4854    -999.2500       1.7832     -14.2697
    352.7298      20.6663    -999.2500      31.2912       1.1680    -999.2500    -999.2500    -999.2500       0.4861    -999.2500       1.8108     -14.7263
    352.8822      20.7328    -999.2500      30.8417       1.1860    -999.2500    -999.2500    -999.2500       0.4809    -999.2500       1.8223     -15.4068
    353.0346      20.9435    -999.2500      30.3915       1.2140    -999.2500    -999.2500    -999.2500       0.4789    -999.2500       1.8100     -15.9103
    353.1870      21.2985    -999.2500      29.9405       1.2520    -999.2500    -999.2500    -999.2500       0.4802    -999.2500       1.7740     -16.2368
    353.3394      21.5313    -999.2500      29.9495       1.2550    -999.2500    -999.2500    -999.2500       0.4871    -999.2500       1.7377     -16.1905
    353.4918      21.6418    -999.2500      30.4185       1.2230    -999.2500    -999.2500    -999.2500       0.4996    -999.2500       1.7012     -15.7715
    353.6442      21.6970    -999.2500      31.0030       1.1708    -999.2500    -999.2500    -999.2500       0.5019    -999.2500       1.6595     -15.3068
    353.7966      21.6970    -999.2500      31.7030       1.0983    -999.2500    -999.2500    -999.2500       0.4938    -999.2500       1.6125     -14.7963
    353.9490      21.6970    -999.2500      32.3407       1.0220    -999.2500    -999.2500    -999.2500       0.4899    -999.2500       1.5755     -14.3860
    354.1014      21.6970    -999.2500      32.9163       0.9420    -999.2500    -999.2500    -999.2500       0.4900    -999.2500       1.5485     -14.0760
    354.2538      21.6970    -999.2500      33.4008       0.8677    -999.2500    -999.2500    -999.2500       0.4911    -999.2500       1.5275     -13.8590
    354.4062      21.6970    -999.2500      33.7943       0.7992    -999.2500    -999.2500    -999.2500       0.4931    -999.2500       1.5125     -13.7350
    354.5586      21.7065    -999.2500      34.2350       0.7468    -999.2500    -999.2500    -999.2500       0.4945    -999.2500       1.5085     -13.6962
    354.7110      21.7255    -999.2500      34.7230       0.7103    -999.2500    -999.2500    -999.2500       0.4952    -999.2500       1.5155     -13.7427
    354.8634      21.7380    -999.2500      34.5668       0.6967    -999.2500    -999.2500    -999.2500       0.4973    -999.2500       1.5265     -13.8900
    355.0158      21.7440    -999.2500      33.7662       0.7063    -999.2500    -999.2500    -999.2500       0.5008    -999.2500       1.5415     -14.1380
    355.1682      21.7470    -999.2500      33.7538       0.7263    -999.2500    -999.2500    -999.2500       0.5049    -999.2500       1.5525     -14.3628
    355.3206      21.7470    -999.2500      34.5293       0.7568    -999.2500    -999.2500    -999.2500       0.5096    -999.2500       1.5595     -14.5643
    355.4730      21.6758    -999.2500      34.5233       0.7992    -999.2500    -999.2500    -999.2500       0.5055    -999.2500       1.5995     -14.5953
    355.6254      21.5333    -999.2500      33.7358       0.8537    -999.2500    -999.2500    -999.2500       0.4925    -999.2500       1.6725     -14.4558
    355.7778      21.0735    -999.2500      33.1358       0.9182    -999.2500    -999.2500    -999.2500       0.4877    -999.2500       1.7680     -14.2700
    355.9302      20.2965    -999.2500      32.7232       0.9928    -999.2500    -999.2500    -999.2500       0.4911    -999.2500       1.8860     -14.0380
    356.0826      19.5765    -999.2500      32.0289       1.0678    -999.2500    -999.2500    -999.2500       0.4915    -999.2500       1.9730     -13.8210
    356.2350      18.9135    -999.2500      31.0530       1.1433    -999.2500    -999.2500    -999.2500       0.4890    -999.2500       2.0290     -13.6190
    356.3874      18.5077    -999.2500      31.3725       1.1975    -999.2500    -999.2500    -999.2500       0.4856    -999.2500       2.0638     -13.4482
    356.5398      18.3593    -999.2500      32.9875       1.2305    -999.2500    -999.2500    -999.2500       0.4812    -999.2500       2.0772     -13.3088
    356.6922      18.2645    -999.2500      34.2132       1.2355    -999.2500    -999.2500    -999.2500       0.4778    -999.2500       2.0880     -13.2235
    356.8446      18.2235    -999.2500      35.0498       1.2125    -999.2500    -999.2500    -999.2500       0.4754    -999.2500       2.0960     -13.1925
    356.9970      18.2410    -999.2500      35.5305       1.1957    -999.2500    -999.2500    -999.2500       0.4755    -999.2500       2.0875     -13.2700
    357.1494      18.3170    -999.2500      35.6555       1.1852    -999.2500    -999.2500    -999.2500       0.4780    -999.2500       2.0625     -13.4560
    357.3018      18.3455    -999.2500      35.6805       1.1815    -999.2500    -999.2500    -999.2500       0.4828    -999.2500       2.0548     -13.7193
    357.4542      18.3265    -999.2500      35.6055       1.1845    -999.2500    -999.2500    -999.2500       0.4900    -999.2500       2.0642     -14.0597
    357.6066      18.3075    -999.2500      35.4897       1.1830    -999.2500    -999.2500    -999.2500       0.4896    -999.2500       2.0663     -14.4005
    357.7590      18.2885    -999.2500      35.3332       1.1770    -999.2500    -999.2500    -999.2500       0.4817    -999.2500       2.0607     -14.7415
    357.9114      18.3028    -999.2500      35.0205       1.1715    -999.2500    -999.2500    -999.2500       0.4802    -999.2500       2.0487     -14.9120
    358.0638      18.3503    -999.2500      34.5515       1.1665    -999.2500    -999.2500    -999.2500       0.4849    -999.2500       2.0302     -14.9120
    358.2162      18.4263    -999.2500      34.5045       1.1710    -999.2500    -999.2500    -999.2500       0.4858    -999.2500       2.0047     -15.1213
    358.3686      18.5308    -999.2500      34.8795       1.1850    -999.2500    -999.2500    -999.2500       0.4830    -999.2500       1.9722     -15.5398
