#------------------------------------------------------------------------------
#
#   Created by  : [OpenWorks] Log Export Utility (LEXP)
#   Created on  : 2016-05-12 17:18:19
#   Project     : CANT971
#   User        : R5K
#   Interpreter : PEP
#
#------------------------------------------------------------------------------
~VERSION INFORMATION
VERS. 2.0 : CWLS Log ASCII Standard - version 2.0
WRAP.  NO : One line per depth step
~WELL INFORMATION
#MNEMONIC   .UNIT                                           VALUE :DESCRIPTION
#------------------------------------------------------------------------------
STRT        .M                                           134.7982 :START DEPTH
STOP        .M                                          2692.2227 :STOP DEPTH
STEP        .M                                             0.1524 :STEP
NULL        .                                           -999.2500 :NULL VALUE
COMP        .                                   PEMEX EXPL & PROD :COMPANY
WELL        .                                                 57A :WELL
FLD         .                                           CANTARELL :FIELD
LOC         .                                             UNKNOWN :LOCATION
CNTY        .                                      CD. DEL CARMEN :COUNTY
STAT        .                                            CAMPECHE :STATE
CTRY        .                                              MEXICO :COUNTRY
SRVC        .                                             UNKNOWN :SERVICE COMPANY
DATE        .                                             UNKNOWN :LOG DATE
UWI         .                                          3060000169 :UNIQUE WELL ID
XCOORD      .                                       602151.210000 :SURFACE X
YCOORD      .                                      2147168.830000 :SURFACE Y
LAT         .                                           19.417362 :LATITUDE
LON         .                                          -92.027041 :LONGITUDE
ELEV        .M                                            28.1700 :SURFACE ELEV
ELEV_TYPE   .                                                  KB :ELEV TYPE
~CURVE INFORMATION
#MNEMONIC.UNIT        API CODE       : CURVE DESCRIPTION
#------------------------------------------------------------------------------
DEPTH    .M                          : Measured Depth
CALI     .inches      UNKNOWN        : CALI:UNKNOWN:r1:MAIN:v1 
DRHO     .UNKNOWN     UNKNOWN        : DRHO:UNKNOWN:r1:MAIN:v1 
DT       .us/ft       UNKNOWN        : DT:UNKNOWN:r1:MAIN:v1 
GR       .API         UNKNOWN        : GR:GR:r1:MAIN:v1 
ILD      .UNKNOWN     UNKNOWN        : ILD:UNKNOWN:r1:MAIN:v1 
LLD      .UNKNOWN     UNKNOWN        : LLD:UNKNOWN:r1:MAIN:v1 
LLS      .UNKNOWN     UNKNOWN        : LLS:UNKNOWN:r1:MAIN:v1 
MSFL     .UNKNOWN     UNKNOWN        : MSFL:UNKNOWN:r1:MAIN:v1 
NORM     .UNKNOWN     UNKNOWN        : NORM:NORM-Load:r1:MAIN:v1 
NPHI     .v/v_decimal UNKNOWN        : NPHI:UNKNOWN:r1:MAIN:v1 
RHOB     .UNKNOWN     UNKNOWN        : RHOB:UNKNOWN:r1:MAIN:v1 
SP       .mV          UNKNOWN        : SP:PETROWORKS:rC:NONE:v1 
~A     DEPTH         CALI         DRHO           DT           GR          ILD          LLD          LLS         MSFL         NORM         NPHI         RHOB           SP
# ...
   2278.1519       7.6179       0.0959      60.7013      38.6999       0.2000      37.0548      37.7919      13.6913    -999.2500       0.1650       2.5628     161.3211
   2278.3042       7.6410       0.1034      60.8093      39.8248       0.2000      42.4973      41.6979      13.6313    -999.2500       0.1668       2.5524     160.9498
   2278.4565       7.7883       0.1049      61.5001      39.7852       0.2000      50.1990      53.4009      13.0863    -999.2500       0.1678       2.5424     160.6057
   2278.6091       7.9667       0.1010      62.3199      39.4690       0.2000      55.9261      62.0195      12.5672    -999.2500       0.1686       2.5318     160.3345
   2278.7615       8.2330       0.0820      63.5026      38.3735       0.2000      56.0905      61.9488      12.1215    -999.2500       0.1688       2.5198     160.1311
   2278.9138       8.4226       0.0661      63.8703      37.8044       0.2000      54.9623      60.9699      12.3754    -999.2500       0.1658       2.5115     159.6995
   2279.0662       8.4026       0.0591      62.0061      38.6768       0.2000      50.2949      57.5043      14.5449    -999.2500       0.1544       2.5135     159.0606
   2279.2185       8.3557       0.0576      60.1284      39.7480       0.2000      47.6381      55.8480      17.3211    -999.2500       0.1451       2.5216     158.3802
   2279.3711       8.2374       0.0706      58.2146      41.3485       0.2000      50.3335      59.0082      21.7123    -999.2500       0.1415       2.5456     157.6628
   2279.5234       8.1382       0.0827      56.9036      42.3605       0.2000      52.4205      60.1399      24.6748    -999.2500       0.1399       2.5629     157.1062
   2279.6758       8.0885       0.0922      57.1533      41.8490       0.2000      52.9319      56.0189      23.9382    -999.2500       0.1432       2.5624     156.6896
   2279.8281       8.0487       0.0979      57.4026      41.1621       0.2000      51.8327      51.8762      22.4269    -999.2500       0.1467       2.5553     156.3441
   2279.9807       8.0337       0.0939      57.6511      40.0301       0.2000      46.6760      47.6784      18.9635    -999.2500       0.1504       2.5318     156.0590
   2280.1331       8.0214       0.0890      57.9001      39.0566       0.2000      42.0024      44.2382      15.9800    -999.2500       0.1543       2.5169     156.3100
   2280.2854       8.0159       0.0820      58.1503      38.4720       0.2000      38.5222      42.6698      14.1820    -999.2500       0.1587       2.5234     157.0096
   2280.4377       8.0294       0.0816      57.8660      38.0586       0.2000      35.9683      41.5639      12.8109    -999.2500       0.1621       2.5415     157.7100
   2280.5903       8.0885       0.0971      56.2962      38.0571       0.2000      35.6424      41.5704      12.4664    -999.2500       0.1633       2.5877     158.4110
   2280.7427       8.1329       0.1128      54.9909      38.1102       0.2000      36.0920      42.3539      12.4812    -999.2500       0.1644       2.6335     158.7654
   2280.8950       8.1424       0.1288      54.3055      38.2912       0.2000      38.3583      44.9571      13.3376    -999.2500       0.1656       2.6786     158.8423
   2281.0474       8.1278       0.1391      53.6432      38.6605       0.2000      40.8025      47.0700      13.6303    -999.2500       0.1649       2.7141     159.1109
   2281.1997       8.0581       0.1361      53.0335      39.4598       0.2000      43.6524      48.0642      12.6371    -999.2500       0.1600       2.7277     159.5293
   2281.3523       7.9854       0.1290      52.4537      40.2705       0.2000      45.5533      48.7271      11.7437    -999.2500       0.1540       2.7373     159.8993
   2281.5046       7.9062       0.1130      51.9403      41.1068       0.2000      45.3447      48.6534      11.0723    -999.2500       0.1455       2.7383     160.2321
   2281.6570       7.8520       0.0995      51.3729      42.4831       0.2000      45.8798      48.6495      10.6434    -999.2500       0.1396       2.7312     160.2984
   2281.8093       7.8520       0.0915      50.6885      45.0291       0.2000      48.0261      48.7968      10.7396    -999.2500       0.1394       2.7067     160.1654
   2281.9619       7.8802       0.0857      50.4600      47.3661       0.2000      49.8794      49.7971      11.2066    -999.2500       0.1397       2.6793     159.9510
   2282.1143       7.9685       0.0847      51.2010      49.2583       0.2000      51.1098      52.6119      12.4626    -999.2500       0.1410       2.6457     159.6769
   2282.2666       8.0761       0.0817      52.1019      50.8067       0.2000      52.3580      55.0029      13.6661    -999.2500       0.1429       2.6246     159.3459
   2282.4189       8.2240       0.0747      53.3343      51.6420       0.2000      53.6431      56.5151      14.7606    -999.2500       0.1459       2.6296     158.9741
   2282.5715       8.3621       0.0695      54.1927      52.3452       0.2000      54.7774      57.6131      15.8659    -999.2500       0.1481       2.6421     158.6774
   2282.7239       8.4805       0.0680      54.2945      52.7809       0.2000      55.6067      57.8733      16.9930    -999.2500       0.1486       2.6697     158.4335
   2282.8762       8.5489       0.0672      54.1154      52.9960       0.2000      56.4156      58.3154      18.0928    -999.2500       0.1492       2.6939     158.2146
   2283.0286       8.5188       0.0677      53.3824      52.7758       0.2000      57.1842      59.1161      19.1387    -999.2500       0.1498       2.7115     158.0128
   2283.1809       8.4786       0.0714      52.9346      52.0571       0.2000      57.6016      59.4633      20.7185    -999.2500       0.1500       2.7232     157.9098
   2283.3335       8.4190       0.0814      53.0358      50.3788       0.2000      57.3431      58.9378      23.3256    -999.2500       0.1494       2.7237     157.8730
   2283.4858       8.3628       0.0916      53.2560      48.9777       0.2000      55.9167      57.8828      23.4177    -999.2500       0.1485       2.7204     157.9360
   2283.6382       8.3132       0.1022      53.7012      48.1008       0.2000      52.2816      55.8266      18.7532    -999.2500       0.1471       2.7098     158.0649
   2283.7905       8.2496       0.1072      54.2332      47.2494       0.2000      49.3806      53.9061      15.3830    -999.2500       0.1461       2.6970     158.0675
   2283.9431       8.1604       0.1022      54.9251      46.4451       0.2000      47.8343      52.2359      14.4013    -999.2500       0.1457       2.6800     157.9885
   2284.0955       8.1277       0.1062      55.0729      45.7585       0.2000      47.1496      51.3288      14.2885    -999.2500       0.1457       2.6631     158.0155
   2284.2478       8.1969       0.1262      54.2406      45.2837       0.2000      48.0170      51.7961      15.7410    -999.2500       0.1465       2.6465     158.1094
   2284.4001       8.2837       0.1388      53.9074      44.8479       0.2000      49.3170      53.0917      17.0972    -999.2500       0.1464       2.6424     158.3081
   2284.5527       8.4015       0.1383      54.4519      44.4809       0.2000      51.3778      55.8438      18.2840    -999.2500       0.1448       2.6599     158.5715
   2284.7051       8.4705       0.1325      54.9417      43.9669       0.2000      53.7969      58.3672      19.6794    -999.2500       0.1434       2.6682     158.5857
   2284.8574       8.4554       0.1174      55.3374      43.2004       0.2000      56.8313      60.4979      21.4328    -999.2500       0.1422       2.6607     158.4500
   2285.0098       8.4589       0.1028      56.0081      42.1486       0.2000      59.2389      62.0462      22.4493    -999.2500       0.1419       2.6364     158.1800
   2285.1621       8.4935       0.0887      57.1427      40.6154       0.2000      60.5882      62.6113      22.2217    -999.2500       0.1430       2.5838     157.8312
   2285.3147       8.5707       0.0802      57.9616      39.2888       0.2000      61.4272      62.6459      21.0449    -999.2500       0.1451       2.5423     157.7617
