#------------------------------------------------------------------------------
#
#   Created by  : [OpenWorks] Log Export Utility (LEXP)
#   Created on  : 2016-05-23 11:50:37
#   Project     : CANT971
#   User        : R5K
#   Interpreter : PEP
#
#------------------------------------------------------------------------------
~VERSION INFORMATION
VERS. 2.0 : CWLS Log ASCII Standard - version 2.0
WRAP.  NO : One line per depth step
~WELL INFORMATION
#MNEMONIC   .UNIT                                           VALUE :DESCRIPTION
#------------------------------------------------------------------------------
STRT        .M                                           690.6770 :START DEPTH
STOP        .M                                          3400.6538 :STOP DEPTH
STEP        .M                                             0.1524 :STEP
NULL        .                                           -999.2500 :NULL VALUE
COMP        .                                   PEMEX EXPL & PROD :COMPANY
WELL        .                                                1024 :WELL
FLD         .                                           CANTARELL :FIELD
LOC         .                                             UNKNOWN :LOCATION
CNTY        .                                      CD. DEL CARMEN :COUNTY
STAT        .                                            CAMPECHE :STATE
CTRY        .                                              MEXICO :COUNTRY
SRVC        .                                             UNKNOWN :SERVICE COMPANY
DATE        .                                             UNKNOWN :LOG DATE
UWI         .                                          3060000490 :UNIQUE WELL ID
XCOORD      .                                       596162.640000 :SURFACE X
YCOORD      .                                      2150611.280000 :SURFACE Y
LAT         .                                           19.448767 :LATITUDE
LON         .                                          -92.083900 :LONGITUDE
ELEV        .M                                            30.0000 :SURFACE ELEV
ELEV_TYPE   .                                                  KB :ELEV TYPE
~CURVE INFORMATION
#MNEMONIC.UNIT        API CODE       : CURVE DESCRIPTION
#------------------------------------------------------------------------------
DEPTH    .M                          : Measured Depth
CALI     .inches      UNKNOWN        : CALI:registros:rC:NONE:v0 (auto-composite)
DRHO     .g/cm3       UNKNOWN        : DRHO:registros:rC:NONE:v0 (auto-composite)
DT       .us/ft       UNKNOWN        : DT:registros:rC:NONE:v0 (auto-composite)
GR       .API         UNKNOWN        : GR:registros:rC:NONE:v0 (auto-composite)
ILD      .ohm.m       UNKNOWN        : ILD:registros:rC:NONE:v0 (auto-composite)
ILM      .ohm.m       UNKNOWN        : ILM:registros:rC:NONE:v0 (auto-composite)
LLD      .ohm.m       UNKNOWN        : LLD:registros:rC:NONE:v0 (auto-composite)
LLS      .ohm.m       UNKNOWN        : LLS:registros:rC:NONE:v0 (auto-composite)
MSFL     .ohm.m       UNKNOWN        : MSFL:registros:rC:NONE:v0 (auto-composite)
NPHI     .v/v_decimal UNKNOWN        : NPHI:registros:rC:NONE:v0 (auto-composite)
PEF      .b/elec      UNKNOWN        : PEF:registros:rC:NONE:v0 (auto-composite)
RHOB     .g/cm3       UNKNOWN        : RHOB:registros:rC:NONE:v0 (auto-composite)
~A     DEPTH         CALI         DRHO           DT           GR          ILD          ILM          LLD          LLS         MSFL         NPHI          PEF         RHOB
# ...
   3375.3555       8.2570       0.0110      63.2650      38.6670    -999.2500    -999.2500    1365.1541    1180.0940     268.3110       0.0793       3.2620       2.7030
   3375.5078       8.2820       0.0085      61.6861      37.4517    -999.2500    -999.2500    1175.6389    1054.1599     254.8855       0.0807       3.2186       2.6980
   3375.6602       8.3070       0.0060      60.1020      36.2440    -999.2500    -999.2500     985.4890     927.8040     241.4150       0.0827       3.1750       2.6930
   3375.8125       8.3020       0.0065      55.4745      32.4664    -999.2500    -999.2500     831.4814     818.5541     210.4323       0.0855       3.1825       2.6800
   3375.9651       8.2970       0.0070      50.8310      28.7120    -999.2500    -999.2500     676.9390     709.1000     179.3420       0.0891       3.1900       2.6670
   3376.1174       8.3080       0.0070      51.3251      28.7591    -999.2500    -999.2500     741.6400     766.5593     150.0143       0.0939       3.2409       2.6540
   3376.2698       8.3190       0.0070      51.8210      28.8060    -999.2500    -999.2500     806.5740     824.1330     120.5810       0.0990       3.2920       2.6410
   3376.4221       8.3519       0.0100      53.1341      28.9820    -999.2500    -999.2500     955.7262     957.8257     171.4261       0.1038       3.2910       2.6340
   3376.5747       8.3850       0.0130      54.4520      29.1570    -999.2500    -999.2500    1105.4340    1091.8020     222.3790       0.1069       3.2900       2.6270
   3376.7271       8.3710       0.0210      54.3572      29.8941    -999.2500    -999.2500    1213.6680    1198.9303     202.5473       0.1068       3.2710       2.6325
   3376.8794       8.3570       0.0290      54.2620      30.6270    -999.2500    -999.2500    1322.3190    1306.2990     182.6710       0.1051       3.2520       2.6380
   3377.0317       8.3315       0.0340      54.0677      31.5814    -999.2500    -999.2500    1368.4688    1382.4961     198.4003       0.1033       3.1596       2.6645
   3377.1841       8.3060       0.0390      53.8730      32.5290    -999.2500    -999.2500    1414.7280    1458.8740     214.1670       0.1017       3.0670       2.6910
   3377.3367       8.3315       0.0325      53.7012      33.6028    -999.2500    -999.2500    1371.9674    1427.9042     256.2065       0.1004       3.0855       2.6875
   3377.4890       8.3570       0.0260      53.5290      34.6690    -999.2500    -999.2500    1329.1000    1396.8571     298.3510       0.0996       3.1040       2.6840
   3377.6414       8.3395       0.0140      53.7482      34.6499    -999.2500    -999.2500    1229.3553    1312.7848     293.5843       0.0994       3.1529       2.6675
   3377.7937       8.3220       0.0020      53.9680      34.6310    -999.2500    -999.2500    1129.3490    1228.4919     288.8050       0.0994       3.2020       2.6510
   3377.9463       8.2646       0.0025      54.6006      34.1870    -999.2500    -999.2500    1166.7391    1260.6493     270.1426       0.0994       3.1920       2.6515
   3378.0986       8.2070       0.0030      55.2350      33.7460    -999.2500    -999.2500    1204.2321    1292.8950     251.4290       0.0989       3.1820       2.6520
   3378.2510       8.2200       0.0045      54.9259      32.9824    -999.2500    -999.2500    1338.4874    1414.0443     256.9446       0.0978       3.1510       2.6615
   3378.4033       8.2330       0.0060      54.6160      32.2240    -999.2500    -999.2500    1473.1290    1535.5420     262.4760       0.0962       3.1200       2.6710
   3378.5559       8.2684       0.0080      54.3164      32.4201    -999.2500    -999.2500    1705.7281    1755.1097     273.0671       0.0945       3.0920       2.6890
   3378.7083       8.3040       0.0100      54.0160      32.6150    -999.2500    -999.2500    1939.0250    1975.3361     283.6900       0.0934       3.0640       2.7070
   3378.8606       8.2805       0.0090      54.5002      33.2942    -999.2500    -999.2500    2268.5054    2293.7417     261.2955       0.0938       3.0670       2.7220
   3379.0129       8.2570       0.0080      54.9860      33.9690    -999.2500    -999.2500    2599.0161    2613.1431     238.8310       0.0938       3.0700       2.7370
   3379.1653       8.2590       0.0065      56.4456      33.8245    -999.2500    -999.2500    2883.0857    2871.3279     253.5336       0.0916       3.1089       2.7360
   3379.3179       8.2610       0.0050      57.9100      33.6810    -999.2500    -999.2500    3168.0791    3130.3521     268.2840       0.0897       3.1480       2.7350
   3379.4702       8.2720       0.0035      57.5167      33.4844    -999.2500    -999.2500    3086.0322    3078.0000     305.1202       0.0909       3.2194       2.7260
   3379.6226       8.2830       0.0020      57.1220      33.2890    -999.2500    -999.2500    3003.7080    3025.4709     342.0810       0.0944       3.2910       2.7170
   3379.7749       8.2526       0.0030      56.6019      33.1581    -999.2500    -999.2500    3020.6948    2974.6414     368.1259       0.0995       3.3414       2.6995
   3379.9275       8.2220       0.0040      56.0800      33.0280    -999.2500    -999.2500    3037.7410    2923.7151     394.2620       0.1051       3.3920       2.6820
   3380.0798       8.2240       0.0070      56.3690      33.2472    -999.2500    -999.2500    2970.5459    2861.2832     389.3729       0.1103       3.3581       2.6685
   3380.2322       8.2260       0.0100      56.6590      33.4650    -999.2500    -999.2500    2903.1069    2798.7251     384.4660       0.1138       3.3240       2.6550
   3380.3845       8.2460       0.0100      56.5233      33.9995    -999.2500    -999.2500    2691.6460    2626.2415     389.2870       0.1140       3.2581       2.6510
   3380.5371       8.2660       0.0100      56.3870      34.5300    -999.2500    -999.2500    2479.3911    2453.3870     394.1260       0.1123       3.1920       2.6470
   3380.6895       8.2590       0.0085      56.1110      34.4929    -999.2500    -999.2500    2273.4365    2302.7104     407.8069       0.1095       3.1221       2.6510
   3380.8418       8.2520       0.0070      55.8340      34.4560    -999.2500    -999.2500    2066.6819    2151.6909     421.5410       0.1062       3.0520       2.6550
   3380.9941       8.2260       0.0060      55.3456      34.6091    -999.2500    -999.2500    1960.3691    2080.7671     414.7387       0.1026       2.9836       2.6655
   3381.1465       8.2000       0.0050      54.8560      34.7610    -999.2500    -999.2500    1853.8010    2009.6730     407.9200       0.1000       2.9150       2.6760
   3381.2991       8.2130       0.0040      55.1376      34.9527    -999.2500    -999.2500    1696.4653    1856.9419     395.5531       0.0995       2.9659       2.6855
   3381.4514       8.2260       0.0030      55.4200      35.1430    -999.2500    -999.2500    1538.7321    1703.8250     383.1550       0.0997       3.0170       2.6950
   3381.6038       8.2425       0.0020      56.6668      34.6091    -999.2500    -999.2500    1603.7927    1765.9045     360.0656       0.0989       3.1543       2.6935
   3381.7561       8.2590       0.0010      57.9170      34.0790    -999.2500    -999.2500    1669.0260    1828.1490     336.9150       0.0975       3.2920       2.6920
   3381.9087       8.2370       0.0010      57.3418      33.1278    -999.2500    -999.2500    1922.1304    2085.6304     337.3035       0.0957       3.2850       2.6855
   3382.0610       8.2150       0.0010      56.7650      32.1830    -999.2500    -999.2500    2175.9380    2343.8269     337.6930       0.0935       3.2780       2.6790
   3382.2134       8.2225       0.0030      55.0685      32.2964    -999.2500    -999.2500    2459.3350    2659.6948     396.2090       0.0913       3.3174       2.6795
   3382.3657       8.2300       0.0050      53.3670      32.4090    -999.2500    -999.2500    2743.5559    2976.4810     454.8950       0.0893       3.3570       2.6800
   3382.5183       8.2679       0.0090      53.6760      32.6252    -999.2500    -999.2500    2670.8635    2894.3828     446.1972       0.0878       3.3510       2.6840
