#------------------------------------------------------------------------------
#
#   Created by  : [OpenWorks] Log Export Utility (LEXP)
#   Created on  : 2016-05-23 11:55:58
#   Project     : CANT971
#   User        : R5K
#   Interpreter : PEP
#
#------------------------------------------------------------------------------
~VERSION INFORMATION
VERS. 2.0 : CWLS Log ASCII Standard - version 2.0
WRAP.  NO : One line per depth step
~WELL INFORMATION
#MNEMONIC   .UNIT                                           VALUE :DESCRIPTION
#------------------------------------------------------------------------------
STRT        .M                                           646.6334 :START DEPTH
STOP        .M                                          2755.8494 :STOP DEPTH
STEP        .M                                             0.1524 :STEP
NULL        .                                           -999.2500 :NULL VALUE
COMP        .                                   PEMEX EXPL & PROD :COMPANY
WELL        .                                                  42 :WELL
FLD         .                                           CANTARELL :FIELD
LOC         .                                             UNKNOWN :LOCATION
CNTY        .                                      CD. DEL CARMEN :COUNTY
STAT        .                                            CAMPECHE :STATE
CTRY        .                                              MEXICO :COUNTRY
SRVC        .                                             UNKNOWN :SERVICE COMPANY
DATE        .                                             UNKNOWN :LOG DATE
UWI         .                                          3060000464 :UNIQUE WELL ID
XCOORD      .                                       599690.710000 :SURFACE X
YCOORD      .                                      2143036.470000 :SURFACE Y
LAT         .                                           19.380144 :LATITUDE
LON         .                                          -92.050691 :LONGITUDE
ELEV        .M                                            26.7400 :SURFACE ELEV
ELEV_TYPE   .                                                  KB :ELEV TYPE
~CURVE INFORMATION
#MNEMONIC.UNIT        API CODE       : CURVE DESCRIPTION
#------------------------------------------------------------------------------
DEPTH    .M                          : Measured Depth
CALI     .inches      UNKNOWN        : CALI:Import:rC:NONE:v0 (auto-composite)
DRHO     .g/cm3       UNKNOWN        : DRHO:Import:rC:NONE:v0 (auto-composite)
DT       .us/ft       UNKNOWN        : DT:Import:rC:NONE:v0 (auto-composite)
GR       .API         UNKNOWN        : GR:Import:rC:NONE:v0 (auto-composite)
ILD      .ohm.m       UNKNOWN        : ILD:Import:rC:NONE:v0 (auto-composite)
ILM      .ohm.m       UNKNOWN        : ILM:Import:rC:NONE:v0 (auto-composite)
LLD      .ohm.m       UNKNOWN        : LLD:Import:rC:NONE:v0 (auto-composite)
LLS      .ohm.m       UNKNOWN        : LLS:Import:rC:NONE:v0 (auto-composite)
MSFL     .ohm.m       UNKNOWN        : MSFL:Import:rC:NONE:v0 (auto-composite)
NPHI     .v/v_decimal UNKNOWN        : NPHI:Import:rC:NONE:v0 (auto-composite)
PEF      .b/elec      UNKNOWN        : PEF:Import:rC:NONE:v0 (auto-composite)
RHOB     .g/cm3       UNKNOWN        : RHOB:Import:rC:NONE:v0 (auto-composite)
~A     DEPTH         CALI         DRHO           DT           GR          ILD          ILM          LLD          LLS         MSFL         NPHI          PEF         RHOB
# ...
   2329.1294       9.1375       0.0105      52.7846      24.5762    -999.2500    -999.2500    6851.9009    3512.5601    -999.2500       0.0243       4.6551       2.7505
   2329.2817       9.1040       0.0110      53.7460      22.3890    -999.2500    -999.2500    6831.3530     811.9910    -999.2500       0.0248       4.7550       2.7480
   2329.4341       9.0449       0.0125      53.4490      22.6451    -999.2500    -999.2500    6083.1675    1229.3667    -999.2500       0.0228       4.8095       2.7525
   2329.5867       8.9860       0.0140      53.1520      22.9020    -999.2500    -999.2500    5335.1191    1646.6660    -999.2500       0.0209       4.8640       2.7570
   2329.7390       8.9660       0.0125      50.9954      24.1101    -999.2500    -999.2500    4192.9380    4250.3086    -999.2500       0.0217       4.8475       2.7560
   2329.8914       8.9460       0.0110      48.8390      25.3220    -999.2500    -999.2500    3050.8230    6853.8008    -999.2500       0.0229       4.8310       2.7550
   2330.0437       8.9325       0.0065      48.9980      27.2483    -999.2500    -999.2500    2541.0623    6484.1362    -999.2500       0.0230       4.7434       2.7455
   2330.1960       8.9190       0.0020      49.1570      29.1810    -999.2500    -999.2500    2031.2670    6114.4468    -999.2500       0.0225       4.6560       2.7360
   2330.3486       8.9125       0.0025      49.1410      28.7552    -999.2500    -999.2500    2163.3323    3595.6321    -999.2500       0.0215       4.9037       2.7385
   2330.5010       8.9060       0.0030      49.1250      28.3280    -999.2500    -999.2500    2295.4231    1076.3300    -999.2500       0.0198       5.1510       2.7410
   2330.6533       8.9060       0.0085      49.0200      27.3712    -999.2500    -999.2500    2850.6394    1136.8818    -999.2500       0.0168       5.0234       2.7545
   2330.8057       8.9060       0.0140      48.9150      26.4110    -999.2500    -999.2500    3406.0330    1197.4530    -999.2500       0.0140       4.8960       2.7680
   2330.9583       8.9060       0.0285      48.9275      25.7322    -999.2500    -999.2500    4067.6799    5072.9937    -999.2500       0.0135       4.5838       2.7910
   2331.1106       8.9060       0.0430      48.9400      25.0510    -999.2500    -999.2500    4729.6211    8950.2588    -999.2500       0.0137       4.2720       2.8140
   2331.2629       8.9060       0.0415      49.0015      24.2640    -999.2500    -999.2500    4540.7554    7834.9277    -999.2500       0.0142       4.3665       2.8135
   2331.4153       8.9060       0.0400      49.0630      23.4740    -999.2500    -999.2500    4351.7822    6718.9609    -999.2500       0.0148       4.4610       2.8130
   2331.5679       8.9060       0.0360      49.3629      22.4525    -999.2500    -999.2500    3744.7046    5183.4683    -999.2500       0.0148       4.4605       2.8115
   2331.7202       8.9060       0.0320      49.6630      21.4270    -999.2500    -999.2500    3137.2041    3646.9060    -999.2500       0.0146       4.4600       2.8100
   2331.8726       8.9060       0.0260      51.3246      21.5278    -999.2500    -999.2500    2543.5850    3712.9988    -999.2500       0.0141       4.4445       2.8050
   2332.0249       8.9060       0.0200      52.9850      21.6290    -999.2500    -999.2500    1949.4780    3779.1460    -999.2500       0.0137       4.4290       2.8000
   2332.1772       8.9060       0.0155      52.7769      22.7921    -999.2500    -999.2500    1560.6598    4017.4456    -999.2500       0.0131       4.1907       2.8030
   2332.3298       8.9060       0.0110      52.5690      23.9600    -999.2500    -999.2500    1171.4730    4255.9712    -999.2500       0.0123       3.9530       2.8060
   2332.4822       8.9060       0.0120      51.9923      23.8153    -999.2500    -999.2500    1251.4071    4507.6470    -999.2500       0.0111       4.0101       2.8200
   2332.6345       8.9060       0.0130      51.4160      23.6700    -999.2500    -999.2500    1331.4270    4759.5928    -999.2500       0.0101       4.0670       2.8340
   2332.7869       8.9060       0.0130      50.8964      23.7009    -999.2500    -999.2500    1586.3241    4825.1016    -999.2500       0.0100       4.0475       2.8320
   2332.9395       8.9060       0.0130      50.3770      23.7320    -999.2500    -999.2500    1841.5270    4890.6890    -999.2500       0.0105       4.0280       2.8300
   2333.0918       8.9060       0.0130      49.8729      24.1384    -999.2500    -999.2500    2058.7622    5390.3125    -999.2500       0.0115       3.9309       2.8250
   2333.2441       8.9060       0.0130      49.3690      24.5460    -999.2500    -999.2500    2275.9370    5889.7969    -999.2500       0.0128       3.8340       2.8200
   2333.3965       8.9060       0.0115      48.4999      26.2379    -999.2500    -999.2500    2372.6133    7640.6602    -999.2500       0.0145       3.9181       2.8120
   2333.5491       8.9060       0.0100      47.6310      27.9350    -999.2500    -999.2500    2469.2749    9391.2568    -999.2500       0.0159       4.0020       2.8040
   2333.7014       8.9060       0.0105      47.8365      27.8092    -999.2500    -999.2500    2795.5784    6316.1562    -999.2500       0.0158       3.9795       2.7920
   2333.8538       8.9060       0.0110      48.0420      27.6830    -999.2500    -999.2500    3121.8730    3241.1389    -999.2500       0.0152       3.9570       2.7800
   2334.0061       8.9060       0.0110      48.5680      26.4401    -999.2500    -999.2500    3055.3928    6286.9409    -999.2500       0.0140       4.0230       2.7825
   2334.1584       8.9060       0.0110      49.0940      25.1930    -999.2500    -999.2500    2988.9060    9333.0430    -999.2500       0.0127       4.0890       2.7850
   2334.3110       8.9060       0.0130      49.5095      23.4335    -999.2500    -999.2500    3014.1611    6237.2285    -999.2500       0.0111       4.8040       2.8065
   2334.4634       8.9060       0.0150      49.9250      21.6680    -999.2500    -999.2500    3039.4221    3140.7190    -999.2500       0.0099       5.5180       2.8280
   2334.6157       8.9060       0.0140      50.0940      22.3742    -999.2500    -999.2500    3243.1841    4881.2485    -999.2500       0.0097       5.3599       2.8270
   2334.7681       8.9060       0.0130      50.2630      23.0830    -999.2500    -999.2500    3447.0171    6622.3872    -999.2500       0.0104       5.2020       2.8260
   2334.9207       8.9060       0.0105      50.3900      24.4655    -999.2500    -999.2500    4009.5112    6573.9404    -999.2500       0.0125       4.7517       2.8185
   2335.0730       8.9060       0.0080      50.5170      25.8530    -999.2500    -999.2500    4572.2729    6525.4702    -999.2500       0.0164       4.3020       2.8110
   2335.2253       8.9060       0.0030      50.7939      26.7593    -999.2500    -999.2500    6228.9160    5170.7671    -999.2500       0.0241       4.4591       2.7850
   2335.3777       8.9060      -0.0020      51.0710      27.6690    -999.2500    -999.2500    7886.5552    3815.2500    -999.2500       0.0311       4.6160       2.7590
   2335.5303       8.9060      -0.0020      51.5973      28.6156    -999.2500    -999.2500    7809.0010    5611.6313    -999.2500       0.0321       4.8868       2.7320
   2335.6826       8.9060      -0.0020      52.1240      29.5660    -999.2500    -999.2500    7731.3901    7409.3188    -999.2500       0.0308       5.1570       2.7050
   2335.8350       8.9060      -0.0010      52.9893      31.7481    -999.2500    -999.2500    7171.7505    6524.9277    -999.2500       0.0289       5.2206       2.7090
   2335.9873       8.9060       0.0000      53.8540      33.9390    -999.2500    -999.2500    6611.6338    5639.7832    -999.2500       0.0270       5.2840       2.7130
   2336.1396       8.9060       0.0015      53.7640      33.5703    -999.2500    -999.2500    5451.7163    3995.1113    -999.2500       0.0253       5.3391       2.7210
   2336.2922       8.9060       0.0030      53.6740      33.2000    -999.2500    -999.2500    4290.6641    2348.8301    -999.2500       0.0235       5.3940       2.7290
