#------------------------------------------------------------------------------
#
#   Created by  : [OpenWorks] Log Export Utility (LEXP)
#   Created on  : 2016-05-23 11:55:55
#   Project     : CANT971
#   User        : R5K
#   Interpreter : PEP
#
#------------------------------------------------------------------------------
~VERSION INFORMATION
VERS. 2.0 : CWLS Log ASCII Standard - version 2.0
WRAP.  NO : One line per depth step
~WELL INFORMATION
#MNEMONIC   .UNIT                                           VALUE :DESCRIPTION
#------------------------------------------------------------------------------
STRT        .M                                          1803.5016 :START DEPTH
STOP        .M                                          3154.9849 :STOP DEPTH
STEP        .M                                             0.1524 :STEP
NULL        .                                           -999.2500 :NULL VALUE
COMP        .                                             UNKNOWN :COMPANY
WELL        .                                             418D-ST :WELL
FLD         .                                             UNKNOWN :FIELD
LOC         .                                             UNKNOWN :LOCATION
CNTY        .                                             UNKNOWN :COUNTY
STAT        .                                             UNKNOWN :STATE
CTRY        .                                             UNKNOWN :COUNTRY
SRVC        .                                             UNKNOWN :SERVICE COMPANY
DATE        .                                             UNKNOWN :LOG DATE
UWI         .                                             418D-ST :UNIQUE WELL ID
XCOORD      .                                       597130.010000 :SURFACE X
YCOORD      .                                      2144879.410000 :SURFACE Y
LAT         .                                           19.396924 :LATITUDE
LON         .                                          -92.074978 :LONGITUDE
ELEV        .M                                             0.0000 :SURFACE ELEV
ELEV_TYPE   .                                                  NA :ELEV TYPE
~CURVE INFORMATION
#MNEMONIC.UNIT        API CODE       : CURVE DESCRIPTION
#------------------------------------------------------------------------------
DEPTH    .M                          : Measured Depth
CALI     .inches      UNKNOWN        : CALI:PETROWORKS:rC:NONE:v1 
CGR      .API         UNKNOWN        : CGR:PETROWORKS:rC:NONE:v1 
DRHO     .g/cm3       UNKNOWN        : DRHO:PETROWORKS:rC:NONE:v1 
DT       .us/ft       UNKNOWN        : DT:PETROWORKS:rC:NONE:v1 
GR       .API         UNKNOWN        : GR:PETROWORKS:rC:NONE:v3 
ILD      .ohm.m       UNKNOWN        : ILD:registros:rC:NONE:v0 (auto-composite)
ILM      .ohm.m       UNKNOWN        : ILM:registros:rC:NONE:v0 (auto-composite)
LLD      .ohm.m       UNKNOWN        : LLD:PETROWORKS:rC:NONE:v2 
LLS      .ohm.m       UNKNOWN        : LLS:PETROWORKS:rC:NONE:v2 
MSFL     .ohm.m       UNKNOWN        : MSFL:PETROWORKS:rC:NONE:v1 
NPHI     .v/v_decimal UNKNOWN        : NPHI:PETROWORKS:rC:NONE:v1 
PEF      .b/elec      UNKNOWN        : PEF:PETROWORKS:rC:NONE:v1 
POTA     .wtpercent   UNKNOWN        : POTA:PETROWORKS:rC:NONE:v1 
RHOB     .g/cm3       UNKNOWN        : RHOB:PETROWORKS:rC:NONE:v1 
THOR     .ppm         UNKNOWN        : THOR:PETROWORKS:rC:NONE:v1 
URAN     .ppm         UNKNOWN        : URAN:PETROWORKS:rC:NONE:v1 
~A     DEPTH         CALI          CGR         DRHO           DT           GR          ILD          ILM          LLD          LLS         MSFL         NPHI          PEF         POTA         RHOB         THOR         URAN
# ...
   1865.5284    -999.2500    -999.2500    -999.2500    -999.2500      22.9063       4.1914       4.5898      60.5200       0.1121       0.8604    -999.2500    -999.2500    -999.2500    -999.2500    -999.2500    -999.2500
   1865.6808    -999.2500    -999.2500    -999.2500    -999.2500      24.2188       4.1797       4.5391      60.5200       0.1722       0.5513    -999.2500    -999.2500    -999.2500    -999.2500    -999.2500    -999.2500
   1865.8331    -999.2500    -999.2500    -999.2500    -999.2500      23.4375       4.1563       4.5117      60.5200       0.0802       0.5669    -999.2500    -999.2500    -999.2500    -999.2500    -999.2500    -999.2500
   1865.9856    -999.2500    -999.2500    -999.2500    -999.2500      25.5781       4.1211       4.4531      60.5200       0.1378       2.9082    -999.2500    -999.2500    -999.2500    -999.2500    -999.2500    -999.2500
   1866.1379    -999.2500    -999.2500    -999.2500    -999.2500      26.2500       4.0703       4.4219      60.5200       0.3776       0.4468    -999.2500    -999.2500    -999.2500    -999.2500    -999.2500    -999.2500
   1866.2904    -999.2500    -999.2500    -999.2500    -999.2500      23.5938       3.9961       4.3594      60.5200       0.1539       0.1685    -999.2500    -999.2500    -999.2500    -999.2500    -999.2500    -999.2500
   1866.4427    -999.2500    -999.2500    -999.2500    -999.2500      23.9688       3.9258       4.3242      71.5004       0.1806       0.2212    -999.2500    -999.2500    -999.2500    -999.2500    -999.2500    -999.2500
   1866.5952    -999.2500    -999.2500    -999.2500    -999.2500      22.0156       3.8906       4.2578       0.3604       0.5277       0.3027    -999.2500    -999.2500    -999.2500    -999.2500    -999.2500    -999.2500
   1866.7476    -999.2500    -999.2500    -999.2500    -999.2500      23.9844       3.8984       4.2344       0.3556       1.6389       0.3296    -999.2500    -999.2500    -999.2500    -999.2500    -999.2500    -999.2500
   1866.9000    -999.2500    -999.2500    -999.2500    -999.2500      20.9688       3.8965       4.2344       0.7759       0.3478       0.3491    -999.2500    -999.2500    -999.2500    -999.2500    -999.2500    -999.2500
   1867.0524    -999.2500    -999.2500    -999.2500    -999.2500      20.8281       3.8672       4.2461      85.0485       0.4458       0.4116    -999.2500    -999.2500    -999.2500    -999.2500    -999.2500    -999.2500
   1867.2048    -999.2500    -999.2500    -999.2500    -999.2500      21.2500       3.8496       4.2109      63.8271       0.3647       1.9404    -999.2500    -999.2500    -999.2500    -999.2500    -999.2500    -999.2500
   1867.3572    -999.2500    -999.2500    -999.2500    -999.2500      22.3125       3.8770       4.1836      60.5200       0.5102       0.5278    -999.2500    -999.2500    -999.2500    -999.2500    -999.2500    -999.2500
   1867.5096      15.0000     670.8560      -1.1327    -999.2500      23.5000       3.9375       4.2266      71.7402       0.3205       0.5679       0.1035      21.8281      -0.0796       2.3218     229.4375     -56.2953
   1867.6620      14.9844     669.1917      -1.1257    -999.2500      22.9688       4.0352       4.3125      65.9852       0.5052       0.2729       0.1002      31.5313      -0.0797       2.3540     228.9986     -56.5741
   1867.8143      15.0000     682.0403      -1.1241    -999.2500      23.0625       4.1328       4.5273      60.5200       0.4470       0.4146       0.1060      36.8125      -0.0652       2.3338     226.4459     -61.8773
   1867.9668      15.0000     680.7177      -1.1322    -999.2500      24.1250       4.2734       4.7734       0.2325       0.2353       0.3730       0.1083      32.3438      -0.0651       2.2505     226.0048     -62.1559
   1868.1191      15.0000     679.8362      -1.1365    -999.2500      23.7188       4.4648       4.9688       0.8954       0.4018       1.2314       0.1103      28.7188      -0.0647       2.2053     225.5647     -62.3717
   1868.2716      15.0000     682.7954      -1.1241    -999.2500      22.4375       4.6719       5.2852       3.4363       0.1744       0.9795       0.1021      20.6875      -0.0631       2.2164     225.7201     -62.4743
   1868.4240      15.0000     680.7141      -1.0974    -999.2500      20.1875       5.0313       5.6797       3.2351       0.0742       0.4873       0.0891      21.2188      -0.0632       2.3154     225.1620     -62.8792
   1868.5764      15.0000     659.4432      -1.0854    -999.2500      20.3281       5.4727       6.2031       0.4056       0.2471       0.2310       0.0758      17.9844      -0.0454       2.3775     211.2421     -64.5620
   1868.7288      15.0000     636.3578      -1.0992    -999.2500      19.5156       5.7109       6.6172       0.9570       0.1118       0.2710       0.0756      20.0781      -0.0213       2.4035     194.0342     -65.5162
   1868.8812      15.0000     610.4661      -1.1001    -999.2500      19.6406       5.9414       6.8945      14.8690       0.0738       0.6685       0.0835      18.6250       0.0017       2.4077     176.5341     -67.4918
   1869.0336      15.0000     566.4961      -1.1271    -999.2500      17.1250       6.1992       7.2109     300.1396       0.1122       0.6963       0.0910      20.2344       0.0315       2.3662     150.7842     -69.0903
   1869.1860      15.0000     601.1266      -1.1199    -999.2500      29.0559       6.3750       7.4766       0.3442       0.2533       0.4067       0.0837      16.4844       0.0387       2.3806     157.7039     -77.9822
   1869.3384      15.0000     934.2109      -1.1131    -999.2500     109.2995       6.4961       7.6680       1.0681       0.1527       0.3696       0.0791      25.6250      -0.1064       2.3719     317.5872    -112.4484
   1869.4908      15.0000    1401.6055      -1.1002    -999.2500     594.8308       6.6094       7.7695      14.5300       0.1281       0.3755       0.0759      23.3281      -0.0661       2.3740     435.7634    -109.9761
   1869.6432      15.0000    1460.4824      -1.1184    -999.2500     619.9602       6.6836       7.9688       6.4905       0.2448       0.3301       0.0773      40.4063       0.1812       2.3288     345.2277    -114.5764
   1869.7955      15.0000     757.6813      -1.1279    -999.2500     391.4647       6.6875       8.2031     608.0292       0.2466       0.2500       0.0703      19.0313      -0.1130       2.3243     269.2040     -49.9211
   1869.9480      15.0000     174.2112      -1.1302    -999.2500      40.6526       6.7188       8.4453       2.0215       0.0821       0.1968       0.0672      20.8906       0.0144       2.2888      44.3295     -18.2061
   1870.1003      15.0000      90.6856      -1.1651    -999.2500      34.0539       6.7031       8.6875       0.6266       0.1122       0.2153       0.0862      24.0781       0.0165       2.2106      19.1644      -7.7198
   1870.2528      15.1094      68.9319      -1.1859    -999.2500      29.3008       6.6875       8.9063       1.3109       0.2237       0.1460       0.0972      32.4375       0.0154       2.0491      13.2992      -5.4023
   1870.4052      15.1797      63.3350      -1.1047    -999.2500      26.5196       6.6563       9.1250       1.6329       0.1395       0.1357       0.1115      35.1875       0.0147       1.9859      11.9991      -5.0185
   1870.5576      15.1953      60.5289      -0.9792    -999.2500      26.6395       6.6289       8.9922       0.8198       0.2045       0.3394       0.1075      29.4531       0.0147       2.0000      11.2000      -4.6197
   1870.7100      15.3125      58.5600      -0.8785    -999.2500      27.5301       6.6094       8.8203       6.7910       0.2561       0.4180       0.1057      31.2188       0.0145       2.0473      10.6775      -4.2299
   1870.8624      15.2969      49.5364      -0.7899    -999.2500      23.5454       6.5938       8.7734     660.3032       1.0352       0.3423       0.0968      32.8750       0.0129       2.1003       8.7544      -3.5430
   1871.0148      15.3203      38.2600      -0.7382    -999.2500      31.4072       6.5781       8.6250       3.0610       1.1705       0.3838       0.1074      38.0938       0.0127       2.1026       5.5658      -0.9341
