#------------------------------------------------------------------------------
#
#   Created by  : [OpenWorks] Log Export Utility (LEXP)
#   Created on  : 2016-05-23 11:57:02
#   Project     : CANT971
#   User        : R5K
#   Interpreter : PEP
#
#------------------------------------------------------------------------------
~VERSION INFORMATION
VERS. 2.0 : CWLS Log ASCII Standard - version 2.0
WRAP.  NO : One line per depth step
~WELL INFORMATION
#MNEMONIC   .UNIT                                           VALUE :DESCRIPTION
#------------------------------------------------------------------------------
STRT        .M                                           493.3184 :START DEPTH
STOP        .M                                          2467.0508 :STOP DEPTH
STEP        .M                                             0.1524 :STEP
NULL        .                                           -999.2500 :NULL VALUE
COMP        .                                   PEMEX EXPL & PROD :COMPANY
WELL        .                                                  63 :WELL
FLD         .                                           CANTARELL :FIELD
LOC         .                                             UNKNOWN :LOCATION
CNTY        .                                      CD. DEL CARMEN :COUNTY
STAT        .                                            CAMPECHE :STATE
CTRY        .                                              MEXICO :COUNTRY
SRVC        .                                             UNKNOWN :SERVICE COMPANY
DATE        .                                             UNKNOWN :LOG DATE
UWI         .                                          3060000615 :UNIQUE WELL ID
XCOORD      .                                       601716.240000 :SURFACE X
YCOORD      .                                      2142344.800000 :SURFACE Y
LAT         .                                           19.373792 :LATITUDE
LON         .                                          -92.031441 :LONGITUDE
ELEV        .M                                            24.0000 :SURFACE ELEV
ELEV_TYPE   .                                                  KB :ELEV TYPE
~CURVE INFORMATION
#MNEMONIC.UNIT        API CODE       : CURVE DESCRIPTION
#------------------------------------------------------------------------------
DEPTH    .M                          : Measured Depth
CALI     .inches      UNKNOWN        : CALI:Import:rC:NONE:v0 (auto-composite)
DRHO     .g/cm3       UNKNOWN        : DRHO:Import:rC:NONE:v0 (auto-composite)
DT       .us/ft       UNKNOWN        : DT:Import:rC:NONE:v0 (auto-composite)
GR       .API         UNKNOWN        : GR:Import:rC:NONE:v0 (auto-composite)
ILD      .ohm.m       UNKNOWN        : ILD:Import:rC:NONE:v0 (auto-composite)
ILM      .ohm.m       UNKNOWN        : ILM:Import:rC:NONE:v0 (auto-composite)
LLD      .ohm.m       UNKNOWN        : LLD:Import:rC:NONE:v0 (auto-composite)
LLS      .ohm.m       UNKNOWN        : LLS:Import:rC:NONE:v0 (auto-composite)
MSFL     .ohm.m       UNKNOWN        : MSFL:Import:rC:NONE:v0 (auto-composite)
NPHI     .v/v_decimal UNKNOWN        : NPHI:Import:rC:NONE:v0 (auto-composite)
PEF      .b/elec      UNKNOWN        : PEF:Import:rC:NONE:v0 (auto-composite)
RHOB     .g/cm3       UNKNOWN        : RHOB:Import:rC:NONE:v0 (auto-composite)
~A     DEPTH         CALI         DRHO           DT           GR          ILD          ILM          LLD          LLS         MSFL         NPHI          PEF         RHOB
# ...
   2358.6943       6.1977       0.2250      46.7251      24.8690    -999.2500    -999.2500    1496.5187     786.2506      72.2222       0.0345       3.2456       2.8975
   2358.8467       6.0590       0.2330      46.6500      25.6150    -999.2500    -999.2500    1674.3390     883.1600      58.7850       0.0362       3.1650       2.9110
   2358.9993       6.1758       0.2040      47.1493      27.0126    -999.2500    -999.2500    1515.8783     822.2253      58.5229       0.0351       3.1485       2.8960
   2359.1516       6.2930       0.1750      47.6500      28.4140    -999.2500    -999.2500    1356.9919     761.1270      58.2600       0.0340       3.1320       2.8810
   2359.3040       6.3045       0.1595      47.5501      27.0100    -999.2500    -999.2500    1286.2944     713.1201      39.2547       0.0372       3.1864       2.8560
   2359.4563       6.3160       0.1440      47.4500      25.6020    -999.2500    -999.2500    1215.3979     664.9780      20.1960       0.0404       3.2410       2.8310
   2359.6086       6.2311       0.1525      47.8494      26.5751    -999.2500    -999.2500     893.1729     489.9592      11.1882       0.0456       3.3214       2.8385
   2359.7612       6.1460       0.1610      48.2500      27.5510    -999.2500    -999.2500     570.0010     314.4260       2.1540       0.0507       3.4020       2.8460
   2359.9136       6.2828       0.1949      47.6010      29.9982    -999.2500    -999.2500     522.7650     285.5932       3.4390       0.0485       3.2867       2.8590
   2360.0659       6.4200       0.2290      46.9500      32.4530    -999.2500    -999.2500     475.3840     256.6720       4.7280       0.0461       3.1710       2.8720
   2360.2183       6.2523       0.2260      47.2248      26.8449    -999.2500    -999.2500     767.0967     602.2577      30.2997       0.0432       3.2124       2.8830
   2360.3708       6.0840       0.2230      47.5000      21.2190    -999.2500    -999.2500    1059.7400     948.9460      55.9530       0.0402       3.2540       2.8940
   2360.5232       6.0885       0.2015      47.4760      21.3707    -999.2500    -999.2500    1846.5548     938.0726     183.4524       0.0373       3.2510       2.8875
   2360.6755       6.0930       0.1800      47.4520      21.5230    -999.2500    -999.2500    2635.9810     927.1630     311.3750       0.0345       3.2480       2.8810
   2360.8279       6.1330       0.1136      46.9015      21.5230    -999.2500    -999.2500    2781.9209     927.7954     209.5936       0.0333       3.2235       2.8056
   2360.9805       6.1730       0.0470      46.3500      21.5230    -999.2500    -999.2500    2928.1289     928.4290     107.6250       0.0321       3.1990       2.7300
   2361.1328       6.1885       0.0480      46.3550      21.4821    -999.2500    -999.2500    2925.7573     948.8250     109.1230       0.0311       3.1560       2.7300
   2361.2852       6.2040       0.0490      46.3600      21.4410    -999.2500    -999.2500    2923.3811     969.2610     110.6240       0.0302       3.1130       2.7300
   2361.4375       6.2260       0.0830      46.5298      20.1214    -999.2500    -999.2500    2841.7878    1001.5748     201.6544       0.0293       3.0066       2.7325
   2361.5898       6.2480       0.1170      46.7000      18.7970    -999.2500    -999.2500    2760.0239    1033.9561     292.8750       0.0285       2.9000       2.7350
   2361.7424       6.2920       0.1475      46.4753      18.4502    -999.2500    -999.2500    2781.7859    1158.4413     275.6940       0.0289       3.0319       2.7515
   2361.8948       6.3360       0.1780      46.2500      18.1020    -999.2500    -999.2500    2803.5959    1283.2020     258.4750       0.0300       3.1640       2.7680
   2362.0471       6.2881       0.2130      49.2215      24.7972    -999.2500    -999.2500    2541.9014    1333.2269     139.4314       0.0469       2.8519       2.7980
   2362.1995       6.2400       0.2480      52.2000      31.5080    -999.2500    -999.2500    2279.5940    1383.3690      20.1090       0.0636       2.5390       2.8280
   2362.3521       6.3034       0.2051      49.7780      31.1499    -999.2500    -999.2500    1225.6709     744.8977      25.0174       0.0623       2.5894       2.7875
   2362.5044       6.3670       0.1620      47.3500      30.7910    -999.2500    -999.2500     169.1490     104.8520      29.9380       0.0601       2.6400       2.7470
   2362.6567       6.3480       0.1206      47.3750      28.6598    -999.2500    -999.2500     217.1682     131.6637      76.4821       0.0521       2.9116       2.7545
   2362.8091       6.3290       0.0790      47.4000      26.5230    -999.2500    -999.2500     265.3120     158.5450     123.1470       0.0439       3.1840       2.7620
   2362.9617       6.1707       0.0795      48.1490      22.2283    -999.2500    -999.2500     978.8809     815.1927     200.9053       0.0369       3.1805       2.7680
   2363.1140       6.0120       0.0800      48.9000      17.9220    -999.2500    -999.2500    1694.3890    1473.6250     278.8750       0.0302       3.1770       2.7740
   2363.2664       6.0135       0.0825      48.8790      17.9904    -999.2500    -999.2500    2412.7415    1471.1455     276.3161       0.0299       3.1276       2.7975
   2363.4187       6.0150       0.0850      48.8580      18.0590    -999.2500    -999.2500    3133.1379    1468.6591     273.7500       0.0299       3.0780       2.8210
   2363.5710       6.0395       0.0870      48.5295      19.1294    -999.2500    -999.2500    3278.6799    1430.8262     239.2387       0.0301       3.0515       2.8280
   2363.7236       6.0640       0.0890      48.2000      20.2030    -999.2500    -999.2500    3424.6541    1392.8810     204.6250       0.0303       3.0250       2.8350
   2363.8760       6.1034       0.0925      47.6573      19.3373    -999.2500    -999.2500    3437.2205    1365.4540     153.8796       0.0292       3.0480       2.8295
   2364.0283       6.1430       0.0960      47.1130      18.4690    -999.2500    -999.2500    3449.8259    1337.9420     102.9770       0.0279       3.0710       2.8240
   2364.1807       6.1235       0.1135      46.7648      18.0008    -999.2500    -999.2500    3939.5837    1555.6769      96.5059       0.0263       3.1204       2.8350
   2364.3333       6.1040       0.1310      46.4160      17.5310    -999.2500    -999.2500    4430.9189    1774.1130      90.0140       0.0248       3.1700       2.8460
   2364.4856       6.1379       0.1525      45.9334      18.0302    -999.2500    -999.2500    4519.3721    1863.1160      83.0422       0.0251       3.2923       2.8600
   2364.6379       6.1720       0.1740      45.4500      18.5310    -999.2500    -999.2500    4608.1211    1952.4170      76.0470       0.0257       3.4150       2.8740
   2364.7903       6.1700       0.1705      45.7242      17.1838    -999.2500    -999.2500    3936.9956    1691.0802      82.8766       0.0297       3.3690       2.8820
   2364.9429       6.1680       0.1670      45.9990      15.8320    -999.2500    -999.2500    3264.6160    1429.2550      89.7190       0.0340       3.3230       2.8900
   2365.0952       6.1610       0.1380      47.4196      16.6490    -999.2500    -999.2500    1931.0126     852.4309      80.5092       0.0384       3.2026       2.8815
   2365.2476       6.1540       0.1090      48.8430      17.4690    -999.2500    -999.2500     594.7510     274.4570      71.2810       0.0424       3.0820       2.8730
   2365.3999       6.1630       0.0700      50.1701      16.8646    -999.2500    -999.2500     523.0925     241.2617      75.7702       0.0374       2.8877       2.8460
   2365.5522       6.1720       0.0310      51.5000      16.2580    -999.2500    -999.2500     451.2820     207.9960      80.2690       0.0322       2.6930       2.8190
   2365.7048       6.1700       0.0315      49.7100      16.7760    -999.2500    -999.2500     571.9975     251.5257     159.7488       0.0322       2.7689       2.8175
   2365.8572       6.1680       0.0320      47.9160      17.2960    -999.2500    -999.2500     692.9840     295.1530     239.4070       0.0326       2.8450       2.8160
