#------------------------------------------------------------------------------
#
#   Created by  : [OpenWorks] Log Export Utility (LEXP)
#   Created on  : 2016-05-23 11:57:27
#   Project     : CANT971
#   User        : R5K
#   Interpreter : PEP
#
#------------------------------------------------------------------------------
~VERSION INFORMATION
VERS. 2.0 : CWLS Log ASCII Standard - version 2.0
WRAP.  NO : One line per depth step
~WELL INFORMATION
#MNEMONIC   .UNIT                                           VALUE :DESCRIPTION
#------------------------------------------------------------------------------
STRT        .M                                           813.0000 :START DEPTH
STOP        .M                                          2589.2219 :STOP DEPTH
STEP        .M                                             0.1524 :STEP
NULL        .                                           -999.2500 :NULL VALUE
COMP        .                                   PEMEX EXPL & PROD :COMPANY
WELL        .                                                  84 :WELL
FLD         .                                           CANTARELL :FIELD
LOC         .                                             UNKNOWN :LOCATION
CNTY        .                                      CD. DEL CARMEN :COUNTY
STAT        .                                            CAMPECHE :STATE
CTRY        .                                              MEXICO :COUNTRY
SRVC        .                                             UNKNOWN :SERVICE COMPANY
DATE        .                                             UNKNOWN :LOG DATE
UWI         .                                          3060000616 :UNIQUE WELL ID
XCOORD      .                                       601709.550000 :SURFACE X
YCOORD      .                                      2142344.590000 :SURFACE Y
LAT         .                                           19.373791 :LATITUDE
LON         .                                          -92.031505 :LONGITUDE
ELEV        .M                                            24.0000 :SURFACE ELEV
ELEV_TYPE   .                                                  KB :ELEV TYPE
~CURVE INFORMATION
#MNEMONIC.UNIT        API CODE       : CURVE DESCRIPTION
#------------------------------------------------------------------------------
DEPTH    .M                          : Measured Depth
CALI     .in          UNKNOWN        : CALI:UNKNOWN:rC:NONE:v0 (auto-composite)
DRHO     .g/cm3       UNKNOWN        : DRHO:UNKNOWN:rC:NONE:v0 (auto-composite)
DT       .us/ft       UNKNOWN        : DT:DT:rC:NONE:v0 (auto-composite)
ILD      .ohmm        UNKNOWN        : ILD:UNKNOWN:rC:NONE:v0 (auto-composite)
ILM      .ohmm        UNKNOWN        : ILM:UNKNOWN:rC:NONE:v0 (auto-composite)
LLD      .ohmm        UNKNOWN        : LLD:UNKNOWN:rC:NONE:v0 (auto-composite)
LLS      .ohmm        UNKNOWN        : LLS:UNKNOWN:rC:NONE:v0 (auto-composite)
MSFL     .ohmm        UNKNOWN        : MSFL:UNKNOWN:rC:NONE:v0 (auto-composite)
NPHI     .v/v_decimal UNKNOWN        : NPHI:NPHI:rC:NONE:v0 (auto-composite)
PEF      .b/elec      UNKNOWN        : PEF:UNKNOWN:rC:NONE:v0 (auto-composite)
RG       .UNKNOWN     UNKNOWN        : RG:UNKNOWN:rC:NONE:v0 (auto-composite)
RHOB     .g/cm3       UNKNOWN        : RHOB:UNKNOWN:rC:NONE:v0 (auto-composite)
~A     DEPTH         CALI         DRHO           DT          ILD          ILM          LLD          LLS         MSFL         NPHI          PEF           RG         RHOB
# ...
   1990.7472      11.2160       0.0112     226.1919       0.0000       0.0000      47.0964      31.7412      30.2993      17.4624       3.2667      43.6681       2.4216
   1990.8997      11.2100       0.0117     284.5706       0.0000       0.0000      55.1490      38.0396      20.6946      22.2677       3.2868      44.0756       2.4472
   1991.0520      11.1791       0.0135     311.8215       0.0000       0.0000      61.3469      42.3375      15.1971      26.0709       3.3924      44.5043       2.4618
   1991.2043      11.1004       0.0181     322.2216       0.0000       0.0000      63.9636      42.7727      17.6298      29.3258       3.6631      44.9741       2.4553
   1991.3568      11.0327       0.0323     280.9870       0.0000       0.0000      66.1541      42.9106      17.4124      28.2805       3.7932      46.0416       2.4571
   1991.5092      10.9855       0.0649     211.7927       0.0000       0.0000      67.5414      42.4884      12.2025      24.8822       3.6584      48.2352       2.4746
   1991.6616      10.9439       0.0786     169.5487       0.0000       0.0000      71.2755      43.8857      10.4143      22.7562       3.5376      50.0037       2.4961
   1991.8140      10.9123       0.0575     141.9021       0.0000       0.0000      79.3241      48.6279      14.9170      21.3267       3.4429      50.9905       2.5246
   1991.9664      10.8755       0.0381     132.4302       0.0000       0.0000      92.7670      56.5124      19.4484      20.3360       3.3772      51.5523       2.5366
   1992.1188      10.8294       0.0215     132.8052       0.0000       0.0000     115.9242      70.0554      24.0316      19.5856       3.3636      51.3488       2.5185
   1992.2712      10.7882       0.0092     111.4349       0.0000       0.0000     126.6431      76.7350      26.0160      19.5574       3.3405      51.2190       2.5061
   1992.4236      10.7556       0.0042      78.2799       0.0000       0.0000     115.4957      71.3488      23.4319      19.9249       3.3004      51.2190       2.5036
   1992.5760      10.7396       0.0014      66.6655       0.0000       0.0000     103.5744      64.4349      24.1308      19.5320       3.2743      50.8678       2.5029
   1992.7284      10.7521       0.0024      66.7280       0.0000       0.0000      90.3201      54.8899      30.4845      18.7225       3.2723      49.9116       2.5054
   1992.8809      10.7948       0.0028      66.5065       0.0000       0.0000      81.3125      48.6619      55.5654      17.9428       3.2536      49.1077       2.5034
   1993.0332      10.8880       0.0023      66.1310       0.0000       0.0000      79.4474      48.0126     112.1437      17.1793       3.2070      48.5596       2.4939
   1993.1855      10.9255       0.0020      65.2700       0.0000       0.0000      81.4951      49.5242     145.6051      16.5970       3.1698      48.0174       2.4876
   1993.3380      10.8714       0.0020      64.1455       0.0000       0.0000      89.9702      54.5852     141.0944      16.1140       3.1483      47.4846       2.4866
   1993.4904      10.8126       0.0039      63.7519       0.0000       0.0000      88.7874      54.1656     142.8746      15.9440       3.1383      47.5043       2.4920
   1993.6428      10.7465       0.0089      63.7549       0.0000       0.0000      72.0566      44.9230     154.7827      15.9455       3.1468      48.4133       2.5075
   1993.7952      10.6980       0.0139      64.3212       0.0000       0.0000      59.3660      38.0134     139.0955      16.4293       3.1787      48.8897       2.5209
   1993.9476      10.6775       0.0190      65.1932       0.0000       0.0000      53.0294      34.7729      80.0102      17.1768       3.2474      48.6856       2.5309
   1994.1000      10.7134       0.0275      65.3380       0.0000       0.0000      49.2248      32.7029      59.8471      17.4391       3.2773      48.5869       2.5170
   1994.2524      10.8362       0.0416      65.0880       0.0000       0.0000      49.3105      32.4313      99.4876      17.4361       3.2478      48.6500       2.4664
   1994.4048      10.9522       0.0534      65.0058       0.0000       0.0000      48.6922      32.1176     112.2593      16.8571       3.2352      48.1191       2.3952
   1994.5573      11.0580       0.0619      65.0148       0.0000       0.0000      47.0136      31.7405      84.5575      15.9631       3.2482      46.6931       2.2929
   1994.7096      11.1729       0.0698      65.8287       0.0000       0.0000      44.3782      29.7723      54.9122      15.7068       3.3146      44.4621       2.1908
   1994.8621      11.3013       0.0769      67.0781       0.0000       0.0000      40.3345      25.4618      22.4061      15.7993       3.4595      41.0462       2.0890
   1995.0144      11.3793       0.0835      68.2488       0.0000       0.0000      37.5293      22.6370       3.0627      15.2050       3.6176      40.3349       2.0602
   1995.1667      11.3848       0.0895      69.3768       0.0000       0.0000      36.5059      21.9494       2.6547      14.2351       3.7945      43.5144       2.1364
   1995.3192      11.3352       0.0936      79.2964       0.0000       0.0000      39.8434      24.2569       5.0724      13.9179       3.8668      46.2914       2.2147
   1995.4716      11.2078       0.0951      93.9769       0.0000       0.0000      49.3327      30.7895      11.4762      13.9579       3.7916      48.5005       2.2959
   1995.6240      11.0400       0.0756      99.5780       0.0000       0.0000      66.9063      41.4543      19.6384      18.4733       3.6239      50.3669       2.3841
   1995.7764      10.8165       0.0269     100.2610       0.0000       0.0000      95.6274      57.8171      30.2255      25.4385       3.3287      51.7607       2.4818
   1995.9288      10.6690      -0.0027     112.0331       0.0000       0.0000     127.3697      75.5562      68.2572      27.8985       3.1910      54.0276       2.5414
   1996.0812      10.6244      -0.0067     129.8135       0.0000       0.0000     163.1975      95.1566     143.4035      27.8915       3.2662      57.4751       2.5494
   1996.2336      10.5806      -0.0096     135.9612       0.0000       0.0000     163.7778      95.4246     177.3891      27.5256       3.3019      58.0073       2.5553
   1996.3860      10.5380      -0.0112     135.8042       0.0000       0.0000     117.7588      70.1340     156.9575      26.9631       3.2853      54.6851       2.5583
   1996.5385      10.4963      -0.0116     128.5500       0.0000       0.0000      84.5523      51.1549     153.3082      25.4335       3.2950      52.7438       2.5578
   1996.6908      10.4557      -0.0106     117.4484       0.0000       0.0000      67.9068      40.3337     171.3510      23.3741       3.3386      52.5874       2.5528
   1996.8431      10.5743      -0.0065     109.2349       0.0000       0.0000      55.8598      32.3208     155.2398      21.0336       3.4072      52.5968       2.5104
   1996.9956      10.8947       0.0016     102.5876       0.0000       0.0000      49.6431      27.8684      95.8251      18.5392       3.5075      52.8164       2.4207
   1997.1479      11.4118       0.0053      89.4112       0.0000       0.0000      45.1420      24.8703      49.2238      17.5504       3.5223      52.2243       2.3453
   1997.3004      12.1729       0.0038      72.6932       0.0000       0.0000      42.7679      23.6750      18.5076      17.3869       3.4310      50.6259       2.2876
   1997.4528      12.5243       0.0016      75.9491       0.0000       0.0000      41.3671      22.8311       2.8088      16.6409       3.3760      49.5588       2.2777
   1997.6052      12.3790      -0.0014      90.0421       0.0000       0.0000      41.1461      22.4131       5.3147      15.5755       3.3650      49.1358       2.3259
   1997.7576      11.9148      -0.0041      94.9796       0.0000       0.0000      48.3127      26.3997      11.7744      15.2045       3.3473      49.5358       2.3797
   1997.9100      11.0715      -0.0067      94.9481       0.0000       0.0000      64.2654      35.6248      22.9364      15.2130       3.3217      50.9146       2.4404
