#------------------------------------------------------------------------------
#
#   Created by  : [OpenWorks] Log Export Utility (LEXP)
#   Created on  : 2016-05-23 11:51:57
#   Project     : CANT971
#   User        : R5K
#   Interpreter : PEP
#
#------------------------------------------------------------------------------
~VERSION INFORMATION
VERS. 2.0 : CWLS Log ASCII Standard - version 2.0
WRAP. YES : Mulitple lines per depth step
~WELL INFORMATION
#MNEMONIC   .UNIT                                           VALUE :DESCRIPTION
#------------------------------------------------------------------------------
STRT        .M                                           782.8787 :START DEPTH
STOP        .M                                          2966.0088 :STOP DEPTH
STEP        .M                                             0.1524 :STEP
NULL        .                                           -999.2500 :NULL VALUE
COMP        .                                   PEMEX EXPL & PROD :COMPANY
WELL        .                                                 178 :WELL
FLD         .                                           CANTARELL :FIELD
LOC         .                                             UNKNOWN :LOCATION
CNTY        .                                      CD. DEL CARMEN :COUNTY
STAT        .                                            CAMPECHE :STATE
CTRY        .                                              MEXICO :COUNTRY
SRVC        .                                             UNKNOWN :SERVICE COMPANY
DATE        .                                             UNKNOWN :LOG DATE
UWI         .                                          3060000702 :UNIQUE WELL ID
XCOORD      .                                       602144.590000 :SURFACE X
YCOORD      .                                      2147185.340000 :SURFACE Y
LAT         .                                           19.417512 :LATITUDE
LON         .                                          -92.027103 :LONGITUDE
ELEV        .M                                            28.1700 :SURFACE ELEV
ELEV_TYPE   .                                                  KB :ELEV TYPE
~CURVE INFORMATION
#MNEMONIC.UNIT        API CODE       : CURVE DESCRIPTION
#------------------------------------------------------------------------------
DEPTH    .M                          : Measured Depth
CALI     .inches      UNKNOWN        : CALI:registros:rC:NONE:v0 (auto-composite)
CGR      .API         UNKNOWN        : CGR:registros:rC:NONE:v0 (auto-composite)
DRHO     .g/cm3       UNKNOWN        : DRHO:registros:rC:NONE:v0 (auto-composite)
DT       .UNKNOWN     UNKNOWN        : DT:registros:rC:NONE:v0 (auto-composite)
GR       .API         UNKNOWN        : GR:registros:rC:NONE:v0 (auto-composite)
GR-LWD   .UNKNOWN     UNKNOWN        : GR-LWD:registros:rC:NONE:v0 (auto-composite)
ILD      .ohm.m       UNKNOWN        : ILD:registros:rC:NONE:v0 (auto-composite)
ILM      .ohm.m       UNKNOWN        : ILM:registros:rC:NONE:v0 (auto-composite)
LLD      .ohm.m       UNKNOWN        : LLD:registros:rC:NONE:v0 (auto-composite)
LLD-LWD  .UNKNOWN     UNKNOWN        : LLD-LWD:registros:rC:NONE:v0 (auto-composite)
LLS      .ohm.m       UNKNOWN        : LLS:registros:rC:NONE:v0 (auto-composite)
LLS-LWD  .UNKNOWN     UNKNOWN        : LLS-LWD:registros:rC:NONE:v0 (auto-composite)
MSFL     .ohm.m       UNKNOWN        : MSFL:registros:rC:NONE:v0 (auto-composite)
MSFL-LWD .UNKNOWN     UNKNOWN        : MSFL-LWD:registros:rC:NONE:v0 (auto-composite)
NPHI     .v/v_decimal UNKNOWN        : NPHI:registros:rC:NONE:v0 (auto-composite)
PEF      .b/elec      UNKNOWN        : PEF:registros:rC:NONE:v0 (auto-composite)
POTA     .wtpercent   UNKNOWN        : POTA:registros:rC:NONE:v0 (auto-composite)
RHOB     .g/cm3       UNKNOWN        : RHOB:registros:rC:NONE:v0 (auto-composite)
THOR     .ppm         UNKNOWN        : THOR:registros:rC:NONE:v0 (auto-composite)
URAN     .ppm         UNKNOWN        : URAN:registros:rC:NONE:v0 (auto-composite)
~A
# ...
   2117.5979
      13.0343      17.5359       0.0761      76.9922      65.3473    -999.2500
    -999.2500    -999.2500      58.5255    -999.2500      31.0327    -999.2500
    -999.2500    -999.2500       0.1091       2.9582       0.0095       2.6510
       0.5844       7.0012
   2117.7502
      13.0318      15.3692       0.0842      76.6583      54.0917    -999.2500
    -999.2500    -999.2500      56.5452    -999.2500      29.9864    -999.2500
    -999.2500    -999.2500       0.1103       2.8800       0.0091       2.6565
       0.4784       5.8343
   2117.9028
      13.0293      17.2907       0.0987      75.8974      56.7347    -999.2500
    -999.2500    -999.2500      48.5837    -999.2500      26.7557    -999.2500
    -999.2500    -999.2500       0.1077       2.8051       0.0096       2.6505
       0.4959       5.5368
   2118.0552
      13.0271      18.9748       0.1130      75.1336      58.8031    -999.2500
    -999.2500    -999.2500      41.6710    -999.2500      23.9908    -999.2500
    -999.2500    -999.2500       0.1028       2.7403       0.0100       2.6458
       0.5202       5.2293
   2118.2075
      13.0281      17.8537       0.1250      74.3219      54.2192    -999.2500
    -999.2500    -999.2500      46.9897    -999.2500      26.6474    -999.2500
    -999.2500    -999.2500       0.0955       2.7937       0.0093       2.6553
       0.6221       4.8230
   2118.3599
      13.0290      16.5772       0.1364      73.4802      49.5338    -999.2500
    -999.2500    -999.2500      52.7327    -999.2500      29.4981    -999.2500
    -999.2500    -999.2500       0.0873       2.8465       0.0086       2.6654
       0.7238       4.4245
   2118.5122
      13.0295      13.5397       0.1419      72.2652      43.5606    -999.2500
    -999.2500    -999.2500      63.1180    -999.2500      34.4612    -999.2500
    -999.2500    -999.2500       0.0787       2.8910       0.0068       2.6829
       0.8222       4.1295
   2118.6648
      13.0306      10.6736       0.1453      71.1180      38.0094    -999.2500
    -999.2500    -999.2500      72.3420    -999.2500      38.8286    -999.2500
    -999.2500    -999.2500       0.0716       2.9197       0.0051       2.7014
       0.9111       3.8607
   2118.8171
      13.0381       9.9215       0.1238      70.7073      37.5960    -999.2500
    -999.2500    -999.2500      67.9242    -999.2500      36.2107    -999.2500
    -999.2500    -999.2500       0.0673       2.7662       0.0046       2.7314
       0.8872       3.9066
   2118.9695
      13.0480       9.1732       0.1031      70.3711      37.1452    -999.2500
    -999.2500    -999.2500      63.3943    -999.2500      33.5608    -999.2500
    -999.2500    -999.2500       0.0655       2.6207       0.0040       2.7580
       0.8608       3.9397
   2119.1218
      13.0860       8.4959       0.0921      70.8657      36.2750    -999.2500
    -999.2500    -999.2500      57.6475    -999.2500      30.5890    -999.2500
    -999.2500    -999.2500       0.0667       2.5678       0.0037       2.7455
       0.8084       3.8250
   2119.2744
      13.1234       7.8592       0.0841      71.3571      35.1068    -999.2500
    -999.2500    -999.2500      52.0723    -999.2500      27.7024    -999.2500
    -999.2500    -999.2500       0.0676       2.5328       0.0034       2.7322
       0.7565       3.6775
   2119.4268
      13.1529       7.7249       0.1101      71.8187      30.4672    -999.2500
    -999.2500    -999.2500      48.6731    -999.2500      25.9007    -999.2500
    -999.2500    -999.2500       0.0657       2.7041       0.0036       2.7091
       0.7125       3.1595
   2119.5791
      13.1810       7.5958       0.1328      72.2870      26.1326    -999.2500
    -999.2500    -999.2500      46.1439    -999.2500      24.4636    -999.2500
    -999.2500    -999.2500       0.0629       2.8578       0.0037       2.6889
       0.6749       2.6738
   2119.7314
      13.1930       7.5314       0.1183      72.8430      25.1889    -999.2500
    -999.2500    -999.2500      53.7793    -999.2500      27.2942    -999.2500
    -999.2500    -999.2500       0.0604       2.8059       0.0036       2.6999
       0.7113       2.5720
   2119.8840
      13.1971       7.4971       0.1062      73.3737      24.4361    -999.2500
    -999.2500    -999.2500      61.3945    -999.2500      30.1458    -999.2500
    -999.2500    -999.2500       0.0582       2.7530       0.0035       2.7096
       0.7546       2.4800
   2120.0364
      13.1116       7.8102       0.1212      73.6201      25.9272    -999.2500
    -999.2500    -999.2500      68.4787    -999.2500      33.1267    -999.2500
    -999.2500    -999.2500       0.0565       2.6906       0.0033       2.7051
       0.8745       2.5050
   2120.1887
      13.0326       8.1762       0.1342      73.7921      27.4376    -999.2500
    -999.2500    -999.2500      74.8878    -999.2500      35.7959    -999.2500
    -999.2500    -999.2500       0.0562       2.6379       0.0030       2.7007
       1.0080       2.5263
   2120.3411
      13.0281       9.1316       0.1236      73.1251      29.1108    -999.2500
    -999.2500    -999.2500      73.2830    -999.2500      34.7727    -999.2500
    -999.2500    -999.2500       0.0582       2.6988       0.0029       2.6967
       1.2927       2.5053
   2120.4934
      13.0245      10.0218       0.1128      72.4796      30.5646    -999.2500
    -999.2500    -999.2500      72.5592    -999.2500      34.0384    -999.2500
    -999.2500    -999.2500       0.0609       2.7480       0.0028       2.6943
       1.5634       2.4768
   2120.6460
      13.0305      10.1066       0.0978      72.0751      29.3102    -999.2500
    -999.2500    -999.2500      82.0393    -999.2500      36.6691    -999.2500
    -999.2500    -999.2500       0.0630       2.6606       0.0027       2.7108
       1.6558       2.3619
   2120.7983
      13.0368      10.1308       0.0835      71.7013      28.0279    -999.2500
    -999.2500    -999.2500      92.4569    -999.2500      39.5951    -999.2500
    -999.2500    -999.2500       0.0646       2.5806       0.0026       2.7264
       1.7297       2.2480
   2120.9507
      13.0468       9.4593       0.0775      71.6672      26.4347    -999.2500
    -999.2500    -999.2500     113.3104    -999.2500      45.8169    -999.2500
    -999.2500    -999.2500       0.0658       2.5886       0.0026       2.7319
       1.5899       2.1492
   2121.1030
      13.0577       8.7635       0.0722      71.7027      24.8543    -999.2500
    -999.2500    -999.2500     134.2345    -999.2500      51.9613    -999.2500
    -999.2500    -999.2500       0.0674       2.5986       0.0025       2.7352
       1.4456       2.0560
   2121.2556
      13.0792       7.8049       0.0742      72.5378      23.4144    -999.2500
    -999.2500    -999.2500     155.0438    -999.2500      56.9369    -999.2500
    -999.2500    -999.2500       0.0706       2.6311       0.0024       2.7132
       1.2523       2.0311
   2121.4080
      13.1001       6.8715       0.0776      73.4364      22.0277    -999.2500
    -999.2500    -999.2500     175.6808    -999.2500      61.7878    -999.2500
    -999.2500    -999.2500       0.0744       2.6622       0.0023       2.6895
       1.0672       2.0121
   2121.5603
      13.1141       6.2700       0.0971      75.0786      21.2769    -999.2500
    -999.2500    -999.2500     193.7616    -999.2500      65.0747    -999.2500
    -999.2500    -999.2500       0.0787       2.6772       0.0022       2.6465
       0.9823       2.0625
   2121.7126
      13.1288       5.7588       0.1140      76.7240      20.6410    -999.2500
    -999.2500    -999.2500     212.1521    -999.2500      68.4102    -999.2500
    -999.2500    -999.2500       0.0831       2.6871       0.0021       2.6057
       0.9020       2.1063
   2121.8652
      13.1508       6.3079       0.1015      78.4670      21.3958    -999.2500
    -999.2500    -999.2500     233.2648    -999.2500      72.1503    -999.2500
    -999.2500    -999.2500       0.0875       2.6387       0.0024       2.5897
       0.8765       2.0724
