#------------------------------------------------------------------------------
#
#   Created by  : [OpenWorks] Log Export Utility (LEXP)
#   Created on  : 2016-05-12 17:01:14
#   Project     : CANT971
#   User        : R5K
#   Interpreter : PEP
#
#------------------------------------------------------------------------------
~VERSION INFORMATION
VERS. 2.0 : CWLS Log ASCII Standard - version 2.0
WRAP.  NO : One line per depth step
~WELL INFORMATION
#MNEMONIC   .UNIT                                           VALUE :DESCRIPTION
#------------------------------------------------------------------------------
STRT        .M                                          1708.0991 :START DEPTH
STOP        .M                                          2834.0303 :STOP DEPTH
STEP        .M                                             0.1524 :STEP
NULL        .                                           -999.2500 :NULL VALUE
COMP        .                                             UNKNOWN :COMPANY
WELL        .                                                3016 :WELL
FLD         .                                           CANTARELL :FIELD
LOC         .                                             UNKNOWN :LOCATION
CNTY        .                                             UNKNOWN :COUNTY
STAT        .                                            CAMPECHE :STATE
CTRY        .                                              MEXICO :COUNTRY
SRVC        .                                             UNKNOWN :SERVICE COMPANY
DATE        .                                             UNKNOWN :LOG DATE
UWI         .                                                3016 :UNIQUE WELL ID
XCOORD      .                                       192548.498000 :SURFACE X
YCOORD      .                                        92151.948000 :SURFACE Y
LAT         .                                            0.832805 :LATITUDE
LON         .                                          -95.762171 :LONGITUDE
ELEV        .M                                            46.0000 :SURFACE ELEV
ELEV_TYPE   .                                                  KB :ELEV TYPE
~CURVE INFORMATION
#MNEMONIC.UNIT        API CODE       : CURVE DESCRIPTION
#------------------------------------------------------------------------------
DEPTH    .M                          : Measured Depth
CALI     .inches      UNKNOWN        : CALI:litodensidad:rC:NONE:v0 (auto-composite)
CGR      .API         UNKNOWN        : CGR:Espectrometria:rC:NONE:v0 (auto-composite)
DRHO     .g/cm3       UNKNOWN        : DRHO:litodensidad:rC:NONE:v0 (auto-composite)
DT       .us/ft       UNKNOWN        : DT:DT-Load:rC:NONE:v0 (auto-composite)
GR       .API         UNKNOWN        : GR:PETROWORKS:rC:NONE:v1 
GR-LWD   .API         UNKNOWN        : GR-LWD:PETROWORKS:rC:NONE:v1 
ILD-LWD  .ohm.m       UNKNOWN        : ILD-LWD:PETROWORKS:rC:NONE:v1 
ILM-LWD  .ohm.m       UNKNOWN        : ILM-LWD:PETROWORKS:rC:NONE:v1 
LLD      .ohm.m       UNKNOWN        : LLD:Resistivos:rC:NONE:v0 (auto-composite)
LLS      .ohm.m       UNKNOWN        : LLS:Resistivos:rC:NONE:v0 (auto-composite)
MSFL     .ohm.m       UNKNOWN        : MSFL:Resistivos:rC:NONE:v0 (auto-composite)
NPHI     .v/v_decimal UNKNOWN        : NPHI:Porosidad:rC:NONE:v0 (auto-composite)
PEF      .UNKNOWN     UNKNOWN        : PEF:litodensidad:rC:NONE:v0 (auto-composite)
POTA     .wtpercent   UNKNOWN        : POTA:Espectrometria:rC:NONE:v0 (auto-composite)
RHOB     .g/cm3       UNKNOWN        : RHOB:litodensidad:rC:NONE:v0 (auto-composite)
SP       .mV          UNKNOWN        : SP:SP-Load:rC:NONE:v0 (auto-composite)
THOR     .ppm         UNKNOWN        : THOR:Espectrometria:rC:NONE:v0 (auto-composite)
URAN     .ppm         UNKNOWN        : URAN:Espectrometria:rC:NONE:v0 (auto-composite)
~A     DEPTH         CALI          CGR         DRHO           DT           GR       GR-LWD      ILD-LWD      ILM-LWD          LLD          LLS         MSFL         NPHI          PEF         POTA         RHOB           SP         THOR         URAN
# ...
   2678.7346       9.3278       4.3930       0.0152      48.1879      27.1581    -999.2500    -999.2500    -999.2500     442.8253     228.6513     640.4988       0.0407       3.2391       0.0016       2.7736     -78.6250       0.4420       2.8268
   2678.8872       9.2847       5.3434       0.0138      49.8441      29.1200    -999.2500    -999.2500    -999.2500     478.5004     234.2901     618.5764       0.0528       3.0808       0.0018       2.7259     -77.8125       0.6358       2.9851
   2679.0396       9.0475       6.0367       0.0095      55.2543      30.8500    -999.2500    -999.2500    -999.2500     574.6299     275.2527     183.3089       0.0819       3.0119       0.0021       2.6726     -77.5625       0.7249       3.1428
   2679.1919       9.0403       6.6959       0.0076      57.8294      32.0477    -999.2500    -999.2500    -999.2500     608.2027     292.3420     121.0033       0.1089       3.1096       0.0021       2.6322     -77.1875       0.9406       3.1904
   2679.3442       9.0690       6.5727       0.0098      59.0206      31.8054    -999.2500    -999.2500    -999.2500     610.9620     298.0475      90.8916       0.1269       3.3225       0.0021       2.6203     -75.7500       0.8979       3.1055
   2679.4968       9.0618       6.9958       0.0093      52.9147      32.1360    -999.2500    -999.2500    -999.2500     747.5609     392.3231     178.3346       0.1276       3.3120       0.0025       2.5989     -74.7500       0.7745       3.1360
   2679.6492       9.0331       8.9709       0.0072      51.8340      35.0482    -999.2500    -999.2500    -999.2500     927.7606    1021.2828     330.6743       0.1217       3.1219       0.0031       2.5970     -74.0625       1.0357       3.2543
   2679.8015       9.1122      10.5655       0.0100      52.6122      36.0170    -999.2500    -999.2500    -999.2500     880.8705    2429.3872     208.4112       0.1231       3.0070       0.0040       2.5915     -73.8125       1.0270       3.1868
   2679.9539       9.1265      11.9899       0.0101      53.8406      37.9100    -999.2500    -999.2500    -999.2500     760.3649    4186.7744     793.9341       0.1288       2.9201       0.0046       2.5905     -75.0625       1.1626       3.1417
   2680.1062       9.1050      14.5220       0.0109      54.8096      43.0802    -999.2500    -999.2500    -999.2500     479.1310     499.2411      89.4837       0.1383       2.8981       0.0052       2.5878     -76.0625       1.6004       3.4638
   2680.2588       9.0906      20.4279       0.0310      59.7312      53.1989    -999.2500    -999.2500    -999.2500     187.3512      82.5645     125.7388       0.1350       2.7875       0.0070       2.5098     -75.7500       2.4299       4.1041
   2680.4111       9.0690      23.4783       0.0280      60.8992      60.7327    -999.2500    -999.2500    -999.2500     126.4765      49.9382      12.1255       0.1444       2.6508       0.0083       2.4436     -75.7500       2.6563       4.7251
   2680.5635       9.1265      23.9540       0.0165      62.0040      61.8374    -999.2500    -999.2500    -999.2500     116.0775      47.0277       4.8859       0.1746       2.5382       0.0088       2.4024     -74.8125       2.4980       4.7525
   2680.7158       9.1122      23.4630       0.0288      62.5352      58.2496    -999.2500    -999.2500    -999.2500     104.4883      38.9966      29.8399       0.1973       2.3540       0.0087       2.4681     -73.0625       2.4195       4.3882
   2680.8684       9.1337      21.1680       0.0308      57.4929      54.3467    -999.2500    -999.2500    -999.2500     106.1460      44.0180      34.2182       0.1989       2.4819       0.0083       2.5181     -73.6875       1.9149       4.1753
   2681.0208       9.1265      21.9728       0.0054      56.6940      51.4923    -999.2500    -999.2500    -999.2500     128.9977      64.2777      33.9242       0.1784       2.6219       0.0090       2.5468     -73.0625       1.7871       3.7378
   2681.1731       9.0690      21.3140       0.0062      59.0790      49.3895    -999.2500    -999.2500    -999.2500     133.4974      68.9108     143.5776       0.1757       3.1131       0.0084       2.5978     -72.8750       1.8877       3.5005
   2681.3254       9.1625      22.2176       0.0282      58.1321      51.4399    -999.2500    -999.2500    -999.2500     145.4271      81.0866     172.9998       0.1666       3.2995       0.0091       2.6113     -70.8750       1.7782       3.6275
   2681.4780       9.2272      23.1607       0.0552      62.3097      57.3473    -999.2500    -999.2500    -999.2500     127.6589      73.3782      94.4526       0.1424       3.3062       0.0096       2.5625     -70.6875       1.8212       4.2233
   2681.6304       9.2272      26.2362       0.0855      62.2837      65.7531    -999.2500    -999.2500    -999.2500      96.6812      46.7676      67.7589       0.1169       3.4383       0.0111       2.5306     -68.4375       1.9172       4.9720
   2681.7827       9.2416      27.1693       0.1342      62.8125      69.4408    -999.2500    -999.2500    -999.2500      87.9317      40.5755       3.7161       0.1002       3.3171       0.0122       2.5541     -67.7500       1.5798       5.2687
   2681.9351       9.1697      23.2902       0.1539      56.4628      66.6485    -999.2500    -999.2500    -999.2500      82.3837      35.6628       2.8970       0.1319       3.3145       0.0108       2.5817     -67.7500       1.1326       5.3532
   2682.0874       8.9828      20.5146       0.1476      49.3556      60.7391    -999.2500    -999.2500    -999.2500      78.6023      30.9684      56.7897       0.1368       3.2684       0.0097       2.5863     -67.7500       0.8724       4.9583
   2682.2400       9.0762      18.4441       0.1187      47.6824      54.8079    -999.2500    -999.2500    -999.2500      79.2935      32.7310     154.4294       0.1214       3.3535       0.0088       2.4419     -67.7500       0.7568       4.4613
   2682.3923       9.1122      14.9541       0.0978      47.7885      47.5690    -999.2500    -999.2500    -999.2500      77.8277      30.2862     116.2418       0.0700       3.3913       0.0073       2.3106     -67.7500       0.4907       3.9388
   2682.5447       9.1337      12.0642       0.0771      59.5872      40.7651    -999.2500    -999.2500    -999.2500      80.8808      27.8841       1.2730       0.0574       3.1153       0.0058       2.1888     -67.7500       0.4500       3.5401
   2682.6970       9.1409       7.8561       0.0777      50.1566      34.1956    -999.2500    -999.2500    -999.2500      81.3304      29.0398       1.6052       0.0759       3.0323       0.0037       2.2112     -67.9375       0.3198       3.2567
   2682.8496       9.4069       6.4817       0.0816      51.4259      31.2698    -999.2500    -999.2500    -999.2500      96.8458      34.4306     156.0974       0.0710       2.8383       0.0034       2.3597     -68.0000       0.0968       3.0547
   2683.0020       8.9684       5.3281       0.0883      50.3373      29.4675    -999.2500    -999.2500    -999.2500     122.1091      45.7451     634.8702       0.0626       3.1794       0.0028       2.6016     -68.0000       0.0942       3.0050
   2683.1543       9.0475       4.0285       0.1115      46.6322      28.2877    -999.2500    -999.2500    -999.2500     159.0679      61.8890     523.4026       0.0372       3.2150       0.0021       2.9163     -67.8750       0.0790       3.0816
   2683.3066       9.0690       2.6786       0.0416      46.9278      25.0744    -999.2500    -999.2500    -999.2500     239.6279     102.2983     896.7184       0.0338       3.3289       0.0013       2.8524     -68.1875       0.0739       2.8157
   2683.4592       9.0547       2.1860       0.0195      45.9554      21.1706    -999.2500    -999.2500    -999.2500     371.2212     180.2112     626.2765       0.0298       3.5666       0.0009       2.8219     -71.0000       0.1836       2.4038
   2683.6116       9.0690       1.7972       0.0160      45.7710      18.3605    -999.2500    -999.2500    -999.2500     414.3962     184.6442    1777.5482       0.0298       3.5322       0.0008       2.8052     -72.1250       0.0966       2.0721
