#------------------------------------------------------------------------------
#
#   Created by  : [OpenWorks] Log Export Utility (LEXP)
#   Created on  : 2016-05-23 11:57:11
#   Project     : CANT971
#   User        : R5K
#   Interpreter : PEP
#
#------------------------------------------------------------------------------
~VERSION INFORMATION
VERS. 2.0 : CWLS Log ASCII Standard - version 2.0
WRAP.  NO : One line per depth step
~WELL INFORMATION
#MNEMONIC   .UNIT                                           VALUE :DESCRIPTION
#------------------------------------------------------------------------------
STRT        .M                                           319.2782 :START DEPTH
STOP        .M                                          2532.8882 :STOP DEPTH
STEP        .M                                             0.1524 :STEP
NULL        .                                           -999.2500 :NULL VALUE
COMP        .                                   PEMEX EXPL & PROD :COMPANY
WELL        .                                                 73A :WELL
FLD         .                                           CANTARELL :FIELD
LOC         .                                             UNKNOWN :LOCATION
CNTY        .                                      CD. DEL CARMEN :COUNTY
STAT        .                                            CAMPECHE :STATE
CTRY        .                                              MEXICO :COUNTRY
SRVC        .                                             UNKNOWN :SERVICE COMPANY
DATE        .                                             UNKNOWN :LOG DATE
UWI         .                                          3060000177 :UNIQUE WELL ID
XCOORD      .                                       599722.890000 :SURFACE X
YCOORD      .                                      2147218.550000 :SURFACE Y
LAT         .                                           19.417934 :LATITUDE
LON         .                                          -92.050165 :LONGITUDE
ELEV        .M                                            27.8000 :SURFACE ELEV
ELEV_TYPE   .                                                  KB :ELEV TYPE
~CURVE INFORMATION
#MNEMONIC.UNIT        API CODE       : CURVE DESCRIPTION
#------------------------------------------------------------------------------
DEPTH    .M                          : Measured Depth
CALI     .inches      UNKNOWN        : CALI:registros:rC:NONE:v0 (auto-composite)
DRHO     .g/cm3       UNKNOWN        : DRHO:registros:rC:NONE:v0 (auto-composite)
DT       .UNKNOWN     UNKNOWN        : DT:registros:rC:NONE:v0 (auto-composite)
GR       .API         UNKNOWN        : GR:registros:rC:NONE:v0 (auto-composite)
ILD      .ohm.m       UNKNOWN        : ILD:registros:rC:NONE:v0 (auto-composite)
LLD      .ohm.m       UNKNOWN        : LLD:registros:rC:NONE:v0 (auto-composite)
LLS      .ohm.m       UNKNOWN        : LLS:registros:rC:NONE:v0 (auto-composite)
MSFL     .ohm.m       UNKNOWN        : MSFL:registros:rC:NONE:v0 (auto-composite)
RHOB     .g/cm3       UNKNOWN        : RHOB:registros:rC:NONE:v0 (auto-composite)
~A     DEPTH         CALI         DRHO           DT           GR          ILD          LLD          LLS         MSFL         RHOB
# ...
    328.7270      -0.5860      -0.0010      55.8912      26.4006    -999.2500    -999.2500    -999.2500    -999.2500       2.5050
    328.8794      -0.5860      -0.0010      55.7910      26.3280    -999.2500    -999.2500    -999.2500    -999.2500       2.5050
    329.0318       1.2071      -0.0010      56.0531      25.8702    -999.2500    -999.2500    -999.2500    -999.2500       2.5050
    329.1842       2.9960      -0.0010      56.3160      25.4110    -999.2500    -999.2500    -999.2500    -999.2500       2.5050
    329.3366       7.4475      -0.0010      56.2980      24.7510    -999.2500    -999.2500    -999.2500    -999.2500       2.5050
    329.4890      11.8890      -0.0010      56.2800      24.0890    -999.2500    -999.2500    -999.2500    -999.2500       2.5050
    329.6414      15.1253      -0.1487      56.0858      23.3337    -999.2500    -999.2500    -999.2500    -999.2500       2.2902
    329.7938      18.3540      -0.2960      55.8910      22.5760    -999.2500    -999.2500    -999.2500    -999.2500       2.0760
    329.9462      18.9347      -0.2960      56.0657      22.6943    -999.2500    -999.2500    -999.2500    -999.2500       2.0850
    330.0986      19.5140      -0.2960      56.2410      22.8130    -999.2500    -999.2500    -999.2500    -999.2500       2.0940
    330.2510      19.5155      -0.2960      56.1412      23.4680    -999.2500    -999.2500    -999.2500    -999.2500       2.1120
    330.4034      19.5170      -0.2960      56.0410      24.1250    -999.2500    -999.2500    -999.2500    -999.2500       2.1300
    330.5558      19.5170      -0.2960      56.1159      23.8065    -999.2500    -999.2500    -999.2500    -999.2500       2.1440
    330.7082      19.5170      -0.2960      56.1910      23.4870    -999.2500    -999.2500    -999.2500    -999.2500       2.1580
    330.8606      19.5125      -0.2960      56.0787      22.6129    -999.2500    -999.2500    -999.2500    -999.2500       2.1695
    331.0130      19.5080      -0.2960      55.9660      21.7360    -999.2500    -999.2500    -999.2500    -999.2500       2.1810
    331.1654      19.4870      -0.2960      56.0409      20.4350    -999.2500    -999.2500    -999.2500    -999.2500       2.2025
    331.3178      19.4660      -0.2960      56.1160      19.1300    -999.2500    -999.2500    -999.2500    -999.2500       2.2240
    331.4702      19.4275      -0.2960      55.9787      19.2214    -999.2500    -999.2500    -999.2500    -999.2500       2.2235
    331.6226      19.3890      -0.2960      55.8410      19.3130    -999.2500    -999.2500    -999.2500    -999.2500       2.2230
    331.7750      19.4030      -0.2960      55.9144      19.7164    -999.2500    -999.2500    -999.2500    -999.2500       2.2290
    331.9274      19.4170      -0.2960      55.9880      20.1210    -999.2500    -999.2500    -999.2500    -999.2500       2.2350
    332.0798      19.4465      -0.2960      56.2266      20.7750    -999.2500    -999.2500    -999.2500    -999.2500       2.2285
    332.2322      19.4760      -0.2960      56.4660      21.4310    -999.2500    -999.2500    -999.2500    -999.2500       2.2220
    332.3846      19.5095      -0.2960      56.4021      22.0636    -999.2500    -999.2500    -999.2500    -999.2500       2.2050
    332.5370      19.5430      -0.2960      56.3380      22.6980    -999.2500    -999.2500    -999.2500    -999.2500       2.1880
    332.6894      19.5380      -0.2960      56.0774      23.1333    -999.2500    -999.2500    -999.2500    -999.2500       2.2240
    332.8418      19.5330      -0.2960      55.8160      23.5700    -999.2500    -999.2500    -999.2500    -999.2500       2.2600
    332.9942      19.4995      -0.2960      55.8849      24.1960    -999.2500    -999.2500    -999.2500    -999.2500       2.2545
    333.1466      19.4660      -0.2960      55.9540      24.8240    -999.2500    -999.2500    -999.2500    -999.2500       2.2490
    333.2990      19.4705      -0.2960      56.0723      24.6588    -999.2500    -999.2500    -999.2500    -999.2500       2.2405
    333.4514      19.4750      -0.2960      56.1910      24.4930    -999.2500    -999.2500    -999.2500    -999.2500       2.2320
    333.6038      19.4865      -0.2960      56.1406      23.8575    -999.2500    -999.2500    -999.2500    -999.2500       2.2250
    333.7562      19.4980      -0.2960      56.0900      23.2200    -999.2500    -999.2500    -999.2500    -999.2500       2.2180
    333.9086      19.5075      -0.2960      55.9033      22.1757    -999.2500    -999.2500    -999.2500    -999.2500       2.2040
    334.0610      19.5170      -0.2960      55.7160      21.1280    -999.2500    -999.2500    -999.2500    -999.2500       2.1900
    334.2134      19.5120      -0.2960      55.7854      21.3402    -999.2500    -999.2500    -999.2500    -999.2500       2.1990
    334.3658      19.5070      -0.2960      55.8550      21.5530    -999.2500    -999.2500    -999.2500    -999.2500       2.2080
    334.5182      19.4604      -0.2960      56.0976      21.9938    -999.2500    -999.2500    -999.2500    -999.2500       2.2345
    334.6706      19.4140      -0.2960      56.3410      22.4360    -999.2500    -999.2500    -999.2500    -999.2500       2.2610
    334.8230      19.4140      -0.2960      56.3135      22.9387    -999.2500    -999.2500    -999.2500    -999.2500       2.2960
    334.9754      19.4140      -0.2960      56.2860      23.4430    -999.2500    -999.2500    -999.2500    -999.2500       2.3310
    335.1278      19.4285      -0.2960      56.2336      23.9936    -999.2500    -999.2500    -999.2500    -999.2500       2.3881
    335.2802      19.4430      -0.2960      56.1810      24.5460    -999.2500    -999.2500    -999.2500    -999.2500       2.4450
    335.4326      19.4675      -0.2960      56.0362      25.6823    -999.2500    -999.2500    -999.2500    -999.2500       2.4365
    335.5850      19.4920      -0.2960      55.8910      26.8220    -999.2500    -999.2500    -999.2500    -999.2500       2.4280
    335.7374      19.5045      -0.2960      55.8910      26.2484    -999.2500    -999.2500    -999.2500    -999.2500       2.3885
    335.8898      19.5170      -0.2960      55.8910      25.6730    -999.2500    -999.2500    -999.2500    -999.2500       2.3490
    336.0422      19.5120      -0.2960      56.1157      25.8228    -999.2500    -999.2500    -999.2500    -999.2500       2.2634
    336.1946      19.5070      -0.2960      56.3410      25.9730    -999.2500    -999.2500    -999.2500    -999.2500       2.1780
    336.3470      19.4865      -0.2960      56.2661      25.8152    -999.2500    -999.2500    -999.2500    -999.2500       2.0664
    336.4994      19.4660      -0.2960      56.1910      25.6570    -999.2500    -999.2500    -999.2500    -999.2500       1.9550
    336.6518      19.4400      -0.2960      56.2564      25.2751    -999.2500    -999.2500    -999.2500    -999.2500       2.0076
    336.8042      19.4140      -0.2960      56.3220      24.8920    -999.2500    -999.2500    -999.2500    -999.2500       2.0600
    336.9566      19.3885      -0.2960      57.1607      24.3623    -999.2500    -999.2500    -999.2500    -999.2500       2.1681
    337.1090      19.3630      -0.2960      58.0020      23.8310    -999.2500    -999.2500    -999.2500    -999.2500       2.2760
    337.2614      19.3680      -0.2960      61.6330      23.3712    -999.2500    -999.2500    -999.2500    -999.2500       2.2425
    337.4138      19.3730      -0.2960      65.2750      22.9100    -999.2500    -999.2500    -999.2500    -999.2500       2.2090
    337.5662      19.3935      -0.2960      65.2440      22.1202    -999.2500    -999.2500    -999.2500    -999.2500       2.0518
    337.7186      19.4140      -0.2960      65.2130      21.3280    -999.2500    -999.2500    -999.2500    -999.2500       1.8950
    337.8710      19.4095      -0.2960      65.2340      22.3254    -999.2500    -999.2500    -999.2500    -999.2500       1.9220
    338.0234      19.4050      -0.2960      65.2550      23.3260    -999.2500    -999.2500    -999.2500    -999.2500       1.9490
