#------------------------------------------------------------------------------
#
#   Created by  : [OpenWorks] Log Export Utility (LEXP)
#   Created on  : 2015-10-01 09:49:56
#   Project     : CANT971
#   User        : R5K
#   Interpreter : PEP
#
#------------------------------------------------------------------------------
~VERSION INFORMATION
VERS. 2.0 : CWLS Log ASCII Standard - version 2.0
WRAP.  NO : One line per depth step
~WELL INFORMATION
#MNEMONIC   .UNIT                                           VALUE :DESCRIPTION
#------------------------------------------------------------------------------
STRT        .M                                           799.8710 :START DEPTH
STOP        .M                                          1367.5610 :STOP DEPTH
STEP        .M                                             0.1524 :STEP
NULL        .                                           -999.2500 :NULL VALUE
COMP        .                                   PEMEX EXPL & PROD :COMPANY
WELL        .                                        CANTARELL-1A :WELL
FLD         .                                           CANTARELL :FIELD
LOC         .                                             UNKNOWN :LOCATION
CNTY        .                                      CD. DEL CARMEN :COUNTY
STAT        .                                            CAMPECHE :STATE
CTRY        .                                              MEXICO :COUNTRY
SRVC        .                                             UNKNOWN :SERVICE COMPANY
DATE        .                                             UNKNOWN :LOG DATE
UWI         .                                          3060000138 :UNIQUE WELL ID
XCOORD      .                                       600823.080000 :SURFACE X
YCOORD      .                                      2145118.550000 :SURFACE Y
LAT         .                                           19.398902 :LATITUDE
LON         .                                          -92.039798 :LONGITUDE
ELEV        .M                                            27.7000 :SURFACE ELEV
ELEV_TYPE   .                                                  KB :ELEV TYPE
~CURVE INFORMATION
#MNEMONIC.UNIT        API CODE       : CURVE DESCRIPTION
#------------------------------------------------------------------------------
DEPTH    .M                          : Measured Depth
CALI     .inches      UNKNOWN        : CALI:UNKNOWN:rC:NONE:v0 (auto-composite)
DRHO     .g/cm3       UNKNOWN        : DRHO:UNKNOWN:rC:NONE:v0 (auto-composite)
DT       .us/ft       UNKNOWN        : DT:DT:rC:NONE:v0 (auto-composite)
ILD      .ohm.m       UNKNOWN        : ILD:UNKNOWN:rC:NONE:v0 (auto-composite)
LLD      .ohm.m       UNKNOWN        : LLD:UNKNOWN:rC:NONE:v0 (auto-composite)
LLS      .ohm.m       UNKNOWN        : LLS:UNKNOWN:rC:NONE:v0 (auto-composite)
MSFL     .ohm.m       UNKNOWN        : MSFL:UNKNOWN:rC:NONE:v0 (auto-composite)
NPHI     .v/v_decimal UNKNOWN        : NPHI:NPHI:rC:NONE:v0 (auto-composite)
GR       .API         UNKNOWN        : RG:UNKNOWN:rC:NONE:v0 (auto-composite)
RHOB     .g/cm3       UNKNOWN        : RHOB:UNKNOWN:rC:NONE:v0 (auto-composite)
~A     DEPTH         CALI         DRHO           DT          ILD          LLD          LLS         MSFL         NPHI           GR         RHOB
# ...
   1226.5911      16.2410       0.0368    -999.2500       1.2961       0.2000       0.2000       0.2000    -999.2500      31.0481       2.3293
   1226.7434      16.3570       0.0250    -999.2500       1.3838       0.2000       0.2000       0.2000    -999.2500      31.0182       2.3174
   1226.8959      16.2893       0.0230    -999.2500       1.4354       0.2000       0.2000       0.2000    -999.2500      31.2258       2.3435
   1227.0482      16.2230       0.0210    -999.2500       1.4885       0.2000       0.2000       0.2000    -999.2500      31.4188       2.3695
   1227.2007      16.2235       0.0205    -999.2500       1.6083       0.2000       0.2000       0.2000    -999.2500      30.9335       2.3936
   1227.3530      16.2253       0.0200    -999.2500       1.7262       0.2000       0.2000       0.2000    -999.2500      30.4535       2.4171
   1227.5055      16.2749       0.0200    -999.2500       1.7713       0.2000       0.2000       0.2000    -999.2500      30.1698       2.4211
   1227.6578      16.3246       0.0203    -999.2500       1.8148       0.2000       0.2000       0.2000    -999.2500      29.9234       2.4250
   1227.8102      16.3747       0.0283    -999.2500       1.8083       0.2000       0.2000       0.2000    -999.2500      30.8329       2.4266
   1227.9626      16.4209       0.0362    -999.2500       1.7994       0.2000       0.2000       0.2000    -999.2500      31.7241       2.4276
   1228.1150      16.3627       0.0407    -999.2500       1.7292       0.2000       0.2000       0.2000    -999.2500      32.1363       2.4166
   1228.2675      16.3062       0.0446    -999.2500       1.6591       0.2000       0.2000       0.2000    -999.2500      32.5105       2.4056
   1228.4198      16.2871       0.0356    -999.2500       1.5894       0.2000       0.2000       0.2000    -999.2500      32.0253       2.3956
   1228.5723      16.2723       0.0266    -999.2500       1.5205       0.2000       0.2000       0.2000    -999.2500      31.5405       2.3856
   1228.7246      16.3420       0.0186    -999.2500       1.4663       0.2000       0.2000       0.2000    -999.2500      31.0611       2.3766
   1228.8771      16.4111       0.0109    -999.2500       1.4154       0.2000       0.2000       0.2000    -999.2500      30.6285       2.3688
   1229.0294      16.4708       0.0099    -999.2500       1.4224       0.2000       0.2000       0.2000    -999.2500      31.0380       2.3849
   1229.1819      16.5276       0.0090    -999.2500       1.4308       0.2000       0.2000       0.2000    -999.2500      31.4022       2.4004
   1229.3342      16.5381       0.0095    -999.2500       1.4624       0.2000       0.2000       0.2000    -999.2500      31.0222       2.4074
   1229.4866      16.5481       0.0099    -999.2500       1.4967       0.2000       0.2000       0.2000    -999.2500      30.6728       2.4135
   1229.6390      16.5491       0.0084    -999.2500       1.5714       0.2000       0.2000       0.2000    -999.2500      30.7806       2.4049
   1229.7914      16.5487       0.0072    -172.2310       1.6417       0.2000       0.2000       0.2000    -138.4160      30.8952       2.3965
   1229.9438      16.5297       0.0102    -112.7774       1.6522       0.2000       0.2000       0.2000     -96.2923      31.1027       2.3884
   1230.0962      16.5128       0.0129       7.1584       1.6606       0.2000       0.2000       0.2000     -11.8620      31.2018       2.3788
   1230.2487      16.5233       0.0108      66.7085       1.6410       0.2000       0.2000       0.2000      30.4515      29.9272       2.3482
   1230.4010      16.5338       0.0085      64.8131       1.6243       0.2000       0.2000       0.2000      30.4545      28.7539       2.3204
   1230.5535      16.5444       0.0020      65.9820       1.6403       0.2000       0.2000       0.2000      30.4567      28.7654       2.3259
   1230.7058      16.5424      -0.0038      70.2699       1.6602       0.2000       0.2000       0.2000      30.4582      28.8024       2.3333
   1230.8583      16.4051      -0.0018      77.1267       1.7213       0.2000       0.2000       0.2000      30.4597      29.1156       2.3609
   1231.0106      16.2643       0.0004      86.5989       1.7824       0.2000       0.2000       0.2000      30.4612      29.4111       2.3854
   1231.1631      16.0878       0.0055      96.5832       1.8431       0.2000       0.2000       0.2000      30.4627      29.5249       2.3784
   1231.3154      15.9420       0.0100     107.0888       1.9071       0.2000       0.2000       0.2000      30.4642      29.6009       2.3702
   1231.4678      16.0904       0.0095     118.2093       2.0039       0.2000       0.2000       0.2000      30.4657      29.3148       2.3506
   1231.6202      16.2387       0.0096     129.9559       2.0903       0.2000       0.2000       0.2000      30.4672      28.9995       2.3324
   1231.7726      16.3871       0.0162     131.7602       2.0833       0.2000       0.2000       0.2000      30.4695      28.4204       2.3258
   1231.9250      16.5211       0.0211     123.4350       2.0577       0.2000       0.2000       0.2000      30.4725      28.0289       2.3193
   1232.0774      16.5316       0.0120     119.4527       1.8737       0.2000       0.2000       0.2000      30.4747      29.2392       2.3122
   1232.2299      16.5411       0.0037     119.8961       1.6939       0.2000       0.2000       0.2000      30.4762      30.4057       2.3052
   1232.3822      16.5421       0.0007     119.8481       1.5481       0.2000       0.2000       0.2000      30.4777      31.2186       2.2977
   1232.5347      16.5431      -0.0024     119.2992       1.4094       0.2000       0.2000       0.2000      30.4792      31.9400       2.2933
   1232.6870      16.5441      -0.0059     115.0951       1.3256       0.2000       0.2000       0.2000      30.4807      31.9576       2.3134
   1232.8395      16.5427      -0.0074     107.1644       1.2516       0.2000       0.2000       0.2000      30.4822      31.9744       2.3365
   1232.9918      16.5236       0.0056     103.9911       1.2486       0.2000       0.2000       0.2000      30.4845      31.9859       2.3821
   1233.1443      16.4996       0.0181     105.6697       1.2512       0.2000       0.2000       0.2000      30.4875      31.9982       2.4204
   1233.2966      16.4410       0.0272     107.1960       1.2923       0.2000       0.2000       0.2000      30.4897      32.0158       2.4079
   1233.4490      16.3849       0.0334     108.5675       1.3355       0.2000       0.2000       0.2000      30.4912      32.0586       2.3932
   1233.6014      16.3463       0.0208     109.7357       1.3926       0.2000       0.2000       0.2000      30.4927      32.2692       2.3641
   1233.7538      16.3010       0.0084     110.6971       1.4514       0.2000       0.2000       0.2000      30.4942      32.5480       2.3346
   1233.9062      16.2133      -0.0031     108.7539       1.5206       0.2000       0.2000       0.2000      30.4957      33.2584       2.3025
   1234.0586      16.1479      -0.0136     103.8556       1.5880       0.2000       0.2000       0.2000      30.4972      33.6866       2.2747
   1234.2111      16.2176      -0.0182     100.2793       1.6441       0.2000       0.2000       0.2000      30.4987      32.4096       2.2727
   1234.3634      16.2800      -0.0210      98.0483       1.6963       0.2000       0.2000       0.2000      30.5002      31.1616       2.2759
   1234.5159      16.3006      -0.0145      92.8721       1.7253       0.2000       0.2000       0.2000      30.4938      30.0826       2.3089
   1234.6682      16.3075      -0.0070      84.6978       1.7491       0.2000       0.2000       0.2000      30.4793      29.2469       2.3418
   1234.8207      16.2389       0.0060      84.5439       1.7431       0.2000       0.2000       0.2000      30.4124      29.7646       2.3734
   1234.9730      16.1688       0.0175      92.5556       1.7379       0.2000       0.2000       0.2000      30.2929      30.3282       2.4007
