#------------------------------------------------------------------------------
#
#   Created by  : [OpenWorks] Log Export Utility (LEXP)
#   Created on  : 2016-05-23 11:53:41
#   Project     : CANT971
#   User        : R5K
#   Interpreter : PEP
#
#------------------------------------------------------------------------------
~VERSION INFORMATION
VERS. 2.0 : CWLS Log ASCII Standard - version 2.0
WRAP.  NO : One line per depth step
~WELL INFORMATION
#MNEMONIC   .UNIT                                           VALUE :DESCRIPTION
#------------------------------------------------------------------------------
STRT        .M                                           901.1412 :START DEPTH
STOP        .M                                          2449.6777 :STOP DEPTH
STEP        .M                                             0.1524 :STEP
NULL        .                                           -999.2500 :NULL VALUE
COMP        .                                   PEMEX EXPL & PROD :COMPANY
WELL        .                                                  25 :WELL
FLD         .                                           CANTARELL :FIELD
LOC         .                                             UNKNOWN :LOCATION
CNTY        .                                      CD. DEL CARMEN :COUNTY
STAT        .                                            CAMPECHE :STATE
CTRY        .                                              MEXICO :COUNTRY
SRVC        .                                             UNKNOWN :SERVICE COMPANY
DATE        .                                             UNKNOWN :LOG DATE
UWI         .                                          3060000154 :UNIQUE WELL ID
XCOORD      .                                       603358.080000 :SURFACE X
YCOORD      .                                      2145091.420000 :SURFACE Y
LAT         .                                           19.398528 :LATITUDE
LON         .                                          -92.015660 :LONGITUDE
ELEV        .M                                            27.1400 :SURFACE ELEV
ELEV_TYPE   .                                                  KB :ELEV TYPE
~CURVE INFORMATION
#MNEMONIC.UNIT        API CODE       : CURVE DESCRIPTION
#------------------------------------------------------------------------------
DEPTH    .M                          : Measured Depth
CALI     .in          UNKNOWN        : CALI:registros:rC:NONE:v0 (auto-composite)
DRHO     .g/cm3       UNKNOWN        : DRHO:registros:rC:NONE:v0 (auto-composite)
DT       .us/ft       UNKNOWN        : DT:registros:rC:NONE:v0 (auto-composite)
GR       .api         UNKNOWN        : GR:registros:rC:NONE:v0 (auto-composite)
ILD      .ohmm        UNKNOWN        : ILD:registros:rC:NONE:v0 (auto-composite)
LLD      .ohmm        UNKNOWN        : LLD:registros:rC:NONE:v0 (auto-composite)
LLS      .ohmm        UNKNOWN        : LLS:registros:rC:NONE:v0 (auto-composite)
MSFL     .ohmm        UNKNOWN        : MSFL:registros:rC:NONE:v0 (auto-composite)
NPHI     .v/v_decimal UNKNOWN        : NPHI:registros:rC:NONE:v0 (auto-composite)
PEF      .b/elec      UNKNOWN        : PEF:registros:rC:NONE:v0 (auto-composite)
RHOB     .g/cm3       UNKNOWN        : RHOB:registros:rC:NONE:v0 (auto-composite)
~A     DEPTH         CALI         DRHO           DT           GR          ILD          LLD          LLS         MSFL         NPHI          PEF         RHOB
# ...
   2335.5300       5.7211       0.1205      66.5289      22.0549    -999.2500      75.4835      66.6353      77.0420       0.1200       2.6585       2.5935
   2335.6824       5.6670       0.1290      65.9200      21.8870    -999.2500      63.8090      58.0410      70.8890       0.1321       2.6500       2.5860
   2335.8347       5.6670       0.1355      64.7632      21.4546    -999.2500      56.8734      53.7095      57.1993       0.1252       2.6030       2.5790
   2335.9873       5.6670       0.1420      63.5970      21.0200    -999.2500      49.9040      49.3570      43.4430       0.1181       2.5560       2.5720
   2336.1396       5.6670       0.1510      62.7141      20.7217    -999.2500      46.4227      47.1784      43.5582       0.1034       2.5560       2.5815
   2336.2920       5.6670       0.1600      61.8240      20.4220    -999.2500      42.9240      44.9890      43.6740       0.0886       2.5560       2.5910
   2336.4443       5.6670       0.1530      60.7027      20.2834    -999.2500      40.9156      43.4021      40.8073       0.0889       2.5560       2.5990
   2336.5969       5.6670       0.1460      59.5720      20.1440    -999.2500      38.8970      41.8070      37.9260       0.0892       2.5560       2.6070
   2336.7493       5.6670       0.1196      61.0136      18.6432    -999.2500      39.0621      40.7174      32.5336       0.0932       2.5515       2.5990
   2336.9016       5.6670       0.0930      62.4650      17.1370    -999.2500      39.2280      39.6220      27.1130       0.0971       2.5470       2.5910
   2337.0540       5.6670       0.0960      61.5940      18.1651    -999.2500      40.3490      38.6401      36.9820       0.0969       2.5155       2.5980
   2337.2065       5.6670       0.0990      60.7170      19.1970    -999.2500      41.4760      37.6530      46.9040       0.0967       2.4840       2.6050
   2337.3589       5.6670       0.1105      59.4540      20.0678    -999.2500      43.0245      38.6630      45.9234       0.0953       2.5520       2.6125
   2337.5112       5.6670       0.1220      58.1820      20.9420    -999.2500      44.5790      39.6770      44.9390       0.0938       2.6200       2.6200
   2337.6636       5.6670       0.1364      59.1933      20.0318    -999.2500      46.8305      42.5188      43.7474       0.0954       2.6085       2.6260
   2337.8159       5.6670       0.1510      60.2120      19.1180    -999.2500      49.0910      45.3720      42.5510       0.0969       2.5970       2.6320
   2337.9685       5.6670       0.1644      59.0025      19.3785    -999.2500      53.8062      47.7860      41.9423       0.0984       2.5765       2.6370
   2338.1208       5.6670       0.1780      57.7840      19.6400    -999.2500      58.5410      50.2100      41.3310       0.0999       2.5560       2.6420
   2338.2732       5.6740       0.1730      58.1192      21.4826    -999.2500      56.7822      49.0460      40.5292       0.0970       2.5560       2.6450
   2338.4255       5.6810       0.1680      58.4570      23.3330    -999.2500      55.0160      47.8770      39.7240       0.0940       2.5560       2.6480
   2338.5781       5.7249       0.1605      59.4084      23.1918    -999.2500      55.1302      42.3586      38.7591       0.0854       2.5700       2.6575
   2338.7305       5.7690       0.1530      60.3670      23.0500    -999.2500      55.2450      36.8160      37.7900       0.0767       2.5840       2.6670
   2338.8828       5.8159       0.1381      59.1726      21.9011    -999.2500      57.3672      37.5020      38.3502       0.0779       2.6991       2.6760
   2339.0352       5.8630       0.1230      57.9690      20.7470    -999.2500      59.4990      38.1910      38.9130       0.0792       2.8140       2.6850
   2339.1877       5.8760       0.1056      59.0602      21.0932    -999.2500      61.7293      43.3236      40.6225       0.0825       2.8075       2.6870
   2339.3401       5.8890       0.0880      60.1600      21.4410    -999.2500      63.9700      48.4800      42.3400       0.0857       2.8010       2.6890
   2339.4924       5.8890       0.0805      58.8607      22.3848    -999.2500      65.3911      56.5034      61.1422       0.0896       2.7575       2.6910
   2339.6448       5.8890       0.0730      57.5510      23.3330    -999.2500      66.8190      64.5650      80.0340       0.0935       2.7140       2.6930
   2339.7971       5.8890       0.0745      58.5226      23.2322    -999.2500      68.2161      63.1101      80.0330       0.0951       2.6525       2.6985
   2339.9497       5.8890       0.0760      59.5020      23.1310    -999.2500      69.6200      61.6480      80.0320       0.0967       2.5910       2.7040
   2340.1021       5.8890       0.0670      58.7620      22.4971    -999.2500      72.7447      62.1418      78.8624       0.0956       2.6290       2.6890
   2340.2544       5.8890       0.0580      58.0160      21.8600    -999.2500      75.8850      62.6380      77.6870       0.0946       2.6670       2.6740
   2340.4067       5.8890       0.0625      57.2786      20.9099    -999.2500      79.9490      65.0348      75.4183       0.0915       2.6430       2.6775
   2340.5593       5.8890       0.0670      56.5350      19.9550    -999.2500      84.0340      67.4440      73.1380       0.0884       2.6190       2.6810
   2340.7117       5.8351       0.0745      56.0417      18.8860    -999.2500      86.1120      65.7988      63.2725       0.0834       2.5875       2.6905
   2340.8640       5.7810       0.0820      55.5450      17.8130    -999.2500      88.2010      64.1450      53.3550       0.0784       2.5560       2.7000
   2341.0164       5.8124       0.0895      54.7084      18.0426    -999.2500      85.2260      60.8609      54.8545       0.0748       2.5620       2.6890
   2341.1689       5.8440       0.0970      53.8660      18.2730    -999.2500      82.2350      57.5590      56.3620       0.0712       2.5680       2.6780
   2341.3213       5.8665       0.1000      52.9941      20.6918    -999.2500      76.3430      54.4371      70.9419       0.0703       2.6115       2.6620
   2341.4736       5.8890       0.1030      52.1160      23.1200    -999.2500      70.4280      51.3030      85.5790       0.0694       2.6550       2.6460
   2341.6260       5.9090       0.0896      52.7093      22.4025    -999.2500      71.8347      53.2915      69.3658       0.0729       2.7165       2.6370
   2341.7783       5.9290       0.0760      53.3070      21.6820    -999.2500      73.2470      55.2880      53.0870       0.0765       2.7780       2.6280
   2341.9309       5.9559       0.0765      54.5200      21.7354    -999.2500      78.1777      58.5307      54.9262       0.0844       2.7510       2.6350
   2342.0833       5.9830       0.0770      55.7420      21.7890    -999.2500      83.1290      61.7870      56.7730       0.0923       2.7240       2.6420
   2342.2356       5.9915       0.0690      57.0013      21.9681    -999.2500      80.6049      64.9357      78.5063       0.0911       2.7020       2.6704
   2342.3879       6.0000       0.0610      58.2700      22.1480    -999.2500      78.0700      68.0980     100.3330       0.0900       2.6800       2.6990
   2342.5405       6.0000       0.0630      57.8740      22.9517    -999.2500      70.9123      66.3833      86.1823       0.0900       2.7416       2.6950
   2342.6929       6.0000       0.0650      57.4750      23.7590    -999.2500      63.7230      64.6610      71.9690       0.0900       2.8030       2.6910
   2342.8452       6.0000       0.0675      56.6597      24.6505    -999.2500      56.4660      61.0722      61.7861       0.0905       2.8736       2.6785
   2342.9976       6.0000       0.0700      55.8380      25.5460    -999.2500      49.1760      57.4670      51.5570       0.0910       2.9440       2.6660
   2343.1501       6.0000       0.0566      55.9869      26.4983    -999.2500      49.6185      52.5151      40.3392       0.0925       2.9370       2.6466
   2343.3025       6.0000       0.0430      56.1370      27.4550    -999.2500      50.0630      47.5400      29.0690       0.0940       2.9300       2.6270
