#------------------------------------------------------------------------------
#
#   Created by  : [OpenWorks] Log Export Utility (LEXP)
#   Created on  : 2016-05-23 11:56:24
#   Project     : CANT971
#   User        : R5K
#   Interpreter : PEP
#
#------------------------------------------------------------------------------
~VERSION INFORMATION
VERS. 2.0 : CWLS Log ASCII Standard - version 2.0
WRAP.  NO : One line per depth step
~WELL INFORMATION
#MNEMONIC   .UNIT                                           VALUE :DESCRIPTION
#------------------------------------------------------------------------------
STRT        .M                                           741.4294 :START DEPTH
STOP        .M                                          2768.5020 :STOP DEPTH
STEP        .M                                             0.1524 :STEP
NULL        .                                           -999.2500 :NULL VALUE
COMP        .                                             UNKNOWN :COMPANY
WELL        .                                                 470 :WELL
FLD         .                                             UNKNOWN :FIELD
LOC         .                                             UNKNOWN :LOCATION
CNTY        .                                             UNKNOWN :COUNTY
STAT        .                                             UNKNOWN :STATE
CTRY        .                                             UNKNOWN :COUNTRY
SRVC        .                                             UNKNOWN :SERVICE COMPANY
DATE        .                                             UNKNOWN :LOG DATE
UWI         .                                                 470 :UNIQUE WELL ID
XCOORD      .                                       598706.890000 :SURFACE X
YCOORD      .                                      2143306.000000 :SURFACE Y
LAT         .                                           19.382628 :LATITUDE
LON         .                                          -92.060044 :LONGITUDE
ELEV        .M                                             0.0000 :SURFACE ELEV
ELEV_TYPE   .                                                  NA :ELEV TYPE
~CURVE INFORMATION
#MNEMONIC.UNIT        API CODE       : CURVE DESCRIPTION
#------------------------------------------------------------------------------
DEPTH    .M                          : Measured Depth
CALI     .inches      UNKNOWN        : CALI:litodensidad:rC:NONE:v0 (auto-composite)
CGR      .API         UNKNOWN        : CGR:PETROWORKS:rC:NONE:v1 
DRHO     .g/cm3       UNKNOWN        : DRHO:litodensidad:rC:NONE:v0 (auto-composite)
DT       .us/ft       UNKNOWN        : DT:PETROWORKS:rC:NONE:v1 
GR       .API         UNKNOWN        : GR:PETROWORKS:rC:NONE:v8 
ILD      .ohm.m       UNKNOWN        : ILD:PETROWORKS:rC:NONE:v1 
ILM      .ohm.m       UNKNOWN        : ILM:PETROWORKS:rC:NONE:v1 
LLD      .ohm.m       UNKNOWN        : LLD:resistivos:rC:NONE:v0 (auto-composite)
LLS      .ohm.m       UNKNOWN        : LLS:resistivos:rC:NONE:v0 (auto-composite)
MSFL     .ohm.m       UNKNOWN        : MSFL:resistivos:rC:NONE:v0 (auto-composite)
NPHI     .v/v_decimal UNKNOWN        : NPHI:PETROWORKS:rC:NONE:v1 
PEF      .UNKNOWN     UNKNOWN        : PEF:litodensidad:rC:NONE:v0 (auto-composite)
POTA     .wtpercent   UNKNOWN        : POTA:PETROWORKS:rC:NONE:v1 
RHOB     .g/cm3       UNKNOWN        : RHOB:litodensidad:rC:NONE:v0 (auto-composite)
THOR     .ppm         UNKNOWN        : THOR:PETROWORKS:rC:NONE:v1 
URAN     .ppm         UNKNOWN        : URAN:PETROWORKS:rC:NONE:v1 
~A     DEPTH         CALI          CGR         DRHO           DT           GR          ILD          ILM          LLD          LLS         MSFL         NPHI          PEF         POTA         RHOB         THOR         URAN
# ...
   2562.7620       9.7662       7.1482       0.0030      55.0309      18.7608    -999.2500    -999.2500     143.3485      38.1758     233.6681       0.0724       4.7141       0.0020       2.6795       0.6682       1.1455
   2562.9143       9.6702       7.1144       0.0056      58.2706      18.8308    -999.2500    -999.2500     143.3290      37.6842     236.7196       0.0723       4.6807       0.0016       2.6736       0.7911       1.1557
   2563.0667       9.4206       7.5654       0.0012      58.5272      19.4947    -999.2500    -999.2500     148.6913      37.6963     171.3274       0.0745       4.6886       0.0013       2.6429       1.0212       1.1767
   2563.2190       9.4398       9.4291       0.0000      58.6210      22.2804    -999.2500    -999.2500     182.5743      44.4692      12.9692       0.0809       4.6385       0.0019       2.6211       1.1456       1.2677
   2563.3713       9.4590      13.9195      -0.0016      58.0153      28.5522    -999.2500    -999.2500     253.6446      59.4658     589.3521       0.0853       4.7747       0.0023       2.6190       1.9283       1.4434
   2563.5239       9.4686      16.1890       0.0002      59.2268      31.1988    -999.2500    -999.2500     340.2974      78.7994     377.6457       0.0850       4.6094       0.0028       2.6519       2.1962       1.4806
   2563.6763       9.3822      17.4411      -0.0019      56.5072      32.2409    -999.2500    -999.2500     488.0146     109.9209     348.2914       0.0826       4.5379       0.0031       2.6715       2.3426       1.4599
   2563.8286       9.3438      13.3814      -0.0005      56.6524      22.5382    -999.2500    -999.2500     666.8837     149.0546     257.3413       0.0848       4.4383       0.0039       2.6892       1.1507       0.9032
   2563.9810       9.3592       9.1295      -0.0014      56.2348      17.8558    -999.2500    -999.2500     720.6790     162.1269     188.9716       0.0923       4.4970       0.0005       2.6638       1.6629       0.8608
   2564.1335       9.4590      14.5499       0.0018      54.7831      23.5720    -999.2500    -999.2500     661.1357     152.0591     108.8665       0.0969       4.7798       0.0037       2.6481       1.4642       0.8900
   2564.2859       9.4110      13.4292       0.0025      55.7787      18.3805    -999.2500    -999.2500     577.9870     137.8528     578.2430       0.0942       5.1674       0.0045       2.6404       0.9351       0.4884
   2564.4382       9.2382      13.3021       0.0077      55.3089      18.7404    -999.2500    -999.2500     584.9315     140.8646     498.4932       0.0917       5.3007       0.0042       2.6505       1.0346       0.5364
   2564.5906       9.2094      12.1348       0.0108      79.8402      18.2257    -999.2500    -999.2500     596.8097     144.3692      77.7121       0.0883       5.0036       0.0037       2.6623       0.9906       0.6008
   2564.7432       9.1902      13.6388       0.0102      97.3314      21.4345    -999.2500    -999.2500     630.7560     154.3762    1535.8145       0.0886       4.6864       0.0040       2.6773       1.1571       0.7690
   2564.8955       9.2958      14.3037       0.0139      93.6243      22.9062    -999.2500    -999.2500     715.0619     168.7574     901.5749       0.0878       5.0526       0.0038       2.6837       1.3925       0.8486
   2565.0479       9.2958      15.6498       0.0326      95.2467      25.4507    -999.2500    -999.2500     822.1605     192.4587      31.0457       0.0943       5.2976       0.0042       2.6639       1.5198       0.9668
   2565.2002       9.3054      15.3682       0.0459      90.2793      25.4397    -999.2500    -999.2500     920.9741     213.8372      31.6039       0.1003       5.3644       0.0041       2.6301       1.4843       0.9935
   2565.3525       9.4110      13.7151       0.0536      88.4259      23.0273    -999.2500    -999.2500    1156.0072     235.4481      88.9434       0.1071       4.7665       0.0035       2.6075       1.3758       0.9186
   2565.5051       9.6126      13.7329       0.0629      92.1715      23.0257    -999.2500    -999.2500     747.8909     170.4327      84.5257       0.1005       4.7628       0.0037       2.6204       1.3259       0.9167
   2565.6575       9.5454      13.7494       0.0353     129.9375      23.0495    -999.2500    -999.2500     573.3965     141.6783      22.0377       0.1238       4.4932       0.0039       2.5781       1.2259       0.9174
   2565.8098       9.5838      13.2638       0.0055     120.6838      22.8162    -999.2500    -999.2500     578.2191     142.0790      20.3792       0.1178       4.4783       0.0038       2.5347       1.1781       0.9423
   2565.9622       9.6606      13.7581      -0.0072     120.6295      24.0142    -999.2500    -999.2500     446.1920     111.1345      39.2341       0.1160       4.3741       0.0038       2.5301       1.2713       1.0117
   2566.1147      10.1118      12.1864      -0.0067      97.6630      22.8774    -999.2500    -999.2500     427.5733     110.2311      35.4807       0.0832       4.4844       0.0033       2.5643       1.1422       1.0546
   2566.2671       9.3630      10.2081       0.0064      95.2594      20.8813    -999.2500    -999.2500     541.3190     145.0688      53.8209       0.1091       4.6128       0.0026       2.5718       1.0484       1.0528
   2566.4194       9.3534       8.2371       0.0259      97.2363      18.9840    -999.2500    -999.2500     426.5034     115.0238      12.9490       0.1166       4.6617       0.0015       2.5688       1.0954       1.0601
   2566.5718       9.4129       9.7110       0.0286      61.6196      21.3533    -999.2500    -999.2500     416.3382     119.9516     345.0761       0.1197       4.7764       0.0018       2.5591       1.2456       1.1484
   2566.7244       9.3822       8.6776       0.0388      61.2918      20.1363    -999.2500    -999.2500     431.6101     133.6273     130.1259       0.1046       4.8387       0.0019       2.6189       1.0017       1.1303
   2566.8767       9.5070       8.3719       0.0737      56.0644      19.2793    -999.2500    -999.2500     456.8969     128.7521     327.5956       0.0898       4.6777       0.0022       2.6833       0.8141       1.0759
   2567.0291       9.7566       9.9320       0.0826     105.5570      20.8380    -999.2500    -999.2500     557.9858     132.6331     162.6618       0.0780       4.6892       0.0029       2.7046       0.8452       1.0758
   2567.1814       9.9006      10.4215       0.0762     105.7172      20.5403    -999.2500    -999.2500     448.6461      91.7021      40.4963       0.0696       4.6309       0.0033       2.6832       0.7950       0.9981
   2567.3337      10.1310      10.6288       0.1070     112.1041      20.1098    -999.2500    -999.2500     344.7986      73.4483       3.0331       0.0673       4.8718       0.0035       2.6929       0.7531       0.9352
   2567.4863      10.6110      10.6036       0.1314      67.5130      20.2298    -999.2500    -999.2500     268.0997      65.2254       3.3082       0.0917       4.2288       0.0031       2.5053       0.9254       0.9496
   2567.6387      11.2542      11.2312       0.1043      60.4451      21.4865    -999.2500    -999.2500     219.8942      57.3555       2.9935       0.1502       3.9017       0.0036       2.3152       0.8389       1.0116
   2567.7910      11.7246      10.9252       0.1194      62.3578      21.2331    -999.2500    -999.2500     203.5723      60.6538       2.9314       0.2219       3.7008       0.0036       2.2310       0.7830       1.0168
   2567.9434      12.0510      12.0363       0.1456      98.0388      22.9892    -999.2500    -999.2500     223.6346      75.4430       2.5995       0.2648       3.8319       0.0040       2.2664       0.8329       1.0804
   2568.0959      10.4190      10.0263       0.1691      95.6915      20.4321    -999.2500    -999.2500     217.1996      75.6034       2.1672       0.2760       4.3514       0.0032       2.3392       0.7378       1.0265
   2568.2483      10.1886       9.8612       0.1459      95.2576      19.9614    -999.2500    -999.2500     202.2046      68.7173       2.3134       0.2682       4.5231       0.0031       2.2853       0.7799       0.9963
