#------------------------------------------------------------------------------
#
#   Created by  : [OpenWorks] Log Export Utility (LEXP)
#   Created on  : 2016-05-23 11:57:21
#   Project     : CANT971
#   User        : R5K
#   Interpreter : PEP
#
#------------------------------------------------------------------------------
~VERSION INFORMATION
VERS. 2.0 : CWLS Log ASCII Standard - version 2.0
WRAP.  NO : One line per depth step
~WELL INFORMATION
#MNEMONIC   .UNIT                                           VALUE :DESCRIPTION
#------------------------------------------------------------------------------
STRT        .M                                           117.7290 :START DEPTH
STOP        .M                                          2309.5459 :STOP DEPTH
STEP        .M                                             0.1524 :STEP
NULL        .                                           -999.2500 :NULL VALUE
COMP        .                                   PEMEX EXPL & PROD :COMPANY
WELL        .                                                  7A :WELL
FLD         .                                           CANTARELL :FIELD
LOC         .                                             UNKNOWN :LOCATION
CNTY        .                                      CD. DEL CARMEN :COUNTY
STAT        .                                            CAMPECHE :STATE
CTRY        .                                              MEXICO :COUNTRY
SRVC        .                                             UNKNOWN :SERVICE COMPANY
DATE        .                                             UNKNOWN :LOG DATE
UWI         .                                          3060000143 :UNIQUE WELL ID
XCOORD      .                                       603360.310000 :SURFACE X
YCOORD      .                                      2145096.320000 :SURFACE Y
LAT         .                                           19.398572 :LATITUDE
LON         .                                          -92.015639 :LONGITUDE
ELEV        .M                                            27.1400 :SURFACE ELEV
ELEV_TYPE   .                                                  KB :ELEV TYPE
~CURVE INFORMATION
#MNEMONIC.UNIT        API CODE       : CURVE DESCRIPTION
#------------------------------------------------------------------------------
DEPTH    .M                          : Measured Depth
CALI     .in          UNKNOWN        : CALI:resistivos:rC:NONE:v0 (auto-composite)
DRHO     .g/cm3       UNKNOWN        : DRHO:PETROWORKS:rC:NONE:v2 
DT       .us/ft       UNKNOWN        : DT:DT:rC:NONE:v0 (auto-composite)
GR       .API         UNKNOWN        : GR:UNKNOWN:rC:NONE:v0 (auto-composite)
ILD      .ohmm        UNKNOWN        : ILD:resistivos:rC:NONE:v0 (auto-composite)
LLD      .ohm.m       UNKNOWN        : LLD:UNKNOWN:rC:NONE:v0 (auto-composite)
LLS      .ohm.m       UNKNOWN        : LLS:UNKNOWN:rC:NONE:v0 (auto-composite)
MSFL     .ohm.m       UNKNOWN        : MSFL:UNKNOWN:rC:NONE:v0 (auto-composite)
NPHI     .v/v_decimal     UNKNOWN        : NPHI:PETROWORKS:rC:NONE:v1 
RHOB     .g/cm3       UNKNOWN        : RHOB:UNKNOWN:rC:NONE:v0 (auto-composite)
SN       .ohm.m       UNKNOWN        : SN:UNKNOWN:rC:NONE:v0 (auto-composite)
~A     DEPTH         CALI         DRHO           DT           GR          ILD          LLD          LLS         MSFL         NPHI         RHOB           SN
# ...
   1869.1099       6.9350       0.0598      66.9353      22.0332    -999.2500     651.7463     153.1571      21.0818       0.1484       2.5697    -999.2500
   1869.2622       6.8350       0.0596      60.0870      21.4200    -999.2500     709.4889     163.0663      20.6630       0.1421       2.5732    -999.2500
   1869.4146       6.7863       0.0596      58.1539      21.1558    -999.2500     828.9028     172.8615      28.5955       0.1331       2.5812    -999.2500
   1869.5670       6.7888       0.0596      61.1013      21.2460    -999.2500    1010.9429     182.5408      45.0085       0.1204       2.5938    -999.2500
   1869.7194       6.8090       0.0598      64.3964      21.7417    -999.2500    1326.8174     194.9166      80.9189       0.1082       2.6140    -999.2500
   1869.8718       6.8470       0.0600      68.0368      22.6399    -999.2500    1775.6173     209.9706     136.1944       0.0966       2.6420    -999.2500
   1870.0242       6.9085       0.0602      70.3526      23.8207    -999.2500    1928.7351     231.0802     146.6652       0.0861       2.6732    -999.2500
   1870.1766       6.9936       0.0603      71.3526      25.2840    -999.2500    1786.2162     258.2446     112.3383       0.0769       2.7077    -999.2500
   1870.3290       7.0718       0.0604      70.4333      26.9032    -999.2500    1566.0876     265.0642      73.4743       0.0738       2.7322    -999.2500
   1870.4814       7.1433       0.0605      67.6069      28.6795    -999.2500    1267.8430     251.4061      30.0435       0.0786       2.7467    -999.2500
   1870.6338       7.1898       0.0606      66.4475      29.1838    -999.2500    1005.0967     237.3177      10.5765       0.0865       2.7438    -999.2500
   1870.7863       7.2113       0.0607      66.9450      28.4034    -999.2500     778.2040     222.7948      15.3130       0.0983       2.7233    -999.2500
   1870.9386       7.2185       0.0608      69.5691      27.3417    -999.2500     595.4858     206.7022      15.6726       0.1119       2.6983    -999.2500
   1871.0911       7.2115       0.0609      74.3074      25.9940    -999.2500     457.6823     189.0137      11.5817       0.1278       2.6688    -999.2500
   1871.2434       7.1867       0.0609      80.4872      24.6958    -999.2500     411.5739     172.3656      12.1125       0.1433       2.6470    -999.2500
   1871.3958       7.1442       0.0609      88.1005      23.4468    -999.2500     456.6523     156.7520      17.2392       0.1580       2.6330    -999.2500
   1871.5482       7.0892       0.0610      89.7226      22.8422    -999.2500     568.0374     158.3495      29.1476       0.1700       2.6145    -999.2500
   1871.7006       7.0217       0.0613      85.3852      22.8827    -999.2500     745.8021     177.1769      47.8450       0.1783       2.5915    -999.2500
   1871.8530       6.9385       0.0626      79.8111      23.1009    -999.2500     969.3754     200.6173      83.7822       0.1750       2.5902    -999.2500
   1872.0054       6.8395       0.0640      73.0066      23.4976    -999.2500    1238.9664     228.6920     137.0378       0.1562       2.6107    -999.2500
   1872.1578       6.8048       0.0658      73.8876      24.1813    -999.2500    1529.9443     247.3777     163.0134       0.1353       2.6449    -999.2500
   1872.3102       6.8343       0.0673      82.3929      25.1554    -999.2500    1842.5504     256.5688     161.4011       0.1117       2.6928    -999.2500
   1872.4626       6.8803       0.0670      81.4855      26.1607    -999.2500    1979.7404     268.7791     138.8905       0.0934       2.7165    -999.2500
   1872.6150       6.9428       0.0666      71.2384      27.1976    -999.2500    1938.9215     284.0533      95.1728       0.0824       2.7155    -999.2500
   1872.7675       6.9998       0.0650      67.0268      28.4397    -999.2500    1825.2362     298.0111      57.1429       0.0744       2.7178    -999.2500
   1872.9198       7.0513       0.0636      68.8058      29.8861    -999.2500    1638.9972     310.6582      24.7764       0.0702       2.7233    -999.2500
   1873.0721       7.0970       0.0627      69.1262      30.3329    -999.2500    1480.4370     313.9532      12.2080       0.0709       2.7250    -999.2500
   1873.2246       7.1370       0.0620      67.9988      29.7808    -999.2500    1349.5325     307.9043      19.4210       0.0780       2.7230    -999.2500
   1873.3770       7.1733       0.0623      72.1684      28.8019    -999.2500    1327.2780     317.7693      45.0700       0.0851       2.7138    -999.2500
   1873.5294       7.2058       0.0626      81.5981      27.3935    -999.2500    1414.3069     343.6411      89.2624       0.0922       2.6973    -999.2500
   1873.6818       7.1942       0.0633      84.1348      26.8036    -999.2500    1552.8699     380.3314     152.2326       0.0938       2.6907    -999.2500
   1873.8342       7.1387       0.0639      79.8249      27.0399    -999.2500    1743.4468     427.9407     234.1554       0.0879       2.6942    -999.2500
   1873.9866       7.1110       0.0641      78.6260      27.9265    -999.2500    1925.8717     467.2220     307.3145       0.0814       2.7040    -999.2500
   1874.1390       7.1110       0.0642      80.5180      29.4738    -999.2500    2100.0139     498.0414     371.5691       0.0740       2.7200    -999.2500
   1874.2914       7.1110       0.0637      78.1568      31.2972    -999.2500    2295.9783     488.1085     384.3784       0.0677       2.7400    -999.2500
   1874.4438       7.1110       0.0632      71.5690      33.3949    -999.2500    2513.6287     437.6769     346.0627       0.0629       2.7640    -999.2500
   1874.5962       7.1110       0.0622      68.6303      34.0565    -999.2500    2604.6311     419.3383     270.0000       0.0608       2.7835    -999.2500
   1874.7487       7.1110       0.0614      69.3188      33.2813    -999.2500    2568.9341     433.1059     156.1747       0.0624       2.7985    -999.2500
   1874.9010       7.1100       0.0608      66.4632      31.6178    -999.2500    2479.5349     447.7358     103.9173       0.0649       2.8028    -999.2500
   1875.0533       7.1080       0.0603      60.0839      29.0624    -999.2500    2336.2258     463.2314     113.4663       0.0685       2.7963    -999.2500
   1875.2058       7.0882       0.0602      59.6106      27.7780    -999.2500    2183.3530     456.9716     124.8512       0.0726       2.7888    -999.2500
   1875.3582       7.0507       0.0602      65.0109      27.7780    -999.2500    2020.8159     428.7261     138.0911       0.0773       2.7803    -999.2500
   1875.5106       7.0505       0.0602      66.5199      27.7780    -999.2500    1855.4434     397.4418     113.8818       0.0816       2.7690    -999.2500
   1875.6630       7.0875       0.0603      64.1580      27.7780    -999.2500    1687.1864     363.0660      51.5741       0.0855       2.7550    -999.2500
   1875.8154       7.1288       0.0603      63.3513      27.6670    -999.2500    1517.9310     338.6706      22.9688       0.0892       2.7370    -999.2500
   1875.9678       7.1743       0.0605      64.0921      27.4456    -999.2500    1347.6820     324.2058      27.8982       0.0927       2.7150    -999.2500
   1876.1202       7.2555       0.0612      68.8550      27.2023    -999.2500    1217.5549     323.5893      29.7383       0.0957       2.6923    -999.2500
   1876.2726       7.3725       0.0619      77.6082      26.9370    -999.2500    1127.4878     336.7998      28.4938       0.0980       2.6688    -999.2500
   1876.4250       7.3997       0.0626      79.7114      26.5922    -999.2500    1133.8341     352.5749      27.9898       0.1000       2.6630    -999.2500
   1876.5774       7.3372       0.0631      75.2156      26.1676    -999.2500    1237.0886     370.9276      28.2301       0.1017       2.6750    -999.2500
   1876.7299       7.2617       0.0625      70.4231      25.5789    -999.2500    1248.0225     372.6415      39.5875       0.1039       2.6788    -999.2500
   1876.8822       7.1732       0.0618      65.3363      24.8242    -999.2500    1165.5416     357.5196      62.1938       0.1067       2.6743    -999.2500
