#------------------------------------------------------------------------------
#
#   Created by  : [OpenWorks] Log Export Utility (LEXP)
#   Created on  : 2016-05-23 11:55:55
#   Project     : CANT971
#   User        : R5K
#   Interpreter : PEP
#
#------------------------------------------------------------------------------
~VERSION INFORMATION
VERS. 2.0 : CWLS Log ASCII Standard - version 2.0
WRAP.  NO : One line per depth step
~WELL INFORMATION
#MNEMONIC   .UNIT                                           VALUE :DESCRIPTION
#------------------------------------------------------------------------------
STRT        .M                                          2870.4541 :START DEPTH
STOP        .M                                          3966.9722 :STOP DEPTH
STEP        .M                                             0.1524 :STEP
NULL        .                                           -999.2500 :NULL VALUE
COMP        .                                             UNKNOWN :COMPANY
WELL        .                                            418D-ST1 :WELL
FLD         .                                             UNKNOWN :FIELD
LOC         .                                             UNKNOWN :LOCATION
CNTY        .                                             UNKNOWN :COUNTY
STAT        .                                             UNKNOWN :STATE
CTRY        .                                             UNKNOWN :COUNTRY
SRVC        .                                             UNKNOWN :SERVICE COMPANY
DATE        .                                             UNKNOWN :LOG DATE
UWI         .                                            418D-ST1 :UNIQUE WELL ID
XCOORD      .                                       597130.010000 :SURFACE X
YCOORD      .                                      2144879.410000 :SURFACE Y
LAT         .                                           19.396924 :LATITUDE
LON         .                                          -92.074978 :LONGITUDE
ELEV        .M                                             0.0000 :SURFACE ELEV
ELEV_TYPE   .                                                  NA :ELEV TYPE
~CURVE INFORMATION
#MNEMONIC.UNIT        API CODE       : CURVE DESCRIPTION
#------------------------------------------------------------------------------
DEPTH    .M                          : Measured Depth
CALI     .inches      UNKNOWN        : CALI:litodensidad:rC:NONE:v0 (auto-composite)
CGR      .API         UNKNOWN        : CGR:litodensidad:rC:NONE:v0 (auto-composite)
DRHO     .g/cm3       UNKNOWN        : DRHO:litodensidad:rC:NONE:v0 (auto-composite)
DT       .us/ft       UNKNOWN        : DT:DT-Load:rC:NONE:v0 (auto-composite)
GR       .API         UNKNOWN        : GR:litodensidad:rC:NONE:v0 (auto-composite)
LLD      .ohm.m       UNKNOWN        : LLD:PETROWORKS:rC:NONE:v1 
LLS      .ohm.m       UNKNOWN        : LLS:PETROWORKS:rC:NONE:v1 
MSFL     .ohm.m       UNKNOWN        : MSFL:resistivos:rC:NONE:v0 (auto-composite)
NPHI     .v/v_decimal UNKNOWN        : NPHI:litodensidad:rC:NONE:v0 (auto-composite)
PEF      .UNKNOWN     UNKNOWN        : PEF:litodensidad:rC:NONE:v0 (auto-composite)
POTA     .UNKNOWN     UNKNOWN        : POTA:litodensidad:rC:NONE:v0 (auto-composite)
RHOB     .g/cm3       UNKNOWN        : RHOB:litodensidad:rC:NONE:v0 (auto-composite)
THOR     .ppm         UNKNOWN        : THOR:litodensidad:rC:NONE:v0 (auto-composite)
URAN     .ppm         UNKNOWN        : URAN:litodensidad:rC:NONE:v0 (auto-composite)
~A     DEPTH         CALI          CGR         DRHO           DT           GR          LLD          LLS         MSFL         NPHI          PEF         POTA         RHOB         THOR         URAN
# ...
   2940.8628      13.8594      38.1691       0.0025    -999.2500      81.8013    2756.3916     239.8985       0.6133       0.0423       6.6172       0.0136       2.5988       4.4834       5.6077
   2941.0154      13.8594      33.1669       0.0072    -999.2500      74.6839    3672.2109     244.9205       0.6040       0.0180       6.8359       0.0121       2.6280       3.7395       5.3359
   2941.1677      13.8984      37.0160       0.0070    -999.2500      81.1311    4328.5859     248.6041       0.5957       0.0277       6.4805       0.0136       2.6296       4.1642       5.6698
   2941.3201      13.8906      29.5994       0.0044    -999.2500      70.1993    4858.1543     250.4216       0.6104       0.0373       6.4414       0.0111       2.6331       3.2093       5.2180
   2941.4724      13.9219      17.7472       0.0060    -999.2500      54.5547    4031.6758     247.3655       0.5952       0.0306       6.8359       0.0064       2.6492       2.0547       4.7306
   2941.6250      13.9219      13.8669       0.0087    -999.2500      48.5820    3775.3232     245.0161       0.6094       0.0138       7.1719       0.0053       2.6698       1.4830       4.4617
   2941.7773      13.9141      19.2893       0.0058    -999.2500      57.9794    4785.7998     243.3835       0.6133       0.0115       7.3203       0.0052       2.6686       2.9828       4.9726
   2941.9297      13.9141      25.3251       0.0039    -999.2500      65.8064    3880.0830     240.6797       0.6035       0.0164       7.3320       0.0078       2.6519       3.5068       5.2028
   2942.0820      13.8828      39.3423       0.0061    -999.2500      82.2928    2778.9966     234.7584       0.5923       0.0341       6.9609       0.0159       2.6298       3.7856       5.5201
   2942.2346      13.9375      43.1303       0.0047    -999.2500      88.0920    2290.8975     231.3890       0.5923       0.0684       6.9844       0.0171       2.5888       4.2971       5.7786
   2942.3870      13.8984      47.9264       0.0004    -999.2500      95.0423    1889.1660     225.6089       0.6113       0.0938       6.8008       0.0186       2.5524       4.9533       6.0555
   2942.5393      13.9688      39.6191      -0.0002    -999.2500      82.0760    1956.3379     224.6645       0.5908       0.0808       7.5391       0.0146       2.5480       4.4122       5.4567
   2942.6917      13.9766      25.6255       0.0012    -999.2500      65.7996   11915.6074     257.8540       0.5947       0.0433       6.8281       0.0086       2.5846       3.2405       5.1633
   2942.8440      13.9219      25.3561       0.0039    -999.2500      64.9363     226.7134     131.9644       0.6094       0.0252       6.6250       0.0086       2.6218       3.1414       5.0870
   2942.9966      13.9609      31.0754       0.0054    -999.2500      71.8333     150.2083     100.5219       0.6050       0.0375       6.3945       0.0116       2.6430       3.4291       5.2383
   2943.1489      13.9141      47.7552       0.0046    -999.2500      90.2299     142.5384      97.4817       0.6108       0.0614       6.1172       0.0201       2.6229       4.2713       5.4590
   2943.3013      13.9063      53.8582       0.0026    -999.2500     107.3219     128.8170      91.4429       0.6304       0.0891       5.8516       0.0207       2.5878       5.6456       6.8713
   2943.4536      13.9531      62.6229       0.0018    -999.2500     124.5936     208.4137     111.6566       0.6162       0.1151       5.3984       0.0209       2.5543       7.9274       7.9647
   2943.6062      13.9297      61.5754      -0.0022    -999.2500     123.3347     855.2006     197.4424       0.6006       0.1554       5.4258       0.0204       2.5313       7.8613       7.9375
   2943.7585      13.9766      59.5849      -0.0033    -999.2500     120.5189    1428.0454     215.2242       0.5918       0.1814       5.6641       0.0197       2.5377       7.6361       7.8315
   2943.9109      13.9766      53.8182      -0.0042    -999.2500     112.4547    2584.0059     229.5440       0.6084       0.1702       5.8672       0.0179       2.5504       6.8567       7.5362
   2944.0632      14.0078      40.4579      -0.0011    -999.2500      93.1850    3610.1807     232.2231       0.5918       0.1284       6.2617       0.0134       2.5792       5.1661       6.7767
   2944.2158      14.0078      40.6336      -0.0000    -999.2500      65.7704    1763.2471     217.1544       0.5889       0.0797       6.0625       0.0152       2.5957       4.4243       3.2307
   2944.3682      14.0078      39.5080       0.0008    -999.2500      63.7275     667.1429     185.1710       0.5938       0.0626       5.9375       0.0149       2.6073       4.2544       3.1128
   2944.5205      14.0078      45.1794       0.0020    -999.2500      70.0473     463.5426     164.7017       0.6353       0.0517       5.8789       0.0181       2.6043       4.4362       3.1961
   2944.6729      14.0078      53.4656       0.0046    -999.2500      80.0574     421.7686     160.6292       0.6265       0.0561       5.9492       0.0229       2.5982       4.6229       3.4177
   2944.8252      14.0078      60.3746       0.0052    -999.2500      93.0737     421.1754     159.1985       0.5903       0.0716       5.9844       0.0228       2.5798       6.4995       4.2026
   2944.9778      14.0078      72.5401       0.0058    -999.2500     111.7753     611.2317     179.4688       0.5894       0.0990       5.6836       0.0270       2.5644       8.0044       5.0426
   2945.1301      14.0078      70.7206       0.0049    -999.2500     109.2819    1187.9028     210.8698       0.5864       0.1313       5.4453       0.0264       2.5488       7.7760       4.9560
   2945.2825      14.0078      57.6876       0.0060    -999.2500      96.0719    1875.6533     228.6305       0.5996       0.1342       5.4258       0.0213       2.5641       6.4276       4.9333
   2945.4348      14.0156      45.0676       0.0055    -999.2500      81.4046    2691.7842     237.7361       0.6108       0.1157       5.7656       0.0192       2.5897       3.9088       4.6702
   2945.5874      14.0234      38.2322       0.0043    -999.2500      72.0079    3494.6323     246.5443       0.6016       0.0805       5.7578       0.0165       2.6199       3.2253       4.3410
   2945.7397      14.0078      33.3495       0.0005    -999.2500      65.1555    2910.3369     246.2804       0.5957       0.0572       5.7227       0.0142       2.6318       2.9040       4.0878
   2945.8921      14.0078      34.8860      -0.0014    -999.2500      67.6274    2361.2617     240.3803       0.5791       0.0452       5.3477       0.0145       2.6412       3.1920       4.2080
   2946.0444      14.0078      30.7447      -0.0034    -999.2500      62.2425    1776.4575     231.4951       0.5957       0.0374       5.7422       0.0123       2.6442       3.0168       4.0482
   2946.1970      14.0078      29.4765      -0.0033    -999.2500      60.3159    1645.0608     229.7115       0.5942       0.0298       5.5469       0.0119       2.6563       2.8615       3.9636
   2946.3494      14.0078      36.0615      -0.0052    -999.2500      75.3882    1827.3923     230.3660       0.5947       0.0261       5.6953       0.0133       2.6439       4.0235       5.0544
   2946.5017      14.0078      46.8931      -0.0053    -999.2500      85.9943    2049.6997     235.6900       0.5981       0.0384       5.5430       0.0203       2.6240       3.9332       5.0254
   2946.6541      13.9844      52.8530      -0.0068    -999.2500      95.5691    3358.4258     249.2895       0.6089       0.0647       6.1406       0.0225       2.5967       4.6011       5.4900
   2946.8064      13.9531      39.1115      -0.0082    -999.2500      79.7624    4053.4390     252.8344       0.6064       0.0786       6.5859       0.0151       2.5901       4.0751       5.2246
   2946.9590      13.8594      27.8493      -0.0065    -999.2500      69.3802    3746.4150     251.5044       0.6016       0.0632       6.9336       0.0085       2.6006       3.8605       5.3377
   2947.1113      13.8438      29.9554      -0.0063    -999.2500      72.6003    3496.6602     247.7420       0.6079       0.0475       6.3984       0.0091       2.6079       4.1584       5.4809
