#------------------------------------------------------------------------------
#
#   Created by  : [OpenWorks] Log Export Utility (LEXP)
#   Created on  : 2016-05-23 11:53:36
#   Project     : CANT971
#   User        : R5K
#   Interpreter : PEP
#
#------------------------------------------------------------------------------
~VERSION INFORMATION
VERS. 2.0 : CWLS Log ASCII Standard - version 2.0
WRAP.  NO : One line per depth step
~WELL INFORMATION
#MNEMONIC   .UNIT                                           VALUE :DESCRIPTION
#------------------------------------------------------------------------------
STRT        .M                                           940.3716 :START DEPTH
STOP        .M                                          3167.2405 :STOP DEPTH
STEP        .M                                             0.1524 :STEP
NULL        .                                           -999.2500 :NULL VALUE
COMP        .                                   PEMEX EXPL & PROD :COMPANY
WELL        .                                                  24 :WELL
FLD         .                                           CANTARELL :FIELD
LOC         .                                             UNKNOWN :LOCATION
CNTY        .                                      CD. DEL CARMEN :COUNTY
STAT        .                                            CAMPECHE :STATE
CTRY        .                                              MEXICO :COUNTRY
SRVC        .                                             UNKNOWN :SERVICE COMPANY
DATE        .                                             UNKNOWN :LOG DATE
UWI         .                                          3060000153 :UNIQUE WELL ID
XCOORD      .                                       598455.290000 :SURFACE X
YCOORD      .                                      2145024.750000 :SURFACE Y
LAT         .                                           19.398172 :LATITUDE
LON         .                                          -92.062351 :LONGITUDE
ELEV        .M                                            26.5400 :SURFACE ELEV
ELEV_TYPE   .                                                  KB :ELEV TYPE
~CURVE INFORMATION
#MNEMONIC.UNIT        API CODE       : CURVE DESCRIPTION
#------------------------------------------------------------------------------
DEPTH    .M                          : Measured Depth
CALI     .inches      UNKNOWN        : CALI:Import:rC:NONE:v0 (auto-composite)
DRHO     .g/cm3       UNKNOWN        : DRHO:Import:rC:NONE:v0 (auto-composite)
DT       .us/ft       UNKNOWN        : DT:Import:rC:NONE:v0 (auto-composite)
GR       .API         UNKNOWN        : GR:Import:rC:NONE:v0 (auto-composite)
ILD      .ohm.m       UNKNOWN        : ILD:Import:rC:NONE:v0 (auto-composite)
LLD      .ohm.m       UNKNOWN        : LLD:Import:rC:NONE:v0 (auto-composite)
LLS      .ohm.m       UNKNOWN        : LLS:Import:rC:NONE:v0 (auto-composite)
MSFL     .ohm.m       UNKNOWN        : MSFL:Import:rC:NONE:v0 (auto-composite)
NPHI     .v/v_decimal UNKNOWN        : NPHI:Import:rC:NONE:v0 (auto-composite)
RHOB     .g/cm3       UNKNOWN        : RHOB:Import:rC:NONE:v0 (auto-composite)
~A     DEPTH         CALI         DRHO           DT           GR          ILD          LLD          LLS         MSFL         NPHI         RHOB
# ...
   2237.6003    -999.2500    -999.2500    -999.2500      45.4972    -999.2500      15.9780      12.9630       8.8432       0.0038    -999.2500
   2237.7527    -999.2500    -999.2500    -999.2500      49.4134    -999.2500      14.9582      11.9852       8.8386       0.0054    -999.2500
   2237.9053    -999.2500    -999.2500    -999.2500      58.5165    -999.2500      14.8957      12.3060       9.7382       0.0071    -999.2500
   2238.0576    -999.2500    -999.2500    -999.2500      66.4286    -999.2500      14.8316      12.6071      10.5246       0.0080    -999.2500
   2238.2100    -999.2500    -999.2500    -999.2500      64.5759    -999.2500      14.7547      12.7460      10.3832       0.0076    -999.2500
   2238.3623    -999.2500    -999.2500    -999.2500      62.6952    -999.2500      14.6297      12.8307      10.2052       0.0074    -999.2500
   2238.5149    -999.2500    -999.2500    -999.2500      60.5823    -999.2500      14.1072      12.4667       9.7249       0.0085    -999.2500
   2238.6672    -999.2500    -999.2500    -999.2500      58.3580    -999.2500      13.6246      12.1081       9.2746       0.0096    -999.2500
   2238.8196    -999.2500    -999.2500    -999.2500      55.2623    -999.2500      13.4533      11.7915       9.0594       0.0096    -999.2500
   2238.9719    -999.2500    -999.2500    -999.2500      52.5527    -999.2500      13.2716      11.5307       8.7877       0.0092    -999.2500
   2239.1243    -999.2500    -999.2500    -999.2500      52.9375    -999.2500      13.0062      11.7177       8.0640       0.0086    -999.2500
   2239.2769    -999.2500    -999.2500    -999.2500      53.1747    -999.2500      12.7987      11.9732       7.4468       0.0078    -999.2500
   2239.4292    -999.2500    -999.2500    -999.2500      52.2181    -999.2500      13.0596      12.7833       7.6907       0.0067    -999.2500
   2239.5815    -999.2500    -999.2500    -999.2500      51.3215    -999.2500      13.3115      13.5729       7.9345       0.0051    -999.2500
   2239.7339    -999.2500    -999.2500    -999.2500      50.9140    -999.2500      13.4903      14.1946       8.1772       0.0031    -999.2500
   2239.8865    -999.2500    -999.2500    -999.2500      50.6103    -999.2500      13.6425      14.6220       8.4382       0.0013    -999.2500
   2240.0388    -999.2500    -999.2500    -999.2500      51.1750    -999.2500      13.5726      13.4225       8.8520       0.0004    -999.2500
   2240.1912    -999.2500    -999.2500    -999.2500      51.1994    -999.2500      13.5435      12.4022       9.2456       0.0002    -999.2500
   2240.3435    -999.2500    -999.2500    -999.2500      46.6599    -999.2500      13.8599      12.8950       9.4687       0.0010    -999.2500
   2240.4961    -999.2500    -999.2500    -999.2500      42.4464    -999.2500      14.1771      13.3891       9.6942       0.0023    -999.2500
   2240.6484    -999.2500    -999.2500    -999.2500      40.8341    -999.2500      14.5015      13.8924       9.9386       0.0041    -999.2500
   2240.8008    -999.2500    -999.2500    -999.2500      39.9951    -999.2500      14.7663      14.2412      10.1821       0.0065    -999.2500
   2240.9531    -999.2500    -999.2500    -999.2500      45.3784    -999.2500      14.5515      13.3473      10.4183       0.0095    -999.2500
   2241.1055    -999.2500    -999.2500    -999.2500      50.7093    -999.2500      14.4184      12.5889      10.6415       0.0117    -999.2500
   2241.2581    -999.2500    -999.2500    -999.2500      55.6067    -999.2500      14.9592      12.9487      10.7569       0.0115    -999.2500
   2241.4104    -999.2500    -999.2500    -999.2500      60.3053    -999.2500      15.4751      13.2315      10.8274       0.0105    -999.2500
   2241.5627    -999.2500    -999.2500    -999.2500      63.3493    -999.2500      15.7840      12.8725      10.5230       0.0099    -999.2500
   2241.7151    -999.2500    -999.2500    -999.2500      65.9514    -999.2500      16.0924      12.5329      10.2160       0.0105    -999.2500
   2241.8677    -999.2500    -999.2500    -999.2500      65.0768    -999.2500      16.3972      12.3460       9.8882       0.0128    -999.2500
   2242.0200    -999.2500    -999.2500    -999.2500      64.2391    -999.2500      16.7384      12.1930       9.5415       0.0147    -999.2500
   2242.1724    -999.2500    -999.2500    -999.2500      63.6948    -999.2500      17.3676      12.3088       9.0451       0.0144    -999.2500
   2242.3247    -999.2500    -999.2500    -999.2500      63.2390    -999.2500      18.0561      12.4731       8.5697       0.0130    -999.2500
   2242.4773    -999.2500    -999.2500    -999.2500      63.5039    -999.2500      19.2266      13.0319       8.2659       0.0116    -999.2500
   2242.6296    -999.2500    -999.2500    -999.2500      63.7981    -999.2500      20.3950      13.5674       7.9594       0.0101    -999.2500
   2242.7820    -999.2500    -999.2500    -999.2500      64.3328    -999.2500      21.5460      13.9123       7.6310       0.0084    -999.2500
   2242.9343    -999.2500    -999.2500    -999.2500      63.9466    -999.2500      22.6533      14.1880       7.2887       0.0060    -999.2500
   2243.0867    -999.2500    -999.2500    -999.2500      55.9293    -999.2500      23.3989      13.8912       6.8309       0.0022    -999.2500
   2243.2393    -999.2500    -999.2500    -999.2500      48.0833    -999.2500      23.7936      13.5385       6.4094      -0.0013    -999.2500
   2243.3916    -999.2500    -999.2500    -999.2500      41.5778    -999.2500      21.4410      12.7485       6.2721      -0.0033    -999.2500
   2243.5439    -999.2500    -999.2500    -999.2500      35.2973    -999.2500      19.0861      11.9432       6.1804      -0.0039    -999.2500
   2243.6963    -999.2500    -999.2500    -999.2500      30.8228    -999.2500      16.7126      11.0156       6.4548      -0.0032    -999.2500
   2243.8489    -999.2500    -999.2500    -999.2500      27.2067    -999.2500      14.7813      10.4206       6.9003      -0.0013    -999.2500
   2244.0012    -999.2500    -999.2500    -999.2500      30.5427    -999.2500      16.4311      12.5187       8.7315       0.0016    -999.2500
   2244.1536    -999.2500    -999.2500    -999.2500      33.7341    -999.2500      18.1488      14.6633      10.5802       0.0048    -999.2500
   2244.3059    -999.2500    -999.2500    -999.2500      35.7438    -999.2500      20.4213      17.1882      12.5718       0.0076    -999.2500
   2244.4585    -999.2500    -999.2500    -999.2500      37.6000    -999.2500      22.5972      19.5918      14.4832       0.0095    -999.2500
   2244.6108    -999.2500    -999.2500    -999.2500      38.1912    -999.2500      23.9765      20.9951      15.7326       0.0102    -999.2500
   2244.7632    -999.2500    -999.2500    -999.2500      38.4481    -999.2500      25.1718      22.2246      16.8770       0.0099    -999.2500
   2244.9155    -999.2500    -999.2500    -999.2500      35.8759    -999.2500      24.8108      21.9839      17.1322       0.0087    -999.2500
   2245.0679    -999.2500    -999.2500    -999.2500      33.4316    -999.2500      24.4883      21.9930      17.5898       0.0069    -999.2500
   2245.2205    -999.2500    -999.2500    -999.2500      32.0077    -999.2500      24.4733      23.9977      19.6639       0.0048    -999.2500
   2245.3728    -999.2500    -999.2500    -999.2500      30.6758    -999.2500      24.5190      25.9051      21.6873       0.0028    -999.2500
   2245.5251    -999.2500    -999.2500    -999.2500      30.0856    -999.2500      25.0538      27.0291      23.3021       0.0014    -999.2500
   2245.6775    -999.2500    -999.2500    -999.2500      29.8250    -999.2500      25.4964      27.8801      24.6563       0.0005    -999.2500
   2245.8301    -999.2500    -999.2500    -999.2500      32.2445    -999.2500      25.1898      26.5113      23.8917       0.0001    -999.2500
   2245.9824    -999.2500    -999.2500    -999.2500      34.9774    -999.2500      24.8091      25.0732      22.9974       0.0002    -999.2500
