#------------------------------------------------------------------------------
#
#   Created by  : [OpenWorks] Log Export Utility (LEXP)
#   Created on  : 2016-05-23 11:55:46
#   Project     : CANT971
#   User        : R5K
#   Interpreter : PEP
#
#------------------------------------------------------------------------------
~VERSION INFORMATION
VERS. 2.0 : CWLS Log ASCII Standard - version 2.0
WRAP.  NO : One line per depth step
~WELL INFORMATION
#MNEMONIC   .UNIT                                           VALUE :DESCRIPTION
#------------------------------------------------------------------------------
STRT        .M                                           325.5260 :START DEPTH
STOP        .M                                          2414.9299 :STOP DEPTH
STEP        .M                                             0.1524 :STEP
NULL        .                                           -999.2500 :NULL VALUE
COMP        .                                   PEMEX EXPL & PROD :COMPANY
WELL        .                                                   4 :WELL
FLD         .                                           CANTARELL :FIELD
LOC         .                                             UNKNOWN :LOCATION
CNTY        .                                      CD. DEL CARMEN :COUNTY
STAT        .                                            CAMPECHE :STATE
CTRY        .                                              MEXICO :COUNTRY
SRVC        .                                             UNKNOWN :SERVICE COMPANY
DATE        .                                             UNKNOWN :LOG DATE
UWI         .                                          3060000140 :UNIQUE WELL ID
XCOORD      .                                       598455.270000 :SURFACE X
YCOORD      .                                      2145027.190000 :SURFACE Y
LAT         .                                           19.398194 :LATITUDE
LON         .                                          -92.062351 :LONGITUDE
ELEV        .M                                            26.5400 :SURFACE ELEV
ELEV_TYPE   .                                                  KB :ELEV TYPE
~CURVE INFORMATION
#MNEMONIC.UNIT        API CODE       : CURVE DESCRIPTION
#------------------------------------------------------------------------------
DEPTH    .M                          : Measured Depth
CALI     .inches      UNKNOWN        : CALI:Import:rC:NONE:v0 (auto-composite)
CGR      .API         UNKNOWN        : CGR:Import:rC:NONE:v0 (auto-composite)
DRHO     .g/cm3       UNKNOWN        : DRHO:Import:rC:NONE:v0 (auto-composite)
DT       .us/ft       UNKNOWN        : DT:Import:rC:NONE:v0 (auto-composite)
GR       .API         UNKNOWN        : GR:Import:rC:NONE:v0 (auto-composite)
ILD      .ohm.m       UNKNOWN        : ILD:Import:rC:NONE:v0 (auto-composite)
LLD      .ohm.m       UNKNOWN        : LLD:Import:rC:NONE:v0 (auto-composite)
LLS      .ohm.m       UNKNOWN        : LLS:Import:rC:NONE:v0 (auto-composite)
MSFL     .ohm.m       UNKNOWN        : MSFL:Import:rC:NONE:v0 (auto-composite)
NPHI     .v/v_decimal UNKNOWN        : NPHI:Import:rC:NONE:v0 (auto-composite)
POTA     .wtpercent   UNKNOWN        : POTA:Import:rC:NONE:v0 (auto-composite)
RHOB     .g/cm3       UNKNOWN        : RHOB:Import:rC:NONE:v0 (auto-composite)
THOR     .ppm         UNKNOWN        : THOR:Import:rC:NONE:v0 (auto-composite)
URAN     .ppm         UNKNOWN        : URAN:Import:rC:NONE:v0 (auto-composite)
~A     DEPTH         CALI          CGR         DRHO           DT           GR          ILD          LLD          LLS         MSFL         NPHI         POTA         RHOB         THOR         URAN
# ...
   1727.3011       8.6720    -999.2500      -0.5760      55.5940      27.5500    -999.2500       1.1400       3.0920       0.0910       0.2090    -999.2500       2.4320    -999.2500    -999.2500
   1727.4536       8.6720    -999.2500      -0.5675      55.5805      27.0023    -999.2500       1.0573       4.1272       0.0920       0.2139    -999.2500       2.4285    -999.2500    -999.2500
   1727.6060       8.6720    -999.2500      -0.5590      55.5670      26.4550    -999.2500       0.9750       5.1600       0.0930       0.2194    -999.2500       2.4250    -999.2500    -999.2500
   1727.7584       8.6720    -999.2500      -0.5595      55.5735      26.2314    -999.2500       0.6441       4.0794       0.0925       0.2220    -999.2500       2.4235    -999.2500    -999.2500
   1727.9108       8.6720    -999.2500      -0.5600      55.5800      26.0080    -999.2500       0.3150       3.0020       0.0920       0.2246    -999.2500       2.4220    -999.2500    -999.2500
   1728.0632       8.6720    -999.2500      -0.5625      55.6021      25.6569    -999.2500       0.4634       1.8144       0.0915       0.2272    -999.2500       2.4195    -999.2500    -999.2500
   1728.2156       8.6720    -999.2500      -0.5650      55.6240      25.3060    -999.2500       0.6110       0.6310       0.0910       0.2298    -999.2500       2.4170    -999.2500    -999.2500
   1728.3680       8.6720    -999.2500      -0.5710      55.9353      24.5166    -999.2500       1.0526       0.4782       0.0890       0.2326    -999.2500       2.4130    -999.2500    -999.2500
   1728.5204       8.6720    -999.2500      -0.5770      56.2450      23.7280    -999.2500       1.4920       0.3260       0.0870       0.2354    -999.2500       2.4090    -999.2500    -999.2500
   1728.6729       8.6720    -999.2500      -0.5900      58.0174      22.0460    -999.2500       0.8544       0.7377       0.0860       0.2275    -999.2500       2.3859    -999.2500    -999.2500
   1728.8252       8.6720    -999.2500      -0.6030      59.7810      20.3670    -999.2500       0.2200       1.1480       0.0850       0.2192    -999.2500       2.3630    -999.2500    -999.2500
   1728.9777       8.6755    -999.2500      -0.6000      60.8987      19.3987    -999.2500       0.8520       0.8756       0.0860       0.2061    -999.2500       2.3705    -999.2500    -999.2500
   1729.1300       8.6790    -999.2500      -0.5970      62.0110      18.4320    -999.2500       1.4810       0.6040       0.0870       0.1929    -999.2500       2.3780    -999.2500    -999.2500
   1729.2823       8.6870    -999.2500      -0.5940      60.7681      18.2499    -999.2500       0.9723       1.5490       0.0865       0.1758    -999.2500       2.3855    -999.2500    -999.2500
   1729.4348       8.6950    -999.2500      -0.5910      59.5310      18.0680    -999.2500       0.4660       2.4910       0.0860       0.1586    -999.2500       2.3930    -999.2500    -999.2500
   1729.5872       8.7020    -999.2500      -0.5634      58.2386      17.9804    -999.2500       0.4931       1.8205       0.0855       0.1418    -999.2500       2.4221    -999.2500    -999.2500
   1729.7396       8.7090    -999.2500      -0.5360      56.9520      17.8930    -999.2500       0.5200       1.1520       0.0850       0.1249    -999.2500       2.4510    -999.2500    -999.2500
   1729.8920       8.7175    -999.2500      -0.4989      56.6097      18.4093    -999.2500       0.5861       0.8626       0.0850       0.1253    -999.2500       2.4901    -999.2500    -999.2500
   1730.0444       8.7260    -999.2500      -0.4620      56.2690      18.9250    -999.2500       0.6520       0.5740       0.0850       0.1261    -999.2500       2.5290    -999.2500    -999.2500
   1730.1968       8.7345    -999.2500      -0.4274      56.2454      18.7864    -999.2500       0.4816       0.7738       0.0855       0.1345    -999.2500       2.5225    -999.2500    -999.2500
   1730.3492       8.7430    -999.2500      -0.3930      56.2220      18.6480    -999.2500       0.3120       0.9730       0.0860       0.1431    -999.2500       2.5160    -999.2500    -999.2500
   1730.5016       8.7455    -999.2500      -0.3970      56.1208      18.5675    -999.2500       0.5174       0.8869       0.0855       0.1361    -999.2500       2.4854    -999.2500    -999.2500
   1730.6541       8.7480    -999.2500      -0.4010      56.0200      18.4870    -999.2500       0.7220       0.8010       0.0850       0.1286    -999.2500       2.4550    -999.2500    -999.2500
   1730.8064       8.7490    -999.2500      -0.4030      55.9328      18.2904    -999.2500       0.5617       0.9987       0.0845       0.1119    -999.2500       2.4445    -999.2500    -999.2500
   1730.9587       8.7500    -999.2500      -0.4050      55.8460      18.0940    -999.2500       0.4020       1.1960       0.0840       0.0950    -999.2500       2.4340    -999.2500    -999.2500
   1731.1112       8.7465    -999.2500      -0.3779      54.6787      17.3367    -999.2500       1.3799       1.4638       0.0840       0.0854    -999.2500       2.4721    -999.2500    -999.2500
   1731.2635       8.7430    -999.2500      -0.3510      53.5160      16.5800    -999.2500       2.3540       1.7310       0.0840       0.0760    -999.2500       2.5100    -999.2500    -999.2500
   1731.4160       8.7380    -999.2500      -0.3375      54.3068      15.8578    -999.2500       1.3717       1.5133       0.0865       0.0834    -999.2500       2.5230    -999.2500    -999.2500
   1731.5684       8.7330    -999.2500      -0.3240      55.0940      15.1360    -999.2500       0.3940       1.2960       0.0890       0.0915    -999.2500       2.5360    -999.2500    -999.2500
   1731.7208       8.7300    -999.2500      -0.3310      56.9599      15.3546    -999.2500       0.3985       5.4234       0.0935       0.1005    -999.2500       2.5325    -999.2500    -999.2500
   1731.8732       8.7270    -999.2500      -0.3380      58.8160      15.5730    -999.2500       0.4030       9.5390       0.0980       0.1096    -999.2500       2.5290    -999.2500    -999.2500
   1732.0256       8.7275    -999.2500      -0.3676      61.2382      16.6161    -999.2500       0.5489       5.6471       0.1010       0.1139    -999.2500       2.5004    -999.2500    -999.2500
   1732.1780       8.7280    -999.2500      -0.3970      63.6480      17.6580    -999.2500       0.6940       1.7690       0.1040       0.1180    -999.2500       2.4720    -999.2500    -999.2500
   1732.3304       8.7295    -999.2500      -0.4837      66.4230      18.7980    -999.2500       0.6033       1.0748       0.1105       0.1359    -999.2500       2.4164    -999.2500    -999.2500
   1732.4828       8.7310    -999.2500      -0.5700      69.1840      19.9360    -999.2500       0.5130       0.3830       0.1170       0.1543    -999.2500       2.3610    -999.2500    -999.2500
   1732.6353       8.7686    -999.2500      -0.4582      70.4200      20.2783    -999.2500       0.7225       0.5342       0.5277       0.1654    -999.2500       2.4592    -999.2500    -999.2500
   1732.7876       8.8060    -999.2500      -0.3470      71.6500      20.6200    -999.2500       0.9310       0.6850       0.9370       0.1761    -999.2500       2.5570    -999.2500    -999.2500
   1732.9399       9.0260    -999.2500      -0.1099      71.5212      22.6661    -999.2500       2.0176       6.2924       3.7835       0.1590    -999.2500       2.6693    -999.2500    -999.2500
   1733.0924       9.2450    -999.2500       0.1260      71.3930      24.7090    -999.2500       3.0990      11.8820       6.6210       0.1407    -999.2500       2.7810    -999.2500    -999.2500
   1733.2448       9.4169    -999.2500       0.1024      71.4902      26.9431    -999.2500       6.0544      75.8277       8.7648       0.1399    -999.2500       2.7163    -999.2500    -999.2500
   1733.3972       9.5880    -999.2500       0.0790      71.5870      29.1740    -999.2500       8.9960     139.5780      10.9020       0.1399    -999.2500       2.6520    -999.2500    -999.2500
   1733.5496       9.6962    -999.2500       0.0489      71.4126      27.8606    -999.2500       7.9692      99.4157      11.0412       0.1391    -999.2500       2.6019    -999.2500    -999.2500
