#------------------------------------------------------------------------------
#
#   Created by  : [OpenWorks] Log Export Utility (LEXP)
#   Created on  : 2016-05-23 11:56:14
#   Project     : CANT971
#   User        : R5K
#   Interpreter : PEP
#
#------------------------------------------------------------------------------
~VERSION INFORMATION
VERS. 2.0 : CWLS Log ASCII Standard - version 2.0
WRAP.  NO : One line per depth step
~WELL INFORMATION
#MNEMONIC   .UNIT                                           VALUE :DESCRIPTION
#------------------------------------------------------------------------------
STRT        .M                                          2395.2905 :START DEPTH
STOP        .M                                          2859.1960 :STOP DEPTH
STEP        .M                                             0.1524 :STEP
NULL        .                                           -999.2500 :NULL VALUE
COMP        .                                             UNKNOWN :COMPANY
WELL        .                                               446-V :WELL
FLD         .                                             UNKNOWN :FIELD
LOC         .                                             UNKNOWN :LOCATION
CNTY        .                                             UNKNOWN :COUNTY
STAT        .                                             UNKNOWN :STATE
CTRY        .                                             UNKNOWN :COUNTRY
SRVC        .                                             UNKNOWN :SERVICE COMPANY
DATE        .                                             UNKNOWN :LOG DATE
UWI         .                                               446-V :UNIQUE WELL ID
XCOORD      .                                       596708.730000 :SURFACE X
YCOORD      .                                      2143311.960000 :SURFACE Y
LAT         .                                           19.382780 :LATITUDE
LON         .                                          -92.079070 :LONGITUDE
ELEV        .M                                             0.0000 :SURFACE ELEV
ELEV_TYPE   .                                                  NA :ELEV TYPE
~CURVE INFORMATION
#MNEMONIC.UNIT        API CODE       : CURVE DESCRIPTION
#------------------------------------------------------------------------------
DEPTH    .M                          : Measured Depth
CALI     .inches      UNKNOWN        : CALI:litodensidad:rC:NONE:v0 (auto-composite)
CGR      .API         UNKNOWN        : CGR:Espectrometria:rC:NONE:v0 (auto-composite)
DRHO     .g/cm3       UNKNOWN        : DRHO:litodensidad:rC:NONE:v0 (auto-composite)
DT       .us/ft       UNKNOWN        : DT:sonico:rC:NONE:v0 (auto-composite)
GR       .API         UNKNOWN        : GR:GR-Load:rC:NONE:v0 (auto-composite)
GR-LWD   .API         UNKNOWN        : GR-LWD:resistivos-LWD:rC:NONE:v0 (auto-composite)
ILD-LWD  .ohm.m       UNKNOWN        : ILD-LWD:resistivos-LWD:rC:NONE:v0 (auto-composite)
ILM-LWD  .UNKNOWN     UNKNOWN        : ILM-LWD:resistivos-LWD:rC:NONE:v0 (auto-composite)
LLD      .ohm.m       UNKNOWN        : LLD:resistivos:rC:NONE:v0 (auto-composite)
LLS      .ohm.m       UNKNOWN        : LLS:resistivos:rC:NONE:v0 (auto-composite)
MSFL     .ohm.m       UNKNOWN        : MSFL:resistivos:rC:NONE:v0 (auto-composite)
NPHI     .UNKNOWN     UNKNOWN        : NPHI:porosidad:rC:NONE:v0 (auto-composite)
PEF      .UNKNOWN     UNKNOWN        : PEF:litodensidad:rC:NONE:v0 (auto-composite)
POTA     .wtpercent   UNKNOWN        : POTA:Espectrometria:rC:NONE:v0 (auto-composite)
RHOB     .g/cm3       UNKNOWN        : RHOB:litodensidad:rC:NONE:v0 (auto-composite)
THOR     .ppm         UNKNOWN        : THOR:Espectrometria:rC:NONE:v0 (auto-composite)
URAN     .ppm         UNKNOWN        : URAN:Espectrometria:rC:NONE:v0 (auto-composite)
~A     DEPTH         CALI          CGR         DRHO           DT           GR       GR-LWD      ILD-LWD      ILM-LWD          LLD          LLS         MSFL         NPHI          PEF         POTA         RHOB         THOR         URAN
# ...
   2480.6345      12.2595       1.6532       0.0554      76.8901      19.4197    -999.2500    -999.2500    -999.2500     184.4300      79.0458      99.0396       0.0247       3.3576       0.0010       2.8273       0.0600       1.9780
   2480.7869      12.3101       3.1642       0.0686      75.3696      18.8764    -999.2500    -999.2500    -999.2500     148.7748      66.8743      65.7116       0.0237       3.3789       0.0021       2.8266       0.0750       1.7493
   2480.9392      12.3522       4.3189       0.0759      74.5153      18.8560    -999.2500    -999.2500    -999.2500     121.4011      54.5487      44.9895       0.0330       3.3773       0.0027       2.8155       0.1678       1.6185
   2481.0918      12.4152       5.8777       0.0804      73.2472      19.1143    -999.2500    -999.2500    -999.2500      96.6953      42.1817      27.4488       0.0488       3.3854       0.0033       2.7994       0.3544       1.4736
   2481.2441      12.4665       5.3604       0.0810      72.1947      19.5303    -999.2500    -999.2500    -999.2500      87.6507      35.7201      31.9655       0.0542       3.4103       0.0035       2.7856       0.1207       1.5776
   2481.3965      12.5301       4.0686       0.0734      71.3192      19.9350    -999.2500    -999.2500    -999.2500      84.3765      32.6910      39.3305       0.0632       3.4368       0.0027       2.7486       0.0895       1.7665
   2481.5488      12.5395       3.3305       0.0630      70.4148      19.3462    -999.2500    -999.2500    -999.2500      81.8684      32.2804      27.9771       0.0683       3.4257       0.0021       2.7239       0.0951       1.7831
   2481.7014      12.5308       2.3177       0.0466      69.9002      18.4023    -999.2500    -999.2500    -999.2500      75.5317      30.1075      10.7062       0.0721       3.4026       0.0014       2.7149       0.0971       1.7908
   2481.8538      12.5102       1.9371       0.0457      69.6997      17.7868    -999.2500    -999.2500    -999.2500      70.6713      27.9371       6.9304       0.0708       3.3964       0.0011       2.7327       0.1033       1.7646
   2482.0061      12.5473       2.2878       0.0622      69.4799      16.9778    -999.2500    -999.2500    -999.2500      64.8183      24.5613       7.6080       0.0661       3.3496       0.0010       2.7503       0.2701       1.6355
   2482.1584      12.6332       2.7912       0.0842      68.9103      16.7360    -999.2500    -999.2500    -999.2500      64.2267      23.4190       8.3761       0.0655       3.3225       0.0009       2.7448       0.4178       1.5525
   2482.3110      12.7542       4.8346       0.1352      68.6035      16.6394    -999.2500    -999.2500    -999.2500      65.2412      23.0215      19.2049       0.0958       3.3552       0.0009       2.7206       0.9953       1.3143
   2482.4634      12.9614       6.3405       0.1725      68.4726      16.6467    -999.2500    -999.2500    -999.2500      66.0032      22.8170      24.6999       0.1162       3.4428       0.0010       2.6866       1.4150       1.1474
   2482.6157      14.5222       7.3438       0.2228      68.4115      16.8264    -999.2500    -999.2500    -999.2500      68.0798      22.6406      98.4719       0.1415       3.5812       0.0015       2.5843       1.5032       1.0557
   2482.7681      15.5669       6.6945       0.2333      68.3906      16.6099    -999.2500    -999.2500    -999.2500      69.9534      22.7005      35.5143       0.1550       3.6291       0.0020       2.5277       1.0951       1.1039
   2482.9204      16.0146       5.3031       0.2276      68.4380      16.3622    -999.2500    -999.2500    -999.2500      72.3857      22.9048       5.4202       0.1556       3.6601       0.0029       2.4983       0.3679       1.2313
   2483.0730      15.0169       4.9463       0.2152      68.6363      16.5509    -999.2500    -999.2500    -999.2500      75.4678      23.5509       6.1049       0.1931       3.6829       0.0033       2.5041       0.0895       1.2920
   2483.2253      14.2947       5.2927       0.2117      68.8548      15.8691    -999.2500    -999.2500    -999.2500      79.7747      24.4917    5097.4609       0.2008       3.6710       0.0029       2.4982       0.3427       1.1775
   2483.3777      13.7888       5.2393       0.2004      69.0016      16.2502    -999.2500    -999.2500    -999.2500      87.3751      26.3047   20000.0000       0.2257       3.6217       0.0029       2.4603       0.3398       1.2259
   2483.5300      13.6794       4.2553       0.1666      69.1048      16.2695    -999.2500    -999.2500    -999.2500      91.5194      26.6599   14012.4805       0.2442       3.4865       0.0027       2.3964       0.1420       1.3376
   2483.6826      13.6322       3.7589       0.1108      69.2081      15.8447    -999.2500    -999.2500    -999.2500      91.6083      25.4910      62.7187       0.2605       3.0668       0.0024       2.2220       0.1113       1.3456
   2483.8350      14.0584       2.9360       0.0776      69.7072      15.1342    -999.2500    -999.2500    -999.2500      85.9977      23.0001      10.5752       0.3239       2.3280       0.0017       1.9060       0.1633       1.3581
   2483.9873      14.7754       2.0013       0.0620      70.2249      14.2444    -999.2500    -999.2500    -999.2500      77.6254      19.9656       1.3488       0.3474       1.3897       0.0010       1.4996       0.1767       1.3631
   2484.1396      15.2652       2.1675       0.0845      71.1675      13.5723    -999.2500    -999.2500    -999.2500      70.8819      17.4486       0.4974       0.3636       1.0992       0.0008       1.3802       0.2913       1.2697
   2484.2922      15.5384       1.7437       0.1242      72.8870      13.0040    -999.2500    -999.2500    -999.2500      66.9935      15.1254       0.4782       0.4165       1.2937       0.0009       1.4471       0.1188       1.2537
   2484.4446      15.8175       1.7193       0.1564      74.0475      13.3850    -999.2500    -999.2500    -999.2500      67.1543      13.8875       2.7892       0.4114       1.6832       0.0011       1.5745       0.0634       1.2988
   2484.5969      16.6084       1.0015       0.2089      76.1653      13.3736    -999.2500    -999.2500    -999.2500      72.3429      13.2414       8.9260       0.4253       2.2118       0.0006       1.7511       0.0391       1.3774
   2484.7493      16.9992       1.9621       0.2403      80.0467      13.2333    -999.2500    -999.2500    -999.2500      77.2493      13.4808       5.3322       0.3662       2.4023       0.0006       1.8280       0.3084       1.2549
   2484.9016      17.6022       6.3860       0.2592      82.8982      12.6636    -999.2500    -999.2500    -999.2500      74.7406      13.2492       0.2655       0.3229       2.4070       0.0015       1.8519       1.2130       0.6989
   2485.0542      18.0672       7.7617       0.2326      84.0306      11.8256    -999.2500    -999.2500    -999.2500      66.5563      12.9617       0.2363       0.3721       2.1373       0.0016       1.7586       1.5587       0.4524
   2485.2065      18.7122       6.5877       0.1600      85.2330      10.0977    -999.2500    -999.2500    -999.2500      52.8623      12.8394       2.1832       0.5765       1.4611       0.0011       1.5230       1.4493       0.3908
   2485.3589      18.6071       3.8237       0.1210      87.1798       9.2322    -999.2500    -999.2500    -999.2500      46.5657      12.9596       6.6585       0.5615       1.0856       0.0005       1.3906       0.8993       0.6022
   2485.5112      18.3619       1.4036       0.0862      87.3215       8.5181    -999.2500    -999.2500    -999.2500      42.2434      13.5063   20000.0000       0.6435       0.7507       0.0008       1.2667       0.0842       0.7921
   2485.6638      18.1069       1.9234       0.0738      86.8666       9.0540    -999.2500    -999.2500    -999.2500      41.7480      13.6614   20000.0000       0.6432       0.6612       0.0012       1.2220       0.0621       0.7939
   2485.8162      18.0417       3.0264       0.0553      86.1395       9.0182    -999.2500    -999.2500    -999.2500      40.8198      13.6144   18173.2070       0.6910       0.5635       0.0020       1.1607       0.0504       0.6671
