#------------------------------------------------------------------------------
#
#   Created by  : [OpenWorks] Log Export Utility (LEXP)
#   Created on  : 2016-05-23 11:57:09
#   Project     : CANT971
#   User        : R5K
#   Interpreter : PEP
#
#------------------------------------------------------------------------------
~VERSION INFORMATION
VERS. 2.0 : CWLS Log ASCII Standard - version 2.0
WRAP.  NO : One line per depth step
~WELL INFORMATION
#MNEMONIC   .UNIT                                           VALUE :DESCRIPTION
#------------------------------------------------------------------------------
STRT        .M                                           143.0270 :START DEPTH
STOP        .M                                          2096.0330 :STOP DEPTH
STEP        .M                                             0.1524 :STEP
NULL        .                                           -999.2500 :NULL VALUE
COMP        .                                   PEMEX EXPL & PROD :COMPANY
WELL        .                                                   7 :WELL
FLD         .                                           CANTARELL :FIELD
LOC         .                                             UNKNOWN :LOCATION
CNTY        .                                      CD. DEL CARMEN :COUNTY
STAT        .                                            CAMPECHE :STATE
CTRY        .                                              MEXICO :COUNTRY
SRVC        .                                             UNKNOWN :SERVICE COMPANY
DATE        .                                             UNKNOWN :LOG DATE
UWI         .                                            W-C-0007 :UNIQUE WELL ID
XCOORD      .                                       603360.340000 :SURFACE X
YCOORD      .                                      2145093.880000 :SURFACE Y
LAT         .                                           19.398550 :LATITUDE
LON         .                                          -92.015638 :LONGITUDE
ELEV        .M                                            27.1400 :SURFACE ELEV
ELEV_TYPE   .                                                  KB :ELEV TYPE
~CURVE INFORMATION
#MNEMONIC.UNIT        API CODE       : CURVE DESCRIPTION
#------------------------------------------------------------------------------
DEPTH    .M                          : Measured Depth
CAL      .inches      UNKNOWN        : CAL:UNKNOWN:rC:NONE:v0 (auto-composite)
DRHO     .g/cm3       UNKNOWN        : DRHO:UNKNOWN:rC:NONE:v0 (auto-composite)
DT       .us/ft       UNKNOWN        : DT:UNKNOWN:rC:NONE:v0 (auto-composite)
GR       .api         UNKNOWN        : GR:UNKNOWN:rC:NONE:v0 (auto-composite)
ILD      .ohmm        UNKNOWN        : ILD:UNKNOWN:rC:NONE:v0 (auto-composite)
NPHI     .v/v_decimal UNKNOWN        : NPHI:UNKNOWN:rC:NONE:v0 (auto-composite)
RHOB     .g/cm3       UNKNOWN        : RHOB:UNKNOWN:rC:NONE:v0 (auto-composite)
~A     DEPTH          CAL         DRHO           DT           GR          ILD         NPHI         RHOB
# ...
    401.1926       0.0000       0.2500      40.0000       0.0000       1.6950      -0.1500       1.9500
    401.3450       0.0000       0.2500      40.0000       0.0000       1.6789      -0.1500       1.9500
    401.4974       0.0000       0.2500      40.0000       0.0000       1.6675      -0.1500       1.9500
    401.6498       0.0000       0.2500      40.0000       0.0000       1.6661      -0.1500       1.9500
    401.8022       0.0000       0.2500      40.0000       0.0000       1.6666      -0.1500       1.9500
    401.9546       0.0000       0.2500      40.0000       0.0000       1.6729      -0.1500       1.9500
    402.1070       0.0000       0.2500      40.0000       0.0000       1.6883      -0.1500       1.9500
    402.2594       0.0000       0.2500      40.0000       0.0000       1.7407      -0.1500       1.9500
    402.4118       0.0000       0.2500      40.0000       0.0000       1.7963      -0.1500       1.9500
    402.5642       0.0000       0.2500      40.0000       0.0000       1.8715      -0.1500       1.9500
    402.7166       0.0000       0.2500      40.0000       0.0000       1.9418      -0.1500       1.9500
    402.8690       0.0000       0.2500      40.0000       0.0000       1.9530      -0.1500       1.9500
    403.0214       0.0000       0.2500      40.0000       0.0000       1.9632      -0.1500       1.9500
    403.1738       0.0000       0.2500      40.0000       0.0000       1.9108      -0.1500       1.9500
    403.3262       0.0000       0.2500      40.0000       0.0000       1.8584      -0.1500       1.9500
    403.4786       0.0000       0.2500      40.0000       0.0000       1.7990      -0.1500       1.9500
    403.6310       0.0000       0.2500      40.0000       0.0000       1.7393      -0.1500       1.9500
    403.7834       0.0000       0.2500      40.0000       0.0000       1.6961      -0.1500       1.9500
    403.9358       0.0000       0.2500      40.0000       0.0000       1.6548      -0.1500       1.9500
    404.0882       0.0000       0.2500      40.0000       0.0000       1.6383      -0.1500       1.9500
    404.2406       0.0000       0.2500      40.0000       0.0000       1.6266      -0.1500       1.9500
    404.3930       0.0000       0.2500      40.0000       0.0000       1.6229      -0.1500       1.9500
    404.5454       0.0000       0.2500      40.0000       0.0000       1.6214      -0.1500       1.9500
    404.6978       0.0000       0.2500      40.0000       0.0000       1.6210      -0.1500       1.9500
    404.8502       0.0000       0.2500      40.0000       0.0000       1.6210      -0.1500       1.9500
    405.0026       0.0000       0.2500      40.0000       0.0000       1.6207      -0.1500       1.9500
    405.1550       0.0000       0.2500      40.0000       0.0000       1.6202      -0.1500       1.9500
    405.3074       0.0000       0.2500      40.0000       0.0000       1.6163      -0.1500       1.9500
    405.4598       0.0000       0.2500      40.0000       0.0000       1.6099      -0.1500       1.9500
    405.6122       0.0000       0.2500      40.0000       0.0000       1.6047      -0.1500       1.9500
    405.7646       0.0000       0.2500      40.0000       0.0000       1.6003      -0.1500       1.9500
    405.9170       0.0000       0.2500      40.0000       0.0000       1.5946      -0.1500       1.9500
    406.0694       0.0000       0.2500      40.0000       0.0000       1.5873      -0.1500       1.9500
    406.2218       0.0000       0.2500      40.0000       0.0000       1.5824      -0.1500       1.9500
    406.3742       0.0000       0.2500      40.0000       0.0000       1.5809      -0.1500       1.9500
    406.5266       0.0000       0.2500      40.0000       0.0000       1.5800      -0.1500       1.9500
    406.6790       0.0000       0.2500      40.0000       0.0000       1.5800      -0.1500       1.9500
    406.8314       0.0000       0.2500      40.0000       0.0000       1.5786      -0.1500       1.9500
    406.9838       0.0000       0.2500      40.0000       0.0000       1.5737      -0.1500       1.9500
    407.1362       0.0000       0.2500      40.0000       0.0000       1.5690      -0.1500       1.9500
    407.2886       0.0000       0.2500      40.0000       0.0000       1.5646      -0.1500       1.9500
    407.4410       0.0000       0.2500      40.0000       0.0000       1.5612      -0.1500       1.9500
    407.5934       0.0000       0.2500      40.0000       0.0000       1.5621      -0.1500       1.9500
    407.7458       0.0000       0.2500      40.0000       0.0000       1.5637      -0.1500       1.9500
    407.8982       0.0000       0.2500      40.0000       0.0000       1.5705      -0.1500       1.9500
    408.0506       0.0000       0.2500      40.0000       0.0000       1.5773      -0.1500       1.9500
    408.2030       0.0000       0.2500      40.0000       0.0000       1.5836      -0.1500       1.9500
    408.3554       0.0000       0.2500      40.0000       0.0000       1.5900      -0.1500       1.9500
    408.5078       0.0000       0.2500      40.0000       0.0000       1.5948      -0.1500       1.9500
    408.6602       0.0000       0.2500      40.0000       0.0000       1.5997      -0.1500       1.9500
    408.8126       0.0000       0.2500      40.0000       0.0000       1.6000      -0.1500       1.9500
    408.9650       0.0000       0.2500      40.0000       0.0000       1.6000      -0.1500       1.9500
    409.1174       0.0000       0.2500      40.0000       0.0000       1.5970      -0.1500       1.9500
    409.2698       0.0000       0.2500      40.0000       0.0000       1.5937      -0.1500       1.9500
    409.4222       0.0000       0.2500      40.0000       0.0000       1.5883      -0.1500       1.9500
    409.5746       0.0000       0.2500      40.0000       0.0000       1.5825      -0.1500       1.9500
    409.7270       0.0000       0.2500      40.0000       0.0000       1.5803      -0.1500       1.9500
    409.8794       0.0000       0.2500      40.0000       0.0000       1.5793      -0.1500       1.9500
    410.0318       0.0000       0.2500      40.0000       0.0000       1.5790      -0.1500       1.9500
    410.1842       0.0000       0.2500      40.0000       0.0000       1.5790      -0.1500       1.9500
    410.3366       0.0000       0.2500      40.0000       0.0000       1.5799      -0.1500       1.9500
    410.4890       0.0000       0.2500      40.0000       0.0000       1.5814      -0.1500       1.9500
    410.6414       0.0000       0.2500      40.0000       0.0000       1.5875      -0.1500       1.9500
    410.7938       0.0000       0.2500      40.0000       0.0000       1.5972      -0.1500       1.9500
    410.9462       0.0000       0.2500      40.0000       0.0000       1.6224      -0.1500       1.9500
    411.0986       0.0000       0.2500      40.0000       0.0000       1.6627      -0.1500       1.9500
    411.2510       0.0000       0.2500      40.0000       0.0000       1.7629      -0.1500       1.9500
    411.4034       0.0000       0.2500      40.0000       0.0000       1.9376      -0.1500       1.9500
    411.5558       0.0000       0.2500      40.0000       0.0000       2.1687      -0.1500       1.9500
    411.7082       0.0000       0.2500      40.0000       0.0000       2.4895      -0.1500       1.9500
    411.8606       0.0000       0.2500      40.0000       0.0000       2.9342      -0.1500       1.9500
    412.0130       0.0000       0.2500      40.0000       0.0000       3.6360      -0.1500       1.9500
    412.1654       0.0000       0.2500      40.0000       0.0000       4.4429      -0.1500       1.9500
    412.3178       0.0000       0.2500      40.0000       0.0000       5.5413      -0.1500       1.9500
    412.4702       0.0000       0.2500      40.0000       0.0000       6.6395      -0.1500       1.9500
    412.6226       0.0000       0.2500      40.0000       0.0000       7.7374      -0.1500       1.9500
    412.7750       0.0000       0.2500      40.0000       0.0000       8.7691      -0.1500       1.9500
