#------------------------------------------------------------------------------
#
#   Created by  : [OpenWorks] Log Export Utility (LEXP)
#   Created on  : 2016-05-23 11:55:49
#   Project     : CANT971
#   User        : R5K
#   Interpreter : PEP
#
#------------------------------------------------------------------------------
~VERSION INFORMATION
VERS. 2.0 : CWLS Log ASCII Standard - version 2.0
WRAP.  NO : One line per depth step
~WELL INFORMATION
#MNEMONIC   .UNIT                                           VALUE :DESCRIPTION
#------------------------------------------------------------------------------
STRT        .M                                           773.4315 :START DEPTH
STOP        .M                                          2865.1216 :STOP DEPTH
STEP        .M                                             0.1524 :STEP
NULL        .                                           -999.2500 :NULL VALUE
COMP        .                                             UNKNOWN :COMPANY
WELL        .                                                408D :WELL
FLD         .                                             UNKNOWN :FIELD
LOC         .                                             UNKNOWN :LOCATION
CNTY        .                                             UNKNOWN :COUNTY
STAT        .                                             UNKNOWN :STATE
CTRY        .                                             UNKNOWN :COUNTRY
SRVC        .                                             UNKNOWN :SERVICE COMPANY
DATE        .                                             UNKNOWN :LOG DATE
UWI         .                                                408D :UNIQUE WELL ID
XCOORD      .                                       597130.770000 :SURFACE X
YCOORD      .                                      2144867.260000 :SURFACE Y
LAT         .                                           19.396814 :LATITUDE
LON         .                                          -92.074972 :LONGITUDE
ELEV        .M                                             0.0000 :SURFACE ELEV
ELEV_TYPE   .                                                  KB :ELEV TYPE
~CURVE INFORMATION
#MNEMONIC.UNIT        API CODE       : CURVE DESCRIPTION
#------------------------------------------------------------------------------
DEPTH    .M                          : Measured Depth
CALI     .inches      UNKNOWN        : CALI:litodensidad:rC:NONE:v0 (auto-composite)
CGR      .API         UNKNOWN        : CGR:PETROWORKS:rC:NONE:v1 
DRHO     .g/cm3       UNKNOWN        : DRHO:litodensidad:rC:NONE:v0 (auto-composite)
DT       .us/ft       UNKNOWN        : DT:PETROWORKS:rC:NONE:v1 
GR       .API         UNKNOWN        : GR:PETROWORKS:rC:NONE:v3 
GR-LWD   .UNKNOWN     UNKNOWN        : GR-LWD:resistivos-LWD:rC:NONE:v0 (auto-composite)
LLD      .ohm.m       UNKNOWN        : LLD:PETROWORKS:rC:NONE:v1 
LLD-LWD  .UNKNOWN     UNKNOWN        : LLD-LWD:resistivos-LWD:rC:NONE:v0 (auto-composite)
LLS      .UNKNOWN     UNKNOWN        : LLS:PETROWORKS:rC:NONE:v1 
LLS-LWD  .UNKNOWN     UNKNOWN        : LLS-LWD:resistivos-LWD:rC:NONE:v0 (auto-composite)
MSFL     .UNKNOWN     UNKNOWN        : MSFL:PETROWORKS:rC:NONE:v1 
MSFL-LWD .UNKNOWN     UNKNOWN        : MSFL-LWD:resistivos-LWD:rC:NONE:v0 (auto-composite)
NPHI     .v/v_decimal UNKNOWN        : NPHI:PETROWORKS:rC:NONE:v3 
PEF      .UNKNOWN     UNKNOWN        : PEF:litodensidad:rC:NONE:v0 (auto-composite)
POTA     .wtpercent   UNKNOWN        : POTA:PETROWORKS:rC:NONE:v1 
RHOB     .g/cm3       UNKNOWN        : RHOB:litodensidad:rC:NONE:v0 (auto-composite)
THOR     .ppm         UNKNOWN        : THOR:PETROWORKS:rC:NONE:v1 
URAN     .ppm         UNKNOWN        : URAN:PETROWORKS:rC:NONE:v1 
~A     DEPTH         CALI          CGR         DRHO           DT           GR       GR-LWD          LLD      LLD-LWD          LLS      LLS-LWD         MSFL     MSFL-LWD         NPHI          PEF         POTA         RHOB         THOR         URAN
# ...
   2860.5496       2.7261       0.6953       0.3972    -999.2500      12.7194    -999.2500     554.0516    -999.2500     476.8003    -999.2500     354.6373    -999.2500       0.1198       1.9990       0.0002       2.3787       0.1100       1.3392
   2860.7019       2.7261       0.6953       0.3972    -999.2500      12.7194    -999.2500     554.0516    -999.2500     476.8003    -999.2500     354.6373    -999.2500       0.1194       1.9990       0.0002       2.3787       0.1100       1.3392
   2860.8542       2.7261       0.6953       0.3972    -999.2500      12.7194    -999.2500     554.0516    -999.2500     476.8003    -999.2500     354.6373    -999.2500       0.1178       1.9990       0.0002       2.3787       0.1100       1.3392
   2861.0068       2.7261       0.6953       0.3972    -999.2500      12.7194    -999.2500     554.0516    -999.2500     476.8003    -999.2500     354.6373    -999.2500       0.1185       1.9990       0.0002       2.3787       0.1100       1.3392
   2861.1592       2.7261       0.6953       0.3972    -999.2500      12.7194    -999.2500     554.0516    -999.2500     476.8003    -999.2500     354.6373    -999.2500       0.1208       1.9990       0.0002       2.3787       0.1100       1.3392
   2861.3115       2.7261       0.6953       0.3972    -999.2500      12.7194    -999.2500     554.0516    -999.2500     476.8003    -999.2500     354.6373    -999.2500       0.1226       1.9990       0.0002       2.3787       0.1100       1.3392
   2861.4639       2.7261       0.6953       0.3972    -999.2500      12.7194    -999.2500     554.0516    -999.2500     476.8003    -999.2500     354.6373    -999.2500       0.1239       1.9990       0.0002       2.3787       0.1100       1.3392
   2861.6162       2.7261       0.6953       0.3972    -999.2500      12.7194    -999.2500     554.0516    -999.2500     476.8003    -999.2500     354.6373    -999.2500       0.1209       1.9990       0.0002       2.3787       0.1100       1.3392
   2861.7688       2.7261       0.6953       0.3972    -999.2500      12.7194    -999.2500     554.0516    -999.2500     476.8003    -999.2500     354.6373    -999.2500       0.1204       1.9990       0.0002       2.3787       0.1100       1.3392
   2861.9211       2.7261       0.6953       0.3972    -999.2500      12.7194    -999.2500     554.0516    -999.2500     476.8003    -999.2500     354.6373    -999.2500       0.1195       1.9990       0.0002       2.3787       0.1100       1.3392
   2862.0735       2.7261       0.6953       0.3972    -999.2500      12.7194    -999.2500     554.0516    -999.2500     476.8003    -999.2500     354.6373    -999.2500       0.1217       1.9990       0.0002       2.3787       0.1100       1.3392
   2862.2258       2.7261       0.6953       0.3972    -999.2500      12.7194    -999.2500     554.0516    -999.2500     476.8003    -999.2500     354.6373    -999.2500       0.1238       1.9990       0.0002       2.3787       0.1100       1.3392
   2862.3784       2.7261       0.6953       0.3972    -999.2500      12.7194    -999.2500     554.0516    -999.2500     476.8003    -999.2500     354.6373    -999.2500       0.1242       1.9990       0.0002       2.3787       0.1100       1.3392
   2862.5308       2.7261       0.6953       0.3972    -999.2500      12.7194    -999.2500     554.0516    -999.2500     476.8003    -999.2500     354.6373    -999.2500       0.1231       1.9990       0.0002       2.3787       0.1100       1.3392
   2862.6831       2.7261       0.6953       0.3972    -999.2500      12.7194    -999.2500     554.0516    -999.2500     476.8003    -999.2500     354.6373    -999.2500       0.1224       1.9990       0.0002       2.3787       0.1100       1.3392
   2862.8354       2.7261       0.6953       0.3972    -999.2500      12.7194    -999.2500     554.0516    -999.2500     476.8003    -999.2500     354.6373    -999.2500       0.1239       1.9990       0.0002       2.3787       0.1100       1.3392
   2862.9880       2.7261       0.6953       0.3972    -999.2500      12.7194    -999.2500     554.0516    -999.2500     476.8003    -999.2500     354.6373    -999.2500       0.1243       1.9990       0.0002       2.3787       0.1100       1.3392
   2863.1404       2.7261       0.6953       0.3972    -999.2500      12.7194    -999.2500     554.0516    -999.2500     476.8003    -999.2500     354.6373    -999.2500       0.1206       1.9990       0.0002       2.3787       0.1100       1.3392
   2863.2927       2.7261       0.6953       0.3972    -999.2500      12.7194    -999.2500     554.0516    -999.2500     476.8003    -999.2500     354.6373    -999.2500       0.1205       1.9990       0.0002       2.3787       0.1100       1.3392
   2863.4451       2.7261       0.6953       0.3972    -999.2500      12.7194    -999.2500     554.0516    -999.2500     476.8003    -999.2500     354.6373    -999.2500       0.1193       1.9990       0.0002       2.3787       0.1100       1.3392
   2863.5974       2.7261       0.6953       0.3972    -999.2500      12.7194    -999.2500     554.0516    -999.2500     476.8003    -999.2500     354.6373    -999.2500       0.1198       1.9990       0.0002       2.3787       0.1100       1.3392
   2863.7500       2.7261       0.6953       0.3972    -999.2500      12.7194    -999.2500     554.0516    -999.2500     476.8003    -999.2500     354.6373    -999.2500       0.1193       1.9990       0.0002       2.3787       0.1100       1.3392
   2863.9023       2.7261       0.6953       0.3972    -999.2500      12.7194    -999.2500     554.0516    -999.2500     476.8003    -999.2500     354.6373    -999.2500       0.1132       1.9990       0.0002       2.3787       0.1100       1.3392
   2864.0547       2.7261       0.6953       0.3972    -999.2500      12.7194    -999.2500     554.0516    -999.2500     476.8003    -999.2500     354.6373    -999.2500       0.1079       1.9990       0.0002       2.3787       0.1100       1.3392
   2864.2070       2.7261       0.6953       0.3972    -999.2500      12.7194    -999.2500     554.0516    -999.2500     476.8003    -999.2500     354.6373    -999.2500       0.1013       1.9990       0.0002       2.3787       0.1100       1.3392
   2864.3596       2.7261       0.6953       0.3972    -999.2500      12.7194    -999.2500     554.0516    -999.2500     476.8003    -999.2500     354.6373    -999.2500       0.1012       1.9990       0.0002       2.3787       0.1100       1.3392
   2864.5120       2.7261       0.6953       0.3972    -999.2500      12.7194    -999.2500     554.0516    -999.2500     476.8003    -999.2500     354.6373    -999.2500       0.1012       1.9990       0.0002       2.3787       0.1100       1.3392
   2864.6643       2.7261       0.6953       0.3972    -999.2500      12.7194    -999.2500    -999.2500    -999.2500    -999.2500    -999.2500    -999.2500    -999.2500       0.1012       1.9990       0.0002       2.3787       0.1100       1.3392
   2864.8167       2.7261       0.6953       0.3972    -999.2500      12.7194    -999.2500    -999.2500    -999.2500    -999.2500    -999.2500    -999.2500    -999.2500       0.1012       1.9990       0.0002       2.3787       0.1100       1.3392
   2864.9692       2.7261       0.6953       0.3972    -999.2500      12.7194    -999.2500    -999.2500    -999.2500    -999.2500    -999.2500    -999.2500    -999.2500       0.1012       1.9990       0.0002       2.3787       0.1100       1.3392
   2865.1216       2.7261    -999.2500       0.3972    -999.2500    -999.2500    -999.2500    -999.2500    -999.2500    -999.2500    -999.2500    -999.2500    -999.2500    -999.2500       1.9990    -999.2500       2.3787    -999.2500    -999.2500
