#------------------------------------------------------------------------------
#
#   Created by  : [OpenWorks] Log Export Utility (LEXP)
#   Created on  : 2016-05-23 11:56:24
#   Project     : CANT971
#   User        : R5K
#   Interpreter : PEP
#
#------------------------------------------------------------------------------
~VERSION INFORMATION
VERS. 2.0 : CWLS Log ASCII Standard - version 2.0
WRAP.  NO : One line per depth step
~WELL INFORMATION
#MNEMONIC   .UNIT                                           VALUE :DESCRIPTION
#------------------------------------------------------------------------------
STRT        .M                                           741.4294 :START DEPTH
STOP        .M                                          2768.5020 :STOP DEPTH
STEP        .M                                             0.1524 :STEP
NULL        .                                           -999.2500 :NULL VALUE
COMP        .                                             UNKNOWN :COMPANY
WELL        .                                                 470 :WELL
FLD         .                                             UNKNOWN :FIELD
LOC         .                                             UNKNOWN :LOCATION
CNTY        .                                             UNKNOWN :COUNTY
STAT        .                                             UNKNOWN :STATE
CTRY        .                                             UNKNOWN :COUNTRY
SRVC        .                                             UNKNOWN :SERVICE COMPANY
DATE        .                                             UNKNOWN :LOG DATE
UWI         .                                                 470 :UNIQUE WELL ID
XCOORD      .                                       598706.890000 :SURFACE X
YCOORD      .                                      2143306.000000 :SURFACE Y
LAT         .                                           19.382628 :LATITUDE
LON         .                                          -92.060044 :LONGITUDE
ELEV        .M                                             0.0000 :SURFACE ELEV
ELEV_TYPE   .                                                  NA :ELEV TYPE
~CURVE INFORMATION
#MNEMONIC.UNIT        API CODE       : CURVE DESCRIPTION
#------------------------------------------------------------------------------
DEPTH    .M                          : Measured Depth
CALI     .inches      UNKNOWN        : CALI:litodensidad:rC:NONE:v0 (auto-composite)
CGR      .API         UNKNOWN        : CGR:PETROWORKS:rC:NONE:v1 
DRHO     .g/cm3       UNKNOWN        : DRHO:litodensidad:rC:NONE:v0 (auto-composite)
DT       .us/ft       UNKNOWN        : DT:PETROWORKS:rC:NONE:v1 
GR       .API         UNKNOWN        : GR:PETROWORKS:rC:NONE:v8 
ILD      .ohm.m       UNKNOWN        : ILD:PETROWORKS:rC:NONE:v1 
ILM      .ohm.m       UNKNOWN        : ILM:PETROWORKS:rC:NONE:v1 
LLD      .ohm.m       UNKNOWN        : LLD:resistivos:rC:NONE:v0 (auto-composite)
LLS      .ohm.m       UNKNOWN        : LLS:resistivos:rC:NONE:v0 (auto-composite)
MSFL     .ohm.m       UNKNOWN        : MSFL:resistivos:rC:NONE:v0 (auto-composite)
NPHI     .v/v_decimal UNKNOWN        : NPHI:PETROWORKS:rC:NONE:v1 
PEF      .UNKNOWN     UNKNOWN        : PEF:litodensidad:rC:NONE:v0 (auto-composite)
POTA     .wtpercent   UNKNOWN        : POTA:PETROWORKS:rC:NONE:v1 
RHOB     .g/cm3       UNKNOWN        : RHOB:litodensidad:rC:NONE:v0 (auto-composite)
THOR     .ppm         UNKNOWN        : THOR:PETROWORKS:rC:NONE:v1 
URAN     .ppm         UNKNOWN        : URAN:PETROWORKS:rC:NONE:v1 
~A     DEPTH         CALI          CGR         DRHO           DT           GR          ILD          ILM          LLD          LLS         MSFL         NPHI          PEF         POTA         RHOB         THOR         URAN
# ...
   2630.4275       9.6510      14.4150       0.0097      51.2340      24.6740    -999.2500    -999.2500    7660.5464     376.8169    1025.1991       0.0441       4.9460       0.0046       2.6948       1.0676       1.0120
   2630.5798       9.2190      13.3307       0.0054      53.0604      23.5480    -999.2500    -999.2500    5029.4805     224.6067     671.7554       0.0411       4.9753       0.0045       2.6852       0.8792       1.0078
   2630.7322       9.1902      12.9538       0.0358      54.4147      24.6949    -999.2500    -999.2500    4259.1470     195.5513       2.6695       0.0533       5.0476       0.0042       2.6454       0.9451       1.1582
   2630.8845       9.4052      11.0219       0.0248      55.8462      22.8904    -999.2500    -999.2500    3966.1589     181.1349       2.6799       0.0764       5.1405       0.0035       2.5851       0.8520       1.1707
   2631.0371       9.6414      12.5479       0.0335      54.6396      25.8065    -999.2500    -999.2500    3689.3772     183.6468       2.7014       0.0839       5.2392       0.0036       2.5869       1.0896       1.3078
   2631.1895       9.3630      12.5133       0.0529      53.1721      25.5693    -999.2500    -999.2500    6478.8525     396.3173      13.2635       0.0821       4.9932       0.0039       2.6541       0.9872       1.2879
   2631.3418       9.2190      12.1703       0.0650      53.1634      25.2856    -999.2500    -999.2500    8298.7119     560.2883      26.6099       0.0742       4.8881       0.0036       2.7135       1.0327       1.2937
   2631.4941       9.2190      12.6254       0.0217      72.6879      25.6382    -999.2500    -999.2500    7833.7695     541.1308    2000.0000       0.0705       4.6622       0.0037       2.6837       1.0862       1.2836
   2631.6467       9.2862      11.1042       0.0322      75.2837      23.3757    -999.2500    -999.2500    6794.6724     494.9937     516.1534       0.0742       4.8661       0.0032       2.7020       0.9945       1.2105
   2631.7991       9.1998       8.9695       0.0198      75.5054      19.9514    -999.2500    -999.2500    6246.9717     389.0871     118.8750       0.0733       4.9463       0.0033       2.6957       0.5115       1.0833
   2631.9514       9.1902      11.2929       0.0163      53.6651      24.0941    -999.2500    -999.2500    5668.3911     347.0980      17.1785       0.0757       4.7226       0.0037       2.7043       0.8198       1.2627
   2632.1038       9.1902      11.2992       0.0122      55.9024      24.4223    -999.2500    -999.2500    5836.2183     383.5818    1916.1597       0.0704       4.7018       0.0037       2.6953       0.7910       1.2945
   2632.2563       9.3438      11.6039       0.0130      56.5563      24.8204    -999.2500    -999.2500    6106.3857     422.4712      11.0234       0.0674       4.9744       0.0039       2.6661       0.8031       1.3037
   2632.4087       9.5230       8.5640       0.0400      83.7899      21.4637    -999.2500    -999.2500    7866.4199     530.3271       6.0419       0.0684       5.0752       0.0030       2.6303       0.5332       1.2725
   2632.5610       9.1518       9.0247       0.0820      83.4704      22.0367    -999.2500    -999.2500    6500.5400     501.8392       6.3011       0.0861       4.7913       0.0033       2.6147       0.4895       1.2835
   2632.7134       9.0622      11.6968       0.1066      76.3006      26.0980    -999.2500    -999.2500    5688.5576     427.6198      11.8861       0.0962       4.9030       0.0037       2.5333       0.8961       1.4206
   2632.8657       9.0558      18.6332       0.0940      75.7081      31.1232    -999.2500    -999.2500    5348.3354     416.7855       1.6668       0.1192       5.0381       0.0057       2.4473       1.4827       1.2320
   2633.0183       9.0654      20.4073       0.0833      78.8842      33.0830    -999.2500    -999.2500    5571.1069     418.8654      10.9847       0.1088       5.4492       0.0063       2.4481       1.6148       1.2504
   2633.1707       9.0750      19.1781       0.0595      52.5927      31.3330    -999.2500    -999.2500    5396.2061     393.5499    2000.0000       0.0866       5.3705       0.0057       2.5310       1.6081       1.1990
   2633.3230       9.1614      19.7979       0.0443      50.3290      32.5054    -999.2500    -999.2500    8755.3613     651.9448    1616.5862       0.0504       5.0940       0.0057       2.6730       1.7593       1.2535
   2633.4753       9.0654      15.9305       0.0099      51.2027      27.7438    -999.2500    -999.2500   10928.7139     854.4401    1612.4465       0.0447       4.5991       0.0038       2.6993       1.7333       1.1653
   2633.6279       9.1134      13.5577       0.0072      50.5167      23.5629    -999.2500    -999.2500   10155.7373     811.9863    1871.7847       0.0484       4.2020       0.0034       2.7158       1.4117       0.9869
   2633.7803       9.0846      12.1911       0.0037      49.9825      21.1925    -999.2500    -999.2500    9661.9043     713.4306    2000.0000       0.0451       4.4265       0.0033       2.7136       1.1409       0.8879
   2633.9326       9.1038      12.0679       0.0075      49.9593      20.6752    -999.2500    -999.2500    9571.8867     581.6146    2000.0000       0.0407       4.7976       0.0036       2.7065       0.9888       0.8490
   2634.0850       9.0846      13.9534       0.0052      49.7527      23.0213    -999.2500    -999.2500    8108.6929     458.9433    1923.5477       0.0346       5.4515       0.0044       2.6952       1.0777       0.8945
   2634.2375       9.0750      14.8494       0.0017      49.1581      24.2765    -999.2500    -999.2500    7660.5054     430.7919     103.5231       0.0376       5.1506       0.0048       2.6814       1.1008       0.9299
   2634.3899       9.1710      15.0216       0.0076      50.3170      24.7861    -999.2500    -999.2500    7900.8364     443.1768     111.5411       0.0404       5.1429       0.0047       2.7027       1.1658       0.9632
   2634.5422       9.1422      15.1275       0.0105      49.4542      25.3076    -999.2500    -999.2500    8663.4678     490.8945      59.5275       0.0446       4.8131       0.0045       2.7081       1.2876       1.0042
   2634.6946       9.1518      15.6868       0.0096      49.1810      26.7738    -999.2500    -999.2500    9869.5352     578.5719     107.6761       0.0434       4.7671       0.0043       2.7188       1.4821       1.0936
   2634.8469       9.0942      15.0405       0.0104      49.2150      25.7985    -999.2500    -999.2500   10504.3135     653.7391     811.7197       0.0404       5.0456       0.0040       2.7228       1.4568       1.0612
   2634.9995       9.0750      17.0177       0.0142      49.3540      28.8013    -999.2500    -999.2500   11275.7822     717.5110    1754.3105       0.0386       5.1912       0.0044       2.7306       1.7190       1.1624
   2635.1519       9.0654      17.7277       0.0138      49.1649      29.3845    -999.2500    -999.2500   11160.8145     677.3568    1602.0813       0.0384       5.2073       0.0047       2.7261       1.7199       1.1498
   2635.3042       9.0654      19.9186       0.0120      49.7324      32.1926    -999.2500    -999.2500   10001.1260     579.5667    1912.4768       0.0411       4.9727       0.0052       2.7184       1.9521       1.2107
   2635.4565       9.1038      17.3834       0.0110      50.6777      28.7732    -999.2500    -999.2500   10260.9883     555.3770    1897.9139       0.0425       4.7971       0.0049       2.7179       1.5609       1.1235
   2635.6091       9.0558      15.7552       0.0123      49.5004      26.5328    -999.2500    -999.2500   10908.4600     564.3625     915.4458       0.0492       4.8100       0.0045       2.7242       1.3884       1.0631
   2635.7615       9.0750      12.3109       0.0103      48.7083      22.0011    -999.2500    -999.2500   11497.5156     593.0593     353.6563       0.0486       4.5701       0.0026       2.7244       1.4778       0.9559
   2635.9138       9.0462      13.7820       0.0120      48.7276      24.7277    -999.2500    -999.2500   12497.9648     701.7626    2000.0000       0.0467       4.8105       0.0027       2.7397       1.7505       1.0797
