#------------------------------------------------------------------------------
#
#   Created by  : [OpenWorks] Log Export Utility (LEXP)
#   Created on  : 2016-05-23 11:51:27
#   Project     : CANT971
#   User        : R5K
#   Interpreter : PEP
#
#------------------------------------------------------------------------------
~VERSION INFORMATION
VERS. 2.0 : CWLS Log ASCII Standard - version 2.0
WRAP.  NO : One line per depth step
~WELL INFORMATION
#MNEMONIC   .UNIT                                           VALUE :DESCRIPTION
#------------------------------------------------------------------------------
STRT        .M                                           294.1315 :START DEPTH
STOP        .M                                          1758.8479 :STOP DEPTH
STEP        .M                                             0.1524 :STEP
NULL        .                                           -999.2500 :NULL VALUE
COMP        .                                   PEMEX EXPL & PROD :COMPANY
WELL        .                                                1084 :WELL
FLD         .                                           CANTARELL :FIELD
LOC         .                                             UNKNOWN :LOCATION
CNTY        .                                      CD. DEL CARMEN :COUNTY
STAT        .                                            CAMPECHE :STATE
CTRY        .                                              MEXICO :COUNTRY
SRVC        .                                             UNKNOWN :SERVICE COMPANY
DATE        .                                             UNKNOWN :LOG DATE
UWI         .                                          3060000213 :UNIQUE WELL ID
XCOORD      .                                       596992.320000 :SURFACE X
YCOORD      .                                      2148289.820000 :SURFACE Y
LAT         .                                           19.427749 :LATITUDE
LON         .                                          -92.076116 :LONGITUDE
ELEV        .M                                            27.5000 :SURFACE ELEV
ELEV_TYPE   .                                                  KB :ELEV TYPE
~CURVE INFORMATION
#MNEMONIC.UNIT        API CODE       : CURVE DESCRIPTION
#------------------------------------------------------------------------------
DEPTH    .M                          : Measured Depth
CALI     .in          UNKNOWN        : CALI:registros:rC:NONE:v0 (auto-composite)
DRHO     .g/cm3       UNKNOWN        : DRHO:registros:rC:NONE:v0 (auto-composite)
DT       .us/ft       UNKNOWN        : DT:registros:rC:NONE:v0 (auto-composite)
GR       .api         UNKNOWN        : GR:registros:rC:NONE:v0 (auto-composite)
ILD      .ohmm        UNKNOWN        : ILD:registros:rC:NONE:v0 (auto-composite)
NPHI     .v/v_decimal UNKNOWN        : NPHI:registros:rC:NONE:v0 (auto-composite)
RHOB     .g/cm3       UNKNOWN        : RHOB:registros:rC:NONE:v0 (auto-composite)
~A     DEPTH         CALI         DRHO           DT           GR          ILD         NPHI         RHOB
# ...
   1315.0591      15.2589       0.2900     121.6439      81.8501       1.3960    -999.2500       2.3985
   1315.2115      15.4980       0.2900     122.7650      81.7300       1.3750    -999.2500       2.3970
   1315.3639      16.2212       0.2885     125.2906      81.1682       1.3650    -999.2500       2.3835
   1315.5164      16.9450       0.2870     127.8100      80.6050       1.3550    -999.2500       2.3700
   1315.6687      17.1149       0.2785     126.5786      79.6387       1.3450    -999.2500       2.3715
   1315.8210      17.2850       0.2700     125.3500      78.6700       1.3350    -999.2500       2.3730
   1315.9735      17.3575       0.2715     126.1862      79.2492       1.3225    -999.2500       2.3780
   1316.1259      17.4300       0.2730     127.0200      79.8300       1.3100    -999.2500       2.3830
   1316.2783      17.3945       0.2765     126.8697      79.4828       1.3100    -999.2500       2.3905
   1316.4307      17.3590       0.2800     126.7200      79.1350       1.3100    -999.2500       2.3980
   1316.5831      17.1995       0.2815     127.2189      76.6740       1.3115    -999.2500       2.4140
   1316.7355      17.0400       0.2830     127.7160      74.2100       1.3130    -999.2500       2.4300
   1316.8879      17.1985       0.2880     129.7815      74.4049       1.3165    -999.2500       2.4550
   1317.0403      17.3570       0.2930     131.8400      74.6000       1.3200    -999.2500       2.4800
   1317.1927      17.8190       0.2965     130.7011      75.3289       1.3170    -999.2500       2.4745
   1317.3451      18.2810       0.3000     129.5660      76.0590       1.3140    -999.2500       2.4690
   1317.4976      18.3605       0.2985     122.8223      76.8963       1.2920    -999.2500       2.4395
   1317.6499      18.4400       0.2970     116.1000      77.7350       1.2700    -999.2500       2.4100
   1317.8022      18.4400       0.2885     116.2497      80.0505       1.2700    -999.2500       2.4100
   1317.9547      18.4400       0.2800     116.3990      82.3700       1.2700    -999.2500       2.4100
   1318.1071      18.4350       0.2815     117.6588      82.2906       1.2715    -999.2500       2.4100
   1318.2595      18.4300       0.2830     118.9150      82.2110       1.2730    -999.2500       2.4100
   1318.4119      18.4300       0.2865     121.6098      81.2415       1.2790    -999.2500       2.4100
   1318.5643      18.4300       0.2900     124.2970      80.2700       1.2850    -999.2500       2.4100
   1318.7167      18.4300       0.2900     125.4455      80.3464       1.2940    -999.2500       2.4115
   1318.8691      18.4300       0.2900     126.5910      80.4230       1.3030    -999.2500       2.4130
   1319.0215      18.4300       0.2950     128.2326      80.7711       1.3105    -999.2500       2.4165
   1319.1740      18.4300       0.3000     129.8700      81.1200       1.3180    -999.2500       2.4200
   1319.3263      18.4300       0.2950     129.3389      81.0396       1.3305    -999.2500       2.4215
   1319.4788      18.4300       0.2900     128.8090      80.9590       1.3430    -999.2500       2.4230
   1319.6311      18.4300       0.2915     126.7822      79.2616       1.3490    -999.2500       2.4265
   1319.7834      18.4300       0.2930     124.7600      77.5600       1.3550    -999.2500       2.4300
   1319.9359      18.4300       0.2965     125.3659      77.5755       1.3665    -999.2500       2.4150
   1320.0883      18.4300       0.3000     125.9700      77.5910       1.3780    -999.2500       2.4000
   1320.2407      18.4300       0.2850     130.2879      77.9297       1.3970    -999.2500       2.4025
   1320.3931      18.4300       0.2700     134.5900      78.2690       1.4160    -999.2500       2.4050
   1320.5455      18.4300       0.2715     133.9093      80.0883       1.4445    -999.2500       2.4125
   1320.6979      18.4300       0.2730     133.2310      81.9100       1.4730    -999.2500       2.4200
   1320.8503      18.4300       0.2815     127.5609      81.9075       1.4970    -999.2500       2.4150
   1321.0027      18.4300       0.2900     121.9100      81.9050       1.5210    -999.2500       2.4100
   1321.1552      18.4300       0.2885     121.9981      81.6672       1.5370    -999.2500       2.4100
   1321.3075      18.4300       0.2870     122.0860      81.4290       1.5530    -999.2500       2.4100
   1321.4600      18.4300       0.2785     123.8658      80.0257       1.5590    -999.2500       2.4100
   1321.6123      18.4300       0.2700     125.6400      78.6200       1.5650    -999.2500       2.4100
   1321.7646      18.4300       0.2800     125.2719      79.3444       1.5750    -999.2500       2.4150
   1321.9171      18.4300       0.2900     124.9050      80.0700       1.5850    -999.2500       2.4200
   1322.0695      18.4300       0.2800     123.7959      79.7563       1.5950    -999.2500       2.4100
   1322.2219      18.4300       0.2700     122.6900      79.4420       1.6050    -999.2500       2.4000
   1322.3743      18.4300       0.2715     124.3673      78.4170       1.6150    -999.2500       2.4015
   1322.5267      18.4300       0.2730     126.0400      77.3900       1.6250    -999.2500       2.4030
   1322.6791      18.4300       0.2790     125.8708      77.7366       1.6350    -999.2500       2.4080
   1322.8315      18.4300       0.2850     125.7020      78.0840       1.6450    -999.2500       2.4130
   1322.9839      18.4350       0.2925     124.1941      79.9249       1.6540    -999.2500       2.4265
   1323.1364      18.4400       0.3000     122.6900      81.7700       1.6630    -999.2500       2.4400
   1323.2887      18.4550       0.2975     123.6762      81.7675       1.6665    -999.2500       2.4350
   1323.4410      18.4700       0.2950     124.6600      81.7650       1.6700    -999.2500       2.4300
   1323.5935      18.4700       0.2725     124.5469      81.4569       1.6685    -999.2500       2.4325
   1323.7458      18.4700       0.2500     124.4340      81.1480       1.6670    -999.2500       2.4350
   1323.8983      18.4700       0.2525     124.0124      79.9166       1.6585    -999.2500       2.4475
   1324.0507      18.4700       0.2550     123.5920      78.6820       1.6500    -999.2500       2.4600
   1324.2031      18.4700       0.2625     123.3025      77.5426       1.6525    -999.2500       2.4575
   1324.3555      18.4700       0.2700     123.0140      76.4000       1.6550    -999.2500       2.4550
   1324.5079      18.4700       0.2685     122.6499      76.4764       1.6650    -999.2500       2.4425
   1324.6603      18.4700       0.2670     122.2870      76.5530       1.6750    -999.2500       2.4300
   1324.8127      18.4700       0.2620     120.6658      76.8383       1.6865    -999.2500       2.4315
   1324.9651      18.4700       0.2570     119.0500      77.1240       1.6980    -999.2500       2.4330
   1325.1176      18.4700       0.2485     119.2348      77.7570       1.7105    -999.2500       2.4365
   1325.2699      18.4700       0.2400     119.4190      78.3910       1.7230    -999.2500       2.4400
   1325.4222      18.4675       0.2415     120.4661      80.1490       1.7265    -999.2500       2.4415
   1325.5747      18.4650       0.2430     121.5100      81.9100       1.7300    -999.2500       2.4430
   1325.7271      18.4510       0.2480     121.3798      81.5553       1.7300    -999.2500       2.4490
   1325.8795      18.4370       0.2530     121.2500      81.2000       1.7300    -999.2500       2.4550
   1326.0319      18.3365       0.2580     120.8394      79.0371       1.7300    -999.2500       2.4625
   1326.1843      18.2360       0.2630     120.4300      76.8700       1.7300    -999.2500       2.4700
   1326.3367      17.7131       0.2680     121.0819      77.2556       1.7275    -999.2500       2.4675
   1326.4891      17.1900       0.2730     121.7320      77.6420       1.7250    -999.2500       2.4650
   1326.6415      17.3849       0.2815     124.1582      79.0714       1.7150    -999.2500       2.4550
