#------------------------------------------------------------------------------
#
#   Created by  : [OpenWorks] Log Export Utility (LEXP)
#   Created on  : 2016-05-23 11:56:01
#   Project     : CANT971
#   User        : R5K
#   Interpreter : PEP
#
#------------------------------------------------------------------------------
~VERSION INFORMATION
VERS. 2.0 : CWLS Log ASCII Standard - version 2.0
WRAP.  NO : One line per depth step
~WELL INFORMATION
#MNEMONIC   .UNIT                                           VALUE :DESCRIPTION
#------------------------------------------------------------------------------
STRT        .M                                          1572.0055 :START DEPTH
STOP        .M                                          3732.1230 :STOP DEPTH
STEP        .M                                             0.1524 :STEP
NULL        .                                           -999.2500 :NULL VALUE
COMP        .                                             UNKNOWN :COMPANY
WELL        .                                               428-V :WELL
FLD         .                                             UNKNOWN :FIELD
LOC         .                                             UNKNOWN :LOCATION
CNTY        .                                             UNKNOWN :COUNTY
STAT        .                                             UNKNOWN :STATE
CTRY        .                                             UNKNOWN :COUNTRY
SRVC        .                                             UNKNOWN :SERVICE COMPANY
DATE        .                                             UNKNOWN :LOG DATE
UWI         .                                               428-V :UNIQUE WELL ID
XCOORD      .                                            0.000000 :SURFACE X
YCOORD      .                                            0.000000 :SURFACE Y
LAT         .                                            0.000000 :LATITUDE
LON         .                                            0.000000 :LONGITUDE
ELEV        .M                                             0.0000 :SURFACE ELEV
ELEV_TYPE   .                                                  KB :ELEV TYPE
~CURVE INFORMATION
#MNEMONIC .UNIT        API CODE       : CURVE DESCRIPTION
#------------------------------------------------------------------------------
DEPTH     .M                          : Measured Depth
CALIH-LWD .inches      UNKNOWN        : CALIH-LWD:PETROWORKS:rC:NONE:v5 
CALIV-LWD .inches      UNKNOWN        : CALIV-LWD:PETROWORKS:rC:NONE:v5 
CGR       .API         UNKNOWN        : CGR:Espectrometria:rC:NONE:v0 (auto-composite)
DRHO-LWD  .g/cm3       UNKNOWN        : DRHO-LWD:PETROWORKS:rC:NONE:v5 
DT        .us/ft       UNKNOWN        : DT:sonico:rC:NONE:v0 (auto-composite)
GR        .API         UNKNOWN        : GR:Espectrometria:rC:NONE:v0 (auto-composite)
GR-LWD    .API         UNKNOWN        : GR-LWD:PETROWORKS:rC:NONE:v3 
ILD-LWD   .ohm.m       UNKNOWN        : ILD-LWD:PETROWORKS:rC:NONE:v2 
ILM-LWD   .ohm.m       UNKNOWN        : ILM-LWD:PETROWORKS:rC:NONE:v2 
LLD-LWD   .ohm.m       UNKNOWN        : LLD-LWD:registros-LWD:rC:NONE:v0 (auto-composite)
LLS-LWD   .ohm.m       UNKNOWN        : LLS-LWD:registros-LWD:rC:NONE:v0 (auto-composite)
MSFL-LWD  .ohm.m       UNKNOWN        : MSFL-LWD:registros-LWD:rC:NONE:v0 (auto-composite)
NPHI-LWD  .v/v_decimal UNKNOWN        : NPHI-LWD:PETROWORKS:rC:NONE:v5 
PEF-LWD   .b/elec      UNKNOWN        : PEF-LWD:PETROWORKS:rC:NONE:v5 
POTA      .wtpercent   UNKNOWN        : POTA:Espectrometria:rC:NONE:v0 (auto-composite)
RHOB-LWD  .g/cm3       UNKNOWN        : RHOB-LWD:PETROWORKS:rC:NONE:v5 
THOR      .UNKNOWN     UNKNOWN        : THOR:Espectrometria:rC:NONE:v0 (auto-composite)
URAN      .UNKNOWN     UNKNOWN        : URAN:Espectrometria:rC:NONE:v0 (auto-composite)
~A     DEPTH    CALIH-LWD    CALIV-LWD          CGR     DRHO-LWD           DT           GR       GR-LWD      ILD-LWD      ILM-LWD      LLD-LWD      LLS-LWD     MSFL-LWD     NPHI-LWD      PEF-LWD         POTA     RHOB-LWD         THOR         URAN
# ...
   2658.3127      10.6679      10.4170    -999.2500       0.0793    -999.2500    -999.2500      22.3151    -999.2500    -999.2500      95.4256     145.5514    -999.2500       0.0352       2.8071    -999.2500       2.9127    -999.2500    -999.2500
   2658.4651      10.6448      10.3987    -999.2500       0.0499    -999.2500    -999.2500      23.3444    -999.2500    -999.2500      92.3206     124.1887    -999.2500       0.0351       2.8188    -999.2500       2.9502    -999.2500    -999.2500
   2658.6174      10.3780      10.1876    -999.2500       0.0487    -999.2500    -999.2500      24.3811    -999.2500    -999.2500      77.4961      93.0317    -999.2500       0.0359       3.0899    -999.2500       2.8998    -999.2500    -999.2500
   2658.7698      10.3715      10.1825    -999.2500       0.0511    -999.2500    -999.2500      25.0510    -999.2500    -999.2500      73.8130      95.2424    -999.2500       0.0359       3.0757    -999.2500       2.8791    -999.2500    -999.2500
   2658.9224      10.3715      10.1825    -999.2500       0.0154    -999.2500    -999.2500      25.3945    -999.2500    -999.2500      70.2335      77.1221    -999.2500       0.0370       2.7335    -999.2500       2.8063    -999.2500    -999.2500
   2659.0747      10.3820      10.1497    -999.2500       0.0083    -999.2500    -999.2500      24.2778    -999.2500    -999.2500      69.7503      82.9311    -999.2500       0.0375       2.6980    -999.2500       2.8029    -999.2500    -999.2500
   2659.2271      10.4117       9.9553    -999.2500      -0.0017    -999.2500    -999.2500      23.0978    -999.2500    -999.2500      72.9964      84.0986    -999.2500       0.0397       2.6226    -999.2500       2.7971    -999.2500    -999.2500
   2659.3794      10.2268       9.9697    -999.2500      -0.0084    -999.2500    -999.2500      21.6082    -999.2500    -999.2500      62.0155      73.2029    -999.2500       0.0423       2.6493    -999.2500       2.7159    -999.2500    -999.2500
   2659.5320      10.2414      10.0673    -999.2500      -0.0105    -999.2500    -999.2500      20.8280    -999.2500    -999.2500      96.9330     115.9822    -999.2500       0.0435       2.6617    -999.2500       2.6567    -999.2500    -999.2500
   2659.6843      10.5425      10.4015    -999.2500      -0.0048    -999.2500    -999.2500      20.2849    -999.2500    -999.2500     128.7482     165.4536    -999.2500       0.0467       2.7282    -999.2500       2.5143    -999.2500    -999.2500
   2659.8367      10.6045      10.3944    -999.2500      -0.0020    -999.2500    -999.2500      20.6176    -999.2500    -999.2500      99.2284     161.3988    -999.2500       0.0483       2.7380    -999.2500       2.5226    -999.2500    -999.2500
   2659.9890      10.4092      10.1882    -999.2500       0.0059    -999.2500    -999.2500      20.8608    -999.2500    -999.2500     165.8020     238.8813    -999.2500       0.0520       2.7518    -999.2500       2.6196    -999.2500    -999.2500
   2660.1416      10.2912      10.3948    -999.2500      -0.0008    -999.2500    -999.2500      20.6756    -999.2500    -999.2500     122.8695     134.6426    -999.2500       0.0493       2.7184    -999.2500       2.7420    -999.2500    -999.2500
   2660.2939      10.3853      10.3070    -999.2500       0.0021    -999.2500    -999.2500      19.9485    -999.2500    -999.2500     294.4438     434.3741    -999.2500       0.0482       2.7032    -999.2500       2.7512    -999.2500    -999.2500
   2660.4463      10.6731      10.2198    -999.2500       0.0100    -999.2500    -999.2500      20.0338    -999.2500    -999.2500     199.8069     215.4819    -999.2500       0.0453       2.6636    -999.2500       2.7525    -999.2500    -999.2500
   2660.5986      10.8104      10.2183    -999.2500       0.0095    -999.2500    -999.2500      21.2142    -999.2500    -999.2500     135.0750     201.6509    -999.2500       0.0445       2.6487    -999.2500       2.7516    -999.2500    -999.2500
   2660.7510      11.1037      10.2428    -999.2500       0.0073    -999.2500    -999.2500      22.9585    -999.2500    -999.2500     177.7511     245.3030    -999.2500       0.0455       2.6065    -999.2500       2.7555    -999.2500    -999.2500
   2660.9036      11.1041      10.1868    -999.2500       0.0057    -999.2500    -999.2500      24.6898    -999.2500    -999.2500     153.7798     203.4368    -999.2500       0.0520       2.5667    -999.2500       2.7653    -999.2500    -999.2500
   2661.0559      10.8636      10.2819    -999.2500       0.0052    -999.2500    -999.2500      25.8241    -999.2500    -999.2500     139.1765     181.2035    -999.2500       0.0562       2.5686    -999.2500       2.7360    -999.2500    -999.2500
   2661.2083      10.4885      10.5352    -999.2500       0.0032    -999.2500    -999.2500      27.0555    -999.2500    -999.2500     160.0196     207.9229    -999.2500       0.0621       2.5877    -999.2500       2.6647    -999.2500    -999.2500
   2661.3606      10.7759      10.5191    -999.2500       0.0107    -999.2500    -999.2500      28.1929    -999.2500    -999.2500      94.4925      59.1875    -999.2500       0.0612       2.5747    -999.2500       2.5413    -999.2500    -999.2500
   2661.5132      11.4281      10.7725    -999.2500       0.0762    -999.2500    -999.2500      29.7153    -999.2500    -999.2500     120.6077      51.1784    -999.2500       0.0562       2.4867    -999.2500       2.3123    -999.2500    -999.2500
   2661.6655      11.6224      11.2884    -999.2500       0.1629    -999.2500    -999.2500      31.6604    -999.2500    -999.2500      85.0996     158.6317    -999.2500       0.0512       2.3881    -999.2500       2.2184    -999.2500    -999.2500
   2661.8179      11.1203      11.1288    -999.2500       0.1303    -999.2500    -999.2500      34.7993    -999.2500    -999.2500     106.9344     103.2456    -999.2500       0.0485       2.5030    -999.2500       2.2709    -999.2500    -999.2500
   2661.9702      10.4228      10.8585    -999.2500       0.0621    -999.2500    -999.2500      38.7731    -999.2500    -999.2500      57.7482      79.5899    -999.2500       0.0456       2.6879    -999.2500       2.3485    -999.2500    -999.2500
   2662.1228      10.3551      10.8633    -999.2500       0.0251    -999.2500    -999.2500      42.8915    -999.2500    -999.2500      46.7273      56.3546    -999.2500       0.0441       2.7571    -999.2500       2.4307    -999.2500    -999.2500
   2662.2751      10.2915      10.7377    -999.2500       0.0019    -999.2500    -999.2500      45.2345    -999.2500    -999.2500      61.2742      76.8298    -999.2500       0.0433       2.7584    -999.2500       2.6359    -999.2500    -999.2500
   2662.4275      10.2133      10.5523    -999.2500       0.0094    -999.2500    -999.2500      44.8950    -999.2500    -999.2500      39.2492      45.1255    -999.2500       0.0439       2.6937    -999.2500       2.7816    -999.2500    -999.2500
   2662.5798      10.6690      10.6581    -999.2500       0.0048    -999.2500    -999.2500      42.4772    -999.2500    -999.2500      41.9228      42.6230    -999.2500       0.0419       2.6510    -999.2500       2.7992    -999.2500    -999.2500
   2662.7322      11.1554      10.8138    -999.2500      -0.0031    -999.2500    -999.2500      38.5475    -999.2500    -999.2500      59.0502      46.4918    -999.2500       0.0397       2.6187    -999.2500       2.8029    -999.2500    -999.2500
   2662.8848      11.1886      11.0216    -999.2500      -0.0056    -999.2500    -999.2500      33.7340    -999.2500    -999.2500      35.5823      63.6933    -999.2500       0.0391       2.5955    -999.2500       2.8048    -999.2500    -999.2500
   2663.0371      10.8390      10.9368    -999.2500      -0.0028    -999.2500    -999.2500      28.4532    -999.2500    -999.2500      75.6029      62.9048    -999.2500       0.0387       2.5887    -999.2500       2.8148    -999.2500    -999.2500
   2663.1895      10.5572      10.7037    -999.2500       0.0009    -999.2500    -999.2500      24.6580    -999.2500    -999.2500      34.5608      42.6336    -999.2500       0.0386       2.5966    -999.2500       2.8220    -999.2500    -999.2500
