#------------------------------------------------------------------------------
#
#   Created by  : [OpenWorks] Log Export Utility (LEXP)
#   Created on  : 2016-05-23 11:53:36
#   Project     : CANT971
#   User        : R5K
#   Interpreter : PEP
#
#------------------------------------------------------------------------------
~VERSION INFORMATION
VERS. 2.0 : CWLS Log ASCII Standard - version 2.0
WRAP.  NO : One line per depth step
~WELL INFORMATION
#MNEMONIC   .UNIT                                           VALUE :DESCRIPTION
#------------------------------------------------------------------------------
STRT        .M                                           940.3716 :START DEPTH
STOP        .M                                          3167.2405 :STOP DEPTH
STEP        .M                                             0.1524 :STEP
NULL        .                                           -999.2500 :NULL VALUE
COMP        .                                   PEMEX EXPL & PROD :COMPANY
WELL        .                                                  24 :WELL
FLD         .                                           CANTARELL :FIELD
LOC         .                                             UNKNOWN :LOCATION
CNTY        .                                      CD. DEL CARMEN :COUNTY
STAT        .                                            CAMPECHE :STATE
CTRY        .                                              MEXICO :COUNTRY
SRVC        .                                             UNKNOWN :SERVICE COMPANY
DATE        .                                             UNKNOWN :LOG DATE
UWI         .                                          3060000153 :UNIQUE WELL ID
XCOORD      .                                       598455.290000 :SURFACE X
YCOORD      .                                      2145024.750000 :SURFACE Y
LAT         .                                           19.398172 :LATITUDE
LON         .                                          -92.062351 :LONGITUDE
ELEV        .M                                            26.5400 :SURFACE ELEV
ELEV_TYPE   .                                                  KB :ELEV TYPE
~CURVE INFORMATION
#MNEMONIC.UNIT        API CODE       : CURVE DESCRIPTION
#------------------------------------------------------------------------------
DEPTH    .M                          : Measured Depth
CALI     .inches      UNKNOWN        : CALI:Import:rC:NONE:v0 (auto-composite)
DRHO     .g/cm3       UNKNOWN        : DRHO:Import:rC:NONE:v0 (auto-composite)
DT       .us/ft       UNKNOWN        : DT:Import:rC:NONE:v0 (auto-composite)
GR       .API         UNKNOWN        : GR:Import:rC:NONE:v0 (auto-composite)
ILD      .ohm.m       UNKNOWN        : ILD:Import:rC:NONE:v0 (auto-composite)
LLD      .ohm.m       UNKNOWN        : LLD:Import:rC:NONE:v0 (auto-composite)
LLS      .ohm.m       UNKNOWN        : LLS:Import:rC:NONE:v0 (auto-composite)
MSFL     .ohm.m       UNKNOWN        : MSFL:Import:rC:NONE:v0 (auto-composite)
NPHI     .v/v_decimal UNKNOWN        : NPHI:Import:rC:NONE:v0 (auto-composite)
RHOB     .g/cm3       UNKNOWN        : RHOB:Import:rC:NONE:v0 (auto-composite)
~A     DEPTH         CALI         DRHO           DT           GR          ILD          LLD          LLS         MSFL         NPHI         RHOB
# ...
   2382.6853    -999.2500    -999.2500    -999.2500      15.4956    -999.2500     219.4843     385.8378     288.8461       0.0041    -999.2500
   2382.8376    -999.2500    -999.2500    -999.2500      17.9252    -999.2500     190.4349     251.4171     189.8678       0.0049    -999.2500
   2382.9900    -999.2500    -999.2500    -999.2500      23.0420    -999.2500     199.6954     195.5802     149.3263       0.0053    -999.2500
   2383.1423    -999.2500    -999.2500    -999.2500      28.6448    -999.2500     208.7929     143.5796     111.2858       0.0057    -999.2500
   2383.2947    -999.2500    -999.2500    -999.2500      38.2760    -999.2500     216.5399     123.3806      93.9779       0.0061    -999.2500
   2383.4473    -999.2500    -999.2500    -999.2500      47.4299    -999.2500     220.2575     103.3393      76.9698       0.0067    -999.2500
   2383.5996    -999.2500    -999.2500    -999.2500      52.8447    -999.2500     192.4069      84.5335      62.3119       0.0079    -999.2500
   2383.7520    -999.2500    -999.2500    -999.2500      56.8174    -999.2500     168.4619      68.5884      48.9739       0.0088    -999.2500
   2383.9043    -999.2500    -999.2500    -999.2500      49.2077    -999.2500     175.8847      75.6184      46.2366       0.0080    -999.2500
   2384.0569    -999.2500    -999.2500    -999.2500      42.0588    -999.2500     183.3111      87.7070      47.9462       0.0069    -999.2500
   2384.2092    -999.2500    -999.2500    -999.2500      38.6432    -999.2500     190.7669     140.7831      85.6859       0.0053    -999.2500
   2384.3616    -999.2500    -999.2500    -999.2500      35.3997    -999.2500     201.5572     205.5968     131.0929       0.0040    -999.2500
   2384.5139    -999.2500    -999.2500    -999.2500      33.5620    -999.2500     239.6058     366.3594     239.1762       0.0039    -999.2500
   2384.6665    -999.2500    -999.2500    -999.2500      31.6966    -999.2500     285.6047     546.4352     359.7013       0.0042    -999.2500
   2384.8188    -999.2500    -999.2500    -999.2500      29.6032    -999.2500     397.1756     885.8018     582.8432       0.0038    -999.2500
   2384.9712    -999.2500    -999.2500    -999.2500      27.5199    -999.2500     523.7181    1209.2344     797.7302       0.0030    -999.2500
   2385.1235    -999.2500    -999.2500    -999.2500      25.5224    -999.2500     776.9731    1397.8081     942.7518       0.0013    -999.2500
   2385.2759    -999.2500    -999.2500    -999.2500      23.6894    -999.2500    1014.0928    1579.5447    1079.9888      -0.0002    -999.2500
   2385.4285    -999.2500    -999.2500    -999.2500      23.1711    -999.2500    1122.2621    1706.6396    1155.0139      -0.0005    -999.2500
   2385.5808    -999.2500    -999.2500    -999.2500      23.1145    -999.2500    1225.2700    1810.1444    1184.8508      -0.0005    -999.2500
   2385.7332    -999.2500    -999.2500    -999.2500      26.7799    -999.2500    1286.6659    1723.4604     850.3743      -0.0004    -999.2500
   2385.8855    -999.2500    -999.2500    -999.2500      31.0082    -999.2500    1314.9264    1620.0425     543.4278      -0.0002    -999.2500
   2386.0381    -999.2500    -999.2500    -999.2500      39.8148    -999.2500    1073.6738    1380.5173     460.4012       0.0004    -999.2500
   2386.1904    -999.2500    -999.2500    -999.2500      48.0064    -999.2500     874.4106    1161.0903     396.9070       0.0014    -999.2500
   2386.3428    -999.2500    -999.2500    -999.2500      51.0656    -999.2500    1025.5104    1109.3646     496.3941       0.0028    -999.2500
   2386.4951    -999.2500    -999.2500    -999.2500      53.1699    -999.2500    1143.6017    1055.7445     582.7593       0.0039    -999.2500
   2386.6475    -999.2500    -999.2500    -999.2500      47.2345    -999.2500     983.7587     986.1716     558.6375       0.0039    -999.2500
   2386.8000    -999.2500    -999.2500    -999.2500      41.6613    -999.2500     856.0324     939.7539     558.7113       0.0035    -999.2500
   2386.9524    -999.2500    -999.2500    -999.2500      38.9695    -999.2500     983.7172    1077.4794     751.2032       0.0026    -999.2500
   2387.1047    -999.2500    -999.2500    -999.2500      36.2383    -999.2500    1081.4432    1189.2386     900.9703       0.0019    -999.2500
   2387.2571    -999.2500    -999.2500    -999.2500      33.1910    -999.2500     938.8290    1092.6876     707.9858       0.0019    -999.2500
   2387.4097    -999.2500    -999.2500    -999.2500      30.3758    -999.2500     820.7924    1021.2805     532.9580       0.0018    -999.2500
   2387.5620    -999.2500    -999.2500    -999.2500      29.4691    -999.2500     904.9700    1156.7471     505.6723       0.0011    -999.2500
   2387.7144    -999.2500    -999.2500    -999.2500      28.7758    -999.2500     987.1949    1274.3835     486.1685       0.0003    -999.2500
   2387.8667    -999.2500    -999.2500    -999.2500      29.8528    -999.2500    1053.2090    1243.9993     531.2686      -0.0001    -999.2500
   2388.0193    -999.2500    -999.2500    -999.2500      31.0296    -999.2500    1093.3435    1211.1787     558.6501      -0.0004    -999.2500
   2388.1716    -999.2500    -999.2500    -999.2500      32.9897    -999.2500     930.4389    1159.2432     447.0193      -0.0004    -999.2500
   2388.3240    -999.2500    -999.2500    -999.2500      34.3195    -999.2500     790.1340    1099.8202     341.5769      -0.0003    -999.2500
   2388.4763    -999.2500    -999.2500    -999.2500      30.6600    -999.2500     828.6765     981.1445     285.1081      -0.0002    -999.2500
   2388.6287    -999.2500    -999.2500    -999.2500      27.1710    -999.2500     852.8151     884.2228     230.2279      -0.0001    -999.2500
   2388.7812    -999.2500    -999.2500    -999.2500      25.0659    -999.2500     760.0806     963.8134     188.2385      -0.0000    -999.2500
   2388.9336    -999.2500    -999.2500    -999.2500      23.3018    -999.2500     672.8246    1017.9310     154.0869       0.0000    -999.2500
   2389.0859    -999.2500    -999.2500    -999.2500      24.3289    -999.2500     630.4175     863.5177     184.0974      -0.0002    -999.2500
   2389.2383    -999.2500    -999.2500    -999.2500      25.3728    -999.2500     599.4807     750.0519     218.4078      -0.0004    -999.2500
   2389.3909    -999.2500    -999.2500    -999.2500      26.5564    -999.2500     663.2870     974.8047     288.2342      -0.0005    -999.2500
   2389.5432    -999.2500    -999.2500    -999.2500      27.6544    -999.2500     720.4732    1158.7589     380.7996      -0.0004    -999.2500
   2389.6956    -999.2500    -999.2500    -999.2500      28.0280    -999.2500     721.5462     996.8952     666.1044       0.0001    -999.2500
   2389.8479    -999.2500    -999.2500    -999.2500      28.4044    -999.2500     705.1370     835.3655     895.3555       0.0004    -999.2500
   2390.0005    -999.2500    -999.2500    -999.2500      28.8042    -999.2500     548.8145     676.5092     675.9972       0.0003    -999.2500
   2390.1528    -999.2500    -999.2500    -999.2500      29.0474    -999.2500     401.6481     519.2518     467.1628       0.0001    -999.2500
   2390.3052    -999.2500    -999.2500    -999.2500      28.0253    -999.2500     328.4057     374.9052     343.2947       0.0003    -999.2500
   2390.4575    -999.2500    -999.2500    -999.2500      27.0679    -999.2500     259.1584     240.0405     226.3479       0.0005    -999.2500
   2390.6099    -999.2500    -999.2500    -999.2500      26.6369    -999.2500     222.4527     182.4106     165.7771       0.0011    -999.2500
   2390.7625    -999.2500    -999.2500    -999.2500      26.2289    -999.2500     190.1494     133.6181     113.9015       0.0016    -999.2500
   2390.9148    -999.2500    -999.2500    -999.2500      26.0130    -999.2500     194.6350     158.6752     134.6865       0.0021    -999.2500
   2391.0671    -999.2500    -999.2500    -999.2500      25.9454    -999.2500     200.0229     185.1502     155.3172       0.0026    -999.2500
