#------------------------------------------------------------------------------
#
#   Created by  : [OpenWorks] Log Export Utility (LEXP)
#   Created on  : 2016-05-11 12:45:43
#   Project     : CANT971
#   User        : R5K
#   Interpreter : PEP
#
#------------------------------------------------------------------------------
~VERSION INFORMATION
VERS. 2.0 : CWLS Log ASCII Standard - version 2.0
WRAP.  NO : One line per depth step
~WELL INFORMATION
#MNEMONIC   .UNIT                                           VALUE :DESCRIPTION
#------------------------------------------------------------------------------
STRT        .M                                            80.3144 :START DEPTH
STOP        .M                                          1350.4160 :STOP DEPTH
STEP        .M                                             0.1524 :STEP
NULL        .                                           -999.2500 :NULL VALUE
COMP        .                                   PEMEX EXPL & PROD :COMPANY
WELL        .                                         CANTARELL-3 :WELL
FLD         .                                           CANTARELL :FIELD
LOC         .                                             UNKNOWN :LOCATION
CNTY        .                                      CD. DEL CARMEN :COUNTY
STAT        .                                            CAMPECHE :STATE
CTRY        .                                              MEXICO :COUNTRY
SRVC        .                                             UNKNOWN :SERVICE COMPANY
DATE        .                                             UNKNOWN :LOG DATE
UWI         .                                          3060000139 :UNIQUE WELL ID
XCOORD      .                                       600825.370000 :SURFACE X
YCOORD      .                                      2145118.460000 :SURFACE Y
LAT         .                                           19.398901 :LATITUDE
LON         .                                          -92.039777 :LONGITUDE
ELEV        .M                                            27.7000 :SURFACE ELEV
ELEV_TYPE   .                                                  KB :ELEV TYPE
~CURVE INFORMATION
#MNEMONIC.UNIT        API CODE       : CURVE DESCRIPTION
#------------------------------------------------------------------------------
DEPTH    .M                          : Measured Depth
CALI     .inches      UNKNOWN        : CALI:Import:rC:NONE:v0 (auto-composite)
DRHO     .g/cm3       UNKNOWN        : DRHO:Import:rC:NONE:v0 (auto-composite)
DT       .us/ft       UNKNOWN        : DT:Import:rC:NONE:v0 (auto-composite)
GR       .API         UNKNOWN        : GR:Import:rC:NONE:v0 (auto-composite)
ILD      .ohm.m       UNKNOWN        : ILD:Import:rC:NONE:v0 (auto-composite)
NPHI     .v/v_decimal UNKNOWN        : NPHI:Import:rC:NONE:v0 (auto-composite)
RHOB     .g/cm3       UNKNOWN        : RHOB:Import:rC:NONE:v0 (auto-composite)
SP       .mV          UNKNOWN        : SP:Import:rC:NONE:v0 (auto-composite)
~A     DEPTH         CALI         DRHO           DT           GR          ILD         NPHI         RHOB           SP
# ...
   1152.9056      15.9655       0.0200      98.5790      40.0021       1.2045       0.3093       2.3485     135.3270
   1153.0580      15.9880       0.0250      99.2141      40.0550       1.1500       0.3118       2.3540     135.3470
   1153.2104      15.9935       0.0235      99.8460      40.6270       1.0690       0.3167       2.3495     135.4155
   1153.3628      15.9990       0.0220     102.2991      41.1970       0.9880       0.3235       2.3450     135.4840
   1153.5153      16.0170       0.0225     104.7400      41.0102       0.9150       0.3317       2.3265     135.7123
   1153.6676      16.0350       0.0230     107.5598      40.8240       0.8420       0.3400       2.3080     135.9410
   1153.8199      16.0480       0.0280     110.3660      40.9527       0.7965       0.3466       2.2494     136.4501
   1153.9724      16.0610       0.0330     114.8170      41.0810       0.7510       0.3532       2.1910     136.9600
   1154.1248      16.0966       0.0195     119.2470      41.8667       0.7550       0.3612       2.1935     136.8676
   1154.2772      16.1320       0.0060     125.7715      42.6500       0.7590       0.3667       2.1960     136.7750
   1154.4296      16.1035       0.0060     132.2660      44.3605       0.7765       0.3650       2.2175     135.8793
   1154.5820      16.0750       0.0060     128.9215      46.0660       0.7940       0.3569       2.2390     134.9820
   1154.7344      16.0850       0.0085     125.5920      46.0435       0.8215       0.3418       2.3021     135.0969
   1154.8868      16.0950       0.0110     125.8841      46.0210       0.8490       0.3280       2.3650     135.2120
   1155.0392      16.1551       0.0200     126.1750      45.7850       0.9175       0.3246       2.3640     136.0166
   1155.1917      16.2150       0.0290     127.2994      45.5500       0.9860       0.3283       2.3630     136.8230
   1155.3440      16.2060       0.0350     128.4190      44.9202       0.9855       0.3375       2.3570     136.8160
   1155.4965      16.1970       0.0410     128.1865      44.2930       0.9850       0.3464       2.3510     136.8090
   1155.6488      16.1975       0.0385     127.9550      43.9072       0.9810       0.3489       2.3385     136.3172
   1155.8011      16.1980       0.0360     126.4595      43.5230       0.9770       0.3481       2.3260     135.8250
   1155.9536      16.1960       0.0240     124.9700      43.1758       0.9680       0.3464       2.3300     135.8445
   1156.1060      16.1940       0.0120     125.4705      42.8300       0.9590       0.3440       2.3340     135.8640
   1156.2584      16.1750       0.0155     125.9690      42.9071       0.9610       0.3406       2.3255     135.8350
   1156.4108      16.1560       0.0190     129.2925      42.9840       0.9630       0.3372       2.3170     135.8060
   1156.5632      16.1004       0.0175     132.6010      43.8300       0.9715       0.3344       2.3170     135.8225
   1156.7156      16.0450       0.0160     132.5268      44.6730       0.9800       0.3299       2.3170     135.8390
   1156.8680      15.9573       0.0165     132.4530      44.2878       0.9845       0.3207       2.3225     136.3512
   1157.0204      15.8700       0.0170     129.9592      43.9040       0.9890       0.3128       2.3280     136.8640
   1157.1729      15.8775       0.0275     127.4780      43.9085       0.9900       0.3126       2.3541     136.6367
   1157.3252      15.8850       0.0380     117.8477      43.9130       0.9910       0.3147       2.3800     136.4090
   1157.4775      15.9080       0.0370     108.2650      43.9786       0.9925       0.3144       2.3780     136.5119
   1157.6300      15.9310       0.0360     109.6849      44.0440       0.9940       0.3143       2.3760     136.6150
   1157.7823      15.9315       0.0310     111.0980      44.2052       0.9960       0.3169       2.3590     138.3625
   1157.9348      15.9320       0.0260     119.1018      44.3660       0.9980       0.3196       2.3420     140.1130
   1158.0872      15.9435       0.0200     127.0680      44.3915       1.0010       0.3198       2.3455     139.7658
   1158.2396      15.9550       0.0140     127.0064      44.4170       1.0040       0.3178       2.3490     139.4180
   1158.3920      15.9260       0.0150     126.9450      44.2968       1.0120       0.3127       2.3605     138.2392
   1158.5444      15.8970       0.0160     126.5992      44.1770       1.0200       0.3083       2.3720     137.0580
   1158.6968      15.8975       0.0210     126.2550      43.7918       1.0375       0.3080       2.3895     137.3247
   1158.8492      15.8980       0.0260     125.2679      43.4080       1.0550       0.3091       2.4070     137.5920
   1159.0016      15.8990       0.0350     124.2850      42.9611       1.0665       0.3093       2.4060     137.2304
   1159.1541      15.9000       0.0440     122.4727      42.5160       1.0780       0.3106       2.4050     136.8680
   1159.3064      15.8980       0.0430     120.6680      42.7425       1.0950       0.3161       2.3960     135.1093
   1159.4587      15.8960       0.0420     121.4240      42.9680       1.1120       0.3214       2.3870     133.3480
   1159.6112      15.8870       0.0290     122.1770      43.6799       1.1535       0.3219       2.3584     133.9083
   1159.7635      15.8780       0.0160     125.7841      44.3890       1.1950       0.3189       2.3300     134.4690
   1159.9160      15.8665       0.0180     129.3770      44.5819       1.1875       0.3118       2.3330     134.4005
   1160.0684      15.8550       0.0200     128.6336      44.7740       1.1800       0.3053       2.3360     134.3320
   1160.2208      15.8385       0.0315     127.8930      44.6042       1.1820       0.3047       2.3465     133.9997
   1160.3732      15.8220       0.0430     122.6347      44.4350       1.1840       0.3074       2.3570     133.6670
   1160.5256      15.7859       0.0420     117.4000      43.5384       1.1935       0.3124       2.3555     134.8113
   1160.6780      15.7500       0.0410     120.3932      42.6450       1.2030       0.3175       2.3540     135.9570
   1160.8304      15.7705       0.0360     123.3710      42.7622       1.1940       0.3207       2.3450     135.8651
   1160.9828      15.7910       0.0310     123.0727      42.8790       1.1850       0.3237       2.3360     135.7730
   1161.1353      15.7820       0.0230     122.7760      42.7833       1.1450       0.3281       2.3215     135.2674
   1161.2876      15.7730       0.0150     124.6877      42.6880       1.1050       0.3331       2.3070     134.7610
   1161.4399      15.7805       0.0130     126.5900      42.0805       1.0430       0.3382       2.2995     134.8309
   1161.5924      15.7880       0.0110     125.0142      41.4750       0.9810       0.3430       2.2920     134.9010
   1161.7448      15.8506       0.0080     123.4460      40.0458       0.9065       0.3474       2.2755     134.8810
   1161.8972      15.9130       0.0050     124.9791      38.6210       0.8320       0.3573       2.2590     134.8610
   1162.0496      15.8845      -0.0050     126.5050      36.0402       0.7405       0.3810       2.1568     134.3285
   1162.2020      15.8560      -0.0150     137.4910      33.4670       0.6490       0.4028       2.0550     133.7950
   1162.3544      15.8560      -0.0130     148.4270      33.5176       0.6525       0.4057       2.0690     133.9828
   1162.5068      15.8560      -0.0110     146.8019      33.5680       0.6560       0.3980       2.0830     134.1710
   1162.6592      15.8871      -0.0035     145.1840      34.2194       0.6895       0.3828       2.1426     135.2469
   1162.8116      15.9180       0.0040     134.8638      34.8680       0.7230       0.3657       2.2020     136.3250
   1162.9640      15.9155       0.0105     124.5880      36.3867       0.8390       0.3512       2.2606     136.1481
   1163.1165      15.9130       0.0170     126.1558      37.8990       0.9550       0.3400       2.3190     135.9710
   1163.2688      15.8940       0.0145     127.7170      37.7783       1.1364       0.3345       2.3180     135.3172
