#------------------------------------------------------------------------------
#
#   Created by  : [OpenWorks] Log Export Utility (LEXP)
#   Created on  : 2016-05-12 17:01:16
#   Project     : CANT971
#   User        : R5K
#   Interpreter : PEP
#
#------------------------------------------------------------------------------
~VERSION INFORMATION
VERS. 2.0 : CWLS Log ASCII Standard - version 2.0
WRAP.  NO : One line per depth step
~WELL INFORMATION
#MNEMONIC   .UNIT                                           VALUE :DESCRIPTION
#------------------------------------------------------------------------------
STRT        .M                                          4907.2798 :START DEPTH
STOP        .M                                          5813.7549 :STOP DEPTH
STEP        .M                                             0.1524 :STEP
NULL        .                                           -999.2500 :NULL VALUE
COMP        .                                   PEMEX EXPL & PROD :COMPANY
WELL        .                                            3026D_ST :WELL
FLD         .                                           CANTARELL :FIELD
LOC         .                                             UNKNOWN :LOCATION
CNTY        .                                      CD. DEL CARMEN :COUNTY
STAT        .                                            CAMPECHE :STATE
CTRY        .                                              MEXICO :COUNTRY
SRVC        .                                             UNKNOWN :SERVICE COMPANY
DATE        .                                             UNKNOWN :LOG DATE
UWI         .                                      3060000820D_ST :UNIQUE WELL ID
XCOORD      .                                       601717.200000 :SURFACE X
YCOORD      .                                      2148573.570000 :SURFACE Y
LAT         .                                           19.430078 :LATITUDE
LON         .                                          -92.031099 :LONGITUDE
ELEV        .M                                            30.0000 :SURFACE ELEV
ELEV_TYPE   .                                                  KB :ELEV TYPE
~CURVE INFORMATION
#MNEMONIC.UNIT        API CODE       : CURVE DESCRIPTION
#------------------------------------------------------------------------------
DEPTH    .M                          : Measured Depth
CALI     .inches      UNKNOWN        : CALI:registros:rC:NONE:v0 (auto-composite)
CGR      .API         UNKNOWN        : CGR:registros:rC:NONE:v0 (auto-composite)
DRHO     .g/cm3       UNKNOWN        : DRHO:registros:rC:NONE:v0 (auto-composite)
DT       .us/ft       UNKNOWN        : DT:registros:rC:NONE:v0 (auto-composite)
GR       .API         UNKNOWN        : GR:registros:rC:NONE:v0 (auto-composite)
ILD      .ohm.m       UNKNOWN        : ILD:registros:rC:NONE:v0 (auto-composite)
ILM      .ohm.m       UNKNOWN        : ILM:registros:rC:NONE:v0 (auto-composite)
NPHI     .UNKNOWN     UNKNOWN        : NPHI:registros:rC:NONE:v0 (auto-composite)
PEF      .b/elec      UNKNOWN        : PEF:registros:rC:NONE:v0 (auto-composite)
POTA     .UNKNOWN     UNKNOWN        : POTA:registros:rC:NONE:v0 (auto-composite)
RHOB     .g/cm3       UNKNOWN        : RHOB:registros:rC:NONE:v0 (auto-composite)
THOR     .ppm         UNKNOWN        : THOR:registros:rC:NONE:v0 (auto-composite)
URAN     .ppm         UNKNOWN        : URAN:registros:rC:NONE:v0 (auto-composite)
~A     DEPTH         CALI          CGR         DRHO           DT           GR          ILD          ILM         NPHI          PEF         POTA         RHOB         THOR         URAN
# ...
   5148.6812       7.0380      78.7202       0.0185      82.3949     114.0298       2.0555       2.0578       0.2743      10.2652       0.0252       2.5872      13.0428       5.1464
   5148.8340       7.1447      93.5773       0.0234      84.0565     127.8161       2.0197       2.0257       0.2805      10.1171       0.0354       2.6106      13.1867       4.9903
   5148.9863       7.1493      92.4699       0.0251      86.0380     126.6281       2.2251       2.2304       0.2792      10.8652       0.0348       2.6280      13.1055       4.9786
   5149.1387       7.1410      91.2987       0.0251      86.6470     124.6760       2.2402       2.2547       0.2808      10.6614       0.0344       2.6341      12.9047       4.8647
   5149.2910       7.1091      87.9487       0.0195      87.4407     118.5117       2.3210       2.3404       0.2791       9.5825       0.0339       2.6268      12.1074       4.4546
   5149.4434       7.1611      92.0908       0.0147      85.3961     124.0910       2.3995       2.4221       0.2849       8.8716       0.0334       2.6171      13.5841       4.6640
   5149.5957       7.1852      91.9131       0.0144      86.0011     124.1766       2.3853       2.4168       0.2772       8.7236       0.0326       2.6181      13.8457       4.7024
   5149.7480       7.1846      93.8292       0.0164      84.5479     126.0905       2.4316       2.4624       0.2798       9.9174       0.0331       2.6253      14.2145       4.7021
   5149.9004       7.1740      90.3683       0.0146      83.2640     120.5528       2.4861       2.5193       0.2778      10.1858       0.0327       2.6284      13.3707       4.3994
   5150.0532       7.1872      91.8116       0.0135      83.4279     122.1424       2.5219       2.5562       0.2832      10.3621       0.0335       2.6321      13.4287       4.4207
   5150.2056       7.1849      93.4439       0.0141      82.5769     123.9274       2.5821       2.6194       0.2911       9.9006       0.0343       2.6260      13.6068       4.4430
   5150.3579       7.1845      93.1053       0.0139      82.0995     122.8887       2.6110       2.6512       0.2878       8.5568       0.0342       2.6284      13.5275       4.3409
   5150.5103       7.2054      79.2392       0.0128      81.2363     112.7312       2.8852       2.9340       0.2739       7.8443       0.0301       2.6364      11.0961       4.8815
   5150.6626       7.3837      77.8195       0.0147      79.4570     111.1655       3.1341       3.1934       0.2582       7.1508       0.0296       2.6633      10.8840       4.8602
   5150.8149       7.3850      75.7788       0.0141      77.1576     108.0486       3.2598       3.3264       0.2449       7.4673       0.0287       2.6831      10.6667       4.7033
   5150.9673       7.4058      74.4577       0.0108      73.9665     106.2095       3.3164       3.3835       0.2341       7.5202       0.0282       2.6898      10.4644       4.6278
   5151.1196       7.3971      72.3736       0.0072      73.4491     103.0856       3.4957       3.5721       0.2152       7.4443       0.0271       2.6832      10.3235       4.4763
   5151.2720       7.4760      73.1111       0.0070      72.4410     104.2867       3.3540       3.4138       0.2079       7.0458       0.0269       2.6831      10.5914       4.5438
   5151.4248       7.4598      73.8754       0.0072      72.3719     105.6089       3.3163       3.3640       0.2005       7.4259       0.0270       2.6844      10.8128       4.6252
   5151.5771       7.4616      72.8976       0.0130      72.3374     103.6650       3.6081       3.6642       0.1980       6.6276       0.0265       2.6909      10.7140       4.4844
   5151.7295       7.5976      70.8296       0.0243      72.3028     100.4991       3.2656       3.3139       0.1977      10.1062       0.0258       2.7046      10.4083       4.3243
   5151.8818       7.3904      77.2834       0.0247      74.1254     110.9688       3.0759       3.1151       0.2004      13.6361       0.0286       2.7027      11.1407       4.9097
   5152.0342       2.9030      76.3024      -0.0329      73.0280     109.2669       3.1441       3.1917       0.2091      15.5077       0.0281       2.9243      11.0441       4.8046
   5152.1865       7.5869      75.8671      -0.0298      71.2343     108.5354       3.2323       3.2828       0.2132      14.5930       0.0279       2.9003      11.0299       4.7614
   5152.3389       7.5869      77.5887      -0.0356      69.2585     111.0839       3.3182       3.3744       0.2193      10.1036       0.0284       2.8671      11.3107       4.8819
   5152.4912       7.5264      78.1283      -0.1026      70.1366     111.1913       3.0327       3.0798       0.2236       7.5193       0.0288       2.5275      11.3026       4.8189
   5152.6436       7.5151      76.6186      -0.0971      71.8419     108.7153       2.8900       2.9345       0.2258       6.4343       0.0285       2.5280      11.0022       4.6781
   5152.7964       7.8191      85.8264       0.0320      70.4415     116.4950       2.8217       2.8660       0.2288       6.6000       0.0314       2.6591      12.5419       4.4699
   5152.9487       7.7697      84.9621       0.0217      72.7202     115.4047       2.9013       2.9444       0.2327       6.7456       0.0310       2.6522      12.4217       4.4370
   5153.1011       7.7917      85.0072       0.0168      73.4102     115.5322       2.9245       2.9680       0.2317       5.9444       0.0310       2.6453      12.4492       4.4490
   5153.2534       7.7687      86.0152       0.0125      73.0577     117.0524       2.9028       2.9445       0.2336       5.8696       0.0314       2.6365      12.5943       4.5237
   5153.4058       7.9443      84.9781       0.0079      73.4001     115.3646       2.8479       2.8843       0.2302       5.9864       0.0310       2.6307      12.4255       4.4288
   5153.5581       7.9308      84.5695       0.0080      74.6645     115.3265       2.7567       2.7858       0.2323       6.5825       0.0309       2.6353      12.3865       4.4828
   5153.7104       7.8537      82.7685       0.0115      74.5531     112.6398       2.8196       2.8472       0.2307       6.7047       0.0300       2.6331      12.2041       4.3537
   5153.8628       7.9767      83.1890       0.0129      75.0119     112.7789       2.8560       2.8791       0.2292       7.5091       0.0300       2.6254      12.3456       4.3127
   5154.0156       8.0361      82.7029       0.0123      73.5734     112.3483       2.9245       2.9431       0.2304       8.4150       0.0297       2.6228      12.3027       4.3208
   5154.1680       8.2212      81.1087       0.0152      72.8791     109.6132       3.0330       3.0478       0.2404       9.3536       0.0290       2.6299      12.1512       4.1545
   5154.3203       8.2168      80.2890       0.0205      71.2033     108.2144       3.1559       3.1681       0.2512       7.9073       0.0288       2.6539      11.9530       4.0701
   5154.4727       8.0280      79.4612       0.0160      71.6465     106.7851       3.2222       3.2316       0.2618       7.2993       0.0285       2.6789      11.8525       3.9825
   5154.6250       8.0171      79.7812       0.0116      70.9191     106.9876       3.2146       3.2220       0.2643       6.5242       0.0288       2.6879      11.8276       3.9653
   5154.7773       8.1479      80.7761       0.0091      71.7682     108.1036       3.1271       3.1375       0.2644       6.5325       0.0294       2.6945      11.8610       3.9830
   5154.9297       8.0441      77.9346       0.0012      72.7557     102.5953       3.0682       3.0682       0.2574       5.9883       0.0289       2.6884      11.2109       3.5943
   5155.0820       8.1401      78.8358      -0.0013      72.3310     103.6342       3.1166       3.1126       0.2400       5.6898       0.0293       2.7103      11.3047       3.6144
   5155.2344       8.2172      75.1309      -0.0015      71.2303      97.2985       3.1662       3.1559       0.2305       6.3900       0.0274       2.7153      11.0089       3.2309
