#------------------------------------------------------------------------------
#
#   Created by  : [OpenWorks] Log Export Utility (LEXP)
#   Created on  : 2016-05-23 11:57:04
#   Project     : CANT971
#   User        : R5K
#   Interpreter : PEP
#
#------------------------------------------------------------------------------
~VERSION INFORMATION
VERS. 2.0 : CWLS Log ASCII Standard - version 2.0
WRAP.  NO : One line per depth step
~WELL INFORMATION
#MNEMONIC   .UNIT                                           VALUE :DESCRIPTION
#------------------------------------------------------------------------------
STRT        .M                                           125.9451 :START DEPTH
STOP        .M                                          3005.5432 :STOP DEPTH
STEP        .M                                             0.1524 :STEP
NULL        .                                           -999.2500 :NULL VALUE
COMP        .                                   PEMEX EXPL & PROD :COMPANY
WELL        .                                                 66A :WELL
FLD         .                                           CANTARELL :FIELD
LOC         .                                             UNKNOWN :LOCATION
CNTY        .                                      CD. DEL CARMEN :COUNTY
STAT        .                                            CAMPECHE :STATE
CTRY        .                                              MEXICO :COUNTRY
SRVC        .                                             UNKNOWN :SERVICE COMPANY
DATE        .                                             UNKNOWN :LOG DATE
UWI         .                                          3060000173 :UNIQUE WELL ID
XCOORD      .                                       599692.990000 :SURFACE X
YCOORD      .                                      2143036.380000 :SURFACE Y
LAT         .                                           19.380143 :LATITUDE
LON         .                                          -92.050669 :LONGITUDE
ELEV        .M                                            26.7400 :SURFACE ELEV
ELEV_TYPE   .                                                  KB :ELEV TYPE
~CURVE INFORMATION
#MNEMONIC.UNIT        API CODE       : CURVE DESCRIPTION
#------------------------------------------------------------------------------
DEPTH    .M                          : Measured Depth
CALI     .UNKNOWN     UNKNOWN        : CALI:UNKNOWN:rC:NONE:v0 (auto-composite)
DT       .us/ft       UNKNOWN        : DT:DT:rC:NONE:v0 (auto-composite)
GR       .API         UNKNOWN        : GR:UNKNOWN:rC:NONE:v0 (auto-composite)
GR-ENT   .API         UNKNOWN        : GR-ENT:porosidad-entubado:rC:NONE:v0 (auto-composite)
GR-LWD   .UNKNOWN     UNKNOWN        : GR-LWD:GR-LWD:rC:NONE:v0 (auto-composite)
ILD      .UNKNOWN     UNKNOWN        : ILD:UNKNOWN:rC:NONE:v0 (auto-composite)
LLD      .UNKNOWN     UNKNOWN        : LLD:UNKNOWN:rC:NONE:v0 (auto-composite)
LLD-LWD  .UNKNOWN     UNKNOWN        : LLD-LWD:LLD-LWD:rC:NONE:v0 (auto-composite)
LLS      .UNKNOWN     UNKNOWN        : LLS:UNKNOWN:rC:NONE:v0 (auto-composite)
LLS-LWD  .UNKNOWN     UNKNOWN        : LLS-LWD:LLS-LWD:rC:NONE:v0 (auto-composite)
MSFL     .UNKNOWN     UNKNOWN        : MSFL:UNKNOWN:rC:NONE:v0 (auto-composite)
MSFL-LWD .UNKNOWN     UNKNOWN        : MSFL-LWD:MSFL-LWD:rC:NONE:v0 (auto-composite)
NPHI     .v/v_decimal UNKNOWN        : NPHI:PETROWORKS:rC:NONE:v1 
NPHI-ENT .UNKNOWN     UNKNOWN        : NPHI-ENT:porosidad-entubado:rC:NONE:v0 (auto-composite)
RHOB     .g/cm3       UNKNOWN        : RHOB:UNKNOWN:rC:NONE:v0 (auto-composite)
~A     DEPTH         CALI           DT           GR       GR-ENT       GR-LWD          ILD          LLD      LLD-LWD          LLS      LLS-LWD         MSFL     MSFL-LWD         NPHI     NPHI-ENT         RHOB
# ...
   2265.6411       6.1499      53.0541      31.2962      24.1400      31.1600    -999.2500   18503.4668    1977.4052    8877.1689     132.3358     180.2719      54.8389       0.0754       0.0916       2.6638
   2265.7935       6.1329      54.3876      33.2663      25.9930      30.0385    -999.2500   12556.1553    2000.0000    6606.9819     260.5200      75.5001      41.1781       0.0792       0.0930       2.6337
   2265.9458       6.0879      54.8046      35.0755      27.7599      29.8676    -999.2500    7618.7461    2000.0000    4534.6533    1356.0189      47.7766      44.0189       0.0839       0.0983       2.6186
   2266.0984       6.0039      53.9243      36.6553      29.6349      31.7200    -999.2500    4120.5684    1001.2500    2744.2959     959.7200     129.8561      28.3100       0.0893       0.1041       2.6158
   2266.2507       5.9550      53.2668      36.5136      30.0513      35.4256    -999.2500    2116.7341      94.0125    1771.4570      25.9804     236.4515      11.5264       0.0965       0.1031       2.6041
   2266.4031       5.9550      52.9240      33.9737      29.2482      33.9086    -999.2500    2250.1265      56.4570    1967.8424      19.8595     378.1096      11.0284       0.1057       0.1053       2.6192
   2266.5554       5.9550      52.7683      32.7244      28.2220      35.0760    -999.2500    3340.4653      76.3340    3265.0078      30.7509     496.5065      19.0703       0.1050       0.1239       2.6255
   2266.7080       5.9550      52.8779      33.2792      27.1277      35.1595    -999.2500    5768.5234      97.9784    6100.9570      41.1029     582.3861      25.4379       0.0895       0.1418       2.6938
   2266.8604       5.9550      53.3628      33.7337      26.7719      31.6474    -999.2500    8039.3838     421.5473    7723.9287     366.4416     746.5051     241.3454       0.0783       0.1374       2.7210
   2267.0127       5.9550      54.3779      34.0466      26.6881      28.4463    -999.2500   10088.2549    1729.9235    7633.9761    1721.5249    1021.1110    1143.7651       0.0725       0.1143       2.7390
   2267.1650       5.9550      54.8973      34.3466      26.6801      32.6417    -999.2500   10782.7080     701.4283    7400.5518     674.7144    1124.4703     429.3743       0.0695       0.0942       2.7265
   2267.3174       5.9550      54.7142      34.6285      26.5335      35.8725    -999.2500    9557.6787     127.1259    6963.7988      81.0196     985.1384      40.6535       0.0703       0.0889       2.7148
   2267.4700       5.9550      54.4599      34.2749      25.9707      34.6649    -999.2500    8956.7861     214.7569    6614.5493     121.2673     784.4086      64.7932       0.0718       0.0913       2.7156
   2267.6223       5.9550      54.1051      33.0174      25.0635      27.8078    -999.2500    9243.5781     579.3776    6389.7524     277.2348     496.3550     135.3756       0.0740       0.0934       2.7140
   2267.7747       5.9644      53.9727      31.6085      24.2992      20.4204    -999.2500    9019.4531    1237.9105    5943.2686     451.5428     265.8120     182.7638       0.0772       0.0964       2.7062
   2267.9270       5.9869      54.1558      29.9833      22.5668      21.5387    -999.2500    8066.0757    1844.5079    5180.3623    1315.7527     117.3558     197.1892       0.0817       0.0988       2.6933
   2268.0796       5.9967      54.9715      28.8461      21.5059      25.1373    -999.2500    6931.2642    2000.0000    4382.2407    1829.1392      65.3482     247.0352       0.0838       0.1040       2.6904
   2268.2319       5.9887      56.6817      28.3943      21.2838      24.2197    -999.2500    5541.6592    2000.0000    3534.6648    1712.6504     148.7861     250.3754       0.0830       0.1081       2.6715
   2268.3843       5.9780      58.3672      28.5615      21.6077      21.6269    -999.2500    4968.0903    2000.0000    3138.7935     454.5009     265.8361     102.2646       0.0809       0.1063       2.6830
   2268.5366       5.9635      60.0179      29.6010      22.5723      22.6410    -999.2500    5544.5894    2000.0000    3379.5254    1358.9941     430.2566      64.4607       0.0770       0.1018       2.6867
   2268.6892       5.9550      61.6247      30.5263      23.5673      17.7385    -999.2500    7123.0244    2000.0000    4179.2891    1988.7213     523.3579     500.9944       0.0734       0.1016       2.7094
   2268.8416       5.9550      63.1693      31.2900      23.8774      18.0721    -999.2500   10118.5576    1477.5387    5769.7251    1473.2738     515.5883     931.5176       0.0702       0.1043       2.7177
   2268.9939       5.9550      63.8449      31.8319      23.9436      24.4754    -999.2500   12748.5078     237.1028    6685.8252     221.0638     455.9806     146.2469       0.0695       0.1043       2.7231
   2269.1462       5.9550      63.2951      32.0591      23.8108      35.0051    -999.2500   14859.5469      77.1309    6644.7690      35.6178     322.7938      16.6924       0.0719       0.1035       2.7227
   2269.2986       5.9550      62.4511      32.3042      24.0878      34.9800    -999.2500   14431.4893     299.6200    6032.6504     142.2200     213.6795      54.1000       0.0746       0.1039       2.7192
   2269.4512       5.9550      61.1906      32.5750      24.6254      25.7808    -999.2500   10362.5566     364.7700    4601.6714     184.6809     139.0832      70.0572       0.0774       0.1045       2.7074
   2269.6035       5.9550      60.6958      32.6331      25.3255      18.8618    -999.2500    7022.2012     364.7700    3381.8091     192.6615     100.5770      72.3579       0.0784       0.1047       2.7045
   2269.7559       5.9550      61.2810      32.3932      25.6085      19.9628    -999.2500    4702.9595     380.1950    2457.8315     166.7746     112.6518      50.5695       0.0776       0.1048       2.6869
   2269.9082       5.9550      61.9174      32.5878      25.8259      23.9830    -999.2500    3069.5955     567.5220    1796.9569     279.6658     123.8632      72.0728       0.0771       0.1004       2.6915
   2270.0608       5.9550      62.6261      33.3934      25.9921      28.6042    -999.2500    2400.9250     585.9028    1506.1395     300.8733     133.8604      77.0444       0.0774       0.0995       2.6922
   2270.2131       5.9550      63.1888      33.9781      26.1000      27.4282    -999.2500    2101.1868     684.4602    1406.6421     339.8839     128.8621      75.3144       0.0786       0.1016       2.6873
   2270.3655       5.9550      63.5451      34.2507      26.1795      32.2490    -999.2500    2322.2046    1114.8864    1577.1973     520.6265     102.6974      92.6592       0.0807       0.1046       2.6796
   2270.5178       5.9550      63.7795      35.0628      26.1256      29.8535    -999.2500    2790.7200     519.2700    1872.4436     224.4448     117.2947      73.3095       0.0832       0.1113       2.6744
   2270.6704       5.9550      63.8410      36.6441      26.0295      24.1785    -999.2500    3612.1543     519.2700    2345.4934     206.3734     190.0168      61.2897       0.0859       0.1180       2.6676
   2270.8228       5.9550      64.4447      37.2491      26.1721      24.5635    -999.2500    4051.6423     984.4015    2594.3235     361.5817     289.3612      71.7666       0.0883       0.1254       2.6683
   2270.9751       5.9550      65.8141      36.4569      26.5602      22.2195    -999.2500    3944.5479    1009.6525    2522.2852     370.5832     426.8032      70.6884       0.0903       0.1295       2.6735
   2271.1274       5.9550      65.7666      35.3095      27.0520      18.8263    -999.2500    3644.4409     723.8957    2363.5054     567.1552     457.5992      50.3932       0.0924       0.1345       2.6694
   2271.2798       5.9550      63.7108      33.6652      26.7004      15.5858    -999.2500    3074.3647    1709.1976    2083.3989    1681.4895     339.2278      65.4718       0.0947       0.1341       2.6564
   2271.4324       5.9550      62.5070      32.0184      25.7498      14.8493    -999.2500    2549.5447     619.4656    1803.2845     556.6315     248.1612      44.0595       0.0968       0.1320       2.6457
