#------------------------------------------------------------------------------
#
#   Created by  : [OpenWorks] Log Export Utility (LEXP)
#   Created on  : 2016-05-23 11:55:46
#   Project     : CANT971
#   User        : R5K
#   Interpreter : PEP
#
#------------------------------------------------------------------------------
~VERSION INFORMATION
VERS. 2.0 : CWLS Log ASCII Standard - version 2.0
WRAP.  NO : One line per depth step
~WELL INFORMATION
#MNEMONIC   .UNIT                                           VALUE :DESCRIPTION
#------------------------------------------------------------------------------
STRT        .M                                           292.5192 :START DEPTH
STOP        .M                                          2727.7188 :STOP DEPTH
STEP        .M                                             0.1524 :STEP
NULL        .                                           -999.2500 :NULL VALUE
COMP        .                                   PEMEX EXPL & PROD :COMPANY
WELL        .                                                  39 :WELL
FLD         .                                           CANTARELL :FIELD
LOC         .                                             UNKNOWN :LOCATION
CNTY        .                                      CD. DEL CARMEN :COUNTY
STAT        .                                            CAMPECHE :STATE
CTRY        .                                              MEXICO :COUNTRY
SRVC        .                                             UNKNOWN :SERVICE COMPANY
DATE        .                                             UNKNOWN :LOG DATE
UWI         .                                          3060000161 :UNIQUE WELL ID
XCOORD      .                                       603360.280000 :SURFACE X
YCOORD      .                                      2145098.760000 :SURFACE Y
LAT         .                                           19.398594 :LATITUDE
LON         .                                          -92.015639 :LONGITUDE
ELEV        .M                                            27.1400 :SURFACE ELEV
ELEV_TYPE   .                                                  KB :ELEV TYPE
~CURVE INFORMATION
#MNEMONIC.UNIT        API CODE       : CURVE DESCRIPTION
#------------------------------------------------------------------------------
DEPTH    .M                          : Measured Depth
CALI     .inches      UNKNOWN        : CALI:Import:rC:NONE:v0 (auto-composite)
DRHO     .g/cm3       UNKNOWN        : DRHO:Import:rC:NONE:v0 (auto-composite)
DT       .us/ft       UNKNOWN        : DT:Import:rC:NONE:v0 (auto-composite)
GR       .API         UNKNOWN        : GR:Import:rC:NONE:v0 (auto-composite)
ILD      .ohm.m       UNKNOWN        : ILD:Import:rC:NONE:v0 (auto-composite)
LLD      .ohm.m       UNKNOWN        : LLD:Import:rC:NONE:v0 (auto-composite)
LLS      .ohm.m       UNKNOWN        : LLS:Import:rC:NONE:v0 (auto-composite)
MSFL     .ohm.m       UNKNOWN        : MSFL:Import:rC:NONE:v0 (auto-composite)
NPHI     .v/v_decimal UNKNOWN        : NPHI:Import:rC:NONE:v0 (auto-composite)
RHOB     .g/cm3       UNKNOWN        : RHOB:Import:rC:NONE:v0 (auto-composite)
~A     DEPTH         CALI         DRHO           DT           GR          ILD          LLD          LLS         MSFL         NPHI         RHOB
# ...
   1581.2136       0.0000       0.0000      40.0000      55.1919       0.2000       0.2000       0.2000       0.2000      -0.1500       2.0000
   1581.3660       0.0000       0.0000      40.0000      56.3835       0.2000       0.2000       0.2000       0.2000      -0.1500       2.0000
   1581.5184       0.0000       0.0000      40.0000      57.7135       0.2000       0.2000       0.2000       0.2000      -0.1500       2.0000
   1581.6708       0.0000       0.0000      40.0000      60.2811       0.2000       0.2000       0.2000       0.2000      -0.1500       2.0000
   1581.8232       0.0000       0.0000      40.0000      62.8628       0.2000       0.2000       0.2000       0.2000      -0.1500       2.0000
   1581.9756       0.0000       0.0000      40.0000      65.5625       0.2000       0.2000       0.2000       0.2000      -0.1500       2.0000
   1582.1281       0.0000       0.0000      40.0000      67.8136       0.2000       0.2000       0.2000       0.2000      -0.1500       2.0000
   1582.2804       0.0000       0.0000      40.0000      66.2222       0.2000       0.2000       0.2000       0.2000      -0.1500       2.0000
   1582.4327       0.0000       0.0000      40.0000      64.4326       0.2000       0.2000       0.2000       0.2000      -0.1500       2.0000
   1582.5852       0.0000       0.0000      40.0000      61.0412       0.2000       0.2000       0.2000       0.2000      -0.1500       2.0000
   1582.7375       0.0000       0.0000      40.0000      57.7187       0.2000       0.2000       0.2000       0.2000      -0.1500       2.0000
   1582.8900       0.0000       0.0000      40.0000      54.9230       0.2000       0.2000       0.2000       0.2000      -0.1500       2.0000
   1583.0424       0.0000       0.0000      40.0000      52.3206       0.2000       0.2000       0.2000       0.2000      -0.1500       2.0000
   1583.1948       0.0000       0.0000      40.0000      51.2206       0.2000       0.2000       0.2000       0.2000      -0.1500       2.0000
   1583.3472       0.0000       0.0000      40.0000      50.3379       0.2000       0.2000       0.2000       0.2000      -0.1500       2.0000
   1583.4996       0.0000       0.0000      40.0000      51.0568       0.2000       0.2000       0.2000       0.2000      -0.1500       2.0000
   1583.6520       0.0000       0.0000      40.0000      51.7372       0.2000       0.2000       0.2000       0.2000      -0.1500       2.0000
   1583.8044       0.0000       0.0000      40.0000      52.1293       0.2000       0.2000       0.2000       0.2000      -0.1500       2.0000
   1583.9568       0.0000       0.0000      40.0000      52.7577       0.2000       0.2000       0.2000       0.2000      -0.1500       2.0000
   1584.1093       0.0000       0.0000      40.0000      55.0651       0.2000       0.2000       0.2000       0.2000      -0.1500       2.0000
   1584.2616       0.0000       0.0000      40.0000      57.3697       0.2000       0.2000       0.2000       0.2000      -0.1500       2.0000
   1584.4139       0.0000       0.0000      40.0000      59.6548       0.2000       0.2000       0.2000       0.2000      -0.1500       2.0000
   1584.5664       0.0000       0.0000      40.0000      62.0987       0.2000       0.2000       0.2000       0.2000      -0.1500       2.0000
   1584.7188       0.0000       0.0000      40.0000      65.6315       0.2000       0.2000       0.2000       0.2000      -0.1500       2.0000
   1584.8712       0.0000       0.0000      40.0000      68.7616       0.2000       0.2000       0.2000       0.2000      -0.1500       2.0000
   1585.0236       0.0000       0.0000      40.0000      69.2626       0.2000       0.2000       0.2000       0.2000      -0.1500       2.0000
   1585.1760       0.0000       0.0000      40.0000      69.2949       0.2000       0.2000       0.2000       0.2000      -0.1500       2.0000
   1585.3284       0.0000       0.0000      40.0000      66.2219       0.2000       0.2000       0.2000       0.2000      -0.1500       2.0000
   1585.4808       0.0000       0.0000      40.0000      63.1465       0.2000       0.2000       0.2000       0.2000      -0.1500       2.0000
   1585.6332       0.0000       0.0000      40.0000      60.0562       0.2000       0.2000       0.2000       0.2000      -0.1500       2.0000
   1585.7856       0.0000       0.0000      40.0000      56.7252       0.2000       0.2000       0.2000       0.2000      -0.1500       2.0000
   1585.9380       0.0000       0.0000      40.0000      51.9338       0.2000       0.2000       0.2000       0.2000      -0.1500       2.0000
   1586.0905       0.0000       0.0000      40.0000      47.6849       0.2000       0.2000       0.2000       0.2000      -0.1500       2.0000
   1586.2428       0.0000       0.0000      40.0000      46.7527       0.2000       0.2000       0.2000       0.2000      -0.1500       2.0000
   1586.3951       0.0000       0.0000      40.0000      46.3363       0.2000       0.2000       0.2000       0.2000      -0.1500       2.0000
   1586.5476       0.0000       0.0000      40.0000      48.9531       0.2000       0.2000       0.2000       0.2000      -0.1500       2.0000
   1586.7000       0.0000       0.0000      40.0000      52.0637       0.2000       0.2000       0.2000       0.2000      -0.1500       2.0000
   1586.8524       0.0000       0.0000      40.0000      57.9538       0.2000       0.2000       0.2000       0.2000      -0.1500       2.0000
   1587.0048       0.0000       0.0000      40.0000      63.4202       0.2000       0.2000       0.2000       0.2000      -0.1500       2.0000
   1587.1572       0.0000       0.0000      40.0000      66.4712       0.2000       0.2000       0.2000       0.2000      -0.1500       2.0000
   1587.3096       0.0000       0.0000      40.0000      68.7820       0.2000       0.2000       0.2000       0.2000      -0.1500       2.0000
   1587.4620       0.0000       0.0000      40.0000      67.0502       0.2000       0.2000       0.2000       0.2000      -0.1500       2.0000
   1587.6144       0.0000       0.0000      40.0000      65.6046       0.2000       0.2000       0.2000       0.2000      -0.1500       2.0000
   1587.7668       0.0000       0.0000      40.0000      65.7319       0.2000       0.2000       0.2000       0.2000      -0.1500       2.0000
   1587.9192       0.0000       0.0000      40.0000      66.2631       0.2000       0.2000       0.2000       0.2000      -0.1500       2.0000
   1588.0717       0.0000       0.0000      40.0000      68.9365       0.2000       0.2000       0.2000       0.2000      -0.1500       2.0000
   1588.2240       0.0000       0.0000      40.0000      70.9945       0.2000       0.2000       0.2000       0.2000      -0.1500       2.0000
   1588.3763       0.0000       0.0000      40.0000      69.9194       0.2000       0.2000       0.2000       0.2000      -0.1500       2.0000
   1588.5288       0.0000       0.0000      40.0000      68.9479       0.2000       0.2000       0.2000       0.2000      -0.1500       2.0000
   1588.6812       0.0000       0.0000      40.0000      68.5102       0.2000       0.2000       0.2000       0.2000      -0.1500       2.0000
   1588.8336       0.0000       0.0000      40.0000      67.7788       0.2000       0.2000       0.2000       0.2000      -0.1500       2.0000
   1588.9860       0.0000       0.0000      40.0000      65.5942       0.2000       0.2000       0.2000       0.2000      -0.1500       2.0000
   1589.1384       0.0000       0.0000      40.0000      62.9496       0.2000       0.2000       0.2000       0.2000      -0.1500       2.0000
   1589.2908       0.0000       0.0000      40.0000      58.0008       0.2000       0.2000       0.2000       0.2000      -0.1500       2.0000
   1589.4432       0.0000       0.0000      40.0000      54.0478       0.2000       0.2000       0.2000       0.2000      -0.1500       2.0000
   1589.5956       0.0000       0.0000      40.0000      54.8901       0.2000       0.2000       0.2000       0.2000      -0.1500       2.0000
