#------------------------------------------------------------------------------
#
#   Created by  : [OpenWorks] Log Export Utility (LEXP)
#   Created on  : 2016-05-23 11:51:18
#   Project     : CANT971
#   User        : R5K
#   Interpreter : PEP
#
#------------------------------------------------------------------------------
~VERSION INFORMATION
VERS. 2.0 : CWLS Log ASCII Standard - version 2.0
WRAP.  NO : One line per depth step
~WELL INFORMATION
#MNEMONIC   .UNIT                                           VALUE :DESCRIPTION
#------------------------------------------------------------------------------
STRT        .M                                           690.7880 :START DEPTH
STOP        .M                                          2950.1179 :STOP DEPTH
STEP        .M                                             0.1524 :STEP
NULL        .                                           -999.2500 :NULL VALUE
COMP        .                                   PEMEX EXPL & PROD :COMPANY
WELL        .                                                1066 :WELL
FLD         .                                           CANTARELL :FIELD
LOC         .                                             UNKNOWN :LOCATION
CNTY        .                                      CD. DEL CARMEN :COUNTY
STAT        .                                            CAMPECHE :STATE
CTRY        .                                              MEXICO :COUNTRY
SRVC        .                                             UNKNOWN :SERVICE COMPANY
DATE        .                                             UNKNOWN :LOG DATE
UWI         .                                          3060000505 :UNIQUE WELL ID
XCOORD      .                                       596157.670000 :SURFACE X
YCOORD      .                                      2150605.920000 :SURFACE Y
LAT         .                                           19.448718 :LATITUDE
LON         .                                          -92.083948 :LONGITUDE
ELEV        .M                                            30.0000 :SURFACE ELEV
ELEV_TYPE   .                                                  KB :ELEV TYPE
~CURVE INFORMATION
#MNEMONIC.UNIT        API CODE       : CURVE DESCRIPTION
#------------------------------------------------------------------------------
DEPTH    .M                          : Measured Depth
CALI     .inches      UNKNOWN        : CALI:litodensidad:rC:NONE:v0 (auto-composite)
DRHO     .g/cm3       UNKNOWN        : DRHO:litodensidad:rC:NONE:v0 (auto-composite)
DT       .us/ft       UNKNOWN        : DT:DT:rC:NONE:v0 (auto-composite)
GR       .API         UNKNOWN        : GR:UNKNOWN:rC:NONE:v0 (auto-composite)
ILD      .ohmm        UNKNOWN        : ILD:UNKNOWN:rC:NONE:v0 (auto-composite)
ILM      .ohmm        UNKNOWN        : ILM:UNKNOWN:rC:NONE:v0 (auto-composite)
LLD      .ohmm        UNKNOWN        : LLD:UNKNOWN:rC:NONE:v0 (auto-composite)
LLS      .ohmm        UNKNOWN        : LLS:UNKNOWN:rC:NONE:v0 (auto-composite)
MSFL     .ohmm        UNKNOWN        : MSFL:UNKNOWN:rC:NONE:v0 (auto-composite)
NPHI     .v/v_decimal UNKNOWN        : NPHI:PETROWORKS:rC:NONE:v2 
PEF      .b/elec      UNKNOWN        : PEF:litodensidad:rC:NONE:v0 (auto-composite)
RHOB     .g/cm3       UNKNOWN        : RHOB:litodensidad:rC:NONE:v0 (auto-composite)
~A     DEPTH         CALI         DRHO           DT           GR          ILD          ILM          LLD          LLS         MSFL         NPHI          PEF         RHOB
    690.7880    -999.2500    -999.2500    -999.2500      18.9430    2000.0000    2000.0000       0.2000       0.2000       0.2000      -0.1500    -999.2500    -999.2500
    690.9404    -999.2500    -999.2500    -999.2500      18.3978    2000.0000    2000.0000       0.2000       0.2000       0.2000      -0.1500    -999.2500    -999.2500
    691.0928    -999.2500    -999.2500    -999.2500      17.8520    2000.0000    2000.0000       0.2000       0.2000       0.2000      -0.1500    -999.2500    -999.2500
    691.2452    -999.2500    -999.2500    -999.2500      17.5125    2000.0000    2000.0000       0.2000       0.2000       0.2000      -0.1500    -999.2500    -999.2500
    691.3976    -999.2500    -999.2500    -999.2500      17.1740    2000.0000    2000.0000       0.2000       0.2000       0.2000      -0.1500    -999.2500    -999.2500
    691.5500    -999.2500    -999.2500    -999.2500      17.9978    2000.0000    2000.0000       0.2000       0.2000       0.2000      -0.1500    -999.2500    -999.2500
    691.7025    -999.2500    -999.2500    -999.2500      18.8160    2000.0000    2000.0000       0.2000       0.2000       0.2000      -0.1500    -999.2500    -999.2500
    691.8548    -999.2500    -999.2500    -999.2500      19.7068    2000.0000    2000.0000       0.2000       0.2000       0.2000      -0.1500    -999.2500    -999.2500
    692.0072    -999.2500    -999.2500    -999.2500      20.5880    2000.0000    2000.0000       0.2000       0.2000       0.2000      -0.1500    -999.2500    -999.2500
    692.1596    -999.2500    -999.2500    -999.2500      21.9722    2000.0000    1940.8666       0.2000       0.2000       0.2000      -0.1500    -999.2500    -999.2500
    692.3120    -999.2500    -999.2500    -999.2500      23.3200    2000.0000    1871.2168       0.2000       0.2000       0.2000      -0.1500    -999.2500    -999.2500
    692.4644    -999.2500    -999.2500    -999.2500      22.7948    2000.0000     986.0544       0.2000       0.2000       0.2000      -0.1500    -999.2500    -999.2500
    692.6168    -999.2500    -999.2500    -999.2500      22.2760    2000.0000     111.5480       0.2000       0.2000       0.2000      -0.1500    -999.2500    -999.2500
    692.7692    -999.2500    -999.2500    -999.2500      21.8199    2000.0000     790.7092       0.2000       0.2000       0.2000      -0.1500    -999.2500    -999.2500
    692.9216    -999.2500    -999.2500    -999.2500      21.3527    2000.0000    1454.9808       0.2000       0.2000       0.2000      -0.1500    -999.2500    -999.2500
    693.0740    -999.2500    -999.2500    -999.2500      19.9411    2000.0000    1729.6768       0.2000       0.2000       0.2000      -0.1500    -999.2500    -999.2500
    693.2264    -999.2500    -999.2500    -999.2500      18.5427    2000.0000    2000.0000       0.2000       0.2000       0.2000      -0.1500    -999.2500    -999.2500
    693.3788    -999.2500    -999.2500    -999.2500      17.9562    2000.0000    2000.0000       0.2000       0.2000       0.2000      -0.1500    -999.2500    -999.2500
    693.5312    -999.2500    -999.2500    -999.2500      17.4041    2000.0000    2000.0000       0.2000       0.2000       0.2000      -0.1500    -999.2500    -999.2500
    693.6837    -999.2500    -999.2500    -999.2500      18.4530    2000.0000    2000.0000       0.2000       0.2000       0.2000      -0.1500    -999.2500    -999.2500
    693.8360    -999.2500    -999.2500    -999.2500      19.4920    2000.0000    2000.0000       0.2000       0.2000       0.2000      -0.1500    -999.2500    -999.2500
    693.9884    -999.2500    -999.2500    -999.2500      20.1695    2000.0000    2000.0000       0.2000       0.2000       0.2000      -0.1500    -999.2500    -999.2500
    694.1408    -999.2500    -999.2500    -999.2500      20.8499    2000.0000    2000.0000       0.2000       0.2000       0.2000      -0.1500    -999.2500    -999.2500
    694.2932    -999.2500    -999.2500    -999.2500      21.6466    2000.0000    2000.0000       0.2000       0.2000       0.2000      -0.1500    -999.2500    -999.2500
    694.4456    -999.2500    -999.2500    -999.2500      22.4208    2000.0000    2000.0000       0.2000       0.2000       0.2000      -0.1500    -999.2500    -999.2500
    694.5980    -999.2500    -999.2500    -999.2500      22.4787    2000.0000    2000.0000       0.2000       0.2000       0.2000      -0.1500    -999.2500    -999.2500
    694.7504    -999.2500    -999.2500    -999.2500      22.5107    2000.0000    2000.0000       0.2000       0.2000       0.2000      -0.1500    -999.2500    -999.2500
    694.9028    -999.2500    -999.2500    -999.2500      21.6796    2000.0000    2000.0000       0.2000       0.2000       0.2000      -0.1500    -999.2500    -999.2500
    695.0552    -999.2500    -999.2500    -999.2500      20.8474    2000.0000    2000.0000       0.2000       0.2000       0.2000      -0.1500    -999.2500    -999.2500
    695.2076    -999.2500    -999.2500    -999.2500      19.9846    2000.0000    2000.0000       0.2000       0.2000       0.2000      -0.1500    -999.2500    -999.2500
    695.3600    -999.2500    -999.2500    -999.2500      19.1249    2000.0000    2000.0000       0.2000       0.2000       0.2000      -0.1500    -999.2500    -999.2500
    695.5125    -999.2500    -999.2500    -999.2500      18.3384    2000.0000    2000.0000       0.2000       0.2000       0.2000      -0.1500    -999.2500    -999.2500
    695.6648    -999.2500    -999.2500    -999.2500      17.5815    2000.0000    2000.0000       0.2000       0.2000       0.2000      -0.1500    -999.2500    -999.2500
    695.8172    -999.2500    -999.2500    -999.2500      17.5690    2000.0000    2000.0000       0.2000       0.2000       0.2000      -0.1500    -999.2500    -999.2500
    695.9696    -999.2500    -999.2500    -999.2500      17.5435    2000.0000    2000.0000       0.2000       0.2000       0.2000      -0.1500    -999.2500    -999.2500
    696.1220    -999.2500    -999.2500    -999.2500      17.2327    2000.0000    2000.0000       0.2000       0.2000       0.2000      -0.1500    -999.2500    -999.2500
    696.2744    -999.2500    -999.2500    -999.2500      16.9726    2000.0000    2000.0000       0.2000       0.2000       0.2000      -0.1500    -999.2500    -999.2500
    696.4268    -999.2500    -999.2500    -999.2500      17.8649    2000.0000    2000.0000       0.2000       0.2000       0.2000      -0.1500    -999.2500    -999.2500
    696.5792    -999.2500    -999.2500    -999.2500      18.7960    2000.0000    2000.0000       0.2000       0.2000       0.2000      -0.1500    -999.2500    -999.2500
    696.7316    -999.2500    -999.2500    -999.2500      20.5087    2000.0000    2000.0000       0.2000       0.2000       0.2000      -0.1500    -999.2500    -999.2500
    696.8840    -999.2500    -999.2500    -999.2500      22.0925    2000.0000    2000.0000       0.2000       0.2000       0.2000      -0.1500    -999.2500    -999.2500
    697.0364    -999.2500    -999.2500    -999.2500      21.3626    2000.0000    2000.0000       0.2000       0.2000       0.2000      -0.1500    -999.2500    -999.2500
    697.1888    -999.2500    -999.2500    -999.2500      20.6476    2000.0000    2000.0000       0.2000       0.2000       0.2000      -0.1500    -999.2500    -999.2500
    697.3412    -999.2500    -999.2500    -999.2500      20.2088    2000.0000    2000.0000       0.2000       0.2000       0.2000      -0.1500    -999.2500    -999.2500
    697.4937    -999.2500    -999.2500    -999.2500      19.8199    2000.0000    2000.0000       0.2000       0.2000       0.2000      -0.1500    -999.2500    -999.2500
    697.6460    -999.2500    -999.2500    -999.2500      20.2596    2000.0000    2000.0000       0.2000       0.2000       0.2000      -0.1500    -999.2500    -999.2500
    697.7984    -999.2500    -999.2500    -999.2500      20.6631    2000.0000    2000.0000       0.2000       0.2000       0.2000      -0.1500    -999.2500    -999.2500
    697.9508    -999.2500    -999.2500    -999.2500      20.4475    2000.0000    2000.0000       0.2000       0.2000       0.2000      -0.1500    -999.2500    -999.2500
