#------------------------------------------------------------------------------
#
#   Created by  : [OpenWorks] Log Export Utility (LEXP)
#   Created on  : 2016-05-23 11:52:48
#   Project     : CANT971
#   User        : R5K
#   Interpreter : PEP
#
#------------------------------------------------------------------------------
~VERSION INFORMATION
VERS. 2.0 : CWLS Log ASCII Standard - version 2.0
WRAP.  NO : One line per depth step
~WELL INFORMATION
#MNEMONIC   .UNIT                                           VALUE :DESCRIPTION
#------------------------------------------------------------------------------
STRT        .M                                           688.5826 :START DEPTH
STOP        .M                                          3180.0178 :STOP DEPTH
STEP        .M                                             0.1524 :STEP
NULL        .                                           -999.2500 :NULL VALUE
COMP        .                                   PEMEX EXPL & PROD :COMPANY
WELL        .                                               2092D :WELL
FLD         .                                           CANTARELL :FIELD
LOC         .                                             UNKNOWN :LOCATION
CNTY        .                                      CD. DEL CARMEN :COUNTY
STAT        .                                            CAMPECHE :STATE
CTRY        .                                              MEXICO :COUNTRY
SRVC        .                                             UNKNOWN :SERVICE COMPANY
DATE        .                                             UNKNOWN :LOG DATE
UWI         .                                          3060000657 :UNIQUE WELL ID
XCOORD      .                                       601715.500000 :SURFACE X
YCOORD      .                                      2142373.650000 :SURFACE Y
LAT         .                                           19.374053 :LATITUDE
LON         .                                          -92.031447 :LONGITUDE
ELEV        .M                                            30.0000 :SURFACE ELEV
ELEV_TYPEF  .b/elec                                            KB :ELEV TYPE
~CURVE INFORMATION
#MNEMONIC.UNIT        API CODE       : CURVE DESCRIPTION
#------------------------------------------------------------------------------
DEPTH    .M                          : Measured Depth
CALI     .in          UNKNOWN        : CALI:UNKNOWN:rC:NONE:v0 (auto-composite)
CGR      .API         UNKNOWN        : CGR:UNKNOWN:rC:NONE:v0 (auto-composite)
DRHO     .g/cm3       UNKNOWN        : DRHO:UNKNOWN:rC:NONE:v0 (auto-composite)
DT       .us/ft       UNKNOWN        : DT:DT:rC:NONE:v0 (auto-composite)
GR       .API         UNKNOWN        : GR:UNKNOWN:rC:NONE:v0 (auto-composite)
ILD      .ohmm        UNKNOWN        : ILD:UNKNOWN:rC:NONE:v0 (auto-composite)
ILM      .ohmm        UNKNOWN        : ILM:UNKNOWN:rC:NONE:v0 (auto-composite)
LLD      .ohmm        UNKNOWN        : LLD:UNKNOWN:rC:NONE:v0 (auto-composite)
LLS      .ohmm        UNKNOWN        : LLS:UNKNOWN:rC:NONE:v0 (auto-composite)
MSFL     .ohmm        UNKNOWN        : MSFL:UNKNOWN:rC:NONE:v0 (auto-composite)
NPHI     .v/v_decimal UNKNOWN        : NPHI:PETROWORKS:rC:NONE:v1 
PEF      .b/elec      UNKNOWN        : PEF:UNKNOWN:rC:NONE:v0 (auto-composite)
POTA     .wtpercent   UNKNOWN        : POTA:UNKNOWN:rC:NONE:v0 (auto-composite)
RHOB     .g/cm3       UNKNOWN        : RHOB:UNKNOWN:rC:NONE:v0 (auto-composite)
SFLU     .ohmm       UNKNOWN        : SFLU:induccion:rC:NONE:v0 (auto-composite)
THOR     .ppm         UNKNOWN        : THOR:UNKNOWN:rC:NONE:v0 (auto-composite)
URAN     .ppm         UNKNOWN        : URAN:UNKNOWN:rC:NONE:v0 (auto-composite)
~A     DEPTH         CALI          CGR         DRHO           DT           GR          ILD          ILM          LLD          LLS         MSFL         NPHI          PEF         POTA         RHOB         SFLU         THOR         URAN
# ...
   2704.8345      10.2637      18.7143       0.0904      59.3686      49.3576    -999.2500    -999.2500    2246.0483     513.8619     164.3371       0.0915       3.5620       0.0100       2.6423    -999.2500       1.0559       3.3946
   2704.9871      10.2921      18.8034       0.1093      59.8832      47.7475    -999.2500    -999.2500    1979.0087     482.8627     203.2706       0.0912       3.6360       0.0099       2.6570    -999.2500       0.8988       3.2328
   2705.1394      10.3345      16.5098       0.1323      60.2678      44.1579    -999.2500    -999.2500    1693.4802     448.7708     272.8803       0.0881       3.7628       0.0083       2.6810    -999.2500       0.7969       3.0690
   2705.2917      10.2795      12.8603       0.1492      59.6009      38.3670    -999.2500    -999.2500    1413.3660     391.5987     224.3714       0.0835       3.8897       0.0063       2.6940    -999.2500       0.6593       2.8151
   2705.4441      10.1841       8.6481       0.1637      58.3563      31.6624    -999.2500    -999.2500    1135.4990     324.8470     126.8360       0.0782       4.0167       0.0043       2.7025    -999.2500       0.5068       2.5237
   2705.5967      10.0971       7.7879       0.1542      57.3675      29.2833    -999.2500    -999.2500    1003.6722     290.2101     113.7896       0.0758       4.0000       0.0038       2.6923    -999.2500       0.4976       2.3636
   2705.7490      10.0136       8.3246       0.1348      56.5097      28.7070    -999.2500    -999.2500     932.7139     268.9582     135.9575       0.0750       3.9236       0.0041       2.6743    -999.2500       0.5481       2.2581
   2705.9014       9.9996       7.0522       0.1131      56.9910      30.7765    -999.2500    -999.2500    1067.0929     308.5675     153.5877       0.0780       3.8282       0.0036       2.6658    -999.2500       0.3887       2.6232
   2706.0537      10.0146       5.0226       0.0905      57.9748      33.9533    -999.2500    -999.2500    1287.4116     373.6489     169.3188       0.0820       3.7249       0.0028       2.6613    -999.2500       0.1416       3.1853
   2706.2063      10.0375       7.2316       0.0819      58.6116      40.6281    -999.2500    -999.2500    1657.9159     466.3297     201.1286       0.0814       3.6127       0.0042       2.6533    -999.2500       0.2212       3.7145
   2706.3586      10.0634      11.1678       0.0789      59.0206      48.7281    -999.2500    -999.2500    2089.6147     570.2560     239.4898       0.0777       3.4968       0.0067       2.6438    -999.2500       0.4339       4.2304
   2706.5110      10.0243      12.1440       0.0897      59.3728      52.4065    -999.2500    -999.2500    2315.2217     623.9037     267.5690       0.0809       3.4966       0.0073       2.6283    -999.2500       0.3456       4.5155
   2706.6633       9.9583      11.8996       0.1062      59.7931      54.2617    -999.2500    -999.2500    2455.8445     656.8185     291.4082       0.0870       3.5441       0.0071       2.6103    -999.2500       0.1332       4.7054
   2706.8157       9.9489      12.3730       0.1092      60.7943      51.7407    -999.2500    -999.2500    2459.8860     649.6827     271.3012       0.0926       3.5813       0.0060       2.6089    -999.2500       0.5669       4.4355
   2706.9683       9.9629      13.1437       0.1067      62.2032      47.4076    -999.2500    -999.2500    2407.3713     625.9625     232.9968       0.0980       3.6143       0.0046       2.6144    -999.2500       1.2681       3.9752
   2707.1206       9.9741      11.0086       0.1014      61.8370      43.0219    -999.2500    -999.2500    2420.0564     616.5393     236.2684       0.0882       3.6296       0.0035       2.6449    -999.2500       1.1925       3.6904
   2707.2729       9.9840       7.6652       0.0949      60.6480      38.6143    -999.2500    -999.2500    2459.8528     613.0611     256.8281       0.0738       3.6376       0.0025       2.6859    -999.2500       0.7940       3.4787
   2707.4253       9.9944       7.9070       0.0884      58.6022      39.9900    -999.2500    -999.2500    2242.8032     580.5013     234.9438       0.0727       3.5839       0.0028       2.7054    -999.2500       0.9008       3.3846
   2707.5779      10.0049       9.6573       0.0819      56.0759      43.7990    -999.2500    -999.2500    1917.6790     535.7046     195.2001       0.0804       3.5042       0.0035       2.7159    -999.2500       1.2202       3.3400
   2707.7302      10.0771      12.8488       0.0726      57.3542      57.1092    -999.2500    -999.2500    1560.5626     454.4793     161.4278       0.1038       3.3842       0.0048       2.5885    -999.2500       1.6250       4.5665
   2707.8826      10.1746      16.6307       0.0621      60.5288      74.3118    -999.2500    -999.2500    1190.3401     358.3304     130.1019       0.1347       3.2478       0.0063       2.4046    -999.2500       2.0648       6.3137
   2708.0349      10.2200      24.8077       0.0689      68.5604      87.9460    -999.2500    -999.2500    1036.2233     314.8061     114.6647       0.1779       3.2388       0.0099       2.2912    -999.2500       2.7674       7.1509
   2708.1875      10.2440      34.7929       0.0829      78.6527     100.1123    -999.2500    -999.2500     971.0105     292.9310     105.7640       0.2212       3.2823       0.0145       2.2067    -999.2500       3.5780       7.6137
   2708.3398      10.1814      31.6534       0.0965      85.4316      91.0112    -999.2500    -999.2500    1169.7064     359.4756     142.3614       0.2040       3.4099       0.0136       2.2523    -999.2500       2.7697       6.8616
   2708.4922      10.0830      23.0920       0.1100      90.2342      73.1242    -999.2500    -999.2500    1477.4265     462.5475     197.7546       0.1508       3.5722       0.0105       2.3517    -999.2500       1.2925       5.6077
   2708.6445      10.0138      16.7514       0.1341      83.8398      58.7238    -999.2500    -999.2500    1898.7477     608.2355     261.2846       0.1062       3.7969       0.0074       2.5407    -999.2500       1.0325       4.6470
   2708.7969       9.9568      11.3392       0.1626      72.8147      45.7809    -999.2500    -999.2500    2367.5603     771.7394     328.2162       0.0691       4.0478       0.0044       2.7671    -999.2500       1.2814       3.8088
   2708.9495       9.9506      10.7705       0.1300      62.1228      40.0343    -999.2500    -999.2500    2342.2341     850.2651     334.2137       0.0575       3.9910       0.0036       2.7920    -999.2500       1.6509       3.2315
   2709.1018       9.9656      12.2351       0.0719      51.6628      37.3088    -999.2500    -999.2500    2109.4719     893.1173     314.6314       0.0636       3.8050       0.0037       2.7323    -999.2500       2.0711       2.7637
   2709.2542       9.9725      13.9301       0.0486      51.3733      39.7813    -999.2500    -999.2500    1752.2773     783.9539     309.5283       0.0765       3.7450       0.0047       2.6987    -999.2500       2.0685       2.8845
   2709.4065       9.9760      15.7193       0.0396      55.0179      44.3783    -999.2500    -999.2500    1344.2266     612.6609     310.3429       0.0911       3.7365       0.0061       2.6757    -999.2500       1.8930       3.2459
   2709.5591       9.9667      13.9570       0.0335      57.1666      46.7205    -999.2500    -999.2500    1138.1715     523.5956     269.5004       0.0991       3.7510       0.0056       2.6782    -999.2500       1.5655       3.5330
   2709.7114       9.9522      10.7369       0.0285      58.2957      48.1372    -999.2500    -999.2500    1015.0198     468.2783     211.5608       0.1024       3.7750       0.0044       2.6912    -999.2500       1.1755       3.7897
   2709.8638       9.9346       7.5472       0.0450      57.7225      41.6682    -999.2500    -999.2500    1082.7347     498.5850     179.2302       0.0865       3.8590       0.0030       2.7300    -999.2500       0.8484       3.4872
   2710.0161       9.9156       4.3701       0.0705      56.3591      31.9240    -999.2500    -999.2500    1229.7247     564.4550     157.5360       0.0639       3.9679       0.0015       2.7794    -999.2500       0.5476       2.9524
