#------------------------------------------------------------------------------
#
#   Created by  : [OpenWorks] Log Export Utility (LEXP)
#   Created on  : 2016-05-23 11:55:46
#   Project     : CANT971
#   User        : R5K
#   Interpreter : PEP
#
#------------------------------------------------------------------------------
~VERSION INFORMATION
VERS. 2.0 : CWLS Log ASCII Standard - version 2.0
WRAP.  NO : One line per depth step
~WELL INFORMATION
#MNEMONIC   .UNIT                                           VALUE :DESCRIPTION
#------------------------------------------------------------------------------
STRT        .M                                           292.5192 :START DEPTH
STOP        .M                                          2727.7188 :STOP DEPTH
STEP        .M                                             0.1524 :STEP
NULL        .                                           -999.2500 :NULL VALUE
COMP        .                                   PEMEX EXPL & PROD :COMPANY
WELL        .                                                  39 :WELL
FLD         .                                           CANTARELL :FIELD
LOC         .                                             UNKNOWN :LOCATION
CNTY        .                                      CD. DEL CARMEN :COUNTY
STAT        .                                            CAMPECHE :STATE
CTRY        .                                              MEXICO :COUNTRY
SRVC        .                                             UNKNOWN :SERVICE COMPANY
DATE        .                                             UNKNOWN :LOG DATE
UWI         .                                          3060000161 :UNIQUE WELL ID
XCOORD      .                                       603360.280000 :SURFACE X
YCOORD      .                                      2145098.760000 :SURFACE Y
LAT         .                                           19.398594 :LATITUDE
LON         .                                          -92.015639 :LONGITUDE
ELEV        .M                                            27.1400 :SURFACE ELEV
ELEV_TYPE   .                                                  KB :ELEV TYPE
~CURVE INFORMATION
#MNEMONIC.UNIT        API CODE       : CURVE DESCRIPTION
#------------------------------------------------------------------------------
DEPTH    .M                          : Measured Depth
CALI     .inches      UNKNOWN        : CALI:Import:rC:NONE:v0 (auto-composite)
DRHO     .g/cm3       UNKNOWN        : DRHO:Import:rC:NONE:v0 (auto-composite)
DT       .us/ft       UNKNOWN        : DT:Import:rC:NONE:v0 (auto-composite)
GR       .API         UNKNOWN        : GR:Import:rC:NONE:v0 (auto-composite)
ILD      .ohm.m       UNKNOWN        : ILD:Import:rC:NONE:v0 (auto-composite)
LLD      .ohm.m       UNKNOWN        : LLD:Import:rC:NONE:v0 (auto-composite)
LLS      .ohm.m       UNKNOWN        : LLS:Import:rC:NONE:v0 (auto-composite)
MSFL     .ohm.m       UNKNOWN        : MSFL:Import:rC:NONE:v0 (auto-composite)
NPHI     .v/v_decimal UNKNOWN        : NPHI:Import:rC:NONE:v0 (auto-composite)
RHOB     .g/cm3       UNKNOWN        : RHOB:Import:rC:NONE:v0 (auto-composite)
~A     DEPTH         CALI         DRHO           DT           GR          ILD          LLD          LLS         MSFL         NPHI         RHOB
# ...
   1103.2872       0.0000       0.0000      40.0000      42.1954       0.2000       0.2000       0.2000       0.2000      -0.1500       2.0000
   1103.4396       0.0000       0.0000      40.0000      39.8500       0.2000       0.2000       0.2000       0.2000      -0.1500       2.0000
   1103.5920       0.0000       0.0000      40.0000      37.4570       0.2000       0.2000       0.2000       0.2000      -0.1500       2.0000
   1103.7444       0.0000       0.0000      40.0000      35.2418       0.2000       0.2000       0.2000       0.2000      -0.1500       2.0000
   1103.8969       0.0000       0.0000      40.0000      33.0352       0.2000       0.2000       0.2000       0.2000      -0.1500       2.0000
   1104.0492       0.0000       0.0000      40.0000      32.0106       0.2000       0.2000       0.2000       0.2000      -0.1500       2.0000
   1104.2015       0.0000       0.0000      40.0000      31.0358       0.2000       0.2000       0.2000       0.2000      -0.1500       2.0000
   1104.3540       0.0000       0.0000      40.0000      32.6821       0.2000       0.2000       0.2000       0.2000      -0.1500       2.0000
   1104.5063       0.0000       0.0000      40.0000      34.4253       0.2000       0.2000       0.2000       0.2000      -0.1500       2.0000
   1104.6588       0.0000       0.0000      40.0000      35.8502       0.2000       0.2000       0.2000       0.2000      -0.1500       2.0000
   1104.8112       0.0000       0.0000      40.0000      37.2631       0.2000       0.2000       0.2000       0.2000      -0.1500       2.0000
   1104.9636       0.0000       0.0000      40.0000      39.1391       0.2000       0.2000       0.2000       0.2000      -0.1500       2.0000
   1105.1160       0.0000       0.0000      40.0000      41.0304       0.2000       0.2000       0.2000       0.2000      -0.1500       2.0000
   1105.2684       0.0000       0.0000      40.0000      43.8612       0.2000       0.2000       0.2000       0.2000      -0.1500       2.0000
   1105.4208       0.0000       0.0000      40.0000      46.7173       0.2000       0.2000       0.2000       0.2000      -0.1500       2.0000
   1105.5732       0.0000       0.0000      40.0000      46.3978       0.2000       0.2000       0.2000       0.2000      -0.1500       2.0000
   1105.7256       0.0000       0.0000      40.0000      45.9872       0.2000       0.2000       0.2000       0.2000      -0.1500       2.0000
   1105.8781       0.0000       0.0000      40.0000      43.3572       0.2000       0.2000       0.2000       0.2000      -0.1500       2.0000
   1106.0304       0.0000       0.0000      40.0000      40.6764       0.2000       0.2000       0.2000       0.2000      -0.1500       2.0000
   1106.1827       0.0000       0.0000      40.0000      39.3461       0.2000       0.2000       0.2000       0.2000      -0.1500       2.0000
   1106.3352       0.0000       0.0000      40.0000      38.0490       0.2000       0.2000       0.2000       0.2000      -0.1500       2.0000
   1106.4875       0.0000       0.0000      40.0000      37.8021       0.2000       0.2000       0.2000       0.2000      -0.1500       2.0000
   1106.6400       0.0000       0.0000      40.0000      37.5749       0.2000       0.2000       0.2000       0.2000      -0.1500       2.0000
   1106.7924       0.0000       0.0000      40.0000      38.5893       0.2000       0.2000       0.2000       0.2000      -0.1500       2.0000
   1106.9448       0.0000       0.0000      40.0000      39.6199       0.2000       0.2000       0.2000       0.2000      -0.1500       2.0000
   1107.0972       0.0000       0.0000      40.0000      38.8697       0.2000       0.2000       0.2000       0.2000      -0.1500       2.0000
   1107.2496       0.0000       0.0000      40.0000      38.0860       0.2000       0.2000       0.2000       0.2000      -0.1500       2.0000
   1107.4020       0.0000       0.0000      40.0000      35.2251       0.2000       0.2000       0.2000       0.2000      -0.1500       2.0000
   1107.5544       0.0000       0.0000      40.0000      32.3070       0.2000       0.2000       0.2000       0.2000      -0.1500       2.0000
   1107.7068       0.0000       0.0000      40.0000      31.7187       0.2000       0.2000       0.2000       0.2000      -0.1500       2.0000
   1107.8593       0.0000       0.0000      40.0000      31.1210       0.2000       0.2000       0.2000       0.2000      -0.1500       2.0000
   1108.0116       0.0000       0.0000      40.0000      32.6319       0.2000       0.2000       0.2000       0.2000      -0.1500       2.0000
   1108.1639       0.0000       0.0000      40.0000      34.1610       0.2000       0.2000       0.2000       0.2000      -0.1500       2.0000
   1108.3164       0.0000       0.0000      40.0000      37.1049       0.2000       0.2000       0.2000       0.2000      -0.1500       2.0000
   1108.4688       0.0000       0.0000      40.0000      40.0730       0.2000       0.2000       0.2000       0.2000      -0.1500       2.0000
   1108.6212       0.0000       0.0000      40.0000      37.8037       0.2000       0.2000       0.2000       0.2000      -0.1500       2.0000
   1108.7736       0.0000       0.0000      40.0000      35.5410       0.2000       0.2000       0.2000       0.2000      -0.1500       2.0000
   1108.9260       0.0000       0.0000      40.0000      32.2298       0.2000       0.2000       0.2000       0.2000      -0.1500       2.0000
   1109.0784       0.0000       0.0000      40.0000      28.9410       0.2000       0.2000       0.2000       0.2000      -0.1500       2.0000
   1109.2308       0.0000       0.0000      40.0000      34.2257       0.2000       0.2000       0.2000       0.2000      -0.1500       2.0000
   1109.3832       0.0000       0.0000      40.0000      39.4540       0.2000       0.2000       0.2000       0.2000      -0.1500       2.0000
   1109.5356       0.0000       0.0000      40.0000      43.1875       0.2000       0.2000       0.2000       0.2000      -0.1500       2.0000
   1109.6880       0.0000       0.0000      40.0000      46.8670       0.2000       0.2000       0.2000       0.2000      -0.1500       2.0000
   1109.8405       0.0000       0.0000      40.0000      48.1387       0.2000       0.2000       0.2000       0.2000      -0.1500       2.0000
   1109.9928       0.0000       0.0000      40.0000      49.3870       0.2000       0.2000       0.2000       0.2000      -0.1500       2.0000
   1110.1451       0.0000       0.0000      40.0000      48.7525       0.2000       0.2000       0.2000       0.2000      -0.1500       2.0000
   1110.2976       0.0000       0.0000      40.0000      48.1359       0.2000       0.2000       0.2000       0.2000      -0.1500       2.0000
   1110.4500       0.0000       0.0000      40.0000      48.1299       0.2000       0.2000       0.2000       0.2000      -0.1500       2.0000
   1110.6024       0.0000       0.0000      40.0000      48.1650       0.2000       0.2000       0.2000       0.2000      -0.1500       2.0000
   1110.7548       0.0000       0.0000      40.0000      50.7471       0.2000       0.2000       0.2000       0.2000      -0.1500       2.0000
   1110.9072       0.0000       0.0000      40.0000      53.2487       0.2000       0.2000       0.2000       0.2000      -0.1500       2.0000
   1111.0596       0.0000       0.0000      40.0000      51.9261       0.2000       0.2000       0.2000       0.2000      -0.1500       2.0000
   1111.2120       0.0000       0.0000      40.0000      50.6310       0.2000       0.2000       0.2000       0.2000      -0.1500       2.0000
   1111.3644       0.0000       0.0000      40.0000      50.3616       0.2000       0.2000       0.2000       0.2000      -0.1500       2.0000
   1111.5168       0.0000       0.0000      40.0000      50.0859       0.2000       0.2000       0.2000       0.2000      -0.1500       2.0000
   1111.6692       0.0000       0.0000      40.0000      49.5702       0.2000       0.2000       0.2000       0.2000      -0.1500       2.0000
