#------------------------------------------------------------------------------
#
#   Created by  : [OpenWorks] Log Export Utility (LEXP)
#   Created on  : 2016-05-23 11:56:16
#   Project     : CANT971
#   User        : R5K
#   Interpreter : PEP
#
#------------------------------------------------------------------------------
~VERSION INFORMATION
VERS. 2.0 : CWLS Log ASCII Standard - version 2.0
WRAP.  NO : One line per depth step
~WELL INFORMATION
#MNEMONIC   .UNIT                                           VALUE :DESCRIPTION
#------------------------------------------------------------------------------
STRT        .M                                           785.0543 :START DEPTH
STOP        .M                                          3464.0940 :STOP DEPTH
STEP        .M                                             0.1524 :STEP
NULL        .                                           -999.2500 :NULL VALUE
COMP        .                                   PEMEX EXPL & PROD :COMPANY
WELL        .                                                448D :WELL
FLD         .                                           CANTARELL :FIELD
LOC         .                                             UNKNOWN :LOCATION
CNTY        .                                      CD. DEL CARMEN :COUNTY
STAT        .                                            CAMPECHE :STATE
CTRY        .                                              MEXICO :COUNTRY
SRVC        .                                             UNKNOWN :SERVICE COMPANY
DATE        .                                             UNKNOWN :LOG DATE
UWI         .                                          3060000822 :UNIQUE WELL ID
XCOORD      .                                       598710.240000 :SURFACE X
YCOORD      .                                      2143307.000000 :SURFACE Y
LAT         .                                           19.382637 :LATITUDE
LON         .                                          -92.060012 :LONGITUDE
ELEV        .M                                            28.0000 :SURFACE ELEV
ELEV_TYPE   .                                                  KB :ELEV TYPE
~CURVE INFORMATION
#MNEMONIC.UNIT        API CODE       : CURVE DESCRIPTION
#------------------------------------------------------------------------------
DEPTH    .M                          : Measured Depth
CALI     .inches      UNKNOWN        : CALI:registros:rC:NONE:v0 (auto-composite)
DRHO     .g/cm3       UNKNOWN        : DRHO:registros:rC:NONE:v0 (auto-composite)
DT       .us/ft       UNKNOWN        : DT:registros:rC:NONE:v0 (auto-composite)
GR       .API         UNKNOWN        : GR:registros:rC:NONE:v0 (auto-composite)
LLD      .ohm.m       UNKNOWN        : LLD:registros:rC:NONE:v0 (auto-composite)
LLS      .ohm.m       UNKNOWN        : LLS:registros:rC:NONE:v0 (auto-composite)
MSFL     .ohm.m       UNKNOWN        : MSFL:registros:rC:NONE:v0 (auto-composite)
NPHI     .v/v_decimal UNKNOWN        : NPHI:registros:rC:NONE:v0 (auto-composite)
PEF      .b/elec      UNKNOWN        : PEF:registros:rC:NONE:v0 (auto-composite)
RHOB     .g/cm3       UNKNOWN        : RHOB:registros:rC:NONE:v0 (auto-composite)
~A     DEPTH         CALI         DRHO           DT           GR          LLD          LLS         MSFL         NPHI          PEF         RHOB
# ...
   2935.7231      17.7663       0.0329      55.7524      25.2969      97.5757      68.6973      70.4202       0.0393       4.0583       2.7717
   2935.8755      17.8730       0.0236      55.1160      24.7228     124.6634      82.3271     139.7672       0.0304       4.0361       2.7816
   2936.0278      17.9060       0.0162      54.0790      23.4897     137.4959      87.2457     227.6549       0.0239       3.6925       2.7721
   2936.1804      17.9903       0.0146      53.4659      23.3015     164.8090      99.2345     255.6154       0.0216       3.5056       2.7632
   2936.3328      18.1318       0.0266      52.0645      24.3611     153.3027      96.0048     252.3658       0.0328       3.4729       2.7700
   2936.4851      18.1998       0.0483      51.9335      26.8541     113.0543      79.1154     174.1593       0.0530       3.4290       2.7685
   2936.6375      18.1949       0.0519      53.8705      29.8201      87.5160      65.4417     183.2957       0.0691       3.2301       2.7184
   2936.7900      18.0553       0.0454      56.2093      32.4507      68.2168      53.4306     117.8900       0.0734       3.1866       2.6480
   2936.9424      17.8484       0.0392      59.2322      32.5907      40.4101      35.0195      89.9953       0.0790       3.2931       2.6024
   2937.0947      17.9121       0.0282      60.5798      30.6902      39.1062      34.0673      56.0078       0.0822       3.4889       2.6158
   2937.2471      18.1676       0.0177      61.1615      27.3916      41.3059      35.9598      65.6763       0.0748       3.5509       2.6742
   2937.3994      18.1515       0.0151      58.4913      25.3628      43.6228      37.7861      56.9608       0.0627       3.6613       2.7517
   2937.5520      17.8829       0.0093      56.7140      26.4307      56.4864      45.9856     152.4962       0.0550       3.8624       2.7824
   2937.7043      17.8333      -0.0002      54.7604      29.4001      77.7513      59.9577     296.4504       0.0552       3.8098       2.7761
   2937.8567      17.8211      -0.0026      53.4158      30.0964      87.4634      66.4558     218.2805       0.0511       3.7625       2.7625
   2938.0090      17.8211      -0.0010      53.6844      27.7554     100.4444      74.1123     102.4756       0.0438       3.7329       2.7579
   2938.1616      17.8083       0.0028      54.3439      24.6029     132.9898      91.8220     117.6668       0.0348       3.8202       2.7559
   2938.3140      17.6326       0.0050      53.0532      24.3336     151.3933     101.6630     149.8712       0.0348       3.7694       2.7541
   2938.4663      17.2178       0.0086      52.9739      27.0551     151.6922     101.8344     160.5522       0.0409       3.5253       2.7519
   2938.6187      17.1458       0.0109      53.5668      29.1147     150.3343     100.6588     137.9745       0.0463       3.2591       2.7511
   2938.7712      17.1472       0.0107      53.8225      27.5009     147.6689      98.2644     153.5762       0.0486       3.1450       2.7586
   2938.9236      17.0720       0.0165      54.1684      24.9862     152.7435      99.3839     217.4019       0.0494       3.2456       2.7790
   2939.0759      16.9164       0.0269      54.2459      25.2225     161.7632     103.3125     163.4012       0.0422       3.4056       2.8077
   2939.2283      16.7976       0.0326      54.1247      24.8909     178.1745     111.0070     157.8460       0.0314       3.5702       2.8177
   2939.3806      16.8199       0.0335      53.8933      22.3847     208.6391     124.8835     192.4250       0.0226       3.5272       2.8143
   2939.5332      16.8252       0.0297      53.2164      19.2112     235.9878     137.9516     414.2165       0.0209       3.5919       2.7978
   2939.6855      16.8313       0.0234      52.3239      19.4922     210.2332     130.4277     632.8044       0.0235       3.5979       2.7826
   2939.8379      16.8693       0.0196      52.4634      22.3179     174.5916     117.7208     561.9540       0.0268       3.6514       2.7678
   2939.9902      16.9222       0.0127      52.7910      24.0951     146.4123     105.8418     344.6731       0.0376       3.6141       2.7385
   2940.1428      16.7511       0.0070      53.2733      25.5170     124.5668      95.8975     199.0418       0.0471       3.6252       2.7143
   2940.2952      16.7154       0.0071      53.8822      28.4139     119.1945      94.1279     138.5282       0.0473       3.6455       2.7097
   2940.4475      16.6969       0.0083      53.6152      32.9095     123.0239      97.7028     163.6122       0.0448       3.7288       2.7061
   2940.5999      16.5822       0.0105      53.7833      37.4083     112.3511      91.2563     181.7849       0.0513       3.6571       2.6967
   2940.7524      16.5089       0.0076      54.5277      38.3032     112.3163      91.2715     221.0387       0.0640       3.5460       2.6978
   2940.9048      16.5356       0.0094      54.7223      38.5624     109.7356      90.0056     167.9722       0.0688       3.6055       2.7234
   2941.0571      16.5657       0.0117      54.8327      37.3734      97.4696      82.3820     106.3398       0.0662       3.7691       2.7558
   2941.2095      16.5631       0.0089      54.9902      36.5631      95.5124      81.3607     114.3773       0.0628       3.8314       2.7600
   2941.3618      16.5114       0.0041      55.4664      34.7024      95.8875      82.4169     181.3669       0.0621       3.7901       2.7516
   2941.5144      16.3381       0.0090      55.2788      33.7197     101.1198      86.3504     104.4364       0.0554       3.7350       2.7576
   2941.6667      16.2663       0.0123      54.2720      35.4377     113.3376      94.2097     102.9954       0.0436       3.6881       2.7737
   2941.8191      16.1516       0.0124      53.9125      38.3774     139.5539     110.8359     137.4687       0.0348       3.6261       2.7843
   2941.9714      15.9806       0.0122      53.7817      39.9701     150.2513     117.0688     209.0393       0.0312       3.6504       2.7947
   2942.1240      15.9396       0.0107      53.6676      38.4247     153.1617     117.9465     329.1644       0.0301       3.7749       2.7946
   2942.2764      15.9334       0.0100      54.4535      33.8524     180.4291     129.9848     282.1022       0.0260       3.8322       2.7949
   2942.4287      15.9513       0.0111      54.2409      29.6577     243.6306     154.4769     637.5991       0.0215       3.7081       2.7911
   2942.5811      16.0593       0.0185      51.8235      27.1539     281.3034     157.0503    1284.9191       0.0194       3.6996       2.7837
   2942.7336      16.2646       0.0299      51.4584      25.5550     331.1201     173.8559     430.4681       0.0206       3.6477       2.7902
   2942.8860      16.3289       0.0285      52.6907      24.7600     355.9688     185.1086     331.8986       0.0249       3.6854       2.7806
   2943.0383      16.3306       0.0297      53.1230      24.4172     421.9457     204.6926     579.4445       0.0296       3.6774       2.7948
   2943.1907      16.3302       0.0280      53.0092      25.3668     386.5690     180.7955     240.8082       0.0347       3.6999       2.7947
   2943.3430      16.3518       0.0211      54.2529      29.1375      80.7820      60.8329     324.3510       0.0497       3.7415       2.7805
   2943.4956      16.4551       0.0117      57.1894      34.5827      70.3578      53.5938     516.3619       0.0636       3.6542       2.7516
   2943.6479      16.6485       0.0118      59.1132      38.8749      60.6384      47.2512     209.1014       0.0720       3.5907       2.7500
   2943.8003      16.7333       0.0137      59.2187      38.4069      52.7115      41.7910      46.8440       0.0697       3.7020       2.7644
   2943.9526      16.7559       0.0140      59.3917      35.3005      66.1674      51.2411      80.2026       0.0641       3.8216       2.7729
   2944.1052      16.7609       0.0109      58.1408      33.7110      76.8214      60.9315      92.7496       0.0618       3.9144       2.7615
