#------------------------------------------------------------------------------
#
#   Created by  : [OpenWorks] Log Export Utility (LEXP)
#   Created on  : 2016-05-23 11:57:09
#   Project     : CANT971
#   User        : R5K
#   Interpreter : PEP
#
#------------------------------------------------------------------------------
~VERSION INFORMATION
VERS. 2.0 : CWLS Log ASCII Standard - version 2.0
WRAP.  NO : One line per depth step
~WELL INFORMATION
#MNEMONIC   .UNIT                                           VALUE :DESCRIPTION
#------------------------------------------------------------------------------
STRT        .M                                           143.0270 :START DEPTH
STOP        .M                                          2096.0330 :STOP DEPTH
STEP        .M                                             0.1524 :STEP
NULL        .                                           -999.2500 :NULL VALUE
COMP        .                                   PEMEX EXPL & PROD :COMPANY
WELL        .                                                   7 :WELL
FLD         .                                           CANTARELL :FIELD
LOC         .                                             UNKNOWN :LOCATION
CNTY        .                                      CD. DEL CARMEN :COUNTY
STAT        .                                            CAMPECHE :STATE
CTRY        .                                              MEXICO :COUNTRY
SRVC        .                                             UNKNOWN :SERVICE COMPANY
DATE        .                                             UNKNOWN :LOG DATE
UWI         .                                            W-C-0007 :UNIQUE WELL ID
XCOORD      .                                       603360.340000 :SURFACE X
YCOORD      .                                      2145093.880000 :SURFACE Y
LAT         .                                           19.398550 :LATITUDE
LON         .                                          -92.015638 :LONGITUDE
ELEV        .M                                            27.1400 :SURFACE ELEV
ELEV_TYPE   .                                                  KB :ELEV TYPE
~CURVE INFORMATION
#MNEMONIC.UNIT        API CODE       : CURVE DESCRIPTION
#------------------------------------------------------------------------------
DEPTH    .M                          : Measured Depth
CAL      .inches      UNKNOWN        : CAL:UNKNOWN:rC:NONE:v0 (auto-composite)
DRHO     .g/cm3       UNKNOWN        : DRHO:UNKNOWN:rC:NONE:v0 (auto-composite)
DT       .us/ft       UNKNOWN        : DT:UNKNOWN:rC:NONE:v0 (auto-composite)
GR       .api         UNKNOWN        : GR:UNKNOWN:rC:NONE:v0 (auto-composite)
ILD      .ohmm        UNKNOWN        : ILD:UNKNOWN:rC:NONE:v0 (auto-composite)
NPHI     .v/v_decimal UNKNOWN        : NPHI:UNKNOWN:rC:NONE:v0 (auto-composite)
RHOB     .g/cm3       UNKNOWN        : RHOB:UNKNOWN:rC:NONE:v0 (auto-composite)
~A     DEPTH          CAL         DRHO           DT           GR          ILD         NPHI         RHOB
# ...
    788.4410       0.0000       0.2500      40.0000       0.0000       1.5254      -0.1500       1.9500
    788.5934       0.0000       0.2500      40.0000       0.0000       1.5206      -0.1500       1.9500
    788.7458       0.0000       0.2500      40.0000       0.0000       1.5131      -0.1500       1.9500
    788.8982       0.0000       0.2500      40.0000       0.0000       1.5054      -0.1500       1.9500
    789.0506       0.0000       0.2500      40.0000       0.0000       1.4924      -0.1500       1.9500
    789.2030       0.0000       0.2500      40.0000       0.0000       1.4783      -0.1500       1.9500
    789.3554       0.0000       0.2500      40.0000       0.0000       1.4791      -0.1500       1.9500
    789.5078       0.0000       0.2500      40.0000       0.0000       1.4844      -0.1500       1.9500
    789.6602       0.0000       0.2500      40.0000       0.0000       1.4921      -0.1500       1.9500
    789.8126       0.0000       0.2500      40.0000       0.0000       1.5009      -0.1500       1.9500
    789.9650       0.0000       0.2500      40.0000       0.0000       1.5146      -0.1500       1.9500
    790.1174       0.0000       0.2500      40.0000       0.0000       1.5311      -0.1500       1.9500
    790.2698       0.0000       0.2500      40.0000       0.0000       1.5453      -0.1500       1.9500
    790.4222       0.0000       0.2500      40.0000       0.0000       1.5580      -0.1500       1.9500
    790.5746       0.0000       0.2500      40.0000       0.0000       1.5681      -0.1500       1.9500
    790.7270       0.0000       0.2500      40.0000       0.0000       1.5758      -0.1500       1.9500
    790.8794       0.0000       0.2500      40.0000       0.0000       1.5860      -0.1500       1.9500
    791.0318       0.0000       0.2500      40.0000       0.0000       1.5992      -0.1500       1.9500
    791.1842       0.0000       0.2500      40.0000       0.0000       1.6103      -0.1500       1.9500
    791.3366       0.0000       0.2500      40.0000       0.0000       1.6186      -0.1500       1.9500
    791.4890       0.0000       0.2500      40.0000       0.0000       1.6296      -0.1500       1.9500
    791.6414       0.0000       0.2500      40.0000       0.0000       1.6461      -0.1500       1.9500
    791.7938       0.0000       0.2500      40.0000       0.0000       1.6594      -0.1500       1.9500
    791.9462       0.0000       0.2500      40.0000       0.0000       1.6642      -0.1500       1.9500
    792.0986       0.0000       0.2500      40.0000       0.0000       1.6643      -0.1500       1.9500
    792.2510       0.0000       0.2500      40.0000       0.0000       1.6473      -0.1500       1.9500
    792.4034       0.0000       0.2500      40.0000       0.0000       1.6294      -0.1500       1.9500
    792.5558       0.0000       0.2500      40.0000       0.0000       1.6071      -0.1500       1.9500
    792.7082       0.0000       0.2500      40.0000       0.0000       1.5845      -0.1500       1.9500
    792.8606       0.0000       0.2500      40.0000       0.0000       1.5593      -0.1500       1.9500
    793.0130       0.0000       0.2500      40.0000       0.0000       1.5342      -0.1500       1.9500
    793.1654       0.0000       0.2500      40.0000       0.0000       1.5143      -0.1500       1.9500
    793.3178       0.0000       0.2500      40.0000       0.0000       1.4944      -0.1500       1.9500
    793.4702       0.0000       0.2500      40.0000       0.0000       1.4812      -0.1500       1.9500
    793.6226       0.0000       0.2500      40.0000       0.0000       1.4681      -0.1500       1.9500
    793.7750       0.0000       0.2500      40.0000       0.0000       1.4496      -0.1500       1.9500
    793.9274       0.0000       0.2500      40.0000       0.0000       1.4307      -0.1500       1.9500
    794.0798       0.0000       0.2500      40.0000       0.0000       1.4147      -0.1500       1.9500
    794.2322       0.0000       0.2500      40.0000       0.0000       1.3991      -0.1500       1.9500
    794.3846       0.0000       0.2500      40.0000       0.0000       1.3883      -0.1500       1.9500
    794.5370       0.0000       0.2500      40.0000       0.0000       1.3786      -0.1500       1.9500
    794.6894       0.0000       0.2500      40.0000       0.0000       1.3696      -0.1500       1.9500
    794.8418       0.0000       0.2500      40.0000       0.0000       1.3608      -0.1500       1.9500
    794.9942       0.0000       0.2500      40.0000       0.0000       1.3550      -0.1500       1.9500
    795.1466       0.0000       0.2500      40.0000       0.0000       1.3507      -0.1500       1.9500
    795.2990       0.0000       0.2500      40.0000       0.0000       1.3463      -0.1500       1.9500
    795.4514       0.0000       0.2500      40.0000       0.0000       1.3419      -0.1500       1.9500
    795.6038       0.0000       0.2500      40.0000       0.0000       1.3378      -0.1500       1.9500
    795.7562       0.0000       0.2500      40.0000       0.0000       1.3340      -0.1500       1.9500
    795.9086       0.0000       0.2500      40.0000       0.0000       1.3337      -0.1500       1.9500
    796.0610       0.0000       0.2500      40.0000       0.0000       1.3371      -0.1500       1.9500
    796.2134       0.0000       0.2500      40.0000       0.0000       1.3415      -0.1500       1.9500
    796.3658       0.0000       0.2500      40.0000       0.0000       1.3474      -0.1500       1.9500
    796.5182       0.0000       0.2500      40.0000       0.0000       1.3514      -0.1500       1.9500
    796.6706       0.0000       0.2500      40.0000       0.0000       1.3523      -0.1500       1.9500
    796.8230       0.0000       0.2500      40.0000       0.0000       1.3528      -0.1500       1.9500
    796.9754       0.0000       0.2500      40.0000       0.0000       1.3524      -0.1500       1.9500
    797.1278       0.0000       0.2500      40.0000       0.0000       1.3501      -0.1500       1.9500
    797.2802       0.0000       0.2500      40.0000       0.0000       1.3429      -0.1500       1.9500
    797.4326       0.0000       0.2500      40.0000       0.0000       1.3347      -0.1500       1.9500
    797.5850       0.0000       0.2500      40.0000       0.0000       1.3231      -0.1500       1.9500
    797.7374       0.0000       0.2500      40.0000       0.0000       1.3113      -0.1500       1.9500
    797.8898       0.0000       0.2500      40.0000       0.0000       1.2981      -0.1500       1.9500
    798.0422       0.0000       0.2500      40.0000       0.0000       1.2848      -0.1500       1.9500
    798.1946       0.0000       0.2500      40.0000       0.0000       1.2688      -0.1500       1.9500
    798.3470       0.0000       0.2500      40.0000       0.0000       1.2530      -0.1500       1.9500
    798.4994       0.0000       0.2500      40.0000       0.0000       1.2559      -0.1500       1.9500
    798.6518       0.0000       0.2500      40.0000       0.0000       1.2589      -0.1500       1.9500
    798.8042       0.0000       0.2500      40.0000       0.0000       1.2613      -0.1500       1.9500
    798.9566       0.0000       0.2500      40.0000       0.0000       1.2637      -0.1500       1.9500
    799.1090       0.0000       0.2500      40.0000       0.0000       1.2657      -0.1500       1.9500
    799.2614       0.0000       0.2500      40.0000       0.0000       1.2677      -0.1500       1.9500
    799.4138       0.0000       0.2500      40.0000       0.0000       1.2704      -0.1500       1.9500
    799.5662       0.0000       0.2500      40.0000       0.0000       1.2733      -0.1500       1.9500
    799.7186       0.0000       0.2500      40.0000       0.0000       1.2766      -0.1500       1.9500
    799.8710       0.0000       0.2500      40.0000       0.0000       1.2800      -0.1500       1.9500
    800.0234       0.0000       0.2500      40.0000       0.0000       1.2803      -0.1500       1.9500
