#------------------------------------------------------------------------------
#
#   Created by  : [OpenWorks] Log Export Utility (LEXP)
#   Created on  : 2016-05-23 11:55:37
#   Project     : CANT971
#   User        : R5K
#   Interpreter : PEP
#
#------------------------------------------------------------------------------
~VERSION INFORMATION
VERS. 2.0 : CWLS Log ASCII Standard - version 2.0
WRAP.  NO : One line per depth step
~WELL INFORMATION
#MNEMONIC   .UNIT                                           VALUE :DESCRIPTION
#------------------------------------------------------------------------------
STRT        .M                                           299.0628 :START DEPTH
STOP        .M                                          2570.8896 :STOP DEPTH
STEP        .M                                             0.1524 :STEP
NULL        .                                           -999.2500 :NULL VALUE
COMP        .                                   PEMEX EXPL & PROD :COMPANY
WELL        .                                                  31 :WELL
FLD         .                                           CANTARELL :FIELD
LOC         .                                             UNKNOWN :LOCATION
CNTY        .                                      CD. DEL CARMEN :COUNTY
STAT        .                                            CAMPECHE :STATE
CTRY        .                                              MEXICO :COUNTRY
SRVC        .                                             UNKNOWN :SERVICE COMPANY
DATE        .                                             UNKNOWN :LOG DATE
UWI         .                                          3060000157 :UNIQUE WELL ID
XCOORD      .                                       599727.810000 :SURFACE X
YCOORD      .                                      2147216.930000 :SURFACE Y
LAT         .                                           19.417919 :LATITUDE
LON         .                                          -92.050118 :LONGITUDE
ELEV        .M                                            27.8000 :SURFACE ELEV
ELEV_TYPE   .                                                  KB :ELEV TYPE
~CURVE INFORMATION
#MNEMONIC.UNIT        API CODE       : CURVE DESCRIPTION
#------------------------------------------------------------------------------
DEPTH    .M                          : Measured Depth
CALI     .inches      UNKNOWN        : CALI:Import:rC:NONE:v0 (auto-composite)
DRHO     .g/cm3       UNKNOWN        : DRHO:Import:rC:NONE:v0 (auto-composite)
DT       .us/ft       UNKNOWN        : DT:Import:rC:NONE:v0 (auto-composite)
GR       .API         UNKNOWN        : GR:Import:rC:NONE:v0 (auto-composite)
ILD      .ohm.m       UNKNOWN        : ILD:Import:rC:NONE:v0 (auto-composite)
LLD      .ohm.m       UNKNOWN        : LLD:Import:rC:NONE:v0 (auto-composite)
LLS      .ohm.m       UNKNOWN        : LLS:Import:rC:NONE:v0 (auto-composite)
MSFL     .ohm.m       UNKNOWN        : MSFL:Import:rC:NONE:v0 (auto-composite)
NPHI     .v/v_decimal UNKNOWN        : NPHI:Import:rC:NONE:v0 (auto-composite)
RHOB     .g/cm3       UNKNOWN        : RHOB:Import:rC:NONE:v0 (auto-composite)
~A     DEPTH         CALI         DRHO           DT           GR          ILD          LLD          LLS         MSFL         NPHI         RHOB
# ...
    998.8836    -999.2500    -999.2500     165.9295      64.2986       0.4540    -999.2500    -999.2500    -999.2500       0.4677       2.0205
    999.0360    -999.2500    -999.2500     167.7470      64.2951       0.4540    -999.2500    -999.2500    -999.2500       0.4677       2.0115
    999.1884    -999.2500    -999.2500     168.7783      64.2597       0.4536    -999.2500    -999.2500    -999.2500       0.4681       1.9988
    999.3408    -999.2500    -999.2500     168.5791      64.1740       0.4526    -999.2500    -999.2500    -999.2500       0.4693       1.9803
    999.4932    -999.2500    -999.2500     168.4633      63.9655       0.4520    -999.2500    -999.2500    -999.2500       0.4794       1.9692
    999.6456    -999.2500    -999.2500     168.4768      63.5666       0.4520    -999.2500    -999.2500    -999.2500       0.5031       1.9697
    999.7980    -999.2500    -999.2500     168.7871      62.6485       0.4536    -999.2500    -999.2500    -999.2500       0.5171       1.9771
    999.9504    -999.2500    -999.2500     169.5522      60.9337       0.4576    -999.2500    -999.2500    -999.2500       0.5170       1.9951
   1000.1028    -999.2500    -999.2500     169.7384      59.9107       0.4636    -999.2500    -999.2500    -999.2500       0.5143       2.0056
   1000.2552    -999.2500    -999.2500     169.0480      59.9378       0.4726    -999.2500    -999.2500    -999.2500       0.5083       2.0046
   1000.4076    -999.2500    -999.2500     168.7502      60.1718       0.4808    -999.2500    -999.2500    -999.2500       0.5021       2.0042
   1000.5600    -999.2500    -999.2500     169.0406      60.7165       0.4878    -999.2500    -999.2500    -999.2500       0.4957       2.0047
   1000.7124    -999.2500    -999.2500     169.2110      61.5081       0.4940    -999.2500    -999.2500    -999.2500       0.4898       2.0050
   1000.8648    -999.2500    -999.2500     169.2035      62.6667       0.4990    -999.2500    -999.2500    -999.2500       0.4845       2.0050
   1001.0172    -999.2500    -999.2500     169.1306      64.5006       0.5036    -999.2500    -999.2500    -999.2500       0.4735       2.0050
   1001.1696    -999.2500    -999.2500     168.9619      67.3265       0.5076    -999.2500    -999.2500    -999.2500       0.4544       2.0050
   1001.3220    -999.2500    -999.2500     168.1687      68.9992       0.5133    -999.2500    -999.2500    -999.2500       0.4431       2.0076
   1001.4744    -999.2500    -999.2500     166.4702      68.9972       0.5213    -999.2500    -999.2500    -999.2500       0.4437       2.0142
   1001.6268    -999.2500    -999.2500     165.4770      68.4008       0.5260    -999.2500    -999.2500    -999.2500       0.4521       2.0121
   1001.7792    -999.2500    -999.2500     165.4965      66.9511       0.5260    -999.2500    -999.2500    -999.2500       0.4714       1.9975
   1001.9316    -999.2500    -999.2500     165.6566      66.3997       0.5256    -999.2500    -999.2500    -999.2500       0.4825       1.9890
   1002.0840    -999.2500    -999.2500     166.0161      67.1257       0.5246    -999.2500    -999.2500    -999.2500       0.4820       1.9890
   1002.2364    -999.2500    -999.2500     166.9219      67.5296       0.5228    -999.2500    -999.2500    -999.2500       0.4739       1.9892
   1002.3888    -999.2500    -999.2500     168.5947      67.4805       0.5197    -999.2500    -999.2500    -999.2500       0.4559       1.9897
   1002.5412    -999.2500    -999.2500     169.5515      67.1027       0.5147    -999.2500    -999.2500    -999.2500       0.4452       1.9917
   1002.6936    -999.2500    -999.2500     169.5144      66.2677       0.5066    -999.2500    -999.2500    -999.2500       0.4452       1.9957
   1002.8460    -999.2500    -999.2500     169.2305      64.2708       0.5022    -999.2500    -999.2500    -999.2500       0.4539       1.9999
   1002.9984    -999.2500    -999.2500     168.6071      60.6739       0.5027    -999.2500    -999.2500    -999.2500       0.4735       2.0044
   1003.1508    -999.2500    -999.2500     167.3998      58.6176       0.5038    -999.2500    -999.2500    -999.2500       0.4846       2.0119
   1003.3032    -999.2500    -999.2500     165.3986      58.6592       0.5059    -999.2500    -999.2500    -999.2500       0.4836       2.0234
   1003.4556    -999.2500    -999.2500     164.2732      59.7642       0.5091    -999.2500    -999.2500    -999.2500       0.4840       2.0298
   1003.6080    -999.2500    -999.2500     164.3253      62.3012       0.5141    -999.2500    -999.2500    -999.2500       0.4863       2.0293
   1003.7604    -999.2500    -999.2500     165.0880      63.7500       0.5170    -999.2500    -999.2500    -999.2500       0.4818       2.0290
   1003.9128    -999.2500    -999.2500     166.7968      63.7500       0.5170    -999.2500    -999.2500    -999.2500       0.4685       2.0290
   1004.0652    -999.2500    -999.2500     167.0304      62.9943       0.5289    -999.2500    -999.2500    -999.2500       0.4666       2.0251
   1004.2176    -999.2500    -999.2500     165.3215      61.2419       0.5564    -999.2500    -999.2500    -999.2500       0.4799       2.0161
   1004.3700    -999.2500    -999.2500     164.2843      60.2606       0.5779    -999.2500    -999.2500    -999.2500       0.4853       2.0123
   1004.5224    -999.2500    -999.2500     164.1216      60.2852       0.5914    -999.2500    -999.2500    -999.2500       0.4800       2.0153
   1004.6748    -999.2500    -999.2500     164.0318      60.9879       0.6010    -999.2500    -999.2500    -999.2500       0.4697       2.0163
   1004.8272    -999.2500    -999.2500     164.0358      62.5652       0.6055    -999.2500    -999.2500    -999.2500       0.4538       2.0148
   1004.9796    -999.2500    -999.2500     164.1625      63.4474       0.6100    -999.2500    -999.2500    -999.2500       0.4448       2.0140
   1005.1320    -999.2500    -999.2500     164.4459      63.4414       0.6145    -999.2500    -999.2500    -999.2500       0.4453       2.0140
   1005.2844    -999.2500    -999.2500     164.5870      63.0203       0.6168    -999.2500    -999.2500    -999.2500       0.4524       2.0140
   1005.4368    -999.2500    -999.2500     164.5484      62.0751       0.6163    -999.2500    -999.2500    -999.2500       0.4673       2.0140
   1005.5892    -999.2500    -999.2500     164.1918      61.5731       0.6118    -999.2500    -999.2500    -999.2500       0.4757       2.0180
   1005.7416    -999.2500    -999.2500     163.4384      61.6252       0.6023    -999.2500    -999.2500    -999.2500       0.4757       2.0270
   1005.8940    -999.2500    -999.2500     163.0220      62.2353       0.5970    -999.2500    -999.2500    -999.2500       0.4756       2.0320
   1006.0464    -999.2500    -999.2500     163.0220      63.5348       0.5970    -999.2500    -999.2500    -999.2500       0.4753       2.0320
   1006.1988    -999.2500    -999.2500     163.4321      63.6656       0.5835    -999.2500    -999.2500    -999.2500       0.4684       2.0228
   1006.3512    -999.2500    -999.2500     164.3434      62.3658       0.5535    -999.2500    -999.2500    -999.2500       0.4538       2.0023
   1006.5036    -999.2500    -999.2500     165.3812      62.0413       0.5307    -999.2500    -999.2500    -999.2500       0.4487       1.9919
   1006.6560    -999.2500    -999.2500     166.5721      62.8975       0.5166    -999.2500    -999.2500    -999.2500       0.4550       1.9939
   1006.8084    -999.2500    -999.2500     167.4489      63.1166       0.5035    -999.2500    -999.2500    -999.2500       0.4533       1.9948
   1006.9608    -999.2500    -999.2500     167.9496      62.5729       0.4915    -999.2500    -999.2500    -999.2500       0.4420       1.9943
   1007.1132    -999.2500    -999.2500     168.3370      61.9509       0.4823    -999.2500    -999.2500    -999.2500       0.4357       1.9926
   1007.2656    -999.2500    -999.2500     168.5903      61.2359       0.4762    -999.2500    -999.2500    -999.2500       0.4359       1.9896
