#------------------------------------------------------------------------------
#
#   Created by  : [OpenWorks] Log Export Utility (LEXP)
#   Created on  : 2016-05-23 11:50:40
#   Project     : CANT971
#   User        : R5K
#   Interpreter : PEP
#
#------------------------------------------------------------------------------
~VERSION INFORMATION
VERS. 2.0 : CWLS Log ASCII Standard - version 2.0
WRAP.  NO : One line per depth step
~WELL INFORMATION
#MNEMONIC   .UNIT                                           VALUE :DESCRIPTION
#------------------------------------------------------------------------------
STRT        .M                                           697.2303 :START DEPTH
STOP        .M                                          3650.8948 :STOP DEPTH
STEP        .M                                             0.1524 :STEP
NULL        .                                           -999.2500 :NULL VALUE
COMP        .                                   PEMEX EXPL & PROD :COMPANY
WELL        .                                                1026 :WELL
FLD         .                                           CANTARELL :FIELD
LOC         .                                             UNKNOWN :LOCATION
CNTY        .                                      CD. DEL CARMEN :COUNTY
STAT        .                                            CAMPECHE :STATE
CTRY        .                                              MEXICO :COUNTRY
SRVC        .                                             UNKNOWN :SERVICE COMPANY
DATE        .                                             UNKNOWN :LOG DATE
UWI         .                                          3060000491 :UNIQUE WELL ID
XCOORD      .                                       596159.330000 :SURFACE X
YCOORD      .                                      2150607.710000 :SURFACE Y
LAT         .                                           19.448735 :LATITUDE
LON         .                                          -92.083932 :LONGITUDE
ELEV        .M                                            30.0000 :SURFACE ELEV
ELEV_TYPE   .                                                  KB :ELEV TYPE
~CURVE INFORMATION
#MNEMONIC.UNIT        API CODE       : CURVE DESCRIPTION
#------------------------------------------------------------------------------
DEPTH    .M                          : Measured Depth
CALI     .inches      UNKNOWN        : CALI:registros:rC:NONE:v0 (auto-composite)
DRHO     .g/cm3       UNKNOWN        : DRHO:registros:rC:NONE:v0 (auto-composite)
DT       .us/ft       UNKNOWN        : DT:registros:rC:NONE:v0 (auto-composite)
GR       .API         UNKNOWN        : GR:registros:rC:NONE:v0 (auto-composite)
ILD      .ohm.m       UNKNOWN        : ILD:registros:rC:NONE:v0 (auto-composite)
ILM      .ohm.m       UNKNOWN        : ILM:registros:rC:NONE:v0 (auto-composite)
LLD      .ohm.m       UNKNOWN        : LLD:registros:rC:NONE:v0 (auto-composite)
LLS      .ohm.m       UNKNOWN        : LLS:registros:rC:NONE:v0 (auto-composite)
MSFL     .ohm.m       UNKNOWN        : MSFL:registros:rC:NONE:v0 (auto-composite)
NPHI     .v/v_decimal UNKNOWN        : NPHI:registros:rC:NONE:v0 (auto-composite)
PEF      .b/elec      UNKNOWN        : PEF:registros:rC:NONE:v0 (auto-composite)
RHOB     .g/cm3       UNKNOWN        : RHOB:registros:rC:NONE:v0 (auto-composite)
~A     DEPTH         CALI         DRHO           DT           GR          ILD          ILM          LLD          LLS         MSFL         NPHI          PEF         RHOB
# ...
   3184.3982      10.5275       0.0265      46.1254      55.6720    -999.2500    -999.2500     697.0155     665.2930      22.9453       0.0357       3.1385       2.7160
   3184.5508      10.5390       0.0250      44.3750      55.7500    -999.2500    -999.2500     853.7710     814.2270      40.0310       0.0301       3.0570       2.7250
   3184.7031      10.5195       0.0310      46.6993      53.2352    -999.2500    -999.2500     844.5958     799.4094      39.6853       0.0301       3.1620       2.7475
   3184.8555      10.5000       0.0370      49.0250      50.7190    -999.2500    -999.2500     835.4300     784.6070      39.3400       0.0319       3.2670       2.7700
   3185.0078      10.5595       0.0450      50.8244      54.3267    -999.2500    -999.2500     705.6898     663.0260      36.0435       0.0333       3.3590       2.7665
   3185.1604      10.6190       0.0530      52.6250      57.9370    -999.2500    -999.2500     576.0660     541.5540      32.7500       0.0343       3.4510       2.7630
   3185.3127      10.6805       0.0495      50.1445      55.6619    -999.2500    -999.2500     601.3228     564.4028      38.0996       0.0345       3.4255       2.7600
   3185.4651      10.7420       0.0460      47.6620      53.3850    -999.2500    -999.2500     626.5600     587.2340      43.4450       0.0341       3.4000       2.7570
   3185.6174      10.7575       0.0410      45.6135      51.0786    -999.2500    -999.2500     751.5208     684.2660      50.8403       0.0328       3.4265       2.7550
   3185.7698      10.7730       0.0360      43.5630      48.7700    -999.2500    -999.2500     876.2010     781.0800      58.2190       0.0332       3.4530       2.7530
   3185.9224      10.7515       0.0415      44.9053      47.6566    -999.2500    -999.2500     801.4588     717.5912      30.3400       0.0394       3.5115       2.7410
   3186.0747      10.7300       0.0470      46.2470      46.5420    -999.2500    -999.2500     726.8750     654.2370       2.5200       0.0490       3.5700       2.7290
   3186.2271      10.6151       0.0365      47.3112      45.5216    -999.2500    -999.2500     659.7180     598.2927      10.9424       0.0623       3.5405       2.6930
   3186.3794      10.5000       0.0260      48.3750      44.5000    -999.2500    -999.2500     592.6950     542.4600      19.3480       0.0722       3.5110       2.6570
   3186.5320      10.5025       0.0270      46.8758      45.7487    -999.2500    -999.2500     638.7590     567.0660      34.6103       0.0679       3.3796       2.6730
   3186.6843      10.5050       0.0280      45.3770      46.9990    -999.2500    -999.2500     684.7370     591.6260      49.8440       0.0590       3.2480       2.6890
   3186.8367      10.5065       0.0295      43.4384      50.1377    -999.2500    -999.2500     677.8850     612.6388      48.4203       0.0508       3.2495       2.6970
   3186.9890      10.5080       0.0310      41.5000      53.2810    -999.2500    -999.2500     671.0450     633.6150      46.9990       0.0432       3.2510       2.7050
   3187.1416      10.5490       0.0515      44.7500      51.9850    -999.2500    -999.2500     636.5190     606.7918      38.1553       0.0366       3.5198       2.7200
   3187.2939      10.5900       0.0720      48.0000      50.6870    -999.2500    -999.2500     602.0490     580.0120      29.3260       0.0407       3.7890       2.7350
   3187.4463      10.6075       0.0600      47.1875      46.0040    -999.2500    -999.2500     567.8820     550.9373      14.8797       0.0749       3.4977       2.5745
   3187.5986      10.6250       0.0480      46.3750      41.3130    -999.2500    -999.2500     533.7660     521.9060       0.4550       0.1265       3.2060       2.4140
   3187.7510      10.5730       0.0290      50.3120      43.0144    -999.2500    -999.2500     519.6899     503.4444       2.0381       0.1991       2.8450       2.0405
   3187.9036      10.5210       0.0100      54.2500      44.7190    -999.2500    -999.2500     505.6330     485.0080       3.6190       0.2533       2.4840       1.6670
   3188.0559      10.3895       0.0320      52.4523      41.8778    -999.2500    -999.2500     518.6531     487.6887      28.2933       0.2313       2.7070       1.9170
   3188.2083      10.2580       0.0540      50.6540      39.0310    -999.2500    -999.2500     531.6570     490.3660      52.9370       0.1827       2.9300       2.1670
   3188.3606      10.3265       0.0410      49.7337      39.7223    -999.2500    -999.2500     566.1477     509.6733      45.3863       0.1320       3.0445       2.3829
   3188.5132      10.3950       0.0280      48.8130      40.4140    -999.2500    -999.2500     600.6000     528.9590      37.8440       0.0870       3.1590       2.5990
   3188.6655      10.4765       0.0200      50.7494      45.4400    -999.2500    -999.2500     702.8647     609.2783      47.1981       0.0615       3.2145       2.6545
   3188.8179      10.5580       0.0120      52.6870      50.4690    -999.2500    -999.2500     805.0280     689.5180      56.5430       0.0450       3.2700       2.7100
   3188.9702      10.5955       0.0145      50.6173      47.9074    -999.2500    -999.2500    1153.2552     942.6826      64.5875       0.0359       3.2130       2.7180
   3189.1228      10.6330       0.0170      48.5460      45.3440    -999.2500    -999.2500    1501.1810    1195.6281      72.6250       0.0292       3.1560       2.7260
   3189.2751      10.6245       0.0150      44.2748      50.7002    -999.2500    -999.2500    1920.2963    1410.0104      55.7067       0.0225       3.3229       2.7410
   3189.4275      10.6160       0.0130      40.0000      56.0610    -999.2500    -999.2500    2339.1011    1624.2340      38.8010       0.0172       3.4900       2.7560
   3189.5798      10.5850       0.0110      41.1929      68.0246    -999.2500    -999.2500    1892.2106    1327.0002      26.8403       0.0167       3.4485       2.7680
   3189.7322      10.5540       0.0090      42.3870      80.0000    -999.2500    -999.2500    1446.3101    1030.4250      14.9060       0.0184       3.4070       2.7800
   3189.8848      10.3866       0.0200      43.4753      76.5059    -999.2500    -999.2500    1245.8748     884.6348      28.7019       0.0223       3.3245       2.7625
   3190.0371      10.2190       0.0310      44.5630      73.0080    -999.2500    -999.2500    1045.8580     739.1490      42.4690       0.0279       3.2420       2.7450
   3190.1895      10.2660       0.0535      43.7198      60.6681    -999.2500    -999.2500     881.0751     600.9362      26.2030       0.0371       3.3769       2.7540
   3190.3418      10.3130       0.0760      42.8770      48.3130    -999.2500    -999.2500     716.6160     462.9950       9.9690       0.0487       3.5120       2.7630
   3190.4944      10.2385       0.0720      42.1569      49.5931    -999.2500    -999.2500     574.8463     374.3105      12.1165       0.0644       3.4790       2.7345
   3190.6467      10.1640       0.0680      41.4370      50.8750    -999.2500    -999.2500     433.3370     285.7890      14.2600       0.0766       3.4460       2.7060
   3190.7991      10.1750       0.0545      42.3496      49.6744    -999.2500    -999.2500     389.9828     267.4828      26.6561       0.0738       3.2816       2.7065
   3190.9514      10.1860       0.0410      43.2620      48.4720    -999.2500    -999.2500     346.7030     249.2080      39.0310       0.0678       3.1170       2.7070
   3191.1040      10.6515       0.0415      45.6140      47.0651    -999.2500    -999.2500     341.5149     258.1851      29.5940       0.0671       3.1949       2.7175
   3191.2563      11.1170       0.0420      47.9660      45.6560    -999.2500    -999.2500     336.3350     267.1480      20.1720       0.0681       3.2730       2.7280
   3191.4087      11.1115       0.0390      49.4119      46.5772    -999.2500    -999.2500     303.1497     250.3432      29.0455       0.0692       3.4593       2.7130
   3191.5610      11.1060       0.0360      50.8580      47.5000    -999.2500    -999.2500     270.0130     233.5630      37.9060       0.0698       3.6460       2.6980
