#------------------------------------------------------------------------------
#
#   Created by  : [OpenWorks] Log Export Utility (LEXP)
#   Created on  : 2016-05-23 11:50:37
#   Project     : CANT971
#   User        : R5K
#   Interpreter : PEP
#
#------------------------------------------------------------------------------
~VERSION INFORMATION
VERS. 2.0 : CWLS Log ASCII Standard - version 2.0
WRAP.  NO : One line per depth step
~WELL INFORMATION
#MNEMONIC   .UNIT                                           VALUE :DESCRIPTION
#------------------------------------------------------------------------------
STRT        .M                                           690.6770 :START DEPTH
STOP        .M                                          3400.6538 :STOP DEPTH
STEP        .M                                             0.1524 :STEP
NULL        .                                           -999.2500 :NULL VALUE
COMP        .                                   PEMEX EXPL & PROD :COMPANY
WELL        .                                                1024 :WELL
FLD         .                                           CANTARELL :FIELD
LOC         .                                             UNKNOWN :LOCATION
CNTY        .                                      CD. DEL CARMEN :COUNTY
STAT        .                                            CAMPECHE :STATE
CTRY        .                                              MEXICO :COUNTRY
SRVC        .                                             UNKNOWN :SERVICE COMPANY
DATE        .                                             UNKNOWN :LOG DATE
UWI         .                                          3060000490 :UNIQUE WELL ID
XCOORD      .                                       596162.640000 :SURFACE X
YCOORD      .                                      2150611.280000 :SURFACE Y
LAT         .                                           19.448767 :LATITUDE
LON         .                                          -92.083900 :LONGITUDE
ELEV        .M                                            30.0000 :SURFACE ELEV
ELEV_TYPE   .                                                  KB :ELEV TYPE
~CURVE INFORMATION
#MNEMONIC.UNIT        API CODE       : CURVE DESCRIPTION
#------------------------------------------------------------------------------
DEPTH    .M                          : Measured Depth
CALI     .inches      UNKNOWN        : CALI:registros:rC:NONE:v0 (auto-composite)
DRHO     .g/cm3       UNKNOWN        : DRHO:registros:rC:NONE:v0 (auto-composite)
DT       .us/ft       UNKNOWN        : DT:registros:rC:NONE:v0 (auto-composite)
GR       .API         UNKNOWN        : GR:registros:rC:NONE:v0 (auto-composite)
ILD      .ohm.m       UNKNOWN        : ILD:registros:rC:NONE:v0 (auto-composite)
ILM      .ohm.m       UNKNOWN        : ILM:registros:rC:NONE:v0 (auto-composite)
LLD      .ohm.m       UNKNOWN        : LLD:registros:rC:NONE:v0 (auto-composite)
LLS      .ohm.m       UNKNOWN        : LLS:registros:rC:NONE:v0 (auto-composite)
MSFL     .ohm.m       UNKNOWN        : MSFL:registros:rC:NONE:v0 (auto-composite)
NPHI     .v/v_decimal UNKNOWN        : NPHI:registros:rC:NONE:v0 (auto-composite)
PEF      .b/elec      UNKNOWN        : PEF:registros:rC:NONE:v0 (auto-composite)
RHOB     .g/cm3       UNKNOWN        : RHOB:registros:rC:NONE:v0 (auto-composite)
~A     DEPTH         CALI         DRHO           DT           GR          ILD          ILM          LLD          LLS         MSFL         NPHI          PEF         RHOB
# ...
   3258.3123       8.5320       0.0120      54.8160      47.2680    -999.2500    -999.2500     367.6900     268.2040     168.0200       0.0802       3.6600       2.7150
   3258.4646       8.5450       0.0115      55.1899      46.7739    -999.2500    -999.2500     367.2078     267.9310     152.7675       0.0817       3.7459       2.7080
   3258.6169       8.5580       0.0110      55.5650      46.2830    -999.2500    -999.2500     366.7240     267.6580     137.4910       0.0832       3.8320       2.7010
   3258.7693       8.5750       0.0110      57.0136      45.9836    -999.2500    -999.2500     365.2704     272.1759     157.9811       0.0836       3.7800       2.7035
   3258.9219       8.5920       0.0110      58.4670      45.6860    -999.2500    -999.2500     363.8120     276.6870     178.5060       0.0839       3.7280       2.7060
   3259.0742       8.6050       0.0135      58.1950      45.0731    -999.2500    -999.2500     333.0039     260.2361     185.8483       0.0839       3.6895       2.7110
   3259.2266       8.6180       0.0160      57.9220      44.4640    -999.2500    -999.2500     302.0900     243.8080     193.2040       0.0841       3.6510       2.7160
   3259.3789       8.6210       0.0245      58.1293      46.0021    -999.2500    -999.2500     249.4753     205.7101     142.2767       0.0898       3.6370       2.6965
   3259.5315       8.6240       0.0330      58.3370      47.5310    -999.2500    -999.2500     196.7580     167.6600      91.2500       0.0958       3.6230       2.6770
   3259.6838       8.6155       0.0325      58.6886      55.1365    -999.2500    -999.2500     157.1851     136.4649      80.4612       0.1031       3.6135       2.6580
   3259.8362       8.6070       0.0320      59.0410      62.6970    -999.2500    -999.2500     117.5300     105.3050      69.6500       0.1102       3.6040       2.6390
   3259.9885       8.5895       0.0230      58.6759      63.9612    -999.2500    -999.2500     131.8552     117.5552      92.5368       0.1110       3.5191       2.6520
   3260.1411       8.5720       0.0140      58.3100      65.2180    -999.2500    -999.2500     146.2120     129.7930     115.4740       0.1112       3.4340       2.6650
   3260.2935       8.5615       0.0070      57.9170      59.6517    -999.2500    -999.2500     198.7958     172.2141     166.9734       0.1056       3.3676       2.6835
   3260.4458       8.5510       0.0000      57.5230      54.1170    -999.2500    -999.2500     251.5020     214.5980     218.5100       0.0997       3.3010       2.7020
   3260.5981       8.5455      -0.0030      61.2664      50.5237    -999.2500    -999.2500     288.0032     241.4821     246.1243       0.0931       3.3110       2.7095
   3260.7505       8.5400      -0.0060      65.0190      46.9560    -999.2500    -999.2500     324.5940     268.3460     273.7620       0.0867       3.3210       2.7170
   3260.9031       8.5350      -0.0055      64.5606      47.1020    -999.2500    -999.2500     328.3851     263.8436     232.7030       0.0848       3.3774       2.7090
   3261.0554       8.5300      -0.0050      64.1010      47.2470    -999.2500    -999.2500     332.1860     259.3440     191.6040       0.0834       3.4340       2.7010
   3261.2078       8.5270      -0.0045      64.9698      48.0613    -999.2500    -999.2500     326.3948     246.1222     165.8097       0.0873       3.4465       2.6790
   3261.3601       8.5240      -0.0040      65.8410      48.8700    -999.2500    -999.2500     320.5880     232.9070     139.9870       0.0915       3.4590       2.6570
   3261.5127       8.5330      -0.0030      68.7938      50.1182    -999.2500    -999.2500     330.9798     232.2939     141.5211       0.0952       3.4070       2.6425
   3261.6650       8.5420      -0.0020      71.7550      51.3580    -999.2500    -999.2500     341.4010     231.6810     143.0570       0.0985       3.3550       2.6280
   3261.8174       8.5450      -0.0000      68.8408      54.1518    -999.2500    -999.2500     356.7623     240.1691     157.3613       0.0969       3.3065       2.6455
   3261.9697       8.5480       0.0020      65.9180      56.9270    -999.2500    -999.2500     372.1690     248.6550     171.6850       0.0949       3.2580       2.6630
   3262.1223       8.5315       0.0015      62.3605      57.5360    -999.2500    -999.2500     373.8938     252.4297     168.2805       0.0906       3.2345       2.6765
   3262.2747       8.5150       0.0010      58.7920      58.1410    -999.2500    -999.2500     375.6240     256.2040     164.8710       0.0864       3.2110       2.6900
   3262.4270       8.5080       0.0015      59.2533      57.2095    -999.2500    -999.2500     381.8480     261.4295     199.0096       0.0841       3.1930       2.7010
   3262.5793       8.5010       0.0020      59.7160      56.2840    -999.2500    -999.2500     388.0920     266.6550     233.2030       0.0818       3.1750       2.7120
   3262.7317       8.4990       0.0035      62.6556      54.5145    -999.2500    -999.2500     396.4296     269.9795     284.4522       0.0794       3.1675       2.7290
   3262.8843       8.4970       0.0050      65.6050      52.7560    -999.2500    -999.2500     404.7950     273.2990     335.7900       0.0769       3.1600       2.7460
   3263.0366       8.5030       0.0060      62.5633      49.1168    -999.2500    -999.2500     397.9514     265.4457     367.4477       0.0724       3.2204       2.7590
   3263.1890       8.5090       0.0070      59.5110      45.5000    -999.2500    -999.2500     391.0840     257.6030     399.1640       0.0681       3.2810       2.7720
   3263.3413       8.5130       0.0065      58.8042      44.7036    -999.2500    -999.2500     407.1786     263.5602     336.0580       0.0666       3.3464       2.7700
   3263.4939       8.5170       0.0060      58.0960      43.9120    -999.2500    -999.2500     423.3050     269.5100     272.8270       0.0653       3.4120       2.7680
   3263.6462       8.5135       0.0055      61.4385      45.9941    -999.2500    -999.2500     454.6490     285.7234     268.2698       0.0645       3.3910       2.7615
   3263.7986       8.5100       0.0050      64.7880      48.0640    -999.2500    -999.2500     486.0590     301.9190     263.7030       0.0636       3.3700       2.7550
   3263.9509       8.4825       0.0030      61.3638      49.5538    -999.2500    -999.2500     470.9868     293.8286     266.0669       0.0591       3.3525       2.7520
   3264.1035       8.4550       0.0010      57.9320      51.0350    -999.2500    -999.2500     455.8810     285.7460     268.4360       0.0548       3.3350       2.7490
   3264.2559       8.4400       0.0030      53.9467      47.1004    -999.2500    -999.2500     432.0401     274.3427     255.3015       0.0552       3.2606       2.7560
   3264.4082       8.4250       0.0050      49.9520      43.1880    -999.2500    -999.2500     408.1430     262.9490     242.1570       0.0560       3.1860       2.7630
   3264.5605       8.4175       0.0070      49.9525      43.1895    -999.2500    -999.2500     387.5002     253.6471     305.8365       0.0587       3.1860       2.7630
   3264.7129       8.4100       0.0090      49.9530      43.1910    -999.2500    -999.2500     366.8060     244.3520     369.5720       0.0616       3.1860       2.7630
   3264.8655       8.4005       0.0090      50.1792      45.2672    -999.2500    -999.2500     337.7195     227.8736     369.2237       0.0633       3.1895       2.7625
   3265.0178       8.3910       0.0090      50.4060      47.3290    -999.2500    -999.2500     308.5570     211.4050     368.8750       0.0650       3.1930       2.7620
   3265.1702       8.4035       0.0105      51.2848      47.3280    -999.2500    -999.2500     267.4258     185.2603     286.8114       0.0678       3.2529       2.7620
   3265.3225       8.4160       0.0120      52.1660      47.3270    -999.2500    -999.2500     226.1820     159.1280     204.6550       0.0713       3.3130       2.7620
   3265.4751       8.4160       0.0120      53.4616      47.1389    -999.2500    -999.2500     198.1286     142.8572     146.6769       0.0848       3.3805       2.7525
