#------------------------------------------------------------------------------
#
#   Created by  : [OpenWorks] Log Export Utility (LEXP)
#   Created on  : 2016-05-23 11:57:21
#   Project     : CANT971
#   User        : R5K
#   Interpreter : PEP
#
#------------------------------------------------------------------------------
~VERSION INFORMATION
VERS. 2.0 : CWLS Log ASCII Standard - version 2.0
WRAP.  NO : One line per depth step
~WELL INFORMATION
#MNEMONIC   .UNIT                                           VALUE :DESCRIPTION
#------------------------------------------------------------------------------
STRT        .M                                           117.7290 :START DEPTH
STOP        .M                                          2309.5459 :STOP DEPTH
STEP        .M                                             0.1524 :STEP
NULL        .                                           -999.2500 :NULL VALUE
COMP        .                                   PEMEX EXPL & PROD :COMPANY
WELL        .                                                  7A :WELL
FLD         .                                           CANTARELL :FIELD
LOC         .                                             UNKNOWN :LOCATION
CNTY        .                                      CD. DEL CARMEN :COUNTY
STAT        .                                            CAMPECHE :STATE
CTRY        .                                              MEXICO :COUNTRY
SRVC        .                                             UNKNOWN :SERVICE COMPANY
DATE        .                                             UNKNOWN :LOG DATE
UWI         .                                          3060000143 :UNIQUE WELL ID
XCOORD      .                                       603360.310000 :SURFACE X
YCOORD      .                                      2145096.320000 :SURFACE Y
LAT         .                                           19.398572 :LATITUDE
LON         .                                          -92.015639 :LONGITUDE
ELEV        .M                                            27.1400 :SURFACE ELEV
ELEV_TYPE   .                                                  KB :ELEV TYPE
~CURVE INFORMATION
#MNEMONIC.UNIT        API CODE       : CURVE DESCRIPTION
#------------------------------------------------------------------------------
DEPTH    .M                          : Measured Depth
CALI     .in          UNKNOWN        : CALI:resistivos:rC:NONE:v0 (auto-composite)
DRHO     .g/cm3       UNKNOWN        : DRHO:PETROWORKS:rC:NONE:v2 
DT       .us/ft       UNKNOWN        : DT:DT:rC:NONE:v0 (auto-composite)
GR       .API         UNKNOWN        : GR:UNKNOWN:rC:NONE:v0 (auto-composite)
ILD      .ohmm        UNKNOWN        : ILD:resistivos:rC:NONE:v0 (auto-composite)
LLD      .ohm.m       UNKNOWN        : LLD:UNKNOWN:rC:NONE:v0 (auto-composite)
LLS      .ohm.m       UNKNOWN        : LLS:UNKNOWN:rC:NONE:v0 (auto-composite)
MSFL     .ohm.m       UNKNOWN        : MSFL:UNKNOWN:rC:NONE:v0 (auto-composite)
NPHI     .v/v_decimal     UNKNOWN        : NPHI:PETROWORKS:rC:NONE:v1 
RHOB     .g/cm3       UNKNOWN        : RHOB:UNKNOWN:rC:NONE:v0 (auto-composite)
SN       .ohm.m       UNKNOWN        : SN:UNKNOWN:rC:NONE:v0 (auto-composite)
~A     DEPTH         CALI         DRHO           DT           GR          ILD          LLD          LLS         MSFL         NPHI         RHOB           SN
# ...
   1924.5834       6.9885       0.0639      58.3186      17.5408    -999.2500     645.0579     694.1056      23.4467       0.0826       2.6887    -999.2500
   1924.7358       6.9655       0.0633      60.2876      18.2002    -999.2500     547.6680     579.1658      40.4890       0.0811       2.6842    -999.2500
   1924.8882       6.9247       0.0627      62.8749      18.8296    -999.2500     453.9715     481.7608     113.5280       0.0793       2.6825    -999.2500
   1925.0406       6.8662       0.0625      66.0768      19.4288    -999.2500     363.9694     401.8943     242.5753       0.0766       2.6835    -999.2500
   1925.1930       6.8222       0.0624      70.6979      19.1620    -999.2500     291.8947     351.6999     265.5080       0.0737       2.6860    -999.2500
   1925.3455       6.7927       0.0617      76.7297      18.0260    -999.2500     237.8132     331.2864     181.9371       0.0698       2.6900    -999.2500
   1925.4978       6.8288       0.0609      75.8688      16.4307    -999.2500     199.1986     314.0428     123.4118       0.0657       2.7002    -999.2500
   1925.6501       6.9303       0.0601      68.1545      14.3714    -999.2500     176.2112     300.0020      90.1919       0.0606       2.7167    -999.2500
   1925.8026       7.0413       0.0593      65.0542      13.5063    -999.2500     168.9115     274.3640     101.1947       0.0569       2.7362    -999.2500
   1925.9550       7.1618       0.0596      66.5281      13.8557    -999.2500     177.5680     236.9302     157.1774       0.0591       2.7587    -999.2500
   1926.1074       7.2087       0.0601      71.0241      14.8720    -999.2500     188.9494     212.6734     204.6144       0.0616       2.7645    -999.2500
   1926.2598       7.1822       0.0610      78.5169      16.5516    -999.2500     203.0417     201.5252     243.5500       0.0657       2.7535    -999.2500
   1926.4122       7.1387       0.0621      80.2663      19.2099    -999.2500     220.6782     214.9998     235.0106       0.0684       2.7343    -999.2500
   1926.5646       7.0782       0.0626      76.3189      22.8483    -999.2500     241.8640     253.1334     178.9268       0.0655       2.7068    -999.2500
   1926.7170       7.0357       0.0629      77.1600      26.4850    -999.2500     292.1928     317.4135     216.1001       0.0630       2.6848    -999.2500
   1926.8694       7.0112       0.0626      82.7518      30.1200    -999.2500     371.8080     407.9691     346.9902       0.0626       2.6683    -999.2500
   1927.0219       6.9835       0.0622      81.3590      30.7306    -999.2500     474.9162     447.0270     546.4038       0.0631       2.6776    -999.2500
   1927.1742       6.9525       0.0619      73.0347      28.2817    -999.2500     601.7909     433.9877     815.1387       0.0674       2.7131    -999.2500
   1927.3267       6.9270       0.0617      64.4302      25.2911    -999.2500     622.3353     403.6970     879.9527       0.0714       2.7283    -999.2500
   1927.4790       6.9070       0.0625      55.5475      21.7507    -999.2500     534.9390     355.8936     737.7574       0.0739       2.7228    -999.2500
   1927.6313       6.8672       0.0635      52.5716      18.7559    -999.2500     450.5193     317.8865     543.9563       0.0772       2.7175    -999.2500
   1927.7838       6.8077       0.0653      55.4605      16.3044    -999.2500     369.0645     289.6372     298.7522       0.0839       2.7125    -999.2500
   1927.9362       6.7780       0.0672      60.7029      15.5587    -999.2500     311.0784     271.2170     183.4757       0.0887       2.7152    -999.2500
   1928.0886       6.7780       0.0687      68.2827      16.5179    -999.2500     276.5497     262.6212     198.0636       0.0854       2.7257    -999.2500
   1928.2410       6.7845       0.0702      68.0717      19.2481    -999.2500     265.5836     260.0052     225.2011       0.0811       2.7422    -999.2500
   1928.3934       6.7975       0.0712      60.1214      23.7601    -999.2500     278.3261     263.4063     264.9659       0.0724       2.7647    -999.2500
   1928.5458       6.8325       0.0720      59.1131      27.9727    -999.2500     312.8997     279.9757     245.1639       0.0645       2.7835    -999.2500
   1928.6982       6.8895       0.0721      65.0024      31.8830    -999.2500     369.5155     309.8408     165.2190       0.0593       2.7984    -999.2500
   1928.8506       6.8829       0.0720      65.8579      33.2652    -999.2500     437.5996     343.7974     152.2938       0.0547       2.8020    -999.2500
   1929.0031       6.8130       0.0707      61.7106      32.0779    -999.2500     517.3401     381.9125     207.4888       0.0527       2.7940    -999.2500
   1929.1554       6.7780       0.0691      58.5907      29.2834    -999.2500     619.7924     398.9333     202.6897       0.0516       2.7810    -999.2500
   1929.3079       6.7780       0.0672      56.4923      24.8910    -999.2500     744.8228     394.9836     138.2488       0.0548       2.7630    -999.2500
   1929.4602       6.7780       0.0651      57.9816      21.1705    -999.2500     722.3894     409.2397     158.2913       0.0578       2.7448    -999.2500
   1929.6125       6.7780       0.0640      63.0384      18.1223    -999.2500     552.3788     441.7157     262.8821       0.0602       2.7263    -999.2500
   1929.7650       6.7780       0.0629      64.9582      16.3221    -999.2500     603.6249     471.5191     491.8224       0.0616       2.7177    -999.2500
   1929.9174       6.7780       0.0631      63.7677      15.7750    -999.2500     877.0643     498.6385     845.6383       0.0584       2.7192    -999.2500
   1930.0698       6.7880       0.0634      61.7710      16.1618    -999.2500    1118.7120     526.9908     811.4528       0.0552       2.7250    -999.2500
   1930.2222       6.8080       0.0655      58.9746      17.4928    -999.2500    1328.2200     556.5895     385.0200       0.0524       2.7350    -999.2500
   1930.3746       6.8731       0.0677      57.7585      18.5295    -999.2500    1404.4418     575.0364     201.3163       0.0500       2.7490    -999.2500
   1930.5270       6.9831       0.0710      58.1099      19.2677    -999.2500    1345.4524     582.1703     263.8470       0.0500       2.7670    -999.2500
   1930.6794       7.0330       0.0745      58.5500      19.5125    -999.2500    1263.2360     592.5864     430.9419       0.0500       2.7727    -999.2500
   1930.8318       7.0230       0.0765      59.0780      19.2661    -999.2500    1157.8999     606.2695     702.1172       0.0500       2.7662    -999.2500
   1930.9843       6.9579       0.0784      62.6567      18.8428    -999.2500    1020.2331     607.6766     726.5472       0.0500       2.7660    -999.2500
   1931.1366       6.8379       0.0775      69.2630      18.2428    -999.2500     850.2736     596.8221     504.5225       0.0501       2.7720    -999.2500
   1931.2891       6.7853       0.0763      69.9844      17.5333    -999.2500     714.5915     586.3032     353.4101       0.0503       2.7760    -999.2500
   1931.4414       6.7998       0.0738      64.8641      16.7137    -999.2500     613.3752     576.1215     273.5995       0.0510       2.7780    -999.2500
   1931.5938       6.8275       0.0712      62.4884      15.8400    -999.2500     544.7323     559.5542     243.4409       0.0521       2.7805    -999.2500
   1931.7462       6.8685       0.0697      62.8379      14.9117    -999.2500     508.9551     536.5439     263.3798       0.0544       2.7835    -999.2500
   1931.8986       6.8722       0.0683      64.2682      14.4440    -999.2500     493.7751     516.1486     271.7517       0.0566       2.7880    -999.2500
   1932.0510       6.8387       0.0680      66.7722      14.4440    -999.2500     499.5160     498.4094     268.3749       0.0582       2.7940    -999.2500
   1932.2034       6.8110       0.0678      65.9099      14.7167    -999.2500     497.4672     486.8052     255.5793       0.0595       2.7965    -999.2500
   1932.3558       6.7890       0.0671      61.7035      15.2602    -999.2500     487.6799     481.2958     233.4267       0.0598       2.7955    -999.2500
