#------------------------------------------------------------------------------
#
#   Created by  : [OpenWorks] Log Export Utility (LEXP)
#   Created on  : 2016-05-23 11:51:58
#   Project     : CANT971
#   User        : R5K
#   Interpreter : PEP
#
#------------------------------------------------------------------------------
~VERSION INFORMATION
VERS. 2.0 : CWLS Log ASCII Standard - version 2.0
WRAP.  NO : One line per depth step
~WELL INFORMATION
#MNEMONIC   .UNIT                                           VALUE :DESCRIPTION
#------------------------------------------------------------------------------
STRT        .M                                           695.7060 :START DEPTH
STOP        .M                                          3054.7056 :STOP DEPTH
STEP        .M                                             0.1524 :STEP
NULL        .                                           -999.2500 :NULL VALUE
COMP        .                                   PEMEX EXPL & PROD :COMPANY
WELL        .                                                 17D :WELL
FLD         .                                           CANTARELL :FIELD
LOC         .                                             UNKNOWN :LOCATION
CNTY        .                                      CD. DEL CARMEN :COUNTY
STAT        .                                            CAMPECHE :STATE
CTRY        .                                              MEXICO :COUNTRY
SRVC        .                                             UNKNOWN :SERVICE COMPANY
DATE        .                                             UNKNOWN :LOG DATE
UWI         .                                          3060000460 :UNIQUE WELL ID
XCOORD      .                                       603362.626000 :SURFACE X
YCOORD      .                                      2145093.910000 :SURFACE Y
LAT         .                                           19.398550 :LATITUDE
LON         .                                          -92.015617 :LONGITUDE
ELEV        .M                                            27.1400 :SURFACE ELEV
ELEV_TYPE   .                                                  KB :ELEV TYPE
~CURVE INFORMATION
#MNEMONIC.UNIT        API CODE       : CURVE DESCRIPTION
#------------------------------------------------------------------------------
DEPTH    .M                          : Measured Depth
CALI     .in          UNKNOWN        : CALI:UNKNOWN:rC:NONE:v0 (auto-composite)
DT       .us/ft       UNKNOWN        : DT:DT:rC:NONE:v0 (auto-composite)
GR       .API         UNKNOWN        : GR:UNKNOWN:rC:NONE:v0 (auto-composite)
ILD      .ohmm        UNKNOWN        : ILD:UNKNOWN:rC:NONE:v0 (auto-composite)
LLD      .ohmm        UNKNOWN        : LLD:UNKNOWN:rC:NONE:v0 (auto-composite)
LLS      .ohmm        UNKNOWN        : LLS:UNKNOWN:rC:NONE:v0 (auto-composite)
MSFL     .ohmm        UNKNOWN        : MSFL:UNKNOWN:rC:NONE:v0 (auto-composite)
NPHI     .v/v_decimal UNKNOWN        : NPHI:UNKNOWN:rC:NONE:v0 (auto-composite)
PEF      .b/elec      UNKNOWN        : PEF:UNKNOWN:rC:NONE:v0 (auto-composite)
RHOB     .g/cm3       UNKNOWN        : RHOB:UNKNOWN:rC:NONE:v0 (auto-composite)
~A     DEPTH         CALI           DT           GR          ILD          LLD          LLS         MSFL         NPHI          PEF         RHOB
# ...
   2991.4595       7.9311      70.2594     122.9082    -999.2500       8.0681       7.5610       2.3706       0.2407       3.1010       2.6560
   2991.6121       8.3260      69.1841     122.6820    -999.2500       8.0330       7.5170       2.2370       0.2509       2.8790       2.6440
   2991.7644       8.4866      73.1476     122.2554    -999.2500       8.1449       7.6539       2.1556       0.2429       2.8381       2.6115
   2991.9167       8.6480      77.2883     121.8280    -999.2500       8.2570       7.7910       2.0740       0.2348       2.7970       2.5790
   2992.0691       8.5941      80.4605     120.6545    -999.2500       8.3918       7.8909       2.3547       0.2280       2.8783       2.5805
   2992.2217       8.5400      82.6555     119.4770    -999.2500       8.5270       7.9910       2.6360       0.2212       2.9600       2.5820
   2992.3740       8.3744      81.3446     118.6384    -999.2500       8.3945       7.8352       3.7839       0.2213       2.9765       2.5825
   2992.5264       8.2080      78.7097     117.7940    -999.2500       8.2610       7.6790       4.9340       0.2215       2.9930       2.5830
   2992.6787       8.1013      72.6312     120.3211    -999.2500       7.8252       7.2709       4.4925       0.2275       3.0045       2.5835
   2992.8313       7.9940      67.1685     122.8740    -999.2500       7.3850       6.8620       4.0500       0.2334       3.0160       2.5840
   2992.9836       7.9760      66.0983     126.4652    -999.2500       7.1073       6.6263       3.1820       0.2364       3.0489       2.5925
   2993.1360       7.9580      66.6710     130.0760    -999.2500       6.8280       6.3900       2.3120       0.2393       3.0820       2.6010
   2993.2883       7.9241      71.5195     131.0491    -999.2500       6.7900       6.4090       2.5447       0.2371       3.1593       2.6080
   2993.4407       7.8900      75.5227     132.0230    -999.2500       6.7520       6.4280       2.7780       0.2348       3.2370       2.6150
   2993.5933       7.8696      76.1396     129.9592    -999.2500       6.6462       6.3326       2.9827       0.2482       3.3377       2.5886
   2993.7456       7.8490      75.6007     127.8870    -999.2500       6.5400       6.2370       3.1880       0.2617       3.4390       2.5620
   2993.8979       7.9293      75.7479     130.4754    -999.2500       6.0767       5.8235       2.9793       0.2676       3.3742       2.5645
   2994.0503       8.0100      75.9126     133.0830    -999.2500       5.6100       5.4090       2.7700       0.2734       3.3090       2.5670
   2994.2029       7.9975      76.0688     135.1684    -999.2500       5.4348       5.2632       2.4300       0.2672       3.1280       2.5844
   2994.3552       7.9850      76.2359     137.2730    -999.2500       5.2580       5.1170       2.0890       0.2609       2.9460       2.6020
   2994.5076       8.0294      76.5049     135.7589    -999.2500       5.4551       5.3332       2.2548       0.2677       2.8628       2.5940
   2994.6599       8.0740      76.6342     134.2380    -999.2500       5.6530       5.5500       2.4210       0.2745       2.7790       2.5860
   2994.8125       8.1732      76.1410     132.4383    -999.2500       6.0527       5.9454       2.6092       0.2773       2.9041       2.5755
   2994.9648       8.2730      75.5255     130.6360    -999.2500       6.4530       6.3420       2.7980       0.2802       3.0300       2.5650
   2995.1172       8.3169      75.0371     129.6523    -999.2500       6.5962       6.4903       2.7291       0.2766       3.1551       2.5590
   2995.2695       8.3610      74.6261     128.6640    -999.2500       6.7400       6.6390       2.6600       0.2730       3.2810       2.5530
   2995.4219       8.2802      74.5471     126.4581    -999.2500       6.7634       6.6640       2.5941       0.2791       3.2965       2.5505
   2995.5745       8.1990      74.4539     124.2380    -999.2500       6.7870       6.6890       2.5280       0.2852       3.3120       2.5480
   2995.7268       8.0923      74.1709     120.4630    -999.2500       7.3099       7.1576       2.8482       0.2912       3.2332       2.5435
   2995.8792       7.9850      73.8269     116.6570    -999.2500       7.8370       7.6270       3.1690       0.2972       3.1540       2.5390
   2996.0315       7.9995      73.5282     113.3330    -999.2500       8.4345       8.1615       3.3623       0.2881       3.1181       2.5395
   2996.1841       8.0140      73.2479     109.9920    -999.2500       9.0350       8.6970       3.5560       0.2789       3.0820       2.5400
   2996.3364       8.0664      73.0162     106.3502    -999.2500       9.2048       8.8648       2.9966       0.2734       3.2251       2.5560
   2996.4888       8.1190      72.5711     102.7010    -999.2500       9.3750       9.0330       2.4360       0.2677       3.3690       2.5720
   2996.6411       8.0651      69.0825      93.9924    -999.2500      12.2241      11.6597       5.1895       0.2663       3.6009       2.5805
   2996.7937       8.0110      66.6592      85.2510    -999.2500      15.0840      14.2920       7.9490       0.2649       3.8340       2.5890
   2996.9460       7.8395      68.6303      81.0499    -999.2500      18.3629      17.2946      15.1588       0.2483       3.7273       2.6030
   2997.0984       7.6670      71.2716      76.8190    -999.2500      21.6650      20.3040      22.3850       0.2316       3.6200       2.6170
   2997.2507       7.5613      70.3996      82.5928    -999.2500      20.1639      18.9062      19.1948       0.2213       3.4949       2.6046
   2997.4031       7.4550      68.8821      88.4270    -999.2500      18.6470      17.5050      15.9970       0.2109       3.3690       2.5920
   2997.5557       7.3568      67.5747      93.6584    -999.2500      16.8661      15.7537      13.3628       0.1924       3.6068       2.5955
   2997.7080       7.2580      66.9489      98.9200    -999.2500      15.0750      13.9980      10.7220       0.1737       3.8460       2.5990
   2997.8604       7.2296      68.5403     104.4546    -999.2500      14.3129      13.2105      10.6106       0.1555       4.1975       2.6260
   2998.0127       7.2010      70.5748     109.9950    -999.2500      13.5500      12.4210      10.4990       0.1373       4.5510       2.6530
   2998.1653       7.2573      70.3873     114.8269    -999.2500      13.2287      12.1564       9.3995       0.1451       4.4353       2.6710
   2998.3176       7.3140      69.9529     119.6800    -999.2500      12.9060      11.8910       8.2970       0.1529       4.3190       2.6890
   2998.4700       7.3728      69.3794     120.9521    -999.2500      12.6256      11.7387       7.4687       0.1687       4.0244       2.6905
   2998.6223       7.4320      68.7405     122.2340    -999.2500      12.3430      11.5860       6.6380       0.1846       3.7280       2.6920
   2998.7749       7.4699      66.7739     123.2930    -999.2500      12.2181      11.5730       5.6097       0.1894       3.7056       2.6865
   2998.9272       7.5080      65.2323     124.3620    -999.2500      12.0920      11.5600       4.5800       0.1943       3.6830       2.6810
   2999.0796       7.5464      65.0533     125.1352    -999.2500      11.4515      10.9385       4.3167       0.1980       3.5150       2.6615
   2999.2319       7.5850      65.5418     125.9120    -999.2500      10.8080      10.3160       4.0530       0.2017       3.3460       2.6420
   2999.3843       7.6743      67.6620     128.4729    -999.2500       9.9083       9.4607       3.7238       0.1979       3.2278       2.6375
   2999.5369       7.7640      69.7450     131.0380    -999.2500       9.0070       8.6040       3.3940       0.1942       3.1090       2.6330
   2999.6892       7.7720      70.8813     131.7323    -999.2500       8.9357       8.4801       3.5209       0.1972       3.1110       2.6315
   2999.8416       7.7800      70.0346     132.4300    -999.2500       8.8640       8.3560       3.6480       0.2002       3.1130       2.6300
