#------------------------------------------------------------------------------
#
#   Created by  : [OpenWorks] Log Export Utility (LEXP)
#   Created on  : 2016-05-23 11:51:57
#   Project     : CANT971
#   User        : R5K
#   Interpreter : PEP
#
#------------------------------------------------------------------------------
~VERSION INFORMATION
VERS. 2.0 : CWLS Log ASCII Standard - version 2.0
WRAP. YES : Mulitple lines per depth step
~WELL INFORMATION
#MNEMONIC   .UNIT                                           VALUE :DESCRIPTION
#------------------------------------------------------------------------------
STRT        .M                                           782.8787 :START DEPTH
STOP        .M                                          2966.0088 :STOP DEPTH
STEP        .M                                             0.1524 :STEP
NULL        .                                           -999.2500 :NULL VALUE
COMP        .                                   PEMEX EXPL & PROD :COMPANY
WELL        .                                                 178 :WELL
FLD         .                                           CANTARELL :FIELD
LOC         .                                             UNKNOWN :LOCATION
CNTY        .                                      CD. DEL CARMEN :COUNTY
STAT        .                                            CAMPECHE :STATE
CTRY        .                                              MEXICO :COUNTRY
SRVC        .                                             UNKNOWN :SERVICE COMPANY
DATE        .                                             UNKNOWN :LOG DATE
UWI         .                                          3060000702 :UNIQUE WELL ID
XCOORD      .                                       602144.590000 :SURFACE X
YCOORD      .                                      2147185.340000 :SURFACE Y
LAT         .                                           19.417512 :LATITUDE
LON         .                                          -92.027103 :LONGITUDE
ELEV        .M                                            28.1700 :SURFACE ELEV
ELEV_TYPE   .                                                  KB :ELEV TYPE
~CURVE INFORMATION
#MNEMONIC.UNIT        API CODE       : CURVE DESCRIPTION
#------------------------------------------------------------------------------
DEPTH    .M                          : Measured Depth
CALI     .inches      UNKNOWN        : CALI:registros:rC:NONE:v0 (auto-composite)
CGR      .API         UNKNOWN        : CGR:registros:rC:NONE:v0 (auto-composite)
DRHO     .g/cm3       UNKNOWN        : DRHO:registros:rC:NONE:v0 (auto-composite)
DT       .UNKNOWN     UNKNOWN        : DT:registros:rC:NONE:v0 (auto-composite)
GR       .API         UNKNOWN        : GR:registros:rC:NONE:v0 (auto-composite)
GR-LWD   .UNKNOWN     UNKNOWN        : GR-LWD:registros:rC:NONE:v0 (auto-composite)
ILD      .ohm.m       UNKNOWN        : ILD:registros:rC:NONE:v0 (auto-composite)
ILM      .ohm.m       UNKNOWN        : ILM:registros:rC:NONE:v0 (auto-composite)
LLD      .ohm.m       UNKNOWN        : LLD:registros:rC:NONE:v0 (auto-composite)
LLD-LWD  .UNKNOWN     UNKNOWN        : LLD-LWD:registros:rC:NONE:v0 (auto-composite)
LLS      .ohm.m       UNKNOWN        : LLS:registros:rC:NONE:v0 (auto-composite)
LLS-LWD  .UNKNOWN     UNKNOWN        : LLS-LWD:registros:rC:NONE:v0 (auto-composite)
MSFL     .ohm.m       UNKNOWN        : MSFL:registros:rC:NONE:v0 (auto-composite)
MSFL-LWD .UNKNOWN     UNKNOWN        : MSFL-LWD:registros:rC:NONE:v0 (auto-composite)
NPHI     .v/v_decimal UNKNOWN        : NPHI:registros:rC:NONE:v0 (auto-composite)
PEF      .b/elec      UNKNOWN        : PEF:registros:rC:NONE:v0 (auto-composite)
POTA     .wtpercent   UNKNOWN        : POTA:registros:rC:NONE:v0 (auto-composite)
RHOB     .g/cm3       UNKNOWN        : RHOB:registros:rC:NONE:v0 (auto-composite)
THOR     .ppm         UNKNOWN        : THOR:registros:rC:NONE:v0 (auto-composite)
URAN     .ppm         UNKNOWN        : URAN:registros:rC:NONE:v0 (auto-composite)
~A
# ...
   2051.3040
      13.6589      19.2990       0.1424      64.6242      38.5956    -999.2500
    -999.2500    -999.2500      39.1316    -999.2500      42.6671    -999.2500
    -999.2500    -999.2500       0.0261       4.3725       0.0076       2.6814
       1.6113       2.3773
   2051.4563
      13.7811      17.9841       0.1229      63.7833      36.8596    -999.2500
    -999.2500    -999.2500      39.9453    -999.2500      43.0907    -999.2500
    -999.2500    -999.2500       0.0269       4.2427       0.0076       2.6869
       1.5404       2.4302
   2051.6086
      13.8953      16.6796       0.1038      62.9510      35.2038    -999.2500
    -999.2500    -999.2500      40.5420    -999.2500      43.3259    -999.2500
    -999.2500    -999.2500       0.0275       4.1209       0.0073       2.6909
       1.4704       2.4908
   2051.7612
      13.9118      15.5339       0.0883      62.1861      34.5752    -999.2500
    -999.2500    -999.2500      38.5977    -999.2500      41.3681    -999.2500
    -999.2500    -999.2500       0.0264       4.0949       0.0068       2.6774
       1.4130       2.6386
   2051.9136
      13.8883      14.6040       0.0739      61.6891      34.2908    -999.2500
    -999.2500    -999.2500      36.5807    -999.2500      39.3248    -999.2500
    -999.2500    -999.2500       0.0250       4.0761       0.0065       2.6657
       1.3808       2.7842
   2052.0659
      13.4081      16.1943       0.0729      64.2360      38.0593    -999.2500
    -999.2500    -999.2500      33.7929    -999.2500      36.3643    -999.2500
    -999.2500    -999.2500       0.0240       4.1390       0.0065       2.6742
       1.6394       2.8985
   2052.2183
      12.9427      17.7171       0.0718      66.9402      41.6141    -999.2500
    -999.2500    -999.2500      31.1801    -999.2500      33.5845    -999.2500
    -999.2500    -999.2500       0.0225       4.2002       0.0068       2.6832
       1.8665       3.0120
   2052.3706
      12.6497      18.4094       0.0693      71.5500      42.5871    -999.2500
    -999.2500    -999.2500      30.7290    -999.2500      33.0380    -999.2500
    -999.2500    -999.2500       0.0199       4.2401       0.0074       2.6982
       1.7216       3.1118
   2052.5232
      12.3805      18.9755       0.0675      76.2270      43.4482    -999.2500
    -999.2500    -999.2500      30.4225    -999.2500      32.6501    -999.2500
    -999.2500    -999.2500       0.0184       4.2709       0.0079       2.7110
       1.5637       3.2176
   2052.6755
      12.3870      18.0606       0.0735      81.7510      43.0196    -999.2500
    -999.2500    -999.2500      31.7849    -999.2500      34.0944    -999.2500
    -999.2500    -999.2500       0.0198       4.1944       0.0083       2.6990
       1.2610       3.3864
   2052.8279
      12.3963      17.1950       0.0778      87.5215      42.7176    -999.2500
    -999.2500    -999.2500      32.5847    -999.2500      34.9603    -999.2500
    -999.2500    -999.2500       0.0278       4.1387       0.0086       2.6847
       0.9676       3.5520
   2052.9802
      12.4378      16.9361       0.0633      96.1687      43.9043    -999.2500
    -999.2500    -999.2500      26.8444    -999.2500      29.1011    -999.2500
    -999.2500    -999.2500       0.0461       4.3204       0.0087       2.6437
       0.7895       3.6757
   2053.1328
      12.4813      16.7182       0.0464     104.3354      45.0249    -999.2500
    -999.2500    -999.2500      22.2039    -999.2500      24.1947    -999.2500
    -999.2500    -999.2500       0.0754       4.4434       0.0087       2.5856
       0.6330       3.7860
   2053.2852
      12.5472      16.9818       0.0020     107.1188      45.3286    -999.2500
    -999.2500    -999.2500      30.3771    -999.2500      30.4210    -999.2500
    -999.2500    -999.2500       0.1182       3.8882       0.0086       2.3321
       0.7329       3.7366
   2053.4375
      12.6234      17.2942      -0.0300     109.3649      45.5375    -999.2500
    -999.2500    -999.2500      39.7054    -999.2500      37.6878    -999.2500
    -999.2500    -999.2500       0.1606       3.4262       0.0085       2.0928
       0.8430       3.6727
   2053.5898
      12.8173      18.1489       0.0818     105.5983      44.6065    -999.2500
    -999.2500    -999.2500      62.4003    -999.2500      56.9990    -999.2500
    -999.2500    -999.2500       0.1927       4.0340       0.0086       2.0168
       1.0654       3.4463
   2053.7424
      13.0644      19.0344       0.1818     101.9306      43.5958    -999.2500
    -999.2500    -999.2500      81.3269    -999.2500      73.2883    -999.2500
    -999.2500    -999.2500       0.1990       4.5693       0.0089       1.9611
       1.2937       3.2114
   2053.8948
      13.9179      20.2249       0.1419      99.3549      41.6735    -999.2500
    -999.2500    -999.2500      56.4880    -999.2500      54.4582    -999.2500
    -999.2500    -999.2500       0.1633       4.2491       0.0094       2.1371
       1.5774       2.8923
   2054.0471
      14.6535      21.6428       0.1038      96.7897      40.2387    -999.2500
    -999.2500    -999.2500      33.0125    -999.2500      36.0532    -999.2500
    -999.2500    -999.2500       0.1229       3.9471       0.0103       2.3097
       1.8616       2.5911
   2054.1995
      14.0294      25.5988       0.0893      94.2764      44.4048    -999.2500
    -999.2500    -999.2500      25.5355    -999.2500      22.7043    -999.2500
    -999.2500    -999.2500       0.1033       3.8618       0.0115       2.4417
       2.1418       2.5053
   2054.3518
      13.4340      29.4090       0.0733      92.3605      48.6349    -999.2500
    -999.2500    -999.2500      19.1828    -999.2500      10.4186    -999.2500
    -999.2500    -999.2500       0.1000       3.7879       0.0127       2.5577
       2.4085       2.4506
   2054.5044
      13.1840      31.3100       0.0399      97.2907      53.5134    -999.2500
    -999.2500    -999.2500      25.9438    -999.2500      10.6884    -999.2500
    -999.2500    -999.2500       0.1131       3.8488       0.0133       2.4917
       2.5018       2.7577
   2054.6567
      12.9597      32.9768       0.0080     102.5251      58.0911    -999.2500
    -999.2500    -999.2500      31.4464    -999.2500      11.5070    -999.2500
    -999.2500    -999.2500       0.1402       3.8969       0.0136       2.4266
       2.5650       3.0574
   2054.8091
      13.0301      31.8959      -0.0045     111.3419      58.9635    -999.2500
    -999.2500    -999.2500      22.4437    -999.2500      18.5689    -999.2500
    -999.2500    -999.2500       0.1826       3.7970       0.0133       2.3721
       2.2799       3.2606
   2054.9614
      13.1544      30.7018      -0.0099     119.5898      59.5752    -999.2500
    -999.2500    -999.2500      60.1964    -999.2500      38.0737    -999.2500
    -999.2500    -999.2500       0.2303       3.7484       0.0128       2.3168
       2.0017       3.4547
   2055.1140
      13.8978      28.2324       0.0659     121.6398      57.0514    -999.2500
    -999.2500    -999.2500     637.0878    -999.2500     200.6373    -999.2500
    -999.2500    -999.2500       0.2771       4.2915       0.0122       2.2518
       1.8105       3.5391
   2055.2664
      14.6626      25.5632       0.1377     123.4160      54.2839    -999.2500
    -999.2500    -999.2500    1845.1671    -999.2500     385.3341    -999.2500
    -999.2500    -999.2500       0.3193       4.7498       0.0111       2.1900
       1.6271       3.6128
   2055.4187
      15.6630      20.7271       0.1592     122.1136      48.7105    -999.2500
    -999.2500    -999.2500   10238.5303    -999.2500     817.9807    -999.2500
    -999.2500    -999.2500       0.3534       4.2268       0.0090       2.1655
       1.5418       3.5603
   2055.5710
      16.5135      16.1665       0.1772     120.4484      43.3630    -999.2500
    -999.2500    -999.2500   19621.4531    -999.2500    1227.3838    -999.2500
    -999.2500    -999.2500       0.3675       3.7168       0.0070       2.1486
       1.4684       3.5030
