#------------------------------------------------------------------------------
#
#   Created by  : [OpenWorks] Log Export Utility (LEXP)
#   Created on  : 2016-05-23 11:55:55
#   Project     : CANT971
#   User        : R5K
#   Interpreter : PEP
#
#------------------------------------------------------------------------------
~VERSION INFORMATION
VERS. 2.0 : CWLS Log ASCII Standard - version 2.0
WRAP.  NO : One line per depth step
~WELL INFORMATION
#MNEMONIC   .UNIT                                           VALUE :DESCRIPTION
#------------------------------------------------------------------------------
STRT        .M                                          2870.4541 :START DEPTH
STOP        .M                                          3966.9722 :STOP DEPTH
STEP        .M                                             0.1524 :STEP
NULL        .                                           -999.2500 :NULL VALUE
COMP        .                                             UNKNOWN :COMPANY
WELL        .                                            418D-ST1 :WELL
FLD         .                                             UNKNOWN :FIELD
LOC         .                                             UNKNOWN :LOCATION
CNTY        .                                             UNKNOWN :COUNTY
STAT        .                                             UNKNOWN :STATE
CTRY        .                                             UNKNOWN :COUNTRY
SRVC        .                                             UNKNOWN :SERVICE COMPANY
DATE        .                                             UNKNOWN :LOG DATE
UWI         .                                            418D-ST1 :UNIQUE WELL ID
XCOORD      .                                       597130.010000 :SURFACE X
YCOORD      .                                      2144879.410000 :SURFACE Y
LAT         .                                           19.396924 :LATITUDE
LON         .                                          -92.074978 :LONGITUDE
ELEV        .M                                             0.0000 :SURFACE ELEV
ELEV_TYPE   .                                                  NA :ELEV TYPE
~CURVE INFORMATION
#MNEMONIC.UNIT        API CODE       : CURVE DESCRIPTION
#------------------------------------------------------------------------------
DEPTH    .M                          : Measured Depth
CALI     .inches      UNKNOWN        : CALI:litodensidad:rC:NONE:v0 (auto-composite)
CGR      .API         UNKNOWN        : CGR:litodensidad:rC:NONE:v0 (auto-composite)
DRHO     .g/cm3       UNKNOWN        : DRHO:litodensidad:rC:NONE:v0 (auto-composite)
DT       .us/ft       UNKNOWN        : DT:DT-Load:rC:NONE:v0 (auto-composite)
GR       .API         UNKNOWN        : GR:litodensidad:rC:NONE:v0 (auto-composite)
LLD      .ohm.m       UNKNOWN        : LLD:PETROWORKS:rC:NONE:v1 
LLS      .ohm.m       UNKNOWN        : LLS:PETROWORKS:rC:NONE:v1 
MSFL     .ohm.m       UNKNOWN        : MSFL:resistivos:rC:NONE:v0 (auto-composite)
NPHI     .v/v_decimal UNKNOWN        : NPHI:litodensidad:rC:NONE:v0 (auto-composite)
PEF      .UNKNOWN     UNKNOWN        : PEF:litodensidad:rC:NONE:v0 (auto-composite)
POTA     .UNKNOWN     UNKNOWN        : POTA:litodensidad:rC:NONE:v0 (auto-composite)
RHOB     .g/cm3       UNKNOWN        : RHOB:litodensidad:rC:NONE:v0 (auto-composite)
THOR     .ppm         UNKNOWN        : THOR:litodensidad:rC:NONE:v0 (auto-composite)
URAN     .ppm         UNKNOWN        : URAN:litodensidad:rC:NONE:v0 (auto-composite)
~A     DEPTH         CALI          CGR         DRHO           DT           GR          LLD          LLS         MSFL         NPHI          PEF         POTA         RHOB         THOR         URAN
# ...
   3497.7324      12.0000      35.4237       0.0231      49.8000      42.7961      21.0085      18.4911       1.1035       0.1124       4.1602       0.0099       2.6637       5.3145       0.9475
   3497.8850      12.1250      24.8340       0.0479      98.9000      29.8707      21.5751      19.0639       1.0391       0.1394       4.4805       0.0071       2.6993       3.6666       0.6473
   3498.0374      12.1719      22.9512       0.0587      98.2000      27.1649      21.4434      19.0908       0.9712       0.1515       4.4688       0.0064       2.7161       3.4312       0.5416
   3498.1897      12.3281      22.2963       0.0703     112.3000      25.9183      20.4056      18.2933       0.9478       0.1617       4.3359       0.0062       2.7252       3.3470       0.4655
   3498.3420      12.3359      22.2016       0.0631     113.0000      25.5680      20.3356      18.5030       0.9204       0.1803       4.2070       0.0059       2.7067       3.4472       0.4327
   3498.4944      12.3828      23.2557       0.0413      73.2000      27.3444      21.3467      19.3238       0.8965       0.1946       4.1406       0.0061       2.6617       3.6375       0.5255
   3498.6470      12.5078      23.6132       0.0197      76.0000      27.2802      19.7598      18.0443       0.8340       0.1925       4.0352       0.0064       2.6315       3.6371       0.4713
   3498.7993      12.5078      22.5130       0.0158      90.2000      23.6948      18.7915      17.1550       0.8633       0.1854       4.0547       0.0061       2.6333       3.4683       0.1519
   3498.9517      12.4922      22.6965       0.0094      72.7000      23.4780      17.5145      16.1057       0.7759       0.1820       4.3711       0.0063       2.6438       3.4252       0.1004
   3499.1040      12.3750      22.7460       0.0077      72.7000      22.9561      15.1666      13.9479       0.8242       0.1825       4.6914       0.0067       2.6415       3.2757       0.0270
   3499.2566      12.3516      23.2787       0.0061      40.0000      23.6591      14.0147      12.7484       0.7725       0.1863       4.7969       0.0073       2.6125       3.1660       0.0489
   3499.4089      12.5000      23.2738       0.0013      73.9000      23.4543      13.4599      12.1541       0.8174       0.1843       4.7813       0.0078       2.5931       2.9401       0.0232
   3499.5613      12.5078      26.2172      -0.0052      77.5000      27.2334      13.1580      11.8372       0.7925       0.1692       4.9609       0.0091       2.5782       3.1672       0.1306
   3499.7136      12.5078      27.3109      -0.0037      76.7000      29.0508      12.9666      11.5134       0.7451       0.1544       4.7930       0.0096       2.5930       3.2568       0.2236
   3499.8662      12.5078      33.9484      -0.0039      39.4000      38.6007      14.2154      12.5535       0.6860       0.1417       4.6055       0.0102       2.6023       4.7865       0.5979
   3500.0186      12.5078      31.7137      -0.0072      37.9000      34.1791      15.7343      13.9047       0.6470       0.1420       4.4453       0.0087       2.6257       4.8335       0.3169
   3500.1709      12.3750      33.6533      -0.0066      83.6000      36.9320      17.3930      15.2104       0.7197       0.1440       4.6133       0.0092       2.6459       5.1363       0.4214
   3500.3232      12.3359      37.4205      -0.0059     107.8000      41.4401      19.4189      17.0403       0.7290       0.1596       4.7266       0.0115       2.6448       5.1429       0.5166
   3500.4756      12.3359      34.2970      -0.0062     145.2000      36.9447      17.7134      15.7056       0.7114       0.1745       4.5352       0.0103       2.6253       4.8403       0.3403
   3500.6282      12.2500      31.4321      -0.0093     101.6000      32.8245      15.4465      13.5662       0.6826       0.1788       4.3750       0.0096       2.6090       4.3574       0.1790
   3500.7805      12.1563      26.4813      -0.0098     107.3000      28.1257      13.3589      11.7792       0.6719       0.1457       3.9922       0.0076       2.6090       3.8976       0.2114
   3500.9329      12.1094      27.3736      -0.0079     112.7000      30.0692       9.3333       8.2569       0.6528       0.1161       3.8945       0.0081       2.6287       3.9114       0.3465
   3501.0852      12.1250      28.6807      -0.0026     126.9000      32.0516       7.8279       6.8346       0.6470       0.0930       3.6172       0.0088       2.6540       3.9791       0.4332
   3501.2378      12.1016      32.3411      -0.0009     124.8000      38.7047       7.3086       6.3104       0.6753       0.0943       3.5176       0.0076       2.6591       5.4565       0.8179
   3501.3901      12.1563      45.3260      -0.0032     118.7000      51.9145       6.1573       5.4090       0.6416       0.1061       3.3223       0.0129       2.6169       6.6821       0.8468
   3501.5425      12.1484      49.6693      -0.0065      68.3000      57.8819       7.0483       5.9454       0.6602       0.1258       3.2070       0.0151       2.5681       6.9293       1.0555
   3501.6948      12.0547      62.5797      -0.0076     122.4000      70.9910       7.8965       6.7282       0.6885       0.1332       3.2344       0.0220       2.5459       7.4394       1.0810
   3501.8474      12.1484      63.2255      -0.0031     110.2000      71.7639       8.4753       7.1305       0.6743       0.1264       3.3008       0.0224       2.5688       7.4647       1.0974
   3501.9998      12.1719      61.5765      -0.0001      94.7000      69.4090       9.7497       8.2764       0.7178       0.1133       3.3203       0.0220       2.5949       7.1712       1.0067
   3502.1521      12.2188      62.1107       0.0025      62.0000      70.2078      11.2545       9.5366       0.6929       0.1218       3.4082       0.0222       2.6137       7.2493       1.0407
   3502.3044      12.2891      63.2490       0.0043     -16.8000      71.7471      12.4278      10.3506       0.6636       0.1316       3.6094       0.0228       2.6383       7.3059       1.0922
   3502.4568      12.3359      53.4502       0.0077      38.0000      61.1813      15.4229      12.6319       0.7007       0.1412       4.0000       0.0183       2.6694       6.5702       0.9936
   3502.6094      12.4766      52.4039       0.0075      37.2000      59.4202      16.4395      13.6710       0.7114       0.1386       4.1914       0.0181       2.6948       6.3751       0.9018
   3502.7617      12.4688      35.3996       0.0032      38.8000      35.2433      16.7167      13.5876       0.6641       0.1358       4.3594       0.0122       2.6954       4.3161      -0.0201
   3502.9141      12.4453      26.1898       0.0005      49.8000      26.8072      15.6015      12.6708       0.6172       0.1307       4.3672       0.0082       2.6856       3.5682       0.0793
   3503.0664      12.5078      26.4706      -0.0022      95.0000      27.3577      11.9785       9.6398       0.6924       0.1290       4.3555       0.0081       2.6671       3.6547       0.1140
   3503.2190      12.5078      27.7008      -0.0032     111.0000      29.6812       8.8430       7.0474       0.7559       0.1230       4.4805       0.0082       2.6479       3.9619       0.2545
   3503.3713      12.5078      28.8131       0.0006     209.8000      31.4987       6.6155       5.0793       0.7075       0.1211       4.9336       0.0084       2.6426       4.1822       0.3452
   3503.5237      12.6563      30.5810       0.0281     166.8000      33.9443       4.7427       3.7433       0.6250       0.1154       5.1211       0.0088       2.6045       4.4893       0.4323
   3503.6760      13.0625      34.8422       0.0594     142.6000      39.4083       4.5250       3.5752       0.6606       0.1160       4.9063       0.0087       2.5506       5.6572       0.5868
   3503.8286      13.2344      48.5023       0.0765     142.3000      51.0720       4.4124       3.4548       0.6787       0.1186       4.4922       0.0159       2.5169       6.2488       0.3303
   3503.9810      13.3125      57.7848       0.0978     142.1000      59.3374       3.9960       3.2237       0.6211       0.1294       3.9766       0.0193       2.5566       7.3235       0.1995
