#------------------------------------------------------------------------------
#
#   Created by  : [OpenWorks] Log Export Utility (LEXP)
#   Created on  : 2016-05-23 11:56:16
#   Project     : CANT971
#   User        : R5K
#   Interpreter : PEP
#
#------------------------------------------------------------------------------
~VERSION INFORMATION
VERS. 2.0 : CWLS Log ASCII Standard - version 2.0
WRAP.  NO : One line per depth step
~WELL INFORMATION
#MNEMONIC   .UNIT                                           VALUE :DESCRIPTION
#------------------------------------------------------------------------------
STRT        .M                                           785.0543 :START DEPTH
STOP        .M                                          3464.0940 :STOP DEPTH
STEP        .M                                             0.1524 :STEP
NULL        .                                           -999.2500 :NULL VALUE
COMP        .                                   PEMEX EXPL & PROD :COMPANY
WELL        .                                                448D :WELL
FLD         .                                           CANTARELL :FIELD
LOC         .                                             UNKNOWN :LOCATION
CNTY        .                                      CD. DEL CARMEN :COUNTY
STAT        .                                            CAMPECHE :STATE
CTRY        .                                              MEXICO :COUNTRY
SRVC        .                                             UNKNOWN :SERVICE COMPANY
DATE        .                                             UNKNOWN :LOG DATE
UWI         .                                          3060000822 :UNIQUE WELL ID
XCOORD      .                                       598710.240000 :SURFACE X
YCOORD      .                                      2143307.000000 :SURFACE Y
LAT         .                                           19.382637 :LATITUDE
LON         .                                          -92.060012 :LONGITUDE
ELEV        .M                                            28.0000 :SURFACE ELEV
ELEV_TYPE   .                                                  KB :ELEV TYPE
~CURVE INFORMATION
#MNEMONIC.UNIT        API CODE       : CURVE DESCRIPTION
#------------------------------------------------------------------------------
DEPTH    .M                          : Measured Depth
CALI     .inches      UNKNOWN        : CALI:registros:rC:NONE:v0 (auto-composite)
DRHO     .g/cm3       UNKNOWN        : DRHO:registros:rC:NONE:v0 (auto-composite)
DT       .us/ft       UNKNOWN        : DT:registros:rC:NONE:v0 (auto-composite)
GR       .API         UNKNOWN        : GR:registros:rC:NONE:v0 (auto-composite)
LLD      .ohm.m       UNKNOWN        : LLD:registros:rC:NONE:v0 (auto-composite)
LLS      .ohm.m       UNKNOWN        : LLS:registros:rC:NONE:v0 (auto-composite)
MSFL     .ohm.m       UNKNOWN        : MSFL:registros:rC:NONE:v0 (auto-composite)
NPHI     .v/v_decimal UNKNOWN        : NPHI:registros:rC:NONE:v0 (auto-composite)
PEF      .b/elec      UNKNOWN        : PEF:registros:rC:NONE:v0 (auto-composite)
RHOB     .g/cm3       UNKNOWN        : RHOB:registros:rC:NONE:v0 (auto-composite)
~A     DEPTH         CALI         DRHO           DT           GR          LLD          LLS         MSFL         NPHI          PEF         RHOB
# ...
   3260.0303      14.6511      -0.0040      50.8181      34.9879     153.1358     138.2659      31.9644       0.0208       4.6262       2.6690
   3260.1826      14.6240      -0.0055      57.5774      33.5362     150.1116     135.0699      34.4534       0.0282       4.6966       2.6739
   3260.3352      14.6128      -0.0056      58.9591      31.4349      80.0605      76.5530      35.9129       0.0305       4.7148       2.6768
   3260.4875      14.6115      -0.0047      59.4957      32.2282      64.3147      62.3542      73.5960       0.0326       4.7520       2.6796
   3260.6399      14.6163      -0.0018      60.6246      38.1129      61.8795      60.6097     157.8073       0.0390       4.8678       2.6766
   3260.7922      14.6020      -0.0010      60.9738      45.2132      52.4804      52.5726     127.5635       0.0557       5.1061       2.6565
   3260.9448      14.6518      -0.0017      60.3349      48.7454      53.6126      53.6550      99.7725       0.0593       5.3667       2.6417
   3261.0972      14.6306       0.0003      59.8318      49.0423      64.8321      64.7856     103.6653       0.0508       5.3537       2.6514
   3261.2495      14.6165       0.0018      59.8111      49.3205      56.3796      57.0048      66.2527       0.0438       5.2827       2.6595
   3261.4019      14.6211       0.0011      58.8920      49.7768      45.0690      45.1429      53.9180       0.0423       5.0591       2.6620
   3261.5542      14.6305      -0.0011      58.5168      49.0909      46.2809      45.5029     114.1404       0.0436       4.9362       2.6610
   3261.7068      14.6517       0.0007      58.6141      46.2866      46.8103      45.5184      73.4119       0.0423       5.0799       2.6618
   3261.8591      14.6630       0.0013      58.3490      43.0516      47.3873      45.6828      40.6636       0.0405       5.2228       2.6559
   3262.0115      14.6384      -0.0027      57.7703      41.9655      56.6790      53.2917      53.3172       0.0402       5.3029       2.6349
   3262.1638      14.6022      -0.0087      57.6459      40.9934      82.8379      75.7203      68.2559       0.0450       5.2239       2.6263
   3262.3164      14.6022      -0.0081      59.2289      41.5970     103.8066      93.7559      66.1575       0.0427       5.1465       2.6356
   3262.4688      14.6036      -0.0077      60.5107      43.3406     136.1776     119.4903     147.8775       0.0387       5.0416       2.6431
   3262.6211      14.6081      -0.0072      62.6634      46.2389     157.7525     136.1073     144.1990       0.0326       4.9445       2.6439
   3262.7734      14.6141      -0.0050      65.3751      49.3455     124.1336     110.4641      52.4676       0.0443       5.0564       2.6373
   3262.9260      14.6185      -0.0021      64.5973      53.3567      61.6083      57.9921      53.8573       0.0748       5.1265       2.6309
   3263.0784      14.5994      -0.0015      60.9219      58.3482      44.8318      42.2925     144.1627       0.0808       5.0995       2.6391
   3263.2307      14.6004      -0.0010      58.6833      59.3278      32.5627      31.0798     207.1375       0.0855       5.1489       2.6474
   3263.3831      14.6518      -0.0006      58.7470      54.6571      33.4299      31.4605     360.6382       0.0827       5.3881       2.6557
   3263.5354      14.6799      -0.0006      59.1274      47.6077      44.9093      41.5372     357.4148       0.0706       5.4927       2.6596
   3263.6880      14.6653      -0.0010      59.9924      42.2497      65.3044      59.5165     154.8165       0.0616       5.3194       2.6573
   3263.8403      14.6544      -0.0009      60.8130      41.3466     105.7906      92.5530      95.5374       0.0518       5.0393       2.6559
   3263.9927      14.6356       0.0013      61.7248      44.4247     137.8026     117.2888     143.7937       0.0508       4.5969       2.6608
   3264.1450      14.5914       0.0039      61.7123      48.3817     128.1164     109.5523     145.6840       0.0715       4.5582       2.6714
   3264.2976      14.6064       0.0032      61.4284      51.4958      56.4138      52.3550      95.5928       0.0734       4.7553       2.6711
   3264.4500      14.6172       0.0034      61.3967      51.9082      47.9812      44.8317     137.6413       0.0701       4.9203       2.6698
   3264.6023      14.6233       0.0052      60.3084      48.7434      45.7206      42.5063     113.5374       0.0578       5.0507       2.6665
   3264.7546      14.6470       0.0035      58.4422      43.6107      42.2760      39.0862      85.7082       0.0577       5.1240       2.6656
   3264.9072      14.6662      -0.0012      58.0162      40.5646      43.9831      39.8788      55.4702       0.0576       4.8199       2.6640
   3265.0596      14.6652      -0.0020      59.4758      43.3317      50.7988      46.1243      54.6396       0.0530       4.8338       2.6583
   3265.2119      14.6673      -0.0024      61.6873      47.7116      48.3546      44.8381     114.5081       0.0475       4.8606       2.6515
   3265.3643      14.6717      -0.0018      62.5499      48.9659      54.0378      49.7996     128.7901       0.0439       4.9697       2.6402
   3265.5166      14.6652      -0.0005      61.3167      48.2231      67.6234      61.2768      98.5860       0.0488       5.1615       2.6281
   3265.6692      14.6699      -0.0011      59.2914      43.9865      72.1973      64.9417      65.0456       0.0441       5.2353       2.6234
   3265.8215      14.6656      -0.0018      57.2980      37.9438      62.5356      55.8412      44.2808       0.0366       5.2362       2.6241
   3265.9739      14.6576      -0.0013      55.5104      29.9584      58.8344      52.2121      40.2716       0.0207       5.1868       2.6427
   3266.1262      14.6905       0.0016      56.8920      24.2950      58.2054      51.6294      79.1985       0.0075       5.4128       2.6601
   3266.2788      14.6907       0.0015      59.1341      21.2446      73.5305      63.0486     188.2143       0.0071       5.3740       2.6506
   3266.4312      14.6887       0.0028      59.7277      20.8944     111.4795      91.9181     293.9565       0.0072       5.2973       2.6437
   3266.5835      14.6739       0.0072      59.7664      24.2974     130.0744     106.1195      90.7343       0.0108       5.1099       2.6440
   3266.7358      14.6358       0.0077      52.4972      28.7083     122.0461     100.0015      73.8720       0.0232       4.9704       2.6449
   3266.8884      14.6045       0.0030      50.2674      30.5097     111.8716      92.7165     150.1387       0.0386       4.9682       2.6453
   3267.0408      14.6176       0.0026      59.4747      29.6256      98.8264      82.9088     312.0499       0.0382       4.7894       2.6451
   3267.1931      14.6267       0.0015      61.8271      28.7773      86.9271      73.6267     527.2532       0.0392       4.7126       2.6432
   3267.3455      14.6191       0.0003      62.7774      29.9586      77.5512      66.6978     246.6305       0.0440       5.0054       2.6440
   3267.4978      14.6019       0.0035      63.2996      33.4134      78.0429      67.3952     166.8703       0.0480       5.4130       2.6575
   3267.6504      14.6035       0.0036      63.2471      37.9752      71.8075      62.7394     197.4674       0.0476       5.4129       2.6538
   3267.8027      14.6066       0.0034      62.4471      39.4693      55.7434      49.6927     223.1310       0.0479       5.3377       2.6465
   3267.9551      14.5925       0.0030      60.1198      35.3016      45.8099      41.8209      83.1248       0.0472       5.1634       2.6363
   3268.1074      14.5554       0.0050      58.5085      30.1535      45.3812      41.5868      95.8776       0.0389       5.2366       2.6438
   3268.2600      14.5897       0.0072      60.3588      30.6346      44.8324      41.5285     131.3203       0.0315       5.2511       2.6514
   3268.4124      14.5870       0.0071      62.9734      36.5275      47.4870      44.7414     121.6113       0.0282       5.1302       2.6473
