#------------------------------------------------------------------------------
#
#   Created by  : [OpenWorks] Log Export Utility (LEXP)
#   Created on  : 2016-05-23 11:56:14
#   Project     : CANT971
#   User        : R5K
#   Interpreter : PEP
#
#------------------------------------------------------------------------------
~VERSION INFORMATION
VERS. 2.0 : CWLS Log ASCII Standard - version 2.0
WRAP.  NO : One line per depth step
~WELL INFORMATION
#MNEMONIC   .UNIT                                           VALUE :DESCRIPTION
#------------------------------------------------------------------------------
STRT        .M                                          1862.0000 :START DEPTH
STOP        .M                                          3052.8535 :STOP DEPTH
STEP        .M                                             0.1524 :STEP
NULL        .                                           -999.2500 :NULL VALUE
COMP        .                                   PEMEX EXPL & PROD :COMPANY
WELL        .                                                446D :WELL
FLD         .                                           CANTARELL :FIELD
LOC         .                                             UNKNOWN :LOCATION
CNTY        .                                      CD. DEL CARMEN :COUNTY
STAT        .                                            CAMPECHE :STATE
CTRY        .                                              MEXICO :COUNTRY
SRVC        .                                             UNKNOWN :SERVICE COMPANY
DATE        .                                             UNKNOWN :LOG DATE
UWI         .                                            W-C-446D :UNIQUE WELL ID
XCOORD      .                                       598705.170000 :SURFACE X
YCOORD      .                                      2143305.170000 :SURFACE Y
LAT         .                                           19.382621 :LATITUDE
LON         .                                          -92.060061 :LONGITUDE
ELEV        .M                                            28.0000 :SURFACE ELEV
ELEV_TYPE   .                                                  KB :ELEV TYPE
~CURVE INFORMATION
#MNEMONIC.UNIT        API CODE       : CURVE DESCRIPTION
#------------------------------------------------------------------------------
DEPTH    .M                          : Measured Depth
CALI     .inches      UNKNOWN        : CALI:litodensidad:rC:NONE:v0 (auto-composite)
CGR      .API         UNKNOWN        : CGR:CGR-Load:rC:NONE:v0 (auto-composite)
DRHO     .g/cm3       UNKNOWN        : DRHO:litodensidad:rC:NONE:v0 (auto-composite)
DT       .us/ft       UNKNOWN        : DT:DT-Load:rC:NONE:v0 (auto-composite)
GR       .UNKNOWN     UNKNOWN        : GR:PETROWORKS:rC:NONE:v1 
LLD      .ohm.m       UNKNOWN        : LLD:PETROWORKS:rC:NONE:v1 
LLS      .UNKNOWN     UNKNOWN        : LLS:PETROWORKS:rC:NONE:v1 
MSFL     .UNKNOWN     UNKNOWN        : MSFL:PETROWORKS:rC:NONE:v1 
NPHI     .v/v_decimal UNKNOWN        : NPHI:PETROWORKS:rC:NONE:v2 
PEF      .UNKNOWN     UNKNOWN        : PEF:litodensidad:rC:NONE:v0 (auto-composite)
POTA     .UNKNOWN     UNKNOWN        : POTA:radioactividad:rC:NONE:v0 (auto-composite)
RHOB     .g/cm3       UNKNOWN        : RHOB:litodensidad:rC:NONE:v0 (auto-composite)
THOR     .ppm         UNKNOWN        : THOR:radioactividad:rC:NONE:v0 (auto-composite)
URAN     .ppm         UNKNOWN        : URAN:radioactividad:rC:NONE:v0 (auto-composite)
~A     DEPTH         CALI          CGR         DRHO           DT           GR          LLD          LLS         MSFL         NPHI          PEF         POTA         RHOB         THOR         URAN
# ...
   2975.7393       6.6857      11.2839       0.0070      59.4057      39.3014      34.5599      38.2325      56.7248       0.0418       5.3908       0.0058       2.5949       0.2244       3.1937
   2975.8916       6.7058      10.0367       0.0079      59.1726      37.6223      32.8544      36.8862      47.1350       0.0408       5.3174       0.0053       2.6010       0.1697       3.1281
   2976.0439       6.6654      10.2247       0.0093      58.5137      38.2245      32.7362      36.5190      42.8224       0.0398       5.3427       0.0051       2.6099       0.2851       3.1316
   2976.1963       6.6227      13.3979       0.0097      57.7636      41.8863      33.2775      37.1390      45.3683       0.0373       5.2835       0.0062       2.6145       0.5518       3.2302
   2976.3489       6.6110      11.2457       0.0094      58.2442      36.8342      33.9073      38.0265      49.1470       0.0341       5.5247       0.0056       2.6226       0.3301       2.8574
   2976.5012       6.6316       9.1454       0.0068      57.6282      32.9199      35.2412      39.5842      55.8214       0.0305       5.5036       0.0048       2.6246       0.1556       2.6932
   2976.6536       6.5815       8.1281       0.0059      57.8393      31.3251      37.5844      41.8395      58.7002       0.0296       5.5650       0.0044       2.6245       0.0831       2.5864
   2976.8059       6.5799       9.8376       0.0059      56.8396      33.1619      38.9081      43.4240      56.0008       0.0298       5.5579       0.0047       2.6209       0.3315       2.6450
   2976.9585       6.5976      12.0130       0.0028      56.7773      35.7358      39.0854      43.7804      61.4215       0.0293       5.4121       0.0051       2.6147       0.7315       2.7299
   2977.1108       6.5843      11.0215       0.0012      56.6302      35.1492      39.3292      43.7856      60.3287       0.0281       5.2037       0.0044       2.6103       0.7381       2.6959
   2977.2632       6.5922      13.9276       0.0018      57.0247      38.4134      39.6501      43.8908      54.3536       0.0258       5.1018       0.0044       2.6120       1.4357       2.8625
   2977.4155       6.5887      10.8966       0.0013      56.9727      33.6750      40.4039      44.4206      54.7589       0.0254       5.3663       0.0037       2.6163       1.0150       2.5421
   2977.5681       6.5851       9.0407       0.0014      56.5681      30.6964      42.1681      45.9375      57.0760       0.0239       5.6385       0.0034       2.6236       0.7110       2.4113
   2977.7205       6.5710      13.7783       0.0046      56.2453      35.5652      44.9573      48.8060      62.3286       0.0227       5.8298       0.0058       2.6316       0.8251       2.5717
   2977.8728       6.5605      12.9667       0.0113      55.9452      33.9991      50.2143      53.9970      78.4249       0.0201       5.6783       0.0059       2.6359       0.5928       2.3905
   2978.0251       6.5348       7.1569       0.0110      55.7303      28.0864      57.2648      60.9755      52.4057       0.0200       5.4599       0.0030       2.6294       0.4420       2.3276
   2978.1775       6.5331       4.9459       0.0105      55.9121      24.9170      62.3657      67.3180     112.3395       0.0198       5.1148       0.0019       2.6296       0.3540       2.2654
   2978.3301       6.5363       3.6538       0.0091      56.5866      21.1449      68.4327      73.7542     167.2001       0.0188       4.8777       0.0021       2.6363       0.0001       1.9494
   2978.4824       6.5530       3.1559       0.0073      56.4452      19.1599      75.0404      79.7649     154.6249       0.0166       4.8423       0.0020       2.6453      -0.1132       1.8147
   2978.6348       6.5613       4.4562       0.0013      55.0428      20.0727      73.3829      80.6382     128.8275       0.0148       4.8740       0.0027       2.6449      -0.0742       1.8074
   2978.7871       6.5515       4.0666       0.0002      55.3090      19.2152      70.0549      77.4146      99.0596       0.0145       4.7250       0.0029       2.6443      -0.2313       1.7177
   2978.9397       6.5577       6.5987       0.0014      54.9756      21.6571      67.6322      74.6321      97.9191       0.0148       4.7172       0.0041       2.6503      -0.1485       1.7435
   2979.0920       6.5564       7.4800       0.0029      54.9425      22.7441      65.8174      72.6818      84.5831       0.0151       4.7675       0.0045       2.6491      -0.1169       1.7308
   2979.2444       6.5532       8.7326       0.0049      55.2898      25.2111      64.3937      71.0593      82.6406       0.0159       5.0689       0.0045       2.6521       0.1794       1.8753
   2979.3967       6.5636      10.1273       0.0054      55.0955      27.6639      63.1814      69.5001      81.8000       0.0168       5.1392       0.0046       2.6529       0.4561       1.9883
   2979.5493       6.5574      10.2706       0.0065      54.7530      28.3173      61.6236      68.0233      99.3818       0.0184       5.3414       0.0047       2.6584       0.4658       2.0403
   2979.7017       6.5637      10.4101       0.0081      56.0583      29.0612      61.0070      67.1280     106.4635       0.0203       5.0260       0.0047       2.6536       0.4884       2.1159
   2979.8540       6.5708      10.8633       0.0098      55.8753      30.5531      60.5565      66.5095     104.4826       0.0219       4.4446       0.0046       2.6373       0.6412       2.2825
   2980.0063       6.5718       8.7125       0.0094      55.9273      28.5539      58.1290      64.4544      99.3581       0.0236       3.7899       0.0038       2.6227       0.4435       2.2422
   2980.1587       6.5691       7.1922       0.0110      56.4167      27.2934      54.2375      60.1081     145.4374       0.0253       3.4705       0.0031       2.6344       0.4018       2.2561
   2980.3113       6.6227       8.1342       0.0130      57.0942      28.6534      48.4672      53.8492     124.1384       0.0301       3.6572       0.0036       2.6556       0.4214       2.3111
   2980.4636       6.6473      12.1720       0.0116      58.9409      32.8744      43.1888      47.8600      80.9785       0.0345       4.1014       0.0061       2.6646       0.3372       2.3393
   2980.6160       6.6430      19.5371       0.0064      60.3951      38.7941      39.9997      43.7682      37.9496       0.0409       4.5714       0.0102       2.6506       0.3312       2.1621
   2980.7683       6.6418      25.3566       0.0026      61.6180      47.2591      35.7125      39.0464      32.2502       0.0455       4.7144       0.0123       2.6374       0.8613       2.4734
   2980.9209       6.6824      31.8404       0.0024      62.9882      57.8079      28.1937      32.2951      45.6830       0.0509       4.8876       0.0147       2.6333       1.3780       2.9917
   2981.0732       6.6949      35.9483       0.0021      62.9453      64.9893      23.8132      27.1989      39.5246       0.0544       4.7823       0.0161       2.6326       1.7267       3.2929
   2981.2256       6.6959      40.9671       0.0014      62.5177      69.8366      21.9928      25.1517      27.5464       0.0552       4.8544       0.0183       2.6317       1.9955       3.4167
   2981.3779       6.7040      37.5461       0.0031      61.8985      64.7497      21.4008      24.5162      27.6794       0.0561       4.9094       0.0185       2.6356       1.1215       3.0906
   2981.5305       6.6839      40.6298       0.0031      61.8849      68.2926      21.7279      24.7891      31.2980       0.0564       5.2175       0.0199       2.6309       1.3004       3.2251
   2981.6829       6.6989      40.2366       0.0020      62.7914      68.5091      21.9058      25.1954      38.5777       0.0572       5.2232       0.0196       2.6276       1.3042       3.2058
   2981.8352       6.6969      39.0131       0.0014      62.8226      67.5674      22.1972      25.2537      35.2920       0.0572       4.9889       0.0187       2.6236       1.3776       3.1883
   2981.9875       6.6771      40.5103       0.0025      63.9877      69.6869      21.1724      24.3267      67.9564       0.0596       4.6287       0.0187       2.6278       1.7482       3.3083
