#------------------------------------------------------------------------------
#
#   Created by  : [OpenWorks] Log Export Utility (LEXP)
#   Created on  : 2016-05-11 12:45:47
#   Project     : CANT971
#   User        : R5K
#   Interpreter : PEP
#
#------------------------------------------------------------------------------
~VERSION INFORMATION
VERS. 2.0 : CWLS Log ASCII Standard - version 2.0
WRAP.  NO : One line per depth step
~WELL INFORMATION
#MNEMONIC   .UNIT                                           VALUE :DESCRIPTION
#------------------------------------------------------------------------------
STRT        .M                                           801.4664 :START DEPTH
STOP        .M                                          3402.1724 :STOP DEPTH
STEP        .M                                             0.1524 :STEP
NULL        .                                           -999.2500 :NULL VALUE
COMP        .                                   PEMEX EXPL & PROD :COMPANY
WELL        .                                        CANTARELL-85 :WELL
FLD         .                                           CANTARELL :FIELD
LOC         .                                             UNKNOWN :LOCATION
CNTY        .                                      CD. DEL CARMEN :COUNTY
STAT        .                                            CAMPECHE :STATE
CTRY        .                                              MEXICO :COUNTRY
SRVC        .                                             UNKNOWN :SERVICE COMPANY
DATE        .                                             UNKNOWN :LOG DATE
UWI         .                                          3060000185 :UNIQUE WELL ID
XCOORD      .                                       604541.690000 :SURFACE X
YCOORD      .                                      2141649.620000 :SURFACE Y
LAT         .                                           19.367365 :LATITUDE
LON         .                                          -92.004578 :LONGITUDE
ELEV        .M                                            30.0000 :SURFACE ELEV
ELEV_TYPE   .                                                  KB :ELEV TYPE
~CURVE INFORMATION
#MNEMONIC.UNIT        API CODE       : CURVE DESCRIPTION
#------------------------------------------------------------------------------
DEPTH    .M                          : Measured Depth
CALI     .inches      UNKNOWN        : CALI:Import:rC:NONE:v0 (auto-composite)
DRHO     .g/cm3       UNKNOWN        : DRHO:Import:rC:NONE:v0 (auto-composite)
DT       .us/ft       UNKNOWN        : DT:Import:rC:NONE:v0 (auto-composite)
GR       .API         UNKNOWN        : GR:Import:rC:NONE:v0 (auto-composite)
ILD      .ohm.m       UNKNOWN        : ILD:Import:rC:NONE:v0 (auto-composite)
ILM      .ohm.m       UNKNOWN        : ILM:Import:rC:NONE:v0 (auto-composite)
NPHI     .v/v_decimal UNKNOWN        : NPHI:Import:rC:NONE:v0 (auto-composite)
RHOB     .g/cm3       UNKNOWN        : RHOB:Import:rC:NONE:v0 (auto-composite)
SN       .ohm.m       UNKNOWN        : SN:Import:rC:NONE:v0 (auto-composite)
SP       .mV          UNKNOWN        : SP:Import:rC:NONE:v0 (auto-composite)
~A     DEPTH         CALI         DRHO           DT           GR          ILD          ILM         NPHI         RHOB           SN           SP
# ...
   2713.1719      15.5226       0.0501     109.3678      60.9205       1.5584    -999.2500      25.7996       2.4849    -999.2500    -999.2500
   2713.3245      15.5821       0.0461     107.2351      58.8880       1.5289    -999.2500      25.2489       2.4869    -999.2500    -999.2500
   2713.4768      16.1707       0.0460     105.6846      57.4203       1.5169    -999.2500      25.4959       2.4972    -999.2500    -999.2500
   2713.6292      16.7772       0.0460     104.1596      55.9705       1.5054    -999.2500      25.7704       2.5077    -999.2500    -999.2500
   2713.7815      16.2379       0.0455     104.1210      55.0885       1.5360    -999.2500      25.6959       2.5017    -999.2500    -999.2500
   2713.9341      15.6599       0.0450     104.1365      54.2248       1.5680    -999.2500      25.6090       2.4952    -999.2500    -999.2500
   2714.0864      15.7073       0.0532     104.2134      53.4744       1.5637    -999.2500      24.9070       2.4732    -999.2500    -999.2500
   2714.2388      15.7758       0.0617     104.2923      52.7277       1.5582    -999.2500      24.1843       2.4507    -999.2500    -999.2500
   2714.3911      16.0155       0.0605     105.8782      51.7119       1.5294    -999.2500      24.6962       2.4335    -999.2500    -999.2500
   2714.5435      16.2610       0.0590     107.5165      50.6869       1.4999    -999.2500      25.2509       2.4165    -999.2500    -999.2500
   2714.6960      16.4571       0.0532     107.3927      49.3304       1.5063    -999.2500      25.2013       2.4208    -999.2500    -999.2500
   2714.8484      16.6516       0.0472     107.2063      47.9640       1.5138    -999.2500      25.1304       2.4258    -999.2500    -999.2500
   2715.0007      16.9322       0.0412     105.6942      47.0911       1.5610    -999.2500      24.8769       2.4439    -999.2500    -999.2500
   2715.1531      17.2157       0.0352     104.1360      46.2335       1.6095    -999.2500      24.6170       2.4624    -999.2500    -999.2500
   2715.3057      16.6775       0.0326      98.5898      46.3266       1.7917    -999.2500      24.1981       2.4737    -999.2500    -999.2500
   2715.4580      16.1115       0.0301      92.9095      46.4501       1.9781    -999.2500      23.7744       2.4847    -999.2500    -999.2500
   2715.6104      16.0988       0.0387      93.0144      46.4298       1.9806    -999.2500      23.9583       2.4894    -999.2500    -999.2500
   2715.7627      16.1048       0.0477      93.3213      46.4049       1.9771    -999.2500      24.1629       2.4939    -999.2500    -999.2500
   2715.9153      16.1505       0.0451      94.8855      46.6704       1.9649    -999.2500      24.1386       2.4785    -999.2500    -999.2500
   2716.0676      16.1975       0.0421      96.4923      46.9463       1.9524    -999.2500      24.1061       2.4625    -999.2500    -999.2500
   2716.2200      16.8166       0.0333      98.8439      49.3170       1.9326    -999.2500      23.8511       2.4683    -999.2500    -999.2500
   2716.3723      17.4551       0.0243     101.2143      51.7638       1.9126    -999.2500      23.5891       2.4748    -999.2500    -999.2500
   2716.5247      17.0509       0.0192     103.5189      50.9979       1.9290    -999.2500      25.1165       2.4745    -999.2500    -999.2500
   2716.6772      16.6114       0.0142     105.8175      50.1342       1.9465    -999.2500      26.7057       2.4740    -999.2500    -999.2500
   2716.8296      12.7538       0.0256     105.7949      50.3520       1.9383    -999.2500      26.7334       2.4750    -999.2500    -999.2500
   2716.9819       8.7807       0.0376     105.6906      50.6037       1.9293    -999.2500      26.7060       2.4760    -999.2500    -999.2500
   2717.1343       8.7956       0.0365     105.0600      51.4888       1.8874    -999.2500      25.4610       2.4818    -999.2500    -999.2500
   2717.2869       8.9451       0.0350     104.4112      52.3954       1.8444    -999.2500      24.1741       2.4878    -999.2500    -999.2500
   2717.4392       9.5430       0.0360     103.1877      52.8761       1.7824    -999.2500      24.4684       2.4754    -999.2500    -999.2500
   2717.5916      10.1560       0.0370     101.9456      53.3419       1.7198    -999.2500      24.8183       2.4624    -999.2500    -999.2500
   2717.7439      11.0858       0.0510     102.4232      53.6605       1.6743    -999.2500      24.6416       2.4678    -999.2500    -999.2500
   2717.8965      12.0263       0.0655     102.9605      53.9749       1.6293    -999.2500      24.4467       2.4738    -999.2500    -999.2500
   2718.0488      13.6202       0.0554     105.7376      54.9300       1.5945    -999.2500      24.7451       2.4672    -999.2500    -999.2500
   2718.2012      15.2362       0.0444     108.5900      55.9043       1.5601    -999.2500      25.0604       2.4602    -999.2500    -999.2500
   2718.3535      15.1952       0.0474     108.3827      55.7632       1.5101    -999.2500      27.3262       2.4804    -999.2500    -999.2500
   2718.5059      15.0982       0.0509     108.0688      55.5857       1.4596    -999.2500      29.6595       2.5014    -999.2500    -999.2500
   2718.6584      14.7724       0.0462     105.2794      54.9997       1.4609    -999.2500      28.5703       2.5005    -999.2500    -999.2500
   2718.8108      14.4389       0.0412     102.4061      54.3999       1.4639    -999.2500      27.3609       2.4990    -999.2500    -999.2500
   2718.9631      14.0904       0.0439     102.4921      54.0686       1.4611    -999.2500      27.4745       2.4917    -999.2500    -999.2500
   2719.1155      13.7414       0.0469     102.6814      53.7464       1.4581    -999.2500      27.6345       2.4842    -999.2500    -999.2500
   2719.2681      13.9365       0.0373     102.4189      53.1985       1.4580    -999.2500      27.3259       2.4743    -999.2500    -999.2500
   2719.4204      14.1500       0.0273     102.1404      52.6437       1.4580    -999.2500      27.0010       2.4643    -999.2500    -999.2500
   2719.5728      14.0844       0.0275     102.2195      50.7356       1.4585    -999.2500      27.1162       2.4650    -999.2500    -999.2500
   2719.7251      14.0094       0.0280     102.3108      48.7855       1.4590    -999.2500      27.2465       2.4660    -999.2500    -999.2500
   2719.8777      13.6457       0.0295     102.8494      48.7429       1.4672    -999.2500      27.7406       2.4728    -999.2500    -999.2500
   2720.0300      13.2722       0.0310     103.4032      48.7614       1.4757    -999.2500      28.2468       2.4798    -999.2500    -999.2500
   2720.1824      12.8005       0.0237     103.2141      48.9762       1.5069    -999.2500      29.1374       2.4592    -999.2500    -999.2500
   2720.3347      12.3255       0.0162     102.9995      49.1974       1.5389    -999.2500      30.0386       2.4377    -999.2500    -999.2500
   2720.4871      12.1547       0.0179     103.1055      49.7841       1.5265    -999.2500      29.6689       2.4380    -999.2500    -999.2500
   2720.6396      11.9942       0.0199     103.2230      50.3839       1.5125    -999.2500      29.2542       2.4390    -999.2500    -999.2500
   2720.7920      11.6940       0.0263     105.1934      51.5752       1.5120    -999.2500      30.2990       2.4434    -999.2500    -999.2500
   2720.9443      11.3890       0.0328     107.2229      52.7880       1.5120    -999.2500      31.3917       2.4479    -999.2500    -999.2500
   2721.0967      10.2786       0.0364     107.2819      52.4307       1.5105    -999.2500      30.2561       2.4582    -999.2500    -999.2500
   2721.2493       9.1411       0.0399     107.2694      52.0254       1.5090    -999.2500      29.0416       2.4687    -999.2500    -999.2500
   2721.4016       9.2641       0.0671     106.7846      50.7266       1.5008    -999.2500      29.0411       2.4792    -999.2500    -999.2500
   2721.5540       9.4296       0.0951     106.2838      49.3998       1.4923    -999.2500      29.0836       2.4897    -999.2500    -999.2500
