#------------------------------------------------------------------------------
#
#   Created by  : [OpenWorks] Log Export Utility (LEXP)
#   Created on  : 2016-05-12 17:18:19
#   Project     : CANT971
#   User        : R5K
#   Interpreter : PEP
#
#------------------------------------------------------------------------------
~VERSION INFORMATION
VERS. 2.0 : CWLS Log ASCII Standard - version 2.0
WRAP.  NO : One line per depth step
~WELL INFORMATION
#MNEMONIC   .UNIT                                           VALUE :DESCRIPTION
#------------------------------------------------------------------------------
STRT        .M                                           134.7982 :START DEPTH
STOP        .M                                          2692.2227 :STOP DEPTH
STEP        .M                                             0.1524 :STEP
NULL        .                                           -999.2500 :NULL VALUE
COMP        .                                   PEMEX EXPL & PROD :COMPANY
WELL        .                                                 57A :WELL
FLD         .                                           CANTARELL :FIELD
LOC         .                                             UNKNOWN :LOCATION
CNTY        .                                      CD. DEL CARMEN :COUNTY
STAT        .                                            CAMPECHE :STATE
CTRY        .                                              MEXICO :COUNTRY
SRVC        .                                             UNKNOWN :SERVICE COMPANY
DATE        .                                             UNKNOWN :LOG DATE
UWI         .                                          3060000169 :UNIQUE WELL ID
XCOORD      .                                       602151.210000 :SURFACE X
YCOORD      .                                      2147168.830000 :SURFACE Y
LAT         .                                           19.417362 :LATITUDE
LON         .                                          -92.027041 :LONGITUDE
ELEV        .M                                            28.1700 :SURFACE ELEV
ELEV_TYPE   .                                                  KB :ELEV TYPE
~CURVE INFORMATION
#MNEMONIC.UNIT        API CODE       : CURVE DESCRIPTION
#------------------------------------------------------------------------------
DEPTH    .M                          : Measured Depth
CALI     .inches      UNKNOWN        : CALI:UNKNOWN:r1:MAIN:v1 
DRHO     .UNKNOWN     UNKNOWN        : DRHO:UNKNOWN:r1:MAIN:v1 
DT       .us/ft       UNKNOWN        : DT:UNKNOWN:r1:MAIN:v1 
GR       .API         UNKNOWN        : GR:GR:r1:MAIN:v1 
ILD      .UNKNOWN     UNKNOWN        : ILD:UNKNOWN:r1:MAIN:v1 
LLD      .UNKNOWN     UNKNOWN        : LLD:UNKNOWN:r1:MAIN:v1 
LLS      .UNKNOWN     UNKNOWN        : LLS:UNKNOWN:r1:MAIN:v1 
MSFL     .UNKNOWN     UNKNOWN        : MSFL:UNKNOWN:r1:MAIN:v1 
NORM     .UNKNOWN     UNKNOWN        : NORM:NORM-Load:r1:MAIN:v1 
NPHI     .v/v_decimal UNKNOWN        : NPHI:UNKNOWN:r1:MAIN:v1 
RHOB     .UNKNOWN     UNKNOWN        : RHOB:UNKNOWN:r1:MAIN:v1 
SP       .mV          UNKNOWN        : SP:PETROWORKS:rC:NONE:v1 
~A     DEPTH         CALI         DRHO           DT           GR          ILD          LLD          LLS         MSFL         NORM         NPHI         RHOB           SP
# ...
   2343.9885       8.7421       0.0448      49.7566      31.4042       0.2000      87.4477      93.4107      18.6128    -999.2500       0.1052       2.8140     154.9205
   2344.1411       8.8600       0.0724      50.9434      31.9181       0.2000      76.1183      82.8093      15.7258    -999.2500       0.1098       2.8090     154.9147
   2344.2935       8.9620       0.0964      51.7000      31.9788       0.2000      76.0505      83.3394      16.9746    -999.2500       0.1113       2.8036     154.8049
   2344.4458       9.0402       0.1149      51.8032      31.3510       0.2000      93.0855     100.7748      24.5044    -999.2500       0.1083       2.7976     154.6398
   2344.5981       9.0790       0.1176      51.3537      30.3240       0.2000     115.5396     121.3406      30.8292    -999.2500       0.1043       2.8024     154.3899
   2344.7507       9.0589       0.0965      50.0787      28.7005       0.2000     146.0893     146.5830      35.3538    -999.2500       0.0985       2.8235     154.0957
   2344.9031       9.0590       0.0777      49.5431      27.8118       0.2000     171.8681     172.8493      38.0339    -999.2500       0.0949       2.8364     153.7981
   2345.0554       9.0886       0.0621      50.0872      27.9958       0.2000     190.6817     200.6103      38.0214    -999.2500       0.0943       2.8374     153.4987
   2345.2078       9.1099       0.0491      50.7527      28.6808       0.2000     187.7906     200.8768      36.3965    -999.2500       0.0945       2.8380     153.1930
   2345.3601       9.1195       0.0395      51.5915      30.0807       0.2000     153.9308     161.9138      32.4711    -999.2500       0.0959       2.8380     152.8842
   2345.5127       9.1085       0.0403      52.6152      31.4653       0.2000     126.3151     125.5779      25.9243    -999.2500       0.0976       2.8319     152.5134
   2345.6650       9.0688       0.0553      53.8967      32.8286       0.2000     107.4077      92.9059      15.7215    -999.2500       0.0998       2.8174     152.1125
   2345.8174       9.0500       0.0682      55.2197      34.1446       0.2000      89.8694      71.0005      17.0977    -999.2500       0.1066       2.7948     151.9416
   2345.9697       9.0596       0.0783      56.5990      35.3960       0.2000      74.1975      63.7724      34.2588    -999.2500       0.1198       2.7612     151.8793
   2346.1223       9.0669       0.0851      57.7257      35.8134       0.2000      61.5326      57.7094      50.2748    -999.2500       0.1291       2.7343     151.9476
   2346.2747       9.0714       0.0876      58.5158      35.1120       0.2000      52.8750      53.1990      64.7649    -999.2500       0.1333       2.7162     152.0759
   2346.4270       9.0675       0.0866      57.6683      34.3147       0.2000      45.4739      47.8029      61.0730    -999.2500       0.1342       2.7188     151.9243
   2346.5793       9.0525       0.0811      54.6735      33.3916       0.2000      39.7204      41.2452      33.5372    -999.2500       0.1309       2.7484     151.6464
   2346.7319       9.0655       0.0721      52.8199      32.5656       0.2000      35.2265      36.3406      16.0886    -999.2500       0.1287       2.7742     151.3693
   2346.8843       9.1147       0.0585      52.4293      31.8642       0.2000      32.3475      33.5554      11.5736    -999.2500       0.1278       2.7953     151.0925
   2347.0366       9.1068       0.0421      52.3012      30.8519       0.2000      30.3776      35.8633       9.9488    -999.2500       0.1254       2.8206     150.9344
   2347.1890       9.0276       0.0220      52.5023      29.4501       0.2000      29.5473      44.5564      11.9473    -999.2500       0.1213       2.8512     150.8270
   2347.3413       9.0414       0.0130      52.2168      28.5119       0.2000      36.1381      52.5492      14.1921    -999.2500       0.1169       2.8703     151.3236
   2347.4939       9.1693       0.0175      51.3348      28.1422       0.2000      51.8261      59.6835      16.7386    -999.2500       0.1120       2.8753     152.0721
   2347.6462       9.2210       0.0223      50.9672      28.1233       0.2000      63.7538      64.9315      20.1476    -999.2500       0.1098       2.8627     152.9980
   2347.7986       9.1814       0.0273      51.2162      28.5277       0.2000      71.1739      67.9184      24.5904    -999.2500       0.1109       2.8292     153.9961
   2347.9509       9.1326       0.0362      51.7130      28.7455       0.2000      76.8238      72.0242      29.7204    -999.2500       0.1127       2.8000     154.7491
   2348.1035       9.0730       0.0497      52.5022      28.7445       0.2000      80.3852      77.4503      35.6614    -999.2500       0.1153       2.7759     155.4044
   2348.2559       9.0363       0.0651      52.6978      28.3327       0.2000      82.5542      80.4580      33.6927    -999.2500       0.1144       2.7600     155.9059
   2348.4082       9.0263       0.0827      52.2084      27.4467       0.2000      83.1168      80.6756      22.5980    -999.2500       0.1095       2.7535     156.3478
   2348.5605       9.0533       0.1017      51.5120      26.8380       0.2000      82.8035      80.0989      16.5926    -999.2500       0.1058       2.7526     156.8343
   2348.7131       9.1220       0.1222      50.5819      26.5422       0.2000      81.5018      78.6258      16.3298    -999.2500       0.1035       2.7581     157.3378
   2348.8655       9.1437       0.1263      50.2125      26.4745       0.2000      79.9633      76.8595      18.3863    -999.2500       0.1025       2.7596     157.8741
   2349.0178       9.1136       0.1123      50.4617      26.6585       0.2000      78.1633      74.7697      23.0021    -999.2500       0.1031       2.7566     158.4224
   2349.1702       9.1028       0.0963      50.9469      27.6399       0.2000      78.9963      74.6801      27.3638    -999.2500       0.1050       2.7485     159.3588
   2349.3225       9.1128       0.0783      51.6868      29.4820       0.2000      82.6710      76.7492      31.4514    -999.2500       0.1083       2.7350     160.4335
   2349.4751       9.1178       0.0700      52.0459      31.6641       0.2000      85.7103      81.1459      37.5980    -999.2500       0.1117       2.7307     161.7318
   2349.6274       9.1173       0.0720      52.0003      34.2051       0.2000      88.0743      88.0154      45.9321    -999.2500       0.1150       2.7362     163.1074
   2349.7798       9.1266       0.0737      52.2922      36.4398       0.2000      84.2321      78.0530      52.6753    -999.2500       0.1153       2.7420     164.2377
   2349.9321       9.1461       0.0752      52.9350      38.3561       0.2000      73.9411      50.6009      57.7654    -999.2500       0.1126       2.7480     165.2848
   2350.0847       9.1804       0.0807      53.8700      39.6875       0.2000      59.4580      34.6734      53.7751    -999.2500       0.1106       2.7438     166.0509
   2350.2371       9.2295       0.0903      55.1019      40.4246       0.2000      40.7145      30.4582      40.5564    -999.2500       0.1095       2.7292     166.7244
   2350.3894       9.2339       0.0983      55.9400      41.0321       0.2000      31.1990      27.9152      33.6084    -999.2500       0.1088       2.7190     167.1028
   2350.5417       9.1938       0.1048      56.3868      41.5110       0.2000      30.8561      27.0343      32.8935    -999.2500       0.1086       2.7130     167.3870
   2350.6943       9.1890       0.1049      55.4871      41.4101       0.2000      38.2793      31.7179      31.8042    -999.2500       0.1077       2.7227     167.4377
   2350.8467       9.2186       0.0989      53.2785      40.7458       0.2000      53.2528      41.8114      30.3512    -999.2500       0.1061       2.7478     167.4161
   2350.9990       9.1924       0.0916      50.9701      39.5152       0.2000      63.8134      51.7841      30.6492    -999.2500       0.1040       2.7690     167.3821
   2351.1514       9.1133       0.0831      48.5669      37.7462       0.2000      70.1780      61.6420      32.6120    -999.2500       0.1015       2.7865     167.3444
