#------------------------------------------------------------------------------
#
#   Created by  : [OpenWorks] Log Export Utility (LEXP)
#   Created on  : 2016-05-23 11:56:12
#   Project     : CANT971
#   User        : R5K
#   Interpreter : PEP
#
#------------------------------------------------------------------------------
~VERSION INFORMATION
VERS. 2.0 : CWLS Log ASCII Standard - version 2.0
WRAP.  NO : One line per depth step
~WELL INFORMATION
#MNEMONIC   .UNIT                                           VALUE :DESCRIPTION
#------------------------------------------------------------------------------
STRT        .M                                           365.7604 :START DEPTH
STOP        .M                                          2883.8655 :STOP DEPTH
STEP        .M                                             0.1524 :STEP
NULL        .                                           -999.2500 :NULL VALUE
COMP        .                                   PEMEX EXPL & PROD :COMPANY
WELL        .                                                  44 :WELL
FLD         .                                           CANTARELL :FIELD
LOC         .                                             UNKNOWN :LOCATION
CNTY        .                                      CD. DEL CARMEN :COUNTY
STAT        .                                            CAMPECHE :STATE
CTRY        .                                              MEXICO :COUNTRY
SRVC        .                                             UNKNOWN :SERVICE COMPANY
DATE        .                                             UNKNOWN :LOG DATE
UWI         .                                          3060000162 :UNIQUE WELL ID
XCOORD      .                                       599695.380000 :SURFACE X
YCOORD      .                                      2143038.730000 :SURFACE Y
LAT         .                                           19.380164 :LATITUDE
LON         .                                          -92.050646 :LONGITUDE
ELEV        .M                                            26.7400 :SURFACE ELEV
ELEV_TYPE   .                                                  KB :ELEV TYPE
~CURVE INFORMATION
#MNEMONIC.UNIT        API CODE       : CURVE DESCRIPTION
#------------------------------------------------------------------------------
DEPTH    .M                          : Measured Depth
CALI     .inches      UNKNOWN        : CALI:registros:rC:NONE:v0 (auto-composite)
CGR      .API         UNKNOWN        : CGR:registros:rC:NONE:v0 (auto-composite)
DRHO     .g/cm3       UNKNOWN        : DRHO:registros:rC:NONE:v0 (auto-composite)
DT       .UNKNOWN     UNKNOWN        : DT:registros:rC:NONE:v0 (auto-composite)
GR       .API         UNKNOWN        : GR:registros:rC:NONE:v0 (auto-composite)
ILD      .ohm.m       UNKNOWN        : ILD:registros:rC:NONE:v0 (auto-composite)
LLD      .ohm.m       UNKNOWN        : LLD:registros:rC:NONE:v0 (auto-composite)
LLS      .ohm.m       UNKNOWN        : LLS:registros:rC:NONE:v0 (auto-composite)
MSFL     .ohm.m       UNKNOWN        : MSFL:registros:rC:NONE:v0 (auto-composite)
NPHI     .UNKNOWN     UNKNOWN        : NPHI:registros:rC:NONE:v0 (auto-composite)
PEF      .b/elec      UNKNOWN        : PEF:registros:rC:NONE:v0 (auto-composite)
POTA     .wtpercent   UNKNOWN        : POTA:registros:rC:NONE:v0 (auto-composite)
RHOB     .g/cm3       UNKNOWN        : RHOB:registros:rC:NONE:v0 (auto-composite)
THOR     .ppm         UNKNOWN        : THOR:registros:rC:NONE:v0 (auto-composite)
URAN     .ppm         UNKNOWN        : URAN:registros:rC:NONE:v0 (auto-composite)
~A     DEPTH         CALI          CGR         DRHO           DT           GR          ILD          LLD          LLS         MSFL         NPHI          PEF         POTA         RHOB         THOR         URAN
# ...
   2309.3176       9.2503    -999.2500       0.0014      51.0212      24.8466    -999.2500     708.2977     761.3014      55.9418       0.0414    -999.2500    -999.2500       2.7155    -999.2500    -999.2500
   2309.4700       9.2940    -999.2500      -0.0080      50.4190      22.6480    -999.2500     634.5310     720.9640      62.2700       0.0366    -999.2500    -999.2500       2.7080    -999.2500    -999.2500
   2309.6223       9.2543    -999.2500      -0.0055      50.5307      25.2439    -999.2500     606.2498     753.1853      99.1095       0.0374    -999.2500    -999.2500       2.7085    -999.2500    -999.2500
   2309.7747       9.2150    -999.2500      -0.0030      50.6410      27.8080    -999.2500     578.3140     785.0130     135.4990       0.0412    -999.2500    -999.2500       2.7090    -999.2500    -999.2500
   2309.9272       9.1914    -999.2500      -0.0020      51.5681      35.2416    -999.2500     494.7872     728.0320     172.9163       0.0463    -999.2500    -999.2500       2.7130    -999.2500    -999.2500
   2310.0796       9.1680    -999.2500      -0.0010      52.4870      42.6090    -999.2500     412.0050     671.5590     210.0000       0.0490    -999.2500    -999.2500       2.7170    -999.2500    -999.2500
   2310.2319       9.1720    -999.2500       0.0252      51.9435      36.3258    -999.2500     389.4747     675.2173     194.5105       0.0449    -999.2500    -999.2500       2.7276    -999.2500    -999.2500
   2310.3843       9.1760    -999.2500       0.0510      51.4030      30.0780    -999.2500     367.0710     678.8550     179.1080       0.0443    -999.2500    -999.2500       2.7380    -999.2500    -999.2500
   2310.5369       9.1509    -999.2500       0.0430      53.6380      35.2376    -999.2500     271.3238     520.3654     142.8745       0.0584    -999.2500    -999.2500       2.6942    -999.2500    -999.2500
   2310.6892       9.1260    -999.2500       0.0350      55.8500      40.3440    -999.2500     176.5620     363.5070     107.0140       0.0729    -999.2500    -999.2500       2.6510    -999.2500    -999.2500
   2310.8416       9.0113    -999.2500       0.0164      55.5684      40.2080    -999.2500     148.7153     316.2499      67.0739       0.0737    -999.2500    -999.2500       2.6590    -999.2500    -999.2500
   2310.9939       8.8980    -999.2500      -0.0020      55.2910      40.0740    -999.2500     121.2830     269.6960      27.7280       0.0667    -999.2500    -999.2500       2.6670    -999.2500    -999.2500
   2311.1465       8.9865    -999.2500       0.0076      53.5333      35.9481    -999.2500     176.8373     368.3113      76.7153       0.0552    -999.2500    -999.2500       2.7002    -999.2500    -999.2500
   2311.2988       9.0740    -999.2500       0.0170      51.7960      31.8700    -999.2500     231.7480     465.7840     125.1350       0.0435    -999.2500    -999.2500       2.7330    -999.2500    -999.2500
   2311.4512       9.1172    -999.2500       0.0215      50.1522      26.7693    -999.2500     303.7242     566.2560      88.3785       0.0355    -999.2500    -999.2500       2.7556    -999.2500    -999.2500
   2311.6035       9.1600    -999.2500       0.0260      48.5220      21.7110    -999.2500     375.1030     665.8940      51.9270       0.0302    -999.2500    -999.2500       2.7780    -999.2500    -999.2500
   2311.7559       9.1454    -999.2500       0.0285      48.8591      22.0757    -999.2500     417.3516     692.6827     122.9524       0.0272    -999.2500    -999.2500       2.7775    -999.2500    -999.2500
   2311.9084       9.1310    -999.2500       0.0310      49.1940      22.4380    -999.2500     459.3220     719.2950     193.5100       0.0257    -999.2500    -999.2500       2.7770    -999.2500    -999.2500
   2312.0608       9.0807    -999.2500       0.0225      48.9835      22.2821    -999.2500     696.2754     929.8035     168.5172       0.0256    -999.2500    -999.2500       2.7720    -999.2500    -999.2500
   2312.2131       9.0310    -999.2500       0.0140      48.7740      22.1270    -999.2500     932.0750    1139.2870     143.6460       0.0262    -999.2500    -999.2500       2.7670    -999.2500    -999.2500
   2312.3655       9.0617    -999.2500       0.0200      48.4186      21.4870    -999.2500    1532.8197    1608.0959     168.7266       0.0271    -999.2500    -999.2500       2.7590    -999.2500    -999.2500
   2312.5181       9.0920    -999.2500       0.0260      48.0660      20.8520    -999.2500    2128.7910    2073.1799     193.6080       0.0287    -999.2500    -999.2500       2.7510    -999.2500    -999.2500
   2312.6704       9.1126    -999.2500       0.0170      48.4481      21.4618    -999.2500    1722.5869    1677.5212     204.3112       0.0313    -999.2500    -999.2500       2.7339    -999.2500    -999.2500
   2312.8228       9.1330    -999.2500       0.0080      48.8260      22.0650    -999.2500    1320.8409    1286.2050     214.8970       0.0334    -999.2500    -999.2500       2.7170    -999.2500    -999.2500
   2312.9751       9.1129    -999.2500      -0.0010      49.0752      20.5821    -999.2500    1000.8581    1050.0710     219.4923       0.0331    -999.2500    -999.2500       2.7090    -999.2500    -999.2500
   2313.1277       9.0930    -999.2500      -0.0100      49.3220      19.1130    -999.2500     683.8400     816.1250     224.0450       0.0315    -999.2500    -999.2500       2.7010    -999.2500    -999.2500
   2313.2800       9.0990    -999.2500       0.0021      49.4816      21.2757    -999.2500     746.4249     935.1951     261.3404       0.0293    -999.2500    -999.2500       2.7251    -999.2500    -999.2500
   2313.4324       9.1050    -999.2500       0.0140      49.6400      23.4220    -999.2500     808.5370    1053.3660     298.3540       0.0280    -999.2500    -999.2500       2.7490    -999.2500    -999.2500
   2313.5847       9.1000    -999.2500       0.0366      50.3014      30.9259    -999.2500     706.0752     999.0007     237.3121       0.0295    -999.2500    -999.2500       2.7455    -999.2500    -999.2500
   2313.7371       9.0950    -999.2500       0.0590      50.9600      38.3980    -999.2500     604.0480     944.8660     176.5290       0.0340    -999.2500    -999.2500       2.7420    -999.2500    -999.2500
   2313.8896       9.0970    -999.2500       0.0781      51.4737      36.3451    -999.2500     457.7388     766.1833     124.4524       0.0420    -999.2500    -999.2500       2.7460    -999.2500    -999.2500
   2314.0420       9.0990    -999.2500       0.0970      51.9870      34.2940    -999.2500     311.5650     587.6660      72.4240       0.0516    -999.2500    -999.2500       2.7500    -999.2500    -999.2500
   2314.1943       9.1563    -999.2500       0.0658      51.3181      28.1357    -999.2500     325.6896     609.7916      59.9134       0.0613    -999.2500    -999.2500       2.7309    -999.2500    -999.2500
   2314.3467       9.2130    -999.2500       0.0350      50.6530      22.0120    -999.2500     339.7350     631.7930      47.4730       0.0670    -999.2500    -999.2500       2.7120    -999.2500    -999.2500
   2314.4993       9.2387    -999.2500       0.0179      50.6897      22.4638    -999.2500     441.0537     784.5197     185.7352       0.0638    -999.2500    -999.2500       2.7150    -999.2500    -999.2500
   2314.6516       9.2640    -999.2500       0.0010      50.7260      22.9110    -999.2500     541.3360     935.6840     322.5830       0.0567    -999.2500    -999.2500       2.7180    -999.2500    -999.2500
   2314.8040       9.1865    -999.2500       0.0121      51.9939      29.2218    -999.2500     983.3865    1386.4747     302.1372       0.0499    -999.2500    -999.2500       2.7245    -999.2500    -999.2500
   2314.9563       9.1100    -999.2500       0.0230      53.2530      35.4890    -999.2500    1422.3760    1834.1440     281.8330       0.0445    -999.2500    -999.2500       2.7310    -999.2500    -999.2500
   2315.1089       9.1512    -999.2500       0.0119      53.0600      39.1770    -999.2500    1957.3900    2049.6523     306.6970       0.0416    -999.2500    -999.2500       2.7285    -999.2500    -999.2500
