#------------------------------------------------------------------------------
#
#   Created by  : [OpenWorks] Log Export Utility (LEXP)
#   Created on  : 2016-05-23 11:56:20
#   Project     : CANT971
#   User        : R5K
#   Interpreter : PEP
#
#------------------------------------------------------------------------------
~VERSION INFORMATION
VERS. 2.0 : CWLS Log ASCII Standard - version 2.0
WRAP.  NO : One line per depth step
~WELL INFORMATION
#MNEMONIC   .UNIT                                           VALUE :DESCRIPTION
#------------------------------------------------------------------------------
STRT        .M                                          1446.1469 :START DEPTH
STOP        .M                                          3739.7668 :STOP DEPTH
STEP        .M                                             0.1524 :STEP
NULL        .                                           -999.2500 :NULL VALUE
COMP        .                                             UNKNOWN :COMPANY
WELL        .                                               468-V :WELL
FLD         .                                             UNKNOWN :FIELD
LOC         .                                             UNKNOWN :LOCATION
CNTY        .                                             UNKNOWN :COUNTY
STAT        .                                             UNKNOWN :STATE
CTRY        .                                             UNKNOWN :COUNTRY
SRVC        .                                             UNKNOWN :SERVICE COMPANY
DATE        .                                             UNKNOWN :LOG DATE
UWI         .                                               468-V :UNIQUE WELL ID
XCOORD      .                                       598699.140000 :SURFACE X
YCOORD      .                                      2143301.650000 :SURFACE Y
LAT         .                                           19.382589 :LATITUDE
LON         .                                          -92.060118 :LONGITUDE
ELEV        .M                                             0.0000 :SURFACE ELEV
ELEV_TYPE   .                                                  NA :ELEV TYPE
~CURVE INFORMATION
#MNEMONIC.UNIT        API CODE       : CURVE DESCRIPTION
#------------------------------------------------------------------------------
DEPTH    .M                          : Measured Depth
CALI     .inches      UNKNOWN        : CALI:PETROWORKS:rC:NONE:v1 
DRHO     .g/cm3       UNKNOWN        : DRHO:PETROWORKS:rC:NONE:v1 
DT       .us/ft       UNKNOWN        : DT:sonico:rC:NONE:v0 (auto-composite)
GR       .API         UNKNOWN        : GR:PETROWORKS:rC:NONE:v1 
GR-LWD   .API         UNKNOWN        : GR-LWD:PETROWORKS:rC:NONE:v3 
ILD-LWD  .ohm.m       UNKNOWN        : ILD-LWD:PETROWORKS:rC:NONE:v3 
ILM-LWD  .UNKNOWN     UNKNOWN        : ILM-LWD:PETROWORKS:rC:NONE:v3 
NPHI     .v/v_decimal UNKNOWN        : NPHI:PETROWORKS:rC:NONE:v1 
PEF      .b/elec      UNKNOWN        : PEF:PETROWORKS:rC:NONE:v1 
RHOB     .g/cm3       UNKNOWN        : RHOB:PETROWORKS:rC:NONE:v1 
~A     DEPTH         CALI         DRHO           DT           GR       GR-LWD      ILD-LWD      ILM-LWD         NPHI          PEF         RHOB
# ...
   2086.2268       8.1415       0.0537    -999.2500      52.1435      27.3343     744.5383     723.9373       0.0016       3.1373       2.7096
   2086.3792       9.2955       0.0382    -999.2500      48.4717      26.6878     743.9041     727.0531      -0.0059       3.1172       2.7428
   2086.5317       9.5281       0.0208    -999.2500      43.2212      25.9865     717.3466     682.6121      -0.0126       3.1243       2.7786
   2086.6841       9.6902      -0.0035    -999.2500      41.7980      25.0228     698.6358     693.4897      -0.0191       3.1408       2.8079
   2086.8364       9.7864      -0.0140    -999.2500      43.8860      24.3136     677.5848     672.1785      -0.0191       3.1263       2.8178
   2086.9888       9.8321      -0.0164    -999.2500      44.6356      23.6267     660.3969     661.6716      -0.0166       3.1252       2.8269
   2087.1414       9.9381      -0.0197    -999.2500      43.9869      23.5012     655.2518     669.7070      -0.0150       3.1836       2.8169
   2087.2937       9.6431      -0.0181    -999.2500      42.7849      23.2230     639.4097     655.1818      -0.0139       3.2302       2.8051
   2087.4460       9.5767       0.0028    -999.2500      39.5524      23.3886     617.8458     596.9613      -0.0134       3.2551       2.8013
   2087.5984       9.7138       0.0338    -999.2500      37.8904      23.1800     591.0100     524.0200      -0.0123       3.2970       2.7765
   2087.7507       9.8316       0.0802    -999.2500      39.4016      22.7132     544.8082     380.7860      -0.0108       3.3086       2.7469
   2087.9033       9.8520       0.1828    -999.2500      39.6061      21.9666     504.2705     317.2274      -0.0085       3.2735       2.7163
   2088.0557       9.7846       0.1995    -999.2500      38.0417      21.3777     471.4904     287.1060      -0.0064       3.2260       2.7081
   2088.2080       9.6024       0.1301    -999.2500      33.6071      20.2829     446.1581     270.3663      -0.0040       3.1582       2.7149
   2088.3604       9.6174       0.1010    -999.2500      30.0244      20.8645     423.6854     257.9184      -0.0028       3.1836       2.7177
   2088.5129       9.8855       0.2185    -999.2500      26.5344      22.5459     406.8456     250.6251      -0.0044       3.2590       2.7205
   2088.6653       9.9431       0.3255    -999.2500      28.6848      25.2023     386.9473     241.7782      -0.0054       3.2545       2.7052
   2088.8176      10.0495       0.2975    -999.2500      36.2717      27.0458     370.6631     236.4170      -0.0049       3.2310       2.6409
   2088.9700       9.8694       0.1851    -999.2500      43.2144      28.0380     348.2088     227.4565      -0.0021       3.2416       2.6412
   2089.1226       9.6890       0.0506    -999.2500      53.2136      27.5633     320.3042     207.1448      -0.0021       3.2575       2.7075
   2089.2749       9.7228       0.0177    -999.2500      51.9779      26.7768     297.0655     186.2132      -0.0034       3.2621       2.7372
   2089.4272      10.0249       0.0080    -999.2500      46.0242      24.3428     258.9059     151.9344      -0.0061       3.2852       2.7438
   2089.5796      10.1855       0.0204    -999.2500      38.5668      22.1837     229.5588     127.9734      -0.0077       3.3124       2.7316
   2089.7319      10.0822       0.0329    -999.2500      34.1413      19.4776     206.7052     114.5950      -0.0078       3.2802       2.7319
   2089.8845      10.0479       0.0265    -999.2500      31.3585      17.9343     181.9287     102.2031      -0.0099       3.2368       2.7450
   2090.0369       9.9253       0.0088    -999.2500      30.1415      18.2521     160.5867      91.3164      -0.0085       3.2501       2.7577
   2090.1892       9.7547       0.0007    -999.2500      28.4608      21.4221     145.1637      84.6429      -0.0072       3.2877       2.7698
   2090.3416      10.0863       0.0027    -999.2500      35.4940      27.8172     134.7627      81.7127      -0.0071       3.3360       2.7373
   2090.4941      10.2442       0.0105    -999.2500      50.1485      36.3849     127.3682      80.3703      -0.0082       3.3727       2.6602
   2090.6465      10.2929       0.0461    -999.2500      63.4449      46.0059     125.2072      81.8438      -0.0067       3.3804       2.6215
   2090.7988       9.9492       0.0875    -999.2500      76.6525      54.4500     122.9300      83.5100      -0.0041       3.3840       2.6467
   2090.9512       9.8270       0.0949    -999.2500      85.5459      56.3483     120.8638      85.2548      -0.0020       3.3628       2.6856
   2091.1038       9.6706       0.0670    -999.2500      92.4131      55.8905     124.9265      89.4430      -0.0029       3.2709       2.7106
   2091.2561       9.8751       0.0403    -999.2500      92.2332      53.6543     133.4314      97.0255      -0.0029       3.2203       2.7183
   2091.4084      10.2857       0.0189    -999.2500      85.6878      50.5279     148.9646     107.7305      -0.0033       3.1867       2.7330
   2091.5608      10.2978       0.0225    -999.2500      78.3653      46.0762     166.2103     117.4674      -0.0034       3.1785       2.7344
   2091.7131      10.0846       0.0268    -999.2500      66.9297      41.5888     182.2372     123.8245      -0.0054       3.2028       2.7375
   2091.8657      10.0884       0.0323    -999.2500      63.6347      36.0326     199.8737     124.7788      -0.0061       3.2487       2.7475
   2092.0181       9.7351       0.0664    -999.2500      59.4157      33.5848     209.0469     119.6124      -0.0070       3.2779       2.7670
   2092.1704       9.9150       0.0843    -999.2500      53.7939      31.6245     214.8528     112.8924      -0.0074       3.2542       2.7657
   2092.3228      10.0829       0.0889    -999.2500      48.3492      30.3607     218.9888     108.6983      -0.0065       3.2491       2.7458
   2092.4753      10.1260       0.1102    -999.2500      49.1398      29.4861     216.5243     104.5555      -0.0055       3.2844       2.7279
   2092.6277      10.0280       0.1939    -999.2500      51.2230      28.8024     213.9305     101.3872      -0.0048       3.3300       2.6824
   2092.7800       9.7944       0.3701    -999.2500      52.2843      28.7960     219.5771     103.2666      -0.0039       3.3239       2.5850
   2092.9324       9.9513       0.4357    -999.2500      50.7641      29.3197     233.4639     113.1325      -0.0061       3.1879       2.4388
   2093.0850      10.3253       0.3243    -999.2500      49.4336      30.4188     260.9894     133.3891      -0.0084       3.0283       2.3592
   2093.2373      10.5199       0.1490    -999.2500      51.8639      31.2504     299.9171     167.9547      -0.0086       3.0488       2.5412
   2093.3896      10.4275       0.0208    -999.2500      59.5298      31.0694     350.1247     215.5936      -0.0097       3.1296       2.7314
   2093.5420       9.9597       0.0006    -999.2500      63.5287      30.2729     395.6644     253.9372      -0.0095       3.1695       2.7603
   2093.6943       9.8538       0.0066    -999.2500      59.0976      28.4477     440.3733     321.6175      -0.0100       3.1901       2.7656
   2093.8469       9.7382       0.0104    -999.2500      52.3019      27.4022     471.1832     385.3568      -0.0104       3.1964       2.7515
   2093.9993       9.8632       0.0144    -999.2500      46.7327      26.6400     505.2300     429.9300      -0.0093       3.2077       2.7375
   2094.1516      10.0559       0.0191    -999.2500      43.5558      26.9042     529.0798     473.1730      -0.0102       3.2128       2.7423
   2094.3040       9.9788       0.0174    -999.2500      44.5267      27.4276     554.2457     493.6030      -0.0116       3.1957       2.7557
   2094.4565       9.8215       0.0121    -999.2500      49.8762      27.3869     577.0862     508.8961      -0.0111       3.1830       2.7674
   2094.6089       9.6417       0.0075    -999.2500      53.1171      27.0395     601.3224     519.2776      -0.0108       3.1862       2.7852
