#------------------------------------------------------------------------------
#
#   Created by  : [OpenWorks] Log Export Utility (LEXP)
#   Created on  : 2016-05-12 17:01:28
#   Project     : CANT971
#   User        : R5K
#   Interpreter : PEP
#
#------------------------------------------------------------------------------
~VERSION INFORMATION
VERS. 2.0 : CWLS Log ASCII Standard - version 2.0
WRAP.  NO : One line per depth step
~WELL INFORMATION
#MNEMONIC   .UNIT                                           VALUE :DESCRIPTION
#------------------------------------------------------------------------------
STRT        .M                                           350.5962 :START DEPTH
STOP        .M                                          2218.5630 :STOP DEPTH
STEP        .M                                             0.1524 :STEP
NULL        .                                           -999.2500 :NULL VALUE
COMP        .                                   PEMEX EXPL & PROD :COMPANY
WELL        .                                                  79 :WELL
FLD         .                                           CANTARELL :FIELD
LOC         .                                             UNKNOWN :LOCATION
CNTY        .                                      CD. DEL CARMEN :COUNTY
STAT        .                                            CAMPECHE :STATE
CTRY        .                                              MEXICO :COUNTRY
SRVC        .                                             UNKNOWN :SERVICE COMPANY
DATE        .                                             UNKNOWN :LOG DATE
UWI         .                                          3060000183 :UNIQUE WELL ID
XCOORD      .                                       602154.470000 :SURFACE X
YCOORD      .                                      2147172.410000 :SURFACE Y
LAT         .                                           19.417394 :LATITUDE
LON         .                                          -92.027010 :LONGITUDE
ELEV        .M                                            28.1700 :SURFACE ELEV
ELEV_TYPE   .                                                  KB :ELEV TYPE
~CURVE INFORMATION
#MNEMONIC.UNIT        API CODE       : CURVE DESCRIPTION
#------------------------------------------------------------------------------
DEPTH    .M                          : Measured Depth
CALI     .inches      UNKNOWN        : CALI:CALI-Load:rC:NONE:v0 (auto-composite)
DT       .us/ft       UNKNOWN        : DT:DT:rC:NONE:v0 (auto-composite)
GR       .UNKNOWN     UNKNOWN        : GR:GR-Load:rC:NONE:v0 (auto-composite)
ILD      .UNKNOWN     UNKNOWN        : ILD:ILD-Load:rC:NONE:v0 (auto-composite)
LLD      .UNKNOWN     UNKNOWN        : LLD:LLD-Load:rC:NONE:v0 (auto-composite)
LLS      .UNKNOWN     UNKNOWN        : LLS:LLS-Load:rC:NONE:v0 (auto-composite)
MSFL     .UNKNOWN     UNKNOWN        : MSFL:MSFL-Load:rC:NONE:v0 (auto-composite)
NPHI     .v/v_decimal UNKNOWN        : NPHI:NPHI:rC:NONE:v0 (auto-composite)
RG       .API         UNKNOWN        : RG:UNKNOWN:rC:NONE:v0 (auto-composite)
RHOB     .UNKNOWN     UNKNOWN        : RHOB:RHOB-Load:rC:NONE:v0 (auto-composite)
SP       .UNKNOWN     UNKNOWN        : SP:SP-Load:rC:NONE:v0 (auto-composite)
~A     DEPTH         CALI           DT           GR          ILD          LLD          LLS         MSFL         NPHI           RG         RHOB           SP
# ...
   1301.5721      15.8202    -999.2500      53.5486       1.1590    -999.2500    -999.2500    -999.2500       0.3221    -999.2500       2.3082      24.2740
   1301.7246      15.8107    -999.2500      52.5256       1.1590    -999.2500    -999.2500    -999.2500       0.3259    -999.2500       2.3027      24.2740
   1301.8770      15.7717    -999.2500      51.6867       1.1590    -999.2500    -999.2500    -999.2500       0.3317    -999.2500       2.2975      24.3674
   1302.0294      15.7032    -999.2500      51.0312       1.1590    -999.2500    -999.2500    -999.2500       0.3394    -999.2500       2.2925      24.5539
   1302.1818      15.6329    -999.2500      50.8913       1.1590    -999.2500    -999.2500    -999.2500       0.3430    -999.2500       2.2933      24.6780
   1302.3342      15.5609    -999.2500      51.2653       1.1590    -999.2500    -999.2500    -999.2500       0.3425    -999.2500       2.2998      24.7400
   1302.4866      15.5345    -999.2500      51.7527       1.1590    -999.2500    -999.2500    -999.2500       0.3405    -999.2500       2.2977      24.7710
   1302.6390      15.5535    -999.2500      52.3532       1.1590    -999.2500    -999.2500    -999.2500       0.3370    -999.2500       2.2872      24.7710
   1302.7914      15.5848    -999.2500      51.6399       1.1590    -999.2500    -999.2500    -999.2500       0.3345    -999.2500       2.2823      24.7710
   1302.9438      15.6283    -999.2500      49.6165       1.1590    -999.2500    -999.2500    -999.2500       0.3331    -999.2500       2.2828      24.7710
   1303.0962      15.6610    -999.2500      48.6155       1.1590    -999.2500    -999.2500    -999.2500       0.3367    -999.2500       2.2860      24.9112
   1303.2485      15.6830    -999.2500      48.6345       1.1590    -999.2500    -999.2500    -999.2500       0.3454    -999.2500       2.2920      25.1912
   1303.4010      15.7566    -999.2500      48.7221       1.1590    -999.2500    -999.2500    -999.2500       0.3488    -999.2500       2.2940      25.4709
   1303.5533      15.8816    -999.2500      48.8781       1.1590    -999.2500    -999.2500    -999.2500       0.3468    -999.2500       2.2920      25.7504
   1303.7058      16.1207    -999.2500      49.3286       1.1578    -999.2500    -999.2500    -999.2500       0.3489    -999.2500       2.2860      25.9836
   1303.8582      16.4737    -999.2500      50.0731       1.1553    -999.2500    -999.2500    -999.2500       0.3552    -999.2500       2.2760      26.1706
   1304.0106      16.3185    -999.2500      50.7723       1.1498    -999.2500    -999.2500    -999.2500       0.3600    -999.2500       2.2630      26.1394
   1304.1630      15.6560    -999.2500      51.4262       1.1413    -999.2500    -999.2500    -999.2500       0.3633    -999.2500       2.2470      25.8904
   1304.3154      15.3438    -999.2500      51.7405       1.1338    -999.2500    -999.2500    -999.2500       0.3658    -999.2500       2.2352      25.8828
   1304.4678      15.3813    -999.2500      51.7155       1.1273    -999.2500    -999.2500    -999.2500       0.3674    -999.2500       2.2277      26.1163
   1304.6202      15.4063    -999.2500      51.7873       1.1215    -999.2500    -999.2500    -999.2500       0.3670    -999.2500       2.2265      26.3883
   1304.7726      15.4188    -999.2500      51.9558       1.1165    -999.2500    -999.2500    -999.2500       0.3647    -999.2500       2.2315      26.6988
   1304.9250      15.4438    -999.2500      52.1683       1.1115    -999.2500    -999.2500    -999.2500       0.3652    -999.2500       2.2327      26.9861
   1305.0774      15.4813    -999.2500      52.4248       1.1065    -999.2500    -999.2500    -999.2500       0.3685    -999.2500       2.2302      27.2501
   1305.2297      15.5688    -999.2500      52.5155       1.0985    -999.2500    -999.2500    -999.2500       0.3718    -999.2500       2.2280      27.4598
   1305.3822      15.7064    -999.2500      52.4404       1.0875    -999.2500    -999.2500    -999.2500       0.3749    -999.2500       2.2260      27.6154
   1305.5345      15.7515    -999.2500      52.1278       1.0750    -999.2500    -999.2500    -999.2500       0.3824    -999.2500       2.2280      27.8956
   1305.6870      15.7045    -999.2500      51.5783       1.0610    -999.2500    -999.2500    -999.2500       0.3944    -999.2500       2.2340      28.3001
   1305.8394      15.6262    -999.2500      51.5482       1.0478    -999.2500    -999.2500    -999.2500       0.3988    -999.2500       2.2352      28.4319
   1305.9918      15.5167    -999.2500      52.0356       1.0353    -999.2500    -999.2500    -999.2500       0.3956    -999.2500       2.2317      28.2919
   1306.1442      15.3526    -999.2500      52.7227       1.0215    -999.2500    -999.2500    -999.2500       0.3905    -999.2500       2.2323      28.1677
   1306.2966      15.1341    -999.2500      53.6087       1.0065    -999.2500    -999.2500    -999.2500       0.3834    -999.2500       2.2368      28.0592
   1306.4490      15.0500    -999.2500      53.8542       0.9928    -999.2500    -999.2500    -999.2500       0.3781    -999.2500       2.2360      28.0518
   1306.6014      15.1000    -999.2500      53.4612       0.9803    -999.2500    -999.2500    -999.2500       0.3745    -999.2500       2.2300      28.1453
   1306.7538      15.0937    -999.2500      53.0367       0.9718    -999.2500    -999.2500    -999.2500       0.3735    -999.2500       2.2295      28.2308
   1306.9062      15.0312    -999.2500      52.5807       0.9673    -999.2500    -999.2500    -999.2500       0.3749    -999.2500       2.2345      28.3083
   1307.0586      15.0375    -999.2500      52.4281       0.9630    -999.2500    -999.2500    -999.2500       0.3770    -999.2500       2.2415      28.4016
   1307.2109      15.1125    -999.2500      52.5781       0.9590    -999.2500    -999.2500    -999.2500       0.3799    -999.2500       2.2505      28.5106
   1307.3634      15.1405    -999.2500      53.3655       0.9540    -999.2500    -999.2500    -999.2500       0.3784    -999.2500       2.2545      28.6038
   1307.5157      15.1215    -999.2500      54.7889       0.9480    -999.2500    -999.2500    -999.2500       0.3725    -999.2500       2.2535      28.6813
   1307.6682      15.0965    -999.2500      54.8532       0.9425    -999.2500    -999.2500    -999.2500       0.3729    -999.2500       2.2472      28.7278
   1307.8206      15.0655    -999.2500      53.5607       0.9375    -999.2500    -999.2500    -999.2500       0.3796    -999.2500       2.2357      28.7433
   1307.9730      15.1063    -999.2500      52.1869       0.9338    -999.2500    -999.2500    -999.2500       0.3902    -999.2500       2.2252      28.7745
   1308.1254      15.2188    -999.2500      50.7320       0.9313    -999.2500    -999.2500    -999.2500       0.4047    -999.2500       2.2157      28.8215
   1308.2778      15.2938    -999.2500      50.0798       0.9290    -999.2500    -999.2500    -999.2500       0.4075    -999.2500       2.2115      28.8760
   1308.4302      15.3313    -999.2500      50.2293       0.9270    -999.2500    -999.2500    -999.2500       0.3985    -999.2500       2.2125      28.9380
   1308.5826      15.3312    -999.2500      50.3790       0.9248    -999.2500    -999.2500    -999.2500       0.3923    -999.2500       2.2178      29.0235
   1308.7350      15.2937    -999.2500      50.5290       0.9223    -999.2500    -999.2500    -999.2500       0.3889    -999.2500       2.2273      29.1325
   1308.8875      15.0061    -999.2500      50.1418       0.9188    -999.2500    -999.2500    -999.2500       0.3868    -999.2500       2.2307      29.2025
   1309.0398      14.4687    -999.2500      49.2178       0.9143    -999.2500    -999.2500    -999.2500       0.3860    -999.2500       2.2282      29.2335
   1309.1921      14.2375    -999.2500      49.0467       0.9120    -999.2500    -999.2500    -999.2500       0.3822    -999.2500       2.2237      29.2958
   1309.3446      14.3126    -999.2500      49.6279       0.9120    -999.2500    -999.2500    -999.2500       0.3754    -999.2500       2.2172      29.3893
