#------------------------------------------------------------------------------
#
#   Created by  : [OpenWorks] Log Export Utility (LEXP)
#   Created on  : 2016-05-12 17:01:20
#   Project     : CANT971
#   User        : R5K
#   Interpreter : PEP
#
#------------------------------------------------------------------------------
~VERSION INFORMATION
VERS. 2.0 : CWLS Log ASCII Standard - version 2.0
WRAP.  NO : One line per depth step
~WELL INFORMATION
#MNEMONIC   .UNIT                                           VALUE :DESCRIPTION
#------------------------------------------------------------------------------
STRT        .M                                           993.9530 :START DEPTH
STOP        .M                                          2371.9539 :STOP DEPTH
STEP        .M                                             0.1524 :STEP
NULL        .                                           -999.2500 :NULL VALUE
COMP        .                                   PEMEX EXPL & PROD :COMPANY
WELL        .                                                  55 :WELL
FLD         .                                           CANTARELL :FIELD
LOC         .                                             UNKNOWN :LOCATION
CNTY        .                                      CD. DEL CARMEN :COUNTY
STAT        .                                            CAMPECHE :STATE
CTRY        .                                              MEXICO :COUNTRY
SRVC        .                                             UNKNOWN :SERVICE COMPANY
DATE        .                                             UNKNOWN :LOG DATE
UWI         .                                          3060000168 :UNIQUE WELL ID
XCOORD      .                                       602149.520000 :SURFACE X
YCOORD      .                                      2147170.290000 :SURFACE Y
LAT         .                                           19.417375 :LATITUDE
LON         .                                          -92.027057 :LONGITUDE
ELEV        .M                                            28.1700 :SURFACE ELEV
ELEV_TYPE   .                                                  KB :ELEV TYPE
~CURVE INFORMATION
#MNEMONIC.UNIT        API CODE       : CURVE DESCRIPTION
#------------------------------------------------------------------------------
DEPTH    .M                          : Measured Depth
CALI     .inches      UNKNOWN        : CALI:CALI-Load:rC:NONE:v0 (auto-composite)
DRHO     .UNKNOWN     UNKNOWN        : DRHO:DRHO-Load:rC:NONE:v0 (auto-composite)
DT       .us/ft       UNKNOWN        : DT:DT:rC:NONE:v0 (auto-composite)
GR       .UNKNOWN     UNKNOWN        : GR:GR-Load:rC:NONE:v0 (auto-composite)
ILD      .UNKNOWN     UNKNOWN        : ILD:ILD-Load:rC:NONE:v0 (auto-composite)
LLD      .UNKNOWN     UNKNOWN        : LLD:LLD-Load:rC:NONE:v0 (auto-composite)
LLS      .UNKNOWN     UNKNOWN        : LLS:LLS-Load:rC:NONE:v0 (auto-composite)
MSFL     .UNKNOWN     UNKNOWN        : MSFL:MSFL-Load:rC:NONE:v0 (auto-composite)
NPHI     .v/v_decimal UNKNOWN        : NPHI:NPHI:rC:NONE:v0 (auto-composite)
RHOB     .UNKNOWN     UNKNOWN        : RHOB:RHOB-Load:rC:NONE:v0 (auto-composite)
SP       .UNKNOWN     UNKNOWN        : SP:SP-Load:rC:NONE:v0 (auto-composite)
~A     DEPTH         CALI         DRHO           DT           GR          ILD          LLD          LLS         MSFL         NPHI         RHOB           SP
# ...
   1017.7274    -999.2500      -0.0030    -999.2500      42.6900       1.1570    -999.2500    -999.2500    -999.2500      40.4500       2.2100     102.1560
   1017.8798    -999.2500       0.0025    -999.2500      42.7650       1.1635    -999.2500    -999.2500    -999.2500      39.7301       2.2100     101.8985
   1018.0322    -999.2500       0.0080    -999.2500      42.8400       1.1700    -999.2500    -999.2500    -999.2500      39.0100       2.2100     101.6410
   1018.1846    -999.2500       0.0095    -999.2500      42.7310       1.1720    -999.2500    -999.2500    -999.2500      39.3100       2.2115     101.3116
   1018.3370    -999.2500       0.0110    -999.2500      42.6220       1.1740    -999.2500    -999.2500    -999.2500      39.6100       2.2130     100.9820
   1018.4894    -999.2500       0.0100    -999.2500      41.8260       1.1740    -999.2500    -999.2500    -999.2500      38.8049       2.2165     100.5460
   1018.6418    -999.2500       0.0090    -999.2500      41.0300       1.1740    -999.2500    -999.2500    -999.2500      38.0000       2.2200     100.1100
   1018.7942    -999.2500       0.0060    -999.2500      41.6696       1.1740    -999.2500    -999.2500    -999.2500      39.0551       2.2100     100.1255
   1018.9466    -999.2500       0.0030    -999.2500      42.3090       1.1740    -999.2500    -999.2500    -999.2500      40.1100       2.2000     100.1410
   1019.0990    -999.2500       0.0025    -999.2500      44.4246       1.1740    -999.2500    -999.2500    -999.2500      40.0810       2.2000     100.2330
   1019.2514    -999.2500       0.0020    -999.2500      46.5400       1.1740    -999.2500    -999.2500    -999.2500      40.0520       2.2000     100.3250
   1019.4038    -999.2500       0.0000    -999.2500      46.3650       1.1740    -999.2500    -999.2500    -999.2500      39.8160       2.2000     100.5175
   1019.5562    -999.2500      -0.0020    -999.2500      46.1900       1.1740    -999.2500    -999.2500    -999.2500      39.5800       2.2000     100.7100
   1019.7086    -999.2500      -0.0020    -999.2500      46.2400       1.1725    -999.2500    -999.2500    -999.2500      39.0401       2.2000     100.6615
   1019.8610    -999.2500      -0.0020    -999.2500      46.2900       1.1710    -999.2500    -999.2500    -999.2500      38.5000       2.2000     100.6130
   1020.0134    -999.2500      -0.0015    -999.2500      46.0650       1.1620    -999.2500    -999.2500    -999.2500      39.0550       2.1950     100.4150
   1020.1658    -999.2500      -0.0010    -999.2500      45.8400       1.1530    -999.2500    -999.2500    -999.2500      39.6100       2.1900     100.2170
   1020.3182    -999.2500       0.0035    -999.2500      46.1400       1.1550    -999.2500    -999.2500    -999.2500      39.5550       2.1900      99.9235
   1020.4706    -999.2500       0.0080    -999.2500      46.4400       1.1570    -999.2500    -999.2500    -999.2500      39.5000       2.1900      99.6300
   1020.6230    -999.2500       0.0075    -999.2500      46.1440       1.1635    -999.2500    -999.2500    -999.2500      39.7650       2.1900      99.6300
   1020.7754    -999.2500       0.0070    -999.2500      45.8480       1.1700    -999.2500    -999.2500    -999.2500      40.0300       2.1900      99.6300
   1020.9278    -999.2500       0.0045    -999.2500      44.9285       1.1720    -999.2500    -999.2500    -999.2500      40.0205       2.1900      99.6780
   1021.0802    -999.2500       0.0020    -999.2500      44.0090       1.1740    -999.2500    -999.2500    -999.2500      40.0110       2.1900      99.7260
   1021.2326    -999.2500      -0.0035    -999.2500      43.5080       1.1740    -999.2500    -999.2500    -999.2500      39.7440       2.1900      99.8745
   1021.3850    -999.2500      -0.0090    -999.2500      43.0070       1.1740    -999.2500    -999.2500    -999.2500      39.4770       2.1900     100.0230
   1021.5374    -999.2500      -0.0075    -999.2500      41.8186       1.1725    -999.2500    -999.2500    -999.2500      38.6936       2.1885     100.0985
   1021.6898    -999.2500      -0.0060    -999.2500      40.6300       1.1710    -999.2500    -999.2500    -999.2500      37.9100       2.1870     100.1740
   1021.8422    -999.2500       0.0005    -999.2500      41.0614       1.1630    -999.2500    -999.2500    -999.2500      37.9920       2.1820     100.3275
   1021.9946    -999.2500       0.0070    -999.2500      41.4930       1.1550    -999.2500    -999.2500    -999.2500      38.0740       2.1770     100.4810
   1022.1470    -999.2500       0.0055    -999.2500      42.6613       1.1370    -999.2500    -999.2500    -999.2500      38.5710       2.1685     100.7045
   1022.2994    -999.2500       0.0040    -999.2500      43.8300       1.1190    -999.2500    -999.2500    -999.2500      39.0680       2.1600     100.9280
   1022.4518    -999.2500       0.0005    -999.2500      44.0750       1.0955    -999.2500    -999.2500    -999.2500      39.9431       2.1615     101.0640
   1022.6042    -999.2500      -0.0030    -999.2500      44.3200       1.0720    -999.2500    -999.2500    -999.2500      40.8180       2.1630     101.2000
   1022.7566    -999.2500      -0.0060    -999.2500      45.0010       1.0550    -999.2500    -999.2500    -999.2500      41.3890       2.1665     101.2315
   1022.9090    -999.2500      -0.0090    -999.2500      45.6820       1.0380    -999.2500    -999.2500    -999.2500      41.9600       2.1700     101.2630
   1023.0614    -999.2500      -0.0070    -999.2500      46.3860       1.0260    -999.2500    -999.2500    -999.2500      40.3650       2.1715     101.3840
   1023.2138    -999.2500      -0.0050    -999.2500      47.0900       1.0140    -999.2500    -999.2500    -999.2500      38.7700       2.1730     101.5050
   1023.3662    -999.2500       0.0010    -999.2500      46.4400       1.0110    -999.2500    -999.2500    -999.2500      38.9035       2.1765     101.6240
   1023.5186    -999.2500       0.0070    -999.2500      45.7900       1.0080    -999.2500    -999.2500    -999.2500      39.0370       2.1800     101.7430
   1023.6710    -999.2500       0.0090    -999.2500      46.2399       0.9930    -999.2500    -999.2500    -999.2500      39.6259       2.1750     101.8640
   1023.8234    -999.2500       0.0110    -999.2500      46.6900       0.9780    -999.2500    -999.2500    -999.2500      40.2150       2.1700     101.9850
   1023.9758    -999.2500       0.0100    -999.2500      46.5140       0.9780    -999.2500    -999.2500    -999.2500      41.1625       2.1700     102.0725
   1024.1282    -999.2500       0.0090    -999.2500      46.3380       0.9780    -999.2500    -999.2500    -999.2500      42.1100       2.1700     102.1600
   1024.2806    -999.2500       0.0025    -999.2500      45.0638       0.9780    -999.2500    -999.2500    -999.2500      41.2699       2.1650     102.1760
   1024.4330    -999.2500      -0.0040    -999.2500      43.7900       0.9780    -999.2500    -999.2500    -999.2500      40.4300       2.1600     102.1920
   1024.5854    -999.2500      -0.0005    -999.2500      45.2151       0.9815    -999.2500    -999.2500    -999.2500      40.7700       2.1600     102.2515
   1024.7378    -999.2500       0.0030    -999.2500      46.6400       0.9850    -999.2500    -999.2500    -999.2500      41.1100       2.1600     102.3110
   1024.8903    -999.2500       0.0020    -999.2500      46.3900       0.9980    -999.2500    -999.2500    -999.2500      40.3250       2.1600     102.3715
   1025.0426    -999.2500       0.0010    -999.2500      46.1400       1.0110    -999.2500    -999.2500    -999.2500      39.5400       2.1600     102.4320
   1025.1949    -999.2500       0.0020    -999.2500      46.1465       1.0230    -999.2500    -999.2500    -999.2500      39.6950       2.1625     102.4760
   1025.3474    -999.2500       0.0030    -999.2500      46.1530       1.0350    -999.2500    -999.2500    -999.2500      39.8500       2.1650     102.5200
   1025.4998    -999.2500       0.0060    -999.2500      46.3215       1.0435    -999.2500    -999.2500    -999.2500      39.5400       2.1740     102.5530
