#------------------------------------------------------------------------------
#
#   Created by  : [OpenWorks] Log Export Utility (LEXP)
#   Created on  : 2016-05-23 11:50:56
#   Project     : CANT971
#   User        : R5K
#   Interpreter : PEP
#
#------------------------------------------------------------------------------
~VERSION INFORMATION
VERS. 2.0 : CWLS Log ASCII Standard - version 2.0
WRAP.  NO : One line per depth step
~WELL INFORMATION
#MNEMONIC   .UNIT                                           VALUE :DESCRIPTION
#------------------------------------------------------------------------------
STRT        .M                                           679.7040 :START DEPTH
STOP        .M                                          2836.1641 :STOP DEPTH
STEP        .M                                             0.1524 :STEP
NULL        .                                           -999.2500 :NULL VALUE
COMP        .                                   PEMEX EXPL & PROD :COMPANY
WELL        .                                                1044 :WELL
FLD         .                                           CANTARELL :FIELD
LOC         .                                             UNKNOWN :LOCATION
CNTY        .                                      CD. DEL CARMEN :COUNTY
STAT        .                                            CAMPECHE :STATE
CTRY        .                                              MEXICO :COUNTRY
SRVC        .                                             UNKNOWN :SERVICE COMPANY
DATE        .                                             UNKNOWN :LOG DATE
UWI         .                                          3060000497 :UNIQUE WELL ID
XCOORD      .                                       596164.320000 :SURFACE X
YCOORD      .                                      2150609.730000 :SURFACE Y
LAT         .                                           19.448753 :LATITUDE
LON         .                                          -92.083884 :LONGITUDE
ELEV        .M                                            30.0000 :SURFACE ELEV
ELEV_TYPE   .                                                  KB :ELEV TYPE
~CURVE INFORMATION
#MNEMONIC.UNIT        API CODE       : CURVE DESCRIPTION
#------------------------------------------------------------------------------
DEPTH    .M                          : Measured Depth
CALI     .inches      UNKNOWN        : CALI:litodensidad:rC:NONE:v0 (auto-composite)
DRHO     .g/cm3       UNKNOWN        : DRHO:litodensidad:rC:NONE:v0 (auto-composite)
DT       .us/ft       UNKNOWN        : DT:DT:rC:NONE:v0 (auto-composite)
GR       .API         UNKNOWN        : GR:UNKNOWN:rC:NONE:v0 (auto-composite)
ILD      .ohm.m       UNKNOWN        : ILD:UNKNOWN:rC:NONE:v0 (auto-composite)
ILM      .ohm.m       UNKNOWN        : ILM:UNKNOWN:rC:NONE:v0 (auto-composite)
LLD      .ohm.m       UNKNOWN        : LLD:UNKNOWN:rC:NONE:v0 (auto-composite)
LLS      .ohm.m       UNKNOWN        : LLS:UNKNOWN:rC:NONE:v0 (auto-composite)
MSFL     .ohm.m       UNKNOWN        : MSFL:UNKNOWN:rC:NONE:v0 (auto-composite)
NPHI     .v/v_decimal UNKNOWN        : NPHI:NPHI:rC:NONE:v0 (auto-composite)
PEF      .b/elec      UNKNOWN        : PEF:UNKNOWN:rC:NONE:v0 (auto-composite)
RHOB     .g/cm3       UNKNOWN        : RHOB:UNKNOWN:rC:NONE:v0 (auto-composite)
~A     DEPTH         CALI         DRHO           DT           GR          ILD          ILM          LLD          LLS         MSFL         NPHI          PEF         RHOB
# ...
   2632.8623       8.9300       0.0310      68.1530      99.3890    -999.2500    -999.2500      15.2250      15.7350      23.7452       0.1832       3.0530       2.5810
   2633.0149       8.9275       0.0435      67.4655     100.4374    -999.2500    -999.2500      14.2538      14.7865      23.0572       0.1484       3.0535       2.5940
   2633.1672       8.9250       0.0560      66.7770     101.4840    -999.2500    -999.2500      13.2811      13.8366      22.3681       0.1135       3.0540       2.6070
   2633.3196       8.9790       0.0590      64.0612     110.7859    -999.2500    -999.2500      12.4785      13.0559      22.5425       0.1175       3.0010       2.5985
   2633.4719       9.0330       0.0620      61.3410     120.0730    -999.2500    -999.2500      11.6745      12.2739      22.7172       0.1214       2.9480       2.5900
   2633.6243       9.3737       0.0705      63.0685     116.2307    -999.2500    -999.2500      11.5622      12.1628      21.9262       0.1417       2.8391       2.4766
   2633.7769       9.7150       0.0790      64.7990     112.3940    -999.2500    -999.2500      11.4496      12.0514      21.1338       0.1620       2.7300       2.3630
   2633.9292       9.6915       0.1005      69.1764     101.0969    -999.2500    -999.2500      13.4058      13.9542      25.2629       0.1957       2.7760       2.3785
   2634.0815       9.6680       0.1220      73.5620      89.8330    -999.2500    -999.2500      15.3657      15.8604      29.3997       0.2296       2.8220       2.3940
   2634.2339       9.5436       0.1115      71.9211      81.7041    -999.2500    -999.2500      30.5905      27.0025      50.3866       0.2023       3.1652       2.4474
   2634.3865       9.4190       0.1010      70.2770      73.5980    -999.2500    -999.2500      45.8456      38.1667      71.4151       0.1750       3.5090       2.5010
   2634.5388       9.1927       0.0760      63.5796      68.1116    -999.2500    -999.2500      82.1383      63.3332     116.5634       0.1845       3.5035       2.5759
   2634.6912       8.9660       0.0510      56.8680      62.6400    -999.2500    -999.2500     118.5077      88.5528     161.8071       0.1940       3.4980       2.6510
   2634.8435       8.9730       0.0410      58.2914      50.3738    -999.2500    -999.2500     147.4741     109.2100     199.0096       0.1831       3.3092       2.6460
   2634.9961       8.9800       0.0310      59.7180      38.1390    -999.2500    -999.2500     176.5054     129.9134     236.2955       0.1723       3.1200       2.6410
   2635.1484       9.1188       0.0270      58.7272      38.3262    -999.2500    -999.2500     192.2989     141.6515     255.4264       0.1327       3.1240       2.6475
   2635.3008       9.2580       0.0230      57.7340      38.5130    -999.2500    -999.2500     208.1298     153.4174     274.6025       0.0930       3.1280       2.6540
   2635.4531       9.2560       0.0165      54.5215      39.6053    -999.2500    -999.2500     195.7545     146.0166     250.6470       0.0938       3.3712       2.6720
   2635.6055       9.2540       0.0100      51.3010      40.6950    -999.2500    -999.2500     183.3484     138.5974     226.6318       0.0946       3.6150       2.6900
   2635.7581       9.2185       0.0105      51.7309      39.2479    -999.2500    -999.2500     161.7453     124.4526     184.9331       0.1017       3.5701       2.6575
   2635.9104       9.1830       0.0110      52.1620      37.8040    -999.2500    -999.2500     140.0856     110.2709     143.1254       0.1089       3.5250       2.6250
   2636.0627       9.2349       0.0150      53.2875      38.3421    -999.2500    -999.2500     124.9190      99.5407     109.2400       0.1029       3.3877       2.5611
   2636.2151       9.2870       0.0190      54.4160      38.8790    -999.2500    -999.2500     109.7107      88.7812      75.2616       0.0969       3.2500       2.4970
   2636.3677       9.4219       0.0380      55.8856      42.4425    -999.2500    -999.2500      97.8825      80.0217      54.9598       0.0983       3.2725       2.5050
   2636.5200       9.5570       0.0570      57.3570      45.9990    -999.2500    -999.2500      86.0392      71.2512      34.6322       0.0996       3.2950       2.5130
   2636.6724       9.6659       0.0520      62.5584      45.0361    -999.2500    -999.2500      74.3647      62.6929      26.2796       0.1119       3.2081       2.4366
   2636.8247       9.7750       0.0470      67.7670      44.0750    -999.2500    -999.2500      62.6739      54.1227      17.9154       0.1241       3.1210       2.3600
   2636.9773      10.0118       0.0235      75.9403      42.2505    -999.2500    -999.2500      54.5132      47.9292      14.1934       0.1612       2.8757       2.1217
   2637.1296      10.2490       0.0000      84.1260      40.4290    -999.2500    -999.2500      46.3401      41.7262      10.4659       0.1984       2.6300       1.8830
   2637.2820      10.7011       0.0010      83.8163      40.8173    -999.2500    -999.2500      44.4623      40.1167       9.6791       0.2482       2.4437       1.6477
   2637.4343      11.1540       0.0020      83.5060      41.2050    -999.2500    -999.2500      42.5813      38.5045       8.8912       0.2981       2.2570       1.4120
   2637.5867      11.4637       0.0105      82.6782      41.9991    -999.2500    -999.2500      44.2014      40.3923       9.6201       0.3261       2.1326       1.4345
   2637.7393      11.7740       0.0190      81.8490      42.7920    -999.2500    -999.2500      45.8243      42.2835      10.3503       0.3542       2.0080       1.4570
   2637.8916      11.7076       0.0455      77.8663      43.6953    -999.2500    -999.2500      47.8737      44.2105      11.5227       0.3438       2.0295       1.5599
   2638.0439      11.6410       0.0720      73.8760      44.5960    -999.2500    -999.2500      49.9270      46.1411      12.6973       0.3334       2.0510       1.6630
   2638.1963      11.3893       0.1165      81.4289      47.7634    -999.2500    -999.2500      52.9894      49.3317      19.4387       0.3054       2.1804       1.8343
   2638.3489      11.1370       0.1610      88.9970      50.9220    -999.2500    -999.2500      56.0581      52.5288      26.1938       0.2773       2.3100       2.0060
   2638.5012      10.6890       0.1575      86.6615      50.0744    -999.2500    -999.2500      73.2616      66.3341      55.8880       0.2465       2.6042       2.1698
   2638.6536      10.2400       0.1540      84.3210      49.2290    -999.2500    -999.2500      90.5021      80.1690      85.6458       0.2156       2.8990       2.3340
   2638.8059       9.7675       0.1390      77.0293      45.0903    -999.2500    -999.2500     124.5251     108.6172     136.9476       0.1740       3.1972       2.4649
   2638.9585       9.2940       0.1240      69.7210      40.9620    -999.2500    -999.2500     158.6254     137.1300     188.3660       0.1324       3.4960       2.5960
   2639.1108       9.1117       0.0955      62.7598      41.0286    -999.2500    -999.2500     182.8590     159.9189     225.4714       0.0882       3.4366       2.6509
   2639.2632       8.9290       0.0670      55.7820      41.0950    -999.2500    -999.2500     207.1507     182.7623     262.6657       0.0438       3.3770       2.7060
   2639.4155       8.8276       0.0450      51.3626      41.5005    -999.2500    -999.2500     226.8418     202.9032     275.4169       0.0452       3.4199       2.7459
   2639.5679       8.7260       0.0230      46.9320      41.9050    -999.2500    -999.2500     246.5825     223.0948     288.2002       0.0466       3.4630       2.7860
   2639.7205       8.6231       0.0190      49.0537      42.5041    -999.2500    -999.2500     247.1582     228.6468     276.9767       0.0527       3.4430       2.7765
   2639.8728       8.5200       0.0150      51.1810      43.1020    -999.2500    -999.2500     247.7355     234.2135     265.7235       0.0588       3.4230       2.7670
   2640.0251       8.5959       0.0120      50.9523      40.7316    -999.2500    -999.2500     245.2665     235.6019     249.8104       0.0568       3.4345       2.7685
