#------------------------------------------------------------------------------
#
#   Created by  : [OpenWorks] Log Export Utility (LEXP)
#   Created on  : 2016-05-23 11:50:40
#   Project     : CANT971
#   User        : R5K
#   Interpreter : PEP
#
#------------------------------------------------------------------------------
~VERSION INFORMATION
VERS. 2.0 : CWLS Log ASCII Standard - version 2.0
WRAP.  NO : One line per depth step
~WELL INFORMATION
#MNEMONIC   .UNIT                                           VALUE :DESCRIPTION
#------------------------------------------------------------------------------
STRT        .M                                           697.2303 :START DEPTH
STOP        .M                                          3650.8948 :STOP DEPTH
STEP        .M                                             0.1524 :STEP
NULL        .                                           -999.2500 :NULL VALUE
COMP        .                                   PEMEX EXPL & PROD :COMPANY
WELL        .                                                1026 :WELL
FLD         .                                           CANTARELL :FIELD
LOC         .                                             UNKNOWN :LOCATION
CNTY        .                                      CD. DEL CARMEN :COUNTY
STAT        .                                            CAMPECHE :STATE
CTRY        .                                              MEXICO :COUNTRY
SRVC        .                                             UNKNOWN :SERVICE COMPANY
DATE        .                                             UNKNOWN :LOG DATE
UWI         .                                          3060000491 :UNIQUE WELL ID
XCOORD      .                                       596159.330000 :SURFACE X
YCOORD      .                                      2150607.710000 :SURFACE Y
LAT         .                                           19.448735 :LATITUDE
LON         .                                          -92.083932 :LONGITUDE
ELEV        .M                                            30.0000 :SURFACE ELEV
ELEV_TYPE   .                                                  KB :ELEV TYPE
~CURVE INFORMATION
#MNEMONIC.UNIT        API CODE       : CURVE DESCRIPTION
#------------------------------------------------------------------------------
DEPTH    .M                          : Measured Depth
CALI     .inches      UNKNOWN        : CALI:registros:rC:NONE:v0 (auto-composite)
DRHO     .g/cm3       UNKNOWN        : DRHO:registros:rC:NONE:v0 (auto-composite)
DT       .us/ft       UNKNOWN        : DT:registros:rC:NONE:v0 (auto-composite)
GR       .API         UNKNOWN        : GR:registros:rC:NONE:v0 (auto-composite)
ILD      .ohm.m       UNKNOWN        : ILD:registros:rC:NONE:v0 (auto-composite)
ILM      .ohm.m       UNKNOWN        : ILM:registros:rC:NONE:v0 (auto-composite)
LLD      .ohm.m       UNKNOWN        : LLD:registros:rC:NONE:v0 (auto-composite)
LLS      .ohm.m       UNKNOWN        : LLS:registros:rC:NONE:v0 (auto-composite)
MSFL     .ohm.m       UNKNOWN        : MSFL:registros:rC:NONE:v0 (auto-composite)
NPHI     .v/v_decimal UNKNOWN        : NPHI:registros:rC:NONE:v0 (auto-composite)
PEF      .b/elec      UNKNOWN        : PEF:registros:rC:NONE:v0 (auto-composite)
RHOB     .g/cm3       UNKNOWN        : RHOB:registros:rC:NONE:v0 (auto-composite)
~A     DEPTH         CALI         DRHO           DT           GR          ILD          ILM          LLD          LLS         MSFL         NPHI          PEF         RHOB
# ...
   3645.2559       8.9650       0.0130    -999.2500    -999.2500    -999.2500    -999.2500       2.7420       2.7270       0.4100       0.3588       3.6231       1.9950
   3645.4082       8.9610       0.0100    -999.2500    -999.2500    -999.2500    -999.2500       2.7330       2.7450       0.4100       0.3567       3.5780       1.9870
   3645.5608       8.9610       0.0075    -999.2500    -999.2500    -999.2500    -999.2500       2.7345       2.7325       0.4100       0.3526       3.5780       1.9890
   3645.7131       8.9610       0.0050    -999.2500    -999.2500    -999.2500    -999.2500       2.7360       2.7200       0.4100       0.3487       3.5780       1.9910
   3645.8655       8.9490       0.0055    -999.2500    -999.2500    -999.2500    -999.2500       2.7425       2.7310       0.4100       0.3477       3.5670       1.9945
   3646.0178       8.9370       0.0060    -999.2500    -999.2500    -999.2500    -999.2500       2.7490       2.7420       0.4100       0.3478       3.5560       1.9980
   3646.1702       8.9410       0.0075    -999.2500    -999.2500    -999.2500    -999.2500       2.7375       2.7390       0.4095       0.3478       3.4976       1.9990
   3646.3228       8.9450       0.0090    -999.2500    -999.2500    -999.2500    -999.2500       2.7260       2.7360       0.4090       0.3478       3.4390       2.0000
   3646.4751       8.9290       0.0100    -999.2500    -999.2500    -999.2500    -999.2500       2.7385       2.7390       0.4090       0.3479       3.3467       2.0060
   3646.6274       8.9130       0.0110    -999.2500    -999.2500    -999.2500    -999.2500       2.7510       2.7420       0.4090       0.3482       3.2540       2.0120
   3646.7798       8.8885       0.0105    -999.2500    -999.2500    -999.2500    -999.2500       2.7465       2.7495       0.4090       0.3485       3.2730       2.0115
   3646.9324       8.8640       0.0100    -999.2500    -999.2500    -999.2500    -999.2500       2.7420       2.7570       0.4090       0.3487       3.2920       2.0110
   3647.0847       8.8540       0.0080    -999.2500    -999.2500    -999.2500    -999.2500       2.7430       2.7350       0.4090       0.3489       3.3579       2.0055
   3647.2371       8.8440       0.0060    -999.2500    -999.2500    -999.2500    -999.2500       2.7440       2.7130       0.4090       0.3490       3.4240       2.0000
   3647.3894       8.8480       0.0060    -999.2500    -999.2500    -999.2500    -999.2500       2.7340       2.7145       0.4090       0.3490       3.5898       2.0010
   3647.5420       8.8520       0.0060    -999.2500    -999.2500    -999.2500    -999.2500       2.7240       2.7160       0.4090       0.3489       3.7560       2.0020
   3647.6943       8.8440       0.0070    -999.2500    -999.2500    -999.2500    -999.2500       2.7295       2.7295       0.4090       0.3490       3.6936       1.9980
   3647.8467       8.8360       0.0080    -999.2500    -999.2500    -999.2500    -999.2500       2.7350       2.7430       0.4090       0.3490       3.6310       1.9940
   3647.9990       8.8360       0.0095    -999.2500    -999.2500    -999.2500    -999.2500       2.7350       2.7385       0.4085       0.3491       3.5296       1.9965
   3648.1514       8.8360       0.0110    -999.2500    -999.2500    -999.2500    -999.2500       2.7350       2.7340       0.4080       0.3492       3.4280       1.9990
   3648.3040       8.8360       0.0125    -999.2500    -999.2500    -999.2500    -999.2500       2.7355       2.7285       0.4080       0.3492       3.4924       2.0015
   3648.4563       8.8360       0.0140    -999.2500    -999.2500    -999.2500    -999.2500       2.7360       2.7230       0.4080       0.3492       3.5570       2.0040
   3648.6086       8.8395       0.0155    -999.2500    -999.2500    -999.2500    -999.2500      19.1159       9.5992       0.4085       0.3491       3.5360       2.0065
   3648.7610       8.8430       0.0170    -999.2500    -999.2500    -999.2500    -999.2500      35.5400      16.4940       0.4090       0.3490       3.5150       2.0090
   3648.9136       8.8510       0.0210    -999.2500    -999.2500    -999.2500    -999.2500     331.6812      70.2639       0.4085       0.3490       3.4796       2.0135
   3649.0659       8.8590       0.0250    -999.2500    -999.2500    -999.2500    -999.2500     628.6610     124.1860       0.4080       0.3128       3.4440       2.0180
   3649.2183       4.4360       0.0125    -999.2500    -999.2500    -999.2500    -999.2500     628.6610     124.1860       0.4080       0.1750       1.7245       1.0105
   3649.3706       0.0000       0.0000    -999.2500    -999.2500    -999.2500    -999.2500     628.6610     124.1860       0.4080       0.0366       0.0000       0.0000
   3649.5232       0.0000       0.0000    -999.2500    -999.2500    -999.2500    -999.2500     628.6610     124.1860       0.4080       0.0000       0.0000       0.0000
   3649.6755       0.0000       0.0000    -999.2500    -999.2500    -999.2500    -999.2500     628.6610     124.1860       0.4080       0.0000       0.0000       0.0000
   3649.8279       0.0000       0.0000    -999.2500    -999.2500    -999.2500    -999.2500     628.6610     124.1860       0.4075       0.0000       0.0000       0.0000
   3649.9802       0.0000       0.0000    -999.2500    -999.2500    -999.2500    -999.2500     628.6610     124.1860       0.4070       0.0000       0.0000       0.0000
   3650.1326       0.0000       0.0000    -999.2500    -999.2500    -999.2500    -999.2500     628.6610     124.1860       0.4070       0.0000       0.0000       0.0000
   3650.2852       0.0000       0.0000    -999.2500    -999.2500    -999.2500    -999.2500     628.6610     124.1860       0.4070       0.0000       0.0000       0.0000
   3650.4375       0.0000       0.0000    -999.2500    -999.2500    -999.2500    -999.2500     628.6610     124.1860       0.4065       0.0000       0.0000       0.0000
   3650.5898       0.0000       0.0000    -999.2500    -999.2500    -999.2500    -999.2500     628.6610     124.1860       0.4060       0.0000       0.0000       0.0000
   3650.7422       0.0000       0.0000    -999.2500    -999.2500    -999.2500    -999.2500     628.6610     124.1860       0.4055       0.0000       0.0000       0.0000
   3650.8948       0.0000       0.0000    -999.2500    -999.2500    -999.2500    -999.2500     628.6610     124.1860       0.4050    -999.2500       0.0000       0.0000
