#------------------------------------------------------------------------------
#
#   Created by  : [OpenWorks] Log Export Utility (LEXP)
#   Created on  : 2016-05-23 11:56:31
#   Project     : CANT971
#   User        : R5K
#   Interpreter : PEP
#
#------------------------------------------------------------------------------
~VERSION INFORMATION
VERS. 2.0 : CWLS Log ASCII Standard - version 2.0
WRAP.  NO : One line per depth step
~WELL INFORMATION
#MNEMONIC   .UNIT                                           VALUE :DESCRIPTION
#------------------------------------------------------------------------------
STRT        .M                                          1639.8856 :START DEPTH
STOP        .M                                          2789.8960 :STOP DEPTH
STEP        .M                                             0.1524 :STEP
NULL        .                                           -999.2500 :NULL VALUE
COMP        .                                             UNKNOWN :COMPANY
WELL        .                                                 477 :WELL
FLD         .                                             UNKNOWN :FIELD
LOC         .                                             UNKNOWN :LOCATION
CNTY        .                                             UNKNOWN :COUNTY
STAT        .                                             UNKNOWN :STATE
CTRY        .                                             UNKNOWN :COUNTRY
SRVC        .                                             UNKNOWN :SERVICE COMPANY
DATE        .                                             UNKNOWN :LOG DATE
UWI         .                                                 477 :UNIQUE WELL ID
XCOORD      .                                       598704.070000 :SURFACE X
YCOORD      .                                      2143268.860000 :SURFACE Y
LAT         .                                           19.382293 :LATITUDE
LON         .                                          -92.060073 :LONGITUDE
ELEV        .M                                             0.0000 :SURFACE ELEV
ELEV_TYPE   .                                                  KB :ELEV TYPE
~CURVE INFORMATION
#MNEMONIC.UNIT        API CODE       : CURVE DESCRIPTION
#------------------------------------------------------------------------------
DEPTH    .M                          : Measured Depth
CALI     .inches      UNKNOWN        : CALI:litodensidad:rC:NONE:v0 (auto-composite)
CGR      .API         UNKNOWN        : CGR:Espectrometria:rC:NONE:v0 (auto-composite)
DRHO     .g/cm3       UNKNOWN        : DRHO:litodensidad:rC:NONE:v0 (auto-composite)
DT       .us/ft       UNKNOWN        : DT:Sonico:rC:NONE:v0 (auto-composite)
GR       .API         UNKNOWN        : GR:Espectrometria:rC:NONE:v0 (auto-composite)
GR-LWD   .API         UNKNOWN        : GR-LWD:resistivos-LWD:rC:NONE:v0 (auto-composite)
LLD      .ohm.m       UNKNOWN        : LLD:resistivos:rC:NONE:v0 (auto-composite)
LLD-LWD  .ohm.m       UNKNOWN        : LLD-LWD:resistivos-LWD:rC:NONE:v0 (auto-composite)
LLS      .ohm.m       UNKNOWN        : LLS:resistivos:rC:NONE:v0 (auto-composite)
LLS-LWD  .ohm.m       UNKNOWN        : LLS-LWD:resistivos-LWD:rC:NONE:v0 (auto-composite)
MSFL     .ohm.m       UNKNOWN        : MSFL:resistivos:rC:NONE:v0 (auto-composite)
MSFL-LWD .ohm.m       UNKNOWN        : MSFL-LWD:resistivos-LWD:rC:NONE:v0 (auto-composite)
NPHI     .UNKNOWN     UNKNOWN        : NPHI:porosidad:rC:NONE:v0 (auto-composite)
PEF      .UNKNOWN     UNKNOWN        : PEF:litodensidad:rC:NONE:v0 (auto-composite)
POTA     .wtpercent   UNKNOWN        : POTA:PETROWORKS:rC:NONE:v1 
RHOB     .g/cm3       UNKNOWN        : RHOB:litodensidad:rC:NONE:v0 (auto-composite)
THOR     .ppm         UNKNOWN        : THOR:Espectrometria:rC:NONE:v0 (auto-composite)
URAN     .ppm         UNKNOWN        : URAN:Espectrometria:rC:NONE:v0 (auto-composite)
~A     DEPTH         CALI          CGR         DRHO           DT           GR       GR-LWD          LLD      LLD-LWD          LLS      LLS-LWD         MSFL     MSFL-LWD         NPHI          PEF         POTA         RHOB         THOR         URAN
# ...
   1966.7836       9.4140       9.2251      -0.0025      86.2033      51.8145    -999.2500      19.5424    -999.2500      17.9755    -999.2500      21.4831    -999.2500       0.1782       3.3887       0.0046       2.4851       0.7817       4.7416
   1966.9360       9.4203      10.3394      -0.0073      69.6814      52.5677    -999.2500      20.2942    -999.2500      18.0846    -999.2500      17.3710    -999.2500       0.1729       3.4288       0.0049       2.4848       0.9709       4.7014
   1967.0884       9.4118      10.1105      -0.0097      58.9063      53.4570    -999.2500      21.8377    -999.2500      18.9774    -999.2500      15.7544    -999.2500       0.1673       3.4660       0.0051       2.4916       0.8270       4.8259
   1967.2408       9.3859       9.9080      -0.0108      56.9149      54.0110    -999.2500      23.8968    -999.2500      20.8359    -999.2500      14.1847    -999.2500       0.1608       3.4878       0.0055       2.5037       0.6165       4.9102
   1967.3932       9.3587      12.2241      -0.0097      58.2007      54.1151    -999.2500      25.8193    -999.2500      22.9795    -999.2500      16.6507    -999.2500       0.1568       3.5030       0.0067       2.5118       0.7939       4.6639
   1967.5457       9.3468      11.8276      -0.0057      66.1778      53.3655    -999.2500      27.0485    -999.2500      24.6885    -999.2500      20.4389    -999.2500       0.1581       3.5151       0.0064       2.5101       0.8294       4.6246
   1967.6980       9.3522       9.3317      -0.0011      82.3375      53.0284    -999.2500      27.6001    -999.2500      25.7332    -999.2500      24.5105    -999.2500       0.1599       3.5189       0.0049       2.5016       0.7227       4.8650
   1967.8505       9.3569       6.3804       0.0059      93.6137      53.8574    -999.2500      26.6523    -999.2500      26.3119    -999.2500      29.0907    -999.2500       0.1577       3.5143       0.0027       2.5024       0.7379       5.2858
   1968.0028       9.3569       7.7301       0.0122      96.3212      56.5034    -999.2500      22.1554    -999.2500      25.6958    -999.2500      28.0559    -999.2500       0.1504       3.5097       0.0025       2.5170       1.1830       5.4301
   1968.1553       9.3623      13.6190       0.0158      96.5805      58.6457    -999.2500      17.9490    -999.2500      22.4140    -999.2500      27.6608    -999.2500       0.1382       3.5066       0.0051       2.5628       1.8571       5.0130
   1968.3076       9.3520      22.1432       0.0119      98.0359      59.1333    -999.2500      14.6525    -999.2500      18.7695    -999.2500      30.7478    -999.2500       0.1248       3.5087       0.0099       2.6168       2.3482       4.1182
   1968.4600       9.3148      26.9817       0.0070     101.0709      57.1958    -999.2500      13.5297    -999.2500      15.3299    -999.2500      28.2191    -999.2500       0.1174       3.5051       0.0136       2.6685       2.2584       3.3639
   1968.6124       9.3241      26.8667       0.0024     103.7556      56.2932    -999.2500      12.8106    -999.2500      13.9716    -999.2500      17.5749    -999.2500       0.1269       3.4680       0.0150       2.6890       1.6770       3.2762
   1968.7648       9.3210      23.1854       0.0016     103.0678      59.1268    -999.2500      12.1644    -999.2500      13.4225    -999.2500      15.0488    -999.2500       0.1613       3.3559       0.0137       2.6213       1.1480       4.0015
   1968.9172       9.3306      19.8554       0.0067      98.9793      64.9355    -999.2500      10.7395    -999.2500      12.3818    -999.2500      11.0100    -999.2500       0.2115       3.1867       0.0116       2.4627       1.0284       5.0189
   1969.0696       9.3447      16.4978       0.0206      94.6826      69.4166    -999.2500       7.4133    -999.2500       9.5150    -999.2500      10.7993    -999.2500       0.2524       3.0506       0.0090       2.3186       1.0944       5.8916
   1969.2220       9.3193      13.1277       0.0298      92.4478      69.1349    -999.2500       5.1615    -999.2500       6.8090    -999.2500      10.0623    -999.2500       0.2380       3.0733       0.0071       2.3123       0.9177       6.2355
   1969.3744       9.2948      10.4251       0.0218      91.9101      64.7972    -999.2500       3.7283    -999.2500       4.7915    -999.2500      10.2570    -999.2500       0.1759       3.2603       0.0058       2.4108       0.6384       6.0534
   1969.5269       9.3181       9.0818       0.0078      92.0129      60.2282    -999.2500       3.3144    -999.2500       3.6430    -999.2500       5.7675    -999.2500       0.1351       3.4503       0.0055       2.4781       0.3979       5.6943
   1969.6792       9.3360       8.9096       0.0004      92.4154      58.0360    -999.2500       4.3804    -999.2500       8.8696    -999.2500       5.2495    -999.2500       0.1266       3.5284       0.0055       2.4850       0.3337       5.4694
   1969.8317       9.3108       8.5448      -0.0021      92.9456      57.4263    -999.2500       9.0391    -999.2500      20.0184    -999.2500      12.1944    -999.2500       0.1274       3.5078       0.0052       2.4793       0.3671       5.4422
   1969.9840       9.2223       7.4635      -0.0073      92.2167      57.4590    -999.2500      17.2859    -999.2500      32.1245    -999.2500      49.9473    -999.2500       0.1301       3.4680       0.0042       2.4826       0.4407       5.5662
   1970.1365       9.1791       6.7189      -0.0129      89.2385      57.1651    -999.2500      33.1317    -999.2500      44.6541    -999.2500      50.2318    -999.2500       0.1307       3.4543       0.0036       2.4937       0.4861       5.6164
   1970.2888       9.1713       6.9729      -0.0119      86.9636      56.8452    -999.2500      38.9898    -999.2500      43.3319    -999.2500      44.3154    -999.2500       0.1292       3.4551       0.0038       2.5097       0.4735       5.5525
   1970.4412       9.2434       8.8676      -0.0079      88.2038      56.4172    -999.2500      38.2980    -999.2500      42.6625    -999.2500      41.4453    -999.2500       0.1284       3.4404       0.0049       2.5207       0.5758       5.2939
   1970.5936       9.2745      10.3407      -0.0039      89.9385      56.7251    -999.2500      37.0396    -999.2500      41.3073    -999.2500      46.6113    -999.2500       0.1290       3.4275       0.0057       2.5313       0.6687       5.1642
   1970.7460       9.2409      10.9120      -0.0019      89.1422      58.0846    -999.2500      35.6258    -999.2500      38.7393    -999.2500      47.7347    -999.2500       0.1282       3.4335       0.0060       2.5401       0.6981       5.2519
   1970.8984       9.1450      11.2589       0.0009      86.7135      60.2223    -999.2500      35.2640    -999.2500      37.1110    -999.2500      51.7462    -999.2500       0.1256       3.4512       0.0060       2.5422       0.8037       5.4513
   1971.0508       9.1208      11.6178      -0.0016      83.8341      62.1107    -999.2500      35.9346    -999.2500      36.9240    -999.2500      44.0426    -999.2500       0.1254       3.4610       0.0063       2.5305       0.7802       5.6216
   1971.2032       9.1330      12.0065      -0.0093      81.1846      63.4657    -999.2500      37.3935    -999.2500      38.4769    -999.2500      38.2091    -999.2500       0.1270       3.4653       0.0069       2.5138       0.6824       5.7291
   1971.3556       9.1954      12.5105      -0.0138      78.5572      63.9235    -999.2500      38.5203    -999.2500      39.7245    -999.2500      43.3784    -999.2500       0.1283       3.4690       0.0067       2.5109       0.8703       5.7240
   1971.5081       9.1992      12.0588      -0.0093      75.6136      63.6277    -999.2500      39.4419    -999.2500      40.7157    -999.2500      51.9142    -999.2500       0.1278       3.4770       0.0054       2.5264       1.2892       5.7414
   1971.6604       9.1122       9.8270      -0.0021      72.7955      62.6040    -999.2500      40.7224    -999.2500      42.0145    -999.2500      43.9967    -999.2500       0.1240       3.4717       0.0031       2.5518       1.5434       5.8758
