#------------------------------------------------------------------------------
#
#   Created by  : [OpenWorks] Log Export Utility (LEXP)
#   Created on  : 2016-05-23 11:56:46
#   Project     : CANT971
#   User        : R5K
#   Interpreter : PEP
#
#------------------------------------------------------------------------------
~VERSION INFORMATION
VERS. 2.0 : CWLS Log ASCII Standard - version 2.0
WRAP.  NO : One line per depth step
~WELL INFORMATION
#MNEMONIC   .UNIT                                           VALUE :DESCRIPTION
#------------------------------------------------------------------------------
STRT        .M                                           170.6880 :START DEPTH
STOP        .M                                          2221.8396 :STOP DEPTH
STEP        .M                                             0.1524 :STEP
NULL        .                                           -999.2500 :NULL VALUE
COMP        .                                   PEMEX EXPL & PROD :COMPANY
WELL        .                                                  51 :WELL
FLD         .                                           CANTARELL :FIELD
LOC         .                                             UNKNOWN :LOCATION
CNTY        .                                      CD. DEL CARMEN :COUNTY
STAT        .                                            CAMPECHE :STATE
CTRY        .                                              MEXICO :COUNTRY
SRVC        .                                             UNKNOWN :SERVICE COMPANY
DATE        .                                             UNKNOWN :LOG DATE
UWI         .                                          3060000165 :UNIQUE WELL ID
XCOORD      .                                       599727.990000 :SURFACE X
YCOORD      .                                      2147220.270000 :SURFACE Y
LAT         .                                           19.417949 :LATITUDE
LON         .                                          -92.050116 :LONGITUDE
ELEV        .M                                            27.8000 :SURFACE ELEV
ELEV_TYPE   .                                                  KB :ELEV TYPE
~CURVE INFORMATION
#MNEMONIC.UNIT        API CODE       : CURVE DESCRIPTION
#------------------------------------------------------------------------------
DEPTH    .M                          : Measured Depth
CAL      .inches      UNKNOWN        : CAL:CAL-Load:rC:NONE:v0 (auto-composite)
DRHO     .UNKNOWN     UNKNOWN        : DRHO:DRHO-Load:rC:NONE:v0 (auto-composite)
DT       .us/ft       UNKNOWN        : DT:DT:rC:NONE:v0 (auto-composite)
GR       .UNKNOWN     UNKNOWN        : GR:GR-Load:rC:NONE:v0 (auto-composite)
ILD      .UNKNOWN     UNKNOWN        : ILD:ILD-Load:rC:NONE:v0 (auto-composite)
NPHI     .v/v_decimal UNKNOWN        : NPHI:NPHI:rC:NONE:v0 (auto-composite)
RHOB     .UNKNOWN     UNKNOWN        : RHOB:RHOB-Load:rC:NONE:v0 (auto-composite)
SN       .UNKNOWN     UNKNOWN        : SN:SN-Load:rC:NONE:v0 (auto-composite)
~A     DEPTH          CAL         DRHO           DT           GR          ILD         NPHI         RHOB           SN
# ...
    496.6716      12.5301      -0.0395     123.1230      27.1035       1.6565      38.2560       2.3875       1.3685
    496.8240      12.5770      -0.0330     124.5010      26.9130       1.6630      39.0940       2.3960       1.3660
    496.9764      12.5695      -0.0310     124.3040      26.9875       1.6720      39.7750       2.3995       1.3615
    497.1288      12.5620      -0.0290     124.1070      27.0620       1.6810      40.4560       2.4030       1.3570
    497.2812      12.4704      -0.0290     124.6969      27.2115       1.6910      40.6890       2.4025       1.3570
    497.4336      12.3790      -0.0290     125.2870      27.3610       1.7010      40.9220       2.4020       1.3570
    497.5860      12.3199      -0.0335     126.2219      26.9619       1.6960      41.3465       2.4055       1.3540
    497.7384      12.2610      -0.0380     127.1570      26.5630       1.6910      41.7710       2.4090       1.3510
    497.8908      12.3872      -0.0470     125.7785      25.5693       1.6825      42.0185       2.4110       1.3430
    498.0432      12.5130      -0.0560     124.4000      24.5760       1.6740      42.2660       2.4130       1.3350
    498.1956      12.6512      -0.0540     124.4490      24.5805       1.6620      42.0430       2.4000       1.3225
    498.3480      12.7890      -0.0520     124.4980      24.5850       1.6500      41.8200       2.3870       1.3100
    498.5004      12.8511      -0.0485     123.7100      25.0491       1.6455      41.7430       2.3930       1.2995
    498.6528      12.9130      -0.0450     122.9220      25.5130       1.6410      41.6660       2.3990       1.2890
    498.8052      12.8930      -0.0330     124.4970      26.0586       1.6315      41.7745       2.3950       1.2865
    498.9576      12.8730      -0.0210     126.0720      26.6040       1.6220      41.8830       2.3910       1.2840
    499.1100      12.8950      -0.0215     125.6660      26.9861       1.6060      42.0720       2.3870       1.2790
    499.2624      12.9170      -0.0220     125.2600      27.3680       1.5900      42.2610       2.3830       1.2740
    499.4148      12.9445      -0.0235     124.8280      27.6156       1.5800      42.5090       2.3745       1.2640
    499.5672      12.9720      -0.0250     124.3960      27.8630       1.5700      42.7570       2.3660       1.2540
    499.7196      12.9049      -0.0225     124.2975      28.0180       1.5510      42.9090       2.3710       1.2330
    499.8720      12.8380      -0.0200     124.1990      28.1730       1.5320      43.0610       2.3760       1.2120
    500.0244      12.6577      -0.0090     121.0487      28.1080       1.4995      43.4405       2.3715       1.1990
    500.1768      12.4780       0.0020     117.8980      28.0430       1.4670      43.8200       2.3670       1.1860
    500.3292      12.5446      -0.0070     119.0785      27.9385       1.4360      43.7590       2.3670       1.1780
    500.4816      12.6110      -0.0160     120.2590      27.8340       1.4050      43.6980       2.3670       1.1700
    500.6340      12.6921      -0.0285     130.3996      27.6715       1.3920      44.5205       2.3625       1.1580
    500.7864      12.7730      -0.0410     140.5400      27.5090       1.3790      45.3430       2.3580       1.1460
    500.9388      12.8226      -0.0325     140.3180      27.1334       1.3665      45.3405       2.3540       1.1350
    501.0912      12.8720      -0.0240     140.0960      26.7580       1.3540      45.3380       2.3500       1.1240
    501.2436      12.9216      -0.0355     135.8456      26.1788       1.3340      44.8710       2.3535       1.1135
    501.3960      12.9710      -0.0470     131.5950      25.6000       1.3140      44.4040       2.3570       1.1030
    501.5484      12.8894      -0.0430     125.6799      25.0044       1.3220      43.6280       2.3525       1.0960
    501.7008      12.8080      -0.0390     119.7650      24.4090       1.3300      42.8520       2.3480       1.0890
    501.8532      12.7314      -0.0465     122.3844      24.5900       1.3445      43.4980       2.3635       1.0890
    502.0056      12.6550      -0.0540     125.0040      24.7710       1.3590      44.1440       2.3790       1.0890
    502.1580      12.6921      -0.0725     131.8343      25.1701       1.3770      43.5020       2.3785       1.0960
    502.3104      12.7290      -0.0910     138.6660      25.5690       1.3950      42.8600       2.3780       1.1030
    502.4628      12.7936      -0.0875     138.3330      25.8286       1.4175      42.5245       2.3700       1.1185
    502.6152      12.8580      -0.0840     138.0000      26.0880       1.4400      42.1890       2.3620       1.1340
    502.7676      12.9121      -0.0720     134.5261      26.1945       1.4525      42.8725       2.3650       1.1515
    502.9200      12.9660      -0.0600     131.0520      26.3010       1.4650      43.5560       2.3680       1.1690
    503.0724      13.0381      -0.0510     129.9356      26.6246       1.4540      44.7820       2.3630       1.1635
    503.2248      13.1100      -0.0420     128.8190      26.9480       1.4430      46.0080       2.3580       1.1580
    503.3772      13.1295      -0.0380     132.8403      27.1601       1.4085      45.7635       2.3585       1.1445
    503.5296      13.1490      -0.0340     136.8620      27.3720       1.3740      45.5190       2.3590       1.1310
    503.6820      13.0994      -0.0325     138.3035      27.4390       1.3420      45.0165       2.3630       1.1065
    503.8344      13.0500      -0.0310     139.7450      27.5060       1.3100      44.5140       2.3670       1.0820
    503.9868      13.0645      -0.0290     138.8096      27.4060       1.2900      44.3400       2.3700       1.0630
    504.1392      13.0790      -0.0270     137.8740      27.3060       1.2700      44.1660       2.3730       1.0440
    504.2916      13.1040      -0.0255     139.3504      26.9979       1.2570      44.5750       2.3615       1.0325
    504.4440      13.1290      -0.0240     140.8270      26.6900       1.2440      44.9840       2.3500       1.0210
    504.5964      12.9903      -0.0200     140.2730      26.2344       1.2370      44.8935       2.3520       1.0170
    504.7488      12.8520      -0.0160     139.7190      25.7790       1.2300      44.8030       2.3540       1.0130
    504.9012      12.9857      -0.0105     134.1199      25.5009       1.2275      44.5725       2.3575       1.0065
    505.0536      13.1190      -0.0050     128.5200      25.2230       1.2250      44.3420       2.3610       1.0000
    505.2060      13.3809      -0.0055     129.1105      25.5446       1.2305      44.2730       2.3590       1.0020
    505.3584      13.6420      -0.0060     129.7010      25.8660       1.2360      44.2040       2.3570       1.0040
    505.5108      13.4046      -0.0090     128.4075      26.0660       1.2520      43.1700       2.3550       1.0145
    505.6632      13.1680      -0.0120     127.1140      26.2660       1.2680      42.1360       2.3530       1.0250
    505.8156      13.1975      -0.0175     126.4870      26.7071       1.2795      42.1555       2.3585       1.0355
    505.9680      13.2270      -0.0230     125.8600      27.1480       1.2910      42.1750       2.3640       1.0460
    506.1204      13.4448      -0.0220     127.9645      27.4651       1.3015      42.3565       2.3550       1.0490
    506.2728      13.6620      -0.0210     130.0690      27.7820       1.3120      42.5380       2.3460       1.0520
    506.4252      13.5829      -0.0150     133.9431      28.0411       1.3085      43.1250       2.3400       1.0515
    506.5776      13.5040      -0.0090     137.8170      28.3000       1.3050      43.7120       2.3340       1.0510
    506.7300      13.5335      -0.0070     141.4853      28.5821       1.2910      44.7470       2.3350       1.0405
    506.8824      13.5630      -0.0050     145.1540      28.8640       1.2770      45.7820       2.3360       1.0300
    507.0348      13.6521      -0.0045     142.1613      28.9905       1.2610      46.8620       2.3240       1.0225
