#------------------------------------------------------------------------------
#
#   Created by  : [OpenWorks] Log Export Utility (LEXP)
#   Created on  : 2016-05-23 11:53:41
#   Project     : CANT971
#   User        : R5K
#   Interpreter : PEP
#
#------------------------------------------------------------------------------
~VERSION INFORMATION
VERS. 2.0 : CWLS Log ASCII Standard - version 2.0
WRAP.  NO : One line per depth step
~WELL INFORMATION
#MNEMONIC   .UNIT                                           VALUE :DESCRIPTION
#------------------------------------------------------------------------------
STRT        .M                                           901.1412 :START DEPTH
STOP        .M                                          2449.6777 :STOP DEPTH
STEP        .M                                             0.1524 :STEP
NULL        .                                           -999.2500 :NULL VALUE
COMP        .                                   PEMEX EXPL & PROD :COMPANY
WELL        .                                                  25 :WELL
FLD         .                                           CANTARELL :FIELD
LOC         .                                             UNKNOWN :LOCATION
CNTY        .                                      CD. DEL CARMEN :COUNTY
STAT        .                                            CAMPECHE :STATE
CTRY        .                                              MEXICO :COUNTRY
SRVC        .                                             UNKNOWN :SERVICE COMPANY
DATE        .                                             UNKNOWN :LOG DATE
UWI         .                                          3060000154 :UNIQUE WELL ID
XCOORD      .                                       603358.080000 :SURFACE X
YCOORD      .                                      2145091.420000 :SURFACE Y
LAT         .                                           19.398528 :LATITUDE
LON         .                                          -92.015660 :LONGITUDE
ELEV        .M                                            27.1400 :SURFACE ELEV
ELEV_TYPE   .                                                  KB :ELEV TYPE
~CURVE INFORMATION
#MNEMONIC.UNIT        API CODE       : CURVE DESCRIPTION
#------------------------------------------------------------------------------
DEPTH    .M                          : Measured Depth
CALI     .in          UNKNOWN        : CALI:registros:rC:NONE:v0 (auto-composite)
DRHO     .g/cm3       UNKNOWN        : DRHO:registros:rC:NONE:v0 (auto-composite)
DT       .us/ft       UNKNOWN        : DT:registros:rC:NONE:v0 (auto-composite)
GR       .api         UNKNOWN        : GR:registros:rC:NONE:v0 (auto-composite)
ILD      .ohmm        UNKNOWN        : ILD:registros:rC:NONE:v0 (auto-composite)
LLD      .ohmm        UNKNOWN        : LLD:registros:rC:NONE:v0 (auto-composite)
LLS      .ohmm        UNKNOWN        : LLS:registros:rC:NONE:v0 (auto-composite)
MSFL     .ohmm        UNKNOWN        : MSFL:registros:rC:NONE:v0 (auto-composite)
NPHI     .v/v_decimal UNKNOWN        : NPHI:registros:rC:NONE:v0 (auto-composite)
PEF      .b/elec      UNKNOWN        : PEF:registros:rC:NONE:v0 (auto-composite)
RHOB     .g/cm3       UNKNOWN        : RHOB:registros:rC:NONE:v0 (auto-composite)
~A     DEPTH         CALI         DRHO           DT           GR          ILD          LLD          LLS         MSFL         NPHI          PEF         RHOB
# ...
   2232.5076       6.4095      -0.0034      60.5360      19.5797    -999.2500     226.0286      59.4371      58.9746       0.1366       3.3365       2.6309
   2232.6602       6.4440      -0.0150      60.3610      19.2120    -999.2500     224.3500      53.9590      53.1360       0.1317       3.3340       2.6630
   2232.8125       6.4440      -0.0080      59.4660      17.9421    -999.2500     205.4773      54.2803      54.9139       0.1246       3.2780       2.6595
   2232.9648       6.4440      -0.0010      58.5660      16.6670    -999.2500     186.5280      54.6030      56.6990       0.1175       3.2220       2.6560
   2233.1172       6.4440      -0.0010      57.5584      16.9055    -999.2500     156.3970      58.7364     103.8339       0.1044       3.2220       2.6575
   2233.2695       6.4440      -0.0010      56.5450      17.1450    -999.2500     126.1400      62.8870     151.1660       0.0912       3.2220       2.6590
   2233.4221       6.4440      -0.0035      55.4418      20.3446    -999.2500     117.1020      74.6421     147.4081       0.0915       3.2220       2.6834
   2233.5745       6.4440      -0.0060      54.3320      23.5580    -999.2500     108.0250      86.4480     143.6340       0.0919       3.2220       2.7080
   2233.7268       6.4440      -0.0040      54.4147      22.5502    -999.2500     105.4357      85.9326     115.9150       0.0950       3.2185       2.7080
   2233.8792       6.4440      -0.0020      54.4980      21.5380    -999.2500     102.8350      85.4150      88.0730       0.0982       3.2150       2.7080
   2234.0317       6.4440      -0.0025      56.0407      21.6542    -999.2500     102.8350      80.2383      82.7876       0.0991       3.1820       2.7050
   2234.1841       6.4440      -0.0030      57.5930      21.7710    -999.2500     102.8350      75.0380      77.4780       0.1000       3.1490       2.7020
   2234.3364       6.4440      -0.0065      57.5412      22.8555    -999.2500     102.8350      65.5203      59.4243       0.1000       3.1240       2.6940
   2234.4888       6.4440      -0.0100      57.4890      23.9450    -999.2500     102.8350      55.9580      41.2860       0.1001       3.0990       2.6860
   2234.6411       6.4440      -0.0060      56.3432      24.2243    -999.2500     102.7647      58.7962      41.6536       0.1013       3.0089       2.6835
   2234.7937       6.4440      -0.0020      55.1900      24.5050    -999.2500     102.6940      61.6480      42.0230       0.1026       2.9190       2.6810
   2234.9460       6.4470      -0.0020      55.4202      24.7748    -999.2500     101.6281      61.4944      48.8172       0.1125       2.9230       2.6680
   2235.0984       6.4500      -0.0020      55.6520      25.0460    -999.2500     100.5570      61.3400      55.6450       0.1224       2.9270       2.6550
   2235.2507       6.4770      -0.0060      59.5106      23.8017    -999.2500      96.2295      59.7670      55.3906       0.1395       2.9675       2.6057
   2235.4033       6.5040      -0.0100      63.3950      22.5510    -999.2500      91.8800      58.1860      55.1350       0.1567       3.0080       2.5560
   2235.5557       6.5300      -0.0160      63.1309      22.8060    -999.2500      80.5609      55.6371      47.3841       0.1505       3.0450       2.5585
   2235.7080       6.5560      -0.0220      62.8650      23.0620    -999.2500      69.1830      53.0750      39.5930       0.1444       3.0820       2.5610
   2235.8604       6.5560      -0.0220      63.0927      26.9253    -999.2500      69.5066      50.4106      43.9823       0.1448       3.1520       2.5585
   2236.0129       6.5560      -0.0220      63.3220      30.8030    -999.2500      69.8320      47.7320      48.3950       0.1452       3.2220       2.5560
   2236.1653       6.5560      -0.0215      65.6568      29.8478    -999.2500      73.9573      47.7804      42.6915       0.1497       3.2175       2.5351
   2236.3176       6.5560      -0.0210      68.0080      28.8890    -999.2500      78.1050      47.8290      36.9570       0.1541       3.2130       2.5140
   2236.4700       6.5560      -0.0160      73.5919      28.8890    -999.2500      91.4757      48.3131      37.2726       0.1637       3.1385       2.4761
   2236.6223       6.5560      -0.0110      79.2070      28.8890    -999.2500     104.9210      48.8000      37.5900       0.1733       3.0640       2.4380
   2236.7749       6.5510      -0.0155      79.0739      28.6934    -999.2500     112.3548      50.5589      40.8034       0.1727       3.0875       2.4415
   2236.9272       6.5460      -0.0200      78.9400      28.4970    -999.2500     119.8190      52.3250      44.0300       0.1721       3.1110       2.4450
   2237.0796       6.4951      -0.0195      77.3646      26.6958    -999.2500     130.9251      51.2837      48.1194       0.1660       3.1110       2.4779
   2237.2319       6.4440      -0.0190      75.7800      24.8870    -999.2500     142.0780      50.2380      52.2260       0.1598       3.1110       2.5110
   2237.3845       6.4440      -0.0130      70.5526      22.8240    -999.2500     145.0211      50.3443      54.4098       0.1468       3.1030       2.5454
   2237.5369       6.4440      -0.0070      65.2940      20.7520    -999.2500     147.9770      50.4510      56.6030       0.1338       3.0950       2.5800
   2237.6892       6.4440      -0.0090      68.8407      19.1441    -999.2500     160.3349      51.9327      73.2518       0.1224       3.0164       2.6393
   2237.8416       6.4440      -0.0110      72.4090      17.5290    -999.2500     172.7480      53.4210      89.9750       0.1109       2.9380       2.6990
   2237.9941       6.4440      -0.0110      71.8074      18.0284    -999.2500     171.4979      63.8730      89.7221       0.1025       2.9420       2.6985
   2238.1465       6.4440      -0.0110      71.2020      18.5300    -999.2500     170.2420      74.3730      89.4680       0.0941       2.9460       2.6980
   2238.2988       6.4440      -0.0105      66.2088      17.6675    -999.2500     159.8750      74.2503      87.2353       0.0885       2.9845       2.6791
   2238.4512       6.4440      -0.0100      61.1840      16.8010    -999.2500     149.4590      74.1270      84.9920       0.0829       3.0230       2.6600
   2238.6035       6.4440      -0.0050      56.5480      17.7891    -999.2500     138.5021      72.5289      80.4316       0.0834       3.1121       2.6680
   2238.7561       6.4440       0.0000      51.8820      18.7820    -999.2500     127.4920      70.9230      75.8490       0.0839       3.2010       2.6760
   2238.9084       6.4460       0.0055      52.7950      18.6293    -999.2500     122.3677      64.7633      52.7734       0.0882       3.1004       2.6745
   2239.0608       6.4480       0.0110      53.7140      18.4760    -999.2500     117.2180      58.5730      29.5830       0.0926       3.0000       2.6730
   2239.2131       6.4685       0.0105      53.3771      18.6048    -999.2500     111.1575      58.5730      30.2074       0.0997       3.0000       2.6600
   2239.3657       6.4890       0.0100      53.0380      18.7340    -999.2500     105.0660      58.5730      30.8350       0.1068       3.0000       2.6470
   2239.5181       6.5275       0.0065      53.1252      19.7447    -999.2500      99.4128      58.2997      53.0505       0.1242       3.0000       2.6012
   2239.6704       6.5660       0.0030      53.2130      20.7590    -999.2500      93.7300      58.0250      75.3820       0.1417       3.0000       2.5550
   2239.8228       6.6045      -0.0070      54.0611      21.5685    -999.2500      88.9997      55.4220      74.0575       0.1416       3.0065       2.5570
   2239.9753       6.6430      -0.0170      54.9150      22.3810    -999.2500      84.2440      52.8050      72.7260       0.1415       3.0130       2.5590
   2240.1277       6.6550      -0.0165      58.0020      26.0808    -999.2500      80.3232      45.6920      55.1302       0.1398       3.1175       2.5774
   2240.2800       6.6670      -0.0160      61.1110      29.7950    -999.2500      76.3810      38.5400      37.4380       0.1382       3.2220       2.5960
