#------------------------------------------------------------------------------
#
#   Created by  : [OpenWorks] Log Export Utility (LEXP)
#   Created on  : 2016-05-23 11:55:58
#   Project     : CANT971
#   User        : R5K
#   Interpreter : PEP
#
#------------------------------------------------------------------------------
~VERSION INFORMATION
VERS. 2.0 : CWLS Log ASCII Standard - version 2.0
WRAP.  NO : One line per depth step
~WELL INFORMATION
#MNEMONIC   .UNIT                                           VALUE :DESCRIPTION
#------------------------------------------------------------------------------
STRT        .M                                           646.6334 :START DEPTH
STOP        .M                                          2755.8494 :STOP DEPTH
STEP        .M                                             0.1524 :STEP
NULL        .                                           -999.2500 :NULL VALUE
COMP        .                                   PEMEX EXPL & PROD :COMPANY
WELL        .                                                  42 :WELL
FLD         .                                           CANTARELL :FIELD
LOC         .                                             UNKNOWN :LOCATION
CNTY        .                                      CD. DEL CARMEN :COUNTY
STAT        .                                            CAMPECHE :STATE
CTRY        .                                              MEXICO :COUNTRY
SRVC        .                                             UNKNOWN :SERVICE COMPANY
DATE        .                                             UNKNOWN :LOG DATE
UWI         .                                          3060000464 :UNIQUE WELL ID
XCOORD      .                                       599690.710000 :SURFACE X
YCOORD      .                                      2143036.470000 :SURFACE Y
LAT         .                                           19.380144 :LATITUDE
LON         .                                          -92.050691 :LONGITUDE
ELEV        .M                                            26.7400 :SURFACE ELEV
ELEV_TYPE   .                                                  KB :ELEV TYPE
~CURVE INFORMATION
#MNEMONIC.UNIT        API CODE       : CURVE DESCRIPTION
#------------------------------------------------------------------------------
DEPTH    .M                          : Measured Depth
CALI     .inches      UNKNOWN        : CALI:Import:rC:NONE:v0 (auto-composite)
DRHO     .g/cm3       UNKNOWN        : DRHO:Import:rC:NONE:v0 (auto-composite)
DT       .us/ft       UNKNOWN        : DT:Import:rC:NONE:v0 (auto-composite)
GR       .API         UNKNOWN        : GR:Import:rC:NONE:v0 (auto-composite)
ILD      .ohm.m       UNKNOWN        : ILD:Import:rC:NONE:v0 (auto-composite)
ILM      .ohm.m       UNKNOWN        : ILM:Import:rC:NONE:v0 (auto-composite)
LLD      .ohm.m       UNKNOWN        : LLD:Import:rC:NONE:v0 (auto-composite)
LLS      .ohm.m       UNKNOWN        : LLS:Import:rC:NONE:v0 (auto-composite)
MSFL     .ohm.m       UNKNOWN        : MSFL:Import:rC:NONE:v0 (auto-composite)
NPHI     .v/v_decimal UNKNOWN        : NPHI:Import:rC:NONE:v0 (auto-composite)
PEF      .b/elec      UNKNOWN        : PEF:Import:rC:NONE:v0 (auto-composite)
RHOB     .g/cm3       UNKNOWN        : RHOB:Import:rC:NONE:v0 (auto-composite)
~A     DEPTH         CALI         DRHO           DT           GR          ILD          ILM          LLD          LLS         MSFL         NPHI          PEF         RHOB
# ...
   2446.1726       8.6090      -0.0065      51.0797      40.6401    -999.2500    -999.2500     445.8211    1144.0980    -999.2500       0.0329       4.7635       2.6305
   2446.3250       8.6090      -0.0030      46.2360      36.4980    -999.2500    -999.2500     204.7250     343.2820    -999.2500       0.0372       4.9570       2.6180
   2446.4773       8.6090       0.0030      47.5450      37.1454    -999.2500    -999.2500     336.6934     346.5750    -999.2500       0.0420       5.0341       2.6185
   2446.6299       8.6090       0.0090      48.8540      37.7960    -999.2500    -999.2500     468.6600     349.8680    -999.2500       0.0459       5.1110       2.6190
   2446.7822       8.6090       0.0100      52.6873      40.0832    -999.2500    -999.2500     804.8853     719.6789    -999.2500       0.0460       5.0560       2.6240
   2446.9346       8.6090       0.0110      56.5210      42.3780    -999.2500    -999.2500    1141.1479    1089.5310    -999.2500       0.0443       5.0010       2.6290
   2447.0869       8.6090       0.0070      58.0693      42.0261    -999.2500    -999.2500    1429.0199    2085.0959    -999.2500       0.0400       4.8644       2.6285
   2447.2393       8.6090       0.0030      59.6180      41.6730    -999.2500    -999.2500    1716.9600    3080.8970    -999.2500       0.0350       4.7280       2.6280
   2447.3918       8.6090       0.0035      57.4994      40.2905    -999.2500    -999.2500    1544.6393    2914.6711    -999.2500       0.0303       4.7630       2.6370
   2447.5442       8.6090       0.0040      55.3800      38.9030    -999.2500    -999.2500    1372.2560    2748.3850    -999.2500       0.0265       4.7980       2.6460
   2447.6965       8.6090       0.0095      55.7572      39.5513    -999.2500    -999.2500    1141.0125    2122.2268    -999.2500       0.0251       4.8345       2.6565
   2447.8489       8.6090       0.0150      56.1340      40.2020    -999.2500    -999.2500     909.6560    1495.7629    -999.2500       0.0244       4.8710       2.6670
   2448.0015       8.6090       0.0180      56.8639      42.6184    -999.2500    -999.2500    1315.4369    2132.4460    -999.2500       0.0237       4.7885       2.6670
   2448.1538       8.6090       0.0210      57.5930      45.0440    -999.2500    -999.2500    1721.4670    2769.5200    -999.2500       0.0229       4.7060       2.6670
   2448.3062       8.6090       0.0195      56.9772      45.9797    -999.2500    -999.2500    2044.4583    3824.6436    -999.2500       0.0222       4.7665       2.6610
   2448.4585       8.6090       0.0180      56.3620      46.9190    -999.2500    -999.2500    2367.1709    4878.8569    -999.2500       0.0216       4.8270       2.6550
   2448.6108       8.6090       0.0155      56.2144      47.2977    -999.2500    -999.2500    3219.6003    4712.9717    -999.2500       0.0211       4.8390       2.6595
   2448.7634       8.6090       0.0130      56.0670      47.6780    -999.2500    -999.2500    4071.4021    4547.2090    -999.2500       0.0210       4.8510       2.6640
   2448.9158       8.6090       0.0125      56.5436      46.6043    -999.2500    -999.2500    5017.4985    4902.2490    -999.2500       0.0220       4.6764       2.6620
   2449.0681       8.6090       0.0120      57.0200      45.5260    -999.2500    -999.2500    5963.0161    5257.0718    -999.2500       0.0237       4.5020       2.6600
   2449.2205       8.6145       0.0135      57.2326      43.8621    -999.2500    -999.2500    4588.8291    5178.8872    -999.2500       0.0261       4.3845       2.6500
   2449.3730       8.6200       0.0150      57.4450      42.1910    -999.2500    -999.2500    3215.3091    5100.7402    -999.2500       0.0290       4.2670       2.6400
   2449.5254       8.6515       0.0190      58.1576      42.4240    -999.2500    -999.2500    3812.2429    4347.8174    -999.2500       0.0329       4.3220       2.6430
   2449.6777       8.6830       0.0230      58.8700      42.6580    -999.2500    -999.2500    4408.9619    3595.1660    -999.2500       0.0369       4.3770       2.6460
   2449.8301       8.7175       0.0215      59.4511      47.3243    -999.2500    -999.2500    5909.2139    3009.4834    -999.2500       0.0404       4.5580       2.6545
   2449.9827       8.7520       0.0200      60.0320      52.0120    -999.2500    -999.2500    7409.1138    2423.9380    -999.2500       0.0432       4.7390       2.6630
   2450.1350       8.7550       0.0125      60.1535      55.4778    -999.2500    -999.2500    4598.2349    3779.0471    -999.2500       0.0433       4.9715       2.6570
   2450.2874       8.7580       0.0050      60.2750      58.9600    -999.2500    -999.2500    1787.6620    5134.0088    -999.2500       0.0426       5.2040       2.6510
   2450.4397       8.7240       0.0025      58.8085      59.3276    -999.2500    -999.2500    3543.3394    4666.7646    -999.2500       0.0415       5.4102       2.6480
   2450.5920       8.6900       0.0000      57.3420      59.6970    -999.2500    -999.2500    5299.0459    4199.5132    -999.2500       0.0400       5.6160       2.6450
   2450.7446       8.6495      -0.0015      55.9491      59.2877    -999.2500    -999.2500    4414.6479    5463.4946    -999.2500       0.0369       5.9863       2.6455
   2450.8970       8.6090      -0.0030      54.5560      58.8770    -999.2500    -999.2500    3530.1240    6727.6558    -999.2500       0.0338       6.3560       2.6460
   2451.0493       8.6090      -0.0040      55.1319      55.9945    -999.2500    -999.2500    3073.5242    8009.3389    -999.2500       0.0320       6.0568       2.6420
   2451.2017       8.6090      -0.0050      55.7080      53.1020    -999.2500    -999.2500    2616.8020    9291.3652    -999.2500       0.0309       5.7580       2.6380
   2451.3542       8.6090      -0.0060      56.3074      50.1184    -999.2500    -999.2500    1538.8867    5143.2900    -999.2500       0.0311       5.4383       2.6340
   2451.5066       8.6090      -0.0070      56.9070      47.1240    -999.2500    -999.2500     460.5470     993.5820    -999.2500       0.0317       5.1190       2.6300
   2451.6589       8.6090      -0.0060      57.0701      48.8942    -999.2500    -999.2500     766.7340    1341.5322    -999.2500       0.0325       5.0585       2.6310
   2451.8113       8.6090      -0.0050      57.2330      50.6710    -999.2500    -999.2500    1073.0800    1689.6630    -999.2500       0.0336       4.9980       2.6320
   2451.9639       8.6090      -0.0020      57.6427      50.9155    -999.2500    -999.2500    1479.3495    2523.7080    -999.2500       0.0352       4.9465       2.6270
   2452.1162       8.6090       0.0010      58.0520      51.1610    -999.2500    -999.2500    1885.8810    3358.2910    -999.2500       0.0375       4.8950       2.6220
   2452.2686       8.6090       0.0060      58.3226      51.0338    -999.2500    -999.2500    1950.5809    3737.6396    -999.2500       0.0413       4.8380       2.6105
   2452.4209       8.6090       0.0110      58.5930      50.9060    -999.2500    -999.2500    2015.2271    4116.6729    -999.2500       0.0469       4.7810       2.5990
   2452.5732       8.6145       0.0205      58.8946      51.5522    -999.2500    -999.2500    2693.6379    5294.4814    -999.2500       0.0566       4.9801       2.5960
   2452.7258       8.6200       0.0300      59.1960      52.2010    -999.2500    -999.2500    3371.5701    6471.4590    -999.2500       0.0655       5.1790       2.5930
   2452.8782       8.6645       0.0275      60.9580      56.1591    -999.2500    -999.2500    5523.7227    5489.8994    -999.2500       0.0668       5.3681       2.5960
   2453.0305       8.7090       0.0250      62.7190      60.1340    -999.2500    -999.2500    7674.6260    4508.9102    -999.2500       0.0638       5.5570       2.5990
   2453.1829       8.6910       0.0165      62.6345      66.6967    -999.2500    -999.2500    5288.0317    4003.6382    -999.2500       0.0528       5.5150       2.6110
   2453.3354       8.6730       0.0080      62.5500      73.2880    -999.2500    -999.2500    2902.5229    3498.5959    -999.2500       0.0421       5.4730       2.6230
