#------------------------------------------------------------------------------
#
#   Created by  : [OpenWorks] Log Export Utility (LEXP)
#   Created on  : 2016-05-23 11:50:52
#   Project     : CANT971
#   User        : R5K
#   Interpreter : PEP
#
#------------------------------------------------------------------------------
~VERSION INFORMATION
VERS. 2.0 : CWLS Log ASCII Standard - version 2.0
WRAP.  NO : One line per depth step
~WELL INFORMATION
#MNEMONIC   .UNIT                                           VALUE :DESCRIPTION
#------------------------------------------------------------------------------
STRT        .M                                           540.4100 :START DEPTH
STOP        .M                                          3242.0049 :STOP DEPTH
STEP        .M                                             0.1524 :STEP
NULL        .                                           -999.2500 :NULL VALUE
COMP        .                                   PEMEX EXPL & PROD :COMPANY
WELL        .                                                1041 :WELL
FLD         .                                           CANTARELL :FIELD
LOC         .                                             UNKNOWN :LOCATION
CNTY        .                                      CD. DEL CARMEN :COUNTY
STAT        .                                            CAMPECHE :STATE
CTRY        .                                              MEXICO :COUNTRY
SRVC        .                                             UNKNOWN :SERVICE COMPANY
DATE        .                                             UNKNOWN :LOG DATE
UWI         .                                          3060000494 :UNIQUE WELL ID
XCOORD      .                                       596162.660000 :SURFACE X
YCOORD      .                                      2150607.940000 :SURFACE Y
LAT         .                                           19.448736 :LATITUDE
LON         .                                          -92.083900 :LONGITUDE
ELEV        .M                                            30.0000 :SURFACE ELEV
ELEV_TYPE   .                                                  KB :ELEV TYPE
~CURVE INFORMATION
#MNEMONIC.UNIT        API CODE       : CURVE DESCRIPTION
#------------------------------------------------------------------------------
DEPTH    .M                          : Measured Depth
CALI     .inches      UNKNOWN        : CALI:litodensidad:rC:NONE:v0 (auto-composite)
DRHO     .g/cm3      UNKNOWN        : DRHO:DRHO-Load:rC:NONE:v0 (auto-composite)
DT       .us/ft       UNKNOWN        : DT:DT:rC:NONE:v0 (auto-composite)
GR       .API         UNKNOWN        : GR:GR-Load:rC:NONE:v0 (auto-composite)
ILD      .ohmm        UNKNOWN        : ILD:ILD-Load:rC:NONE:v0 (auto-composite)
ILM      .ohmm        UNKNOWN        : ILM:ILM-Load:rC:NONE:v0 (auto-composite)
LLD      .ohmm        UNKNOWN        : LLD:LLD-Load:rC:NONE:v0 (auto-composite)
LLS      .ohmm        UNKNOWN        : LLS:LLS-Load:rC:NONE:v0 (auto-composite)
MSFL     .ohmm        UNKNOWN        : MSFL:MSFL-Load:rC:NONE:v0 (auto-composite)
NPHI     .v/v_decimal UNKNOWN        : NPHI:NPHI-Load:rC:NONE:v0 (auto-composite)
PEF      .b/elec      UNKNOWN        : PEF:PEF-Load:rC:NONE:v0 (auto-composite)
RHOB     .g/cm3       UNKNOWN        : RHOB:RHOB-Load:rC:NONE:v0 (auto-composite)
~A     DEPTH         CALI         DRHO           DT           GR          ILD          ILM          LLD          LLS         MSFL         NPHI          PEF         RHOB
# ...
   2947.1108       6.9043    -999.2500    -999.2500      52.7658    -999.2500    -999.2500     405.0921     252.2696     129.4752       0.0940    -999.2500    -999.2500
   2947.2632       7.0874    -999.2500    -999.2500      59.4063    -999.2500    -999.2500     481.4074     289.0887      75.7349       0.0900    -999.2500    -999.2500
   2947.4155       7.0519    -999.2500    -999.2500      64.7908    -999.2500    -999.2500     578.2921     337.5745      61.9381       0.0860    -999.2500    -999.2500
   2947.5679       6.8382    -999.2500    -999.2500      75.7045    -999.2500    -999.2500     692.4402     397.0261      54.8297       0.0830    -999.2500    -999.2500
   2947.7205       6.7174    -999.2500    -999.2500      88.2424    -999.2500    -999.2500     769.5281     430.5152     310.9519       0.0847    -999.2500    -999.2500
   2947.8728       6.8470    -999.2500    -999.2500      99.9534    -999.2500    -999.2500     914.7742     497.4728     243.6577       0.0867    -999.2500    -999.2500
   2948.0251       7.0156    -999.2500    -999.2500     101.9557    -999.2500    -999.2500     955.2704     505.3739     544.3154       0.0877    -999.2500    -999.2500
   2948.1775       6.9996    -999.2500    -999.2500      90.5162    -999.2500    -999.2500     894.0818     455.7305     739.3051       0.0867    -999.2500    -999.2500
   2948.3301       6.7868    -999.2500    -999.2500      74.0199    -999.2500    -999.2500     935.7189     461.8590     495.9659       0.0880    -999.2500    -999.2500
   2948.4824       6.7091    -999.2500    -999.2500      61.8558    -999.2500    -999.2500     940.9715     455.1175     614.5140       0.0890    -999.2500    -999.2500
   2948.6348       6.8769    -999.2500    -999.2500      58.8082    -999.2500    -999.2500     880.0896     415.8643     790.8613       0.0890    -999.2500    -999.2500
   2948.7871       7.0400    -999.2500    -999.2500      59.0216    -999.2500    -999.2500    1013.3246     464.7477     389.5806       0.0857    -999.2500    -999.2500
   2948.9395       6.9448    -999.2500    -999.2500      55.2067    -999.2500    -999.2500    1149.0884     522.4235     319.0461       0.0833    -999.2500    -999.2500
   2949.0920       6.6970    -999.2500    -999.2500      49.3408    -999.2500    -999.2500    1141.8014     513.8873     182.5034       0.0830    -999.2500    -999.2500
   2949.2444       6.6850    -999.2500    -999.2500      43.2785    -999.2500    -999.2500    1246.6913     554.1335     241.4536       0.0843    -999.2500    -999.2500
   2949.3967       6.9130    -999.2500    -999.2500      39.0813    -999.2500    -999.2500    1334.7672     592.2553     169.5133       0.0850    -999.2500    -999.2500
   2949.5491       7.0658    -999.2500    -999.2500      39.2714    -999.2500    -999.2500    1341.6700     594.1725     482.9891       0.0870    -999.2500    -999.2500
   2949.7017       6.8960    -999.2500    -999.2500      39.9670    -999.2500    -999.2500    1367.8021     608.4355     968.6859       0.0906    -999.2500    -999.2500
   2949.8540       6.6555    -999.2500    -999.2500      41.5854    -999.2500    -999.2500    1225.1185     543.3704     794.6169       0.0947    -999.2500    -999.2500
   2950.0063       6.6547    -999.2500    -999.2500      39.9242    -999.2500    -999.2500     988.0799     434.8229     350.0344       0.0993    -999.2500    -999.2500
   2950.1587       6.8831    -999.2500    -999.2500      36.7969    -999.2500    -999.2500     795.8670     348.9786     285.9940       0.1023    -999.2500    -999.2500
   2950.3113       7.0178    -999.2500    -999.2500      34.5054    -999.2500    -999.2500     646.6312     283.5378     161.2371       0.1050    -999.2500    -999.2500
   2950.4636       6.8461    -999.2500    -999.2500      32.8620    -999.2500    -999.2500     569.1331     250.9193      49.4407       0.1027    -999.2500    -999.2500
   2950.6160       6.5801    -999.2500    -999.2500      31.4735    -999.2500    -999.2500     567.8354     249.7650      44.0451       0.1083    -999.2500    -999.2500
   2950.7683       6.5781    -999.2500    -999.2500      28.9129    -999.2500    -999.2500     593.0554     256.1861      92.5784       0.1160    -999.2500    -999.2500
   2950.9207       6.7740    -999.2500    -999.2500      25.9669    -999.2500    -999.2500     622.5705     259.9974      80.9144       0.1207    -999.2500    -999.2500
   2951.0732       6.9193    -999.2500    -999.2500      24.1118    -999.2500    -999.2500     666.9437     269.2675     104.7509       0.1187    -999.2500    -999.2500
   2951.2256       6.8844    -999.2500    -999.2500      23.1696    -999.2500    -999.2500     658.9401     262.1245      94.9957       0.1190    -999.2500    -999.2500
   2951.3779       6.6528    -999.2500    -999.2500      24.1708    -999.2500    -999.2500     592.9053     238.3987      71.3489       0.1220    -999.2500    -999.2500
   2951.5303       6.4954    -999.2500    -999.2500      25.4503    -999.2500    -999.2500     511.7138     212.7629     103.6922       0.1276    -999.2500    -999.2500
   2951.6829       6.6372    -999.2500    -999.2500      28.0731    -999.2500    -999.2500     389.2828     176.9441     104.1111       0.1313    -999.2500    -999.2500
   2951.8352       6.8522    -999.2500    -999.2500      30.1064    -999.2500    -999.2500     341.2064     163.1289      98.2510       0.1353    -999.2500    -999.2500
   2951.9875       6.8340    -999.2500    -999.2500      31.9353    -999.2500    -999.2500     334.4591     160.4594     112.4949       0.1390    -999.2500    -999.2500
   2952.1399       6.6663    -999.2500    -999.2500      29.3124    -999.2500    -999.2500     309.0412     149.9047     141.9796       0.1447    -999.2500    -999.2500
   2952.2925       6.7461    -999.2500    -999.2500      24.4957    -999.2500    -999.2500     297.5188     145.0864     131.8688       0.1483    -999.2500    -999.2500
   2952.4448       6.9598    -999.2500    -999.2500      20.0873    -999.2500    -999.2500     314.8731     153.4671     110.7601       0.1550    -999.2500    -999.2500
   2952.5972       6.9736    -999.2500    -999.2500      18.4758    -999.2500    -999.2500     344.5964     165.4242      97.2317       0.1514    -999.2500    -999.2500
   2952.7495       6.8005    -999.2500    -999.2500      17.6422    -999.2500    -999.2500     398.7649     185.2401     140.4646       0.1341    -999.2500    -999.2500
   2952.9019       6.7808    -999.2500    -999.2500      16.8867    -999.2500    -999.2500     466.4744     213.0057     146.4199       0.1164    -999.2500    -999.2500
   2953.0544       6.8399    -999.2500    -999.2500      16.9403    -999.2500    -999.2500     514.0742     231.9158     172.9219       0.1090    -999.2500    -999.2500
   2953.2068       6.7731    -999.2500    -999.2500      18.0457    -999.2500    -999.2500     506.6284     224.3994     109.6823       0.1093    -999.2500    -999.2500
   2953.3591       6.8068    -999.2500    -999.2500      17.8834    -999.2500    -999.2500     495.8907     213.1089     261.9406       0.1080    -999.2500    -999.2500
   2953.5115       6.8529    -999.2500    -999.2500      18.0183    -999.2500    -999.2500     537.6066     223.7296     225.1123       0.1044    -999.2500    -999.2500
   2953.6641       6.7440    -999.2500    -999.2500      17.6545    -999.2500    -999.2500     565.0899     231.4086     197.5927       0.1030    -999.2500    -999.2500
   2953.8164       6.6498    -999.2500    -999.2500      17.4878    -999.2500    -999.2500     554.5128     224.8799     180.7686       0.1010    -999.2500    -999.2500
   2953.9688       6.6461    -999.2500    -999.2500      17.4284    -999.2500    -999.2500     568.7373     230.6017     139.3234       0.0967    -999.2500    -999.2500
   2954.1211       6.7379    -999.2500    -999.2500      19.2182    -999.2500    -999.2500     593.3854     242.0817     145.2541       0.0910    -999.2500    -999.2500
   2954.2737       6.8457    -999.2500    -999.2500      21.2270    -999.2500    -999.2500     614.8669     252.2626     158.7360       0.0877    -999.2500    -999.2500
