#------------------------------------------------------------------------------
#
#   Created by  : [OpenWorks] Log Export Utility (LEXP)
#   Created on  : 2016-05-23 11:55:46
#   Project     : CANT971
#   User        : R5K
#   Interpreter : PEP
#
#------------------------------------------------------------------------------
~VERSION INFORMATION
VERS. 2.0 : CWLS Log ASCII Standard - version 2.0
WRAP.  NO : One line per depth step
~WELL INFORMATION
#MNEMONIC   .UNIT                                           VALUE :DESCRIPTION
#------------------------------------------------------------------------------
STRT        .M                                           292.5192 :START DEPTH
STOP        .M                                          2727.7188 :STOP DEPTH
STEP        .M                                             0.1524 :STEP
NULL        .                                           -999.2500 :NULL VALUE
COMP        .                                   PEMEX EXPL & PROD :COMPANY
WELL        .                                                  39 :WELL
FLD         .                                           CANTARELL :FIELD
LOC         .                                             UNKNOWN :LOCATION
CNTY        .                                      CD. DEL CARMEN :COUNTY
STAT        .                                            CAMPECHE :STATE
CTRY        .                                              MEXICO :COUNTRY
SRVC        .                                             UNKNOWN :SERVICE COMPANY
DATE        .                                             UNKNOWN :LOG DATE
UWI         .                                          3060000161 :UNIQUE WELL ID
XCOORD      .                                       603360.280000 :SURFACE X
YCOORD      .                                      2145098.760000 :SURFACE Y
LAT         .                                           19.398594 :LATITUDE
LON         .                                          -92.015639 :LONGITUDE
ELEV        .M                                            27.1400 :SURFACE ELEV
ELEV_TYPE   .                                                  KB :ELEV TYPE
~CURVE INFORMATION
#MNEMONIC.UNIT        API CODE       : CURVE DESCRIPTION
#------------------------------------------------------------------------------
DEPTH    .M                          : Measured Depth
CALI     .inches      UNKNOWN        : CALI:Import:rC:NONE:v0 (auto-composite)
DRHO     .g/cm3       UNKNOWN        : DRHO:Import:rC:NONE:v0 (auto-composite)
DT       .us/ft       UNKNOWN        : DT:Import:rC:NONE:v0 (auto-composite)
GR       .API         UNKNOWN        : GR:Import:rC:NONE:v0 (auto-composite)
ILD      .ohm.m       UNKNOWN        : ILD:Import:rC:NONE:v0 (auto-composite)
LLD      .ohm.m       UNKNOWN        : LLD:Import:rC:NONE:v0 (auto-composite)
LLS      .ohm.m       UNKNOWN        : LLS:Import:rC:NONE:v0 (auto-composite)
MSFL     .ohm.m       UNKNOWN        : MSFL:Import:rC:NONE:v0 (auto-composite)
NPHI     .v/v_decimal UNKNOWN        : NPHI:Import:rC:NONE:v0 (auto-composite)
RHOB     .g/cm3       UNKNOWN        : RHOB:Import:rC:NONE:v0 (auto-composite)
~A     DEPTH         CALI         DRHO           DT           GR          ILD          LLD          LLS         MSFL         NPHI         RHOB
# ...
    616.8264       0.0000       0.0000      40.0000      68.6247       2.1875       0.2000       0.2000       0.2000      -0.1500       2.0000
    616.9788       0.0000       0.0000      40.0000      68.2563       2.2352       0.2000       0.2000       0.2000      -0.1500       2.0000
    617.1312       0.0000       0.0000      40.0000      68.2989       2.2667       0.2000       0.2000       0.2000      -0.1500       2.0000
    617.2836       0.0000       0.0000      40.0000      68.8518       2.2329       0.2000       0.2000       0.2000      -0.1500       2.0000
    617.4360       0.0000       0.0000      40.0000      69.5854       2.1760       0.2000       0.2000       0.2000      -0.1500       2.0000
    617.5884       0.0000       0.0000      40.0000      70.2360       2.0878       0.2000       0.2000       0.2000      -0.1500       2.0000
    617.7408       0.0000       0.0000      40.0000      70.8571       1.9886       0.2000       0.2000       0.2000      -0.1500       2.0000
    617.8932       0.0000       0.0000      40.0000      71.6823       1.8897       0.2000       0.2000       0.2000      -0.1500       2.0000
    618.0456       0.0000       0.0000      40.0000      72.5783       1.7909       0.2000       0.2000       0.2000      -0.1500       2.0000
    618.1980       0.0000       0.0000      40.0000      72.7091       1.7182       0.2000       0.2000       0.2000      -0.1500       2.0000
    618.3504       0.0000       0.0000      40.0000      72.5821       1.6542       0.2000       0.2000       0.2000      -0.1500       2.0000
    618.5028       0.0000       0.0000      40.0000      71.6062       1.6159       0.2000       0.2000       0.2000      -0.1500       2.0000
    618.6552       0.0000       0.0000      40.0000      70.3424       1.5863       0.2000       0.2000       0.2000      -0.1500       2.0000
    618.8076       0.0000       0.0000      40.0000      69.2245       1.5677       0.2000       0.2000       0.2000      -0.1500       2.0000
    618.9600       0.0000       0.0000      40.0000      68.1547       1.5527       0.2000       0.2000       0.2000      -0.1500       2.0000
    619.1124       0.0000       0.0000      40.0000      67.6746       1.5441       0.2000       0.2000       0.2000      -0.1500       2.0000
    619.2648       0.0000       0.0000      40.0000      67.3904       1.5376       0.2000       0.2000       0.2000      -0.1500       2.0000
    619.4172       0.0000       0.0000      40.0000      67.4979       1.5352       0.2000       0.2000       0.2000      -0.1500       2.0000
    619.5696       0.0000       0.0000      40.0000      67.7321       1.5342       0.2000       0.2000       0.2000      -0.1500       2.0000
    619.7220       0.0000       0.0000      40.0000      68.0637       1.5340       0.2000       0.2000       0.2000      -0.1500       2.0000
    619.8744       0.0000       0.0000      40.0000      68.4260       1.5340       0.2000       0.2000       0.2000      -0.1500       2.0000
    620.0268       0.0000       0.0000      40.0000      68.6718       1.5336       0.2000       0.2000       0.2000      -0.1500       2.0000
    620.1792       0.0000       0.0000      40.0000      68.8809       1.5331       0.2000       0.2000       0.2000      -0.1500       2.0000
    620.3316       0.0000       0.0000      40.0000      69.0596       1.5276       0.2000       0.2000       0.2000      -0.1500       2.0000
    620.4840       0.0000       0.0000      40.0000      69.2290       1.5207       0.2000       0.2000       0.2000      -0.1500       2.0000
    620.6364       0.0000       0.0000      40.0000      69.0427       1.5129       0.2000       0.2000       0.2000      -0.1500       2.0000
    620.7888       0.0000       0.0000      40.0000      68.7464       1.5049       0.2000       0.2000       0.2000      -0.1500       2.0000
    620.9412       0.0000       0.0000      40.0000      66.9171       1.5076       0.2000       0.2000       0.2000      -0.1500       2.0000
    621.0936       0.0000       0.0000      40.0000      64.6277       1.5136       0.2000       0.2000       0.2000      -0.1500       2.0000
    621.2460       0.0000       0.0000      40.0000      63.8402       1.5332       0.2000       0.2000       0.2000      -0.1500       2.0000
    621.3984       0.0000       0.0000      40.0000      63.4904       1.5567       0.2000       0.2000       0.2000      -0.1500       2.0000
    621.5508       0.0000       0.0000      40.0000      65.3478       1.5922       0.2000       0.2000       0.2000      -0.1500       2.0000
    621.7032       0.0000       0.0000      40.0000      67.8533       1.6313       0.2000       0.2000       0.2000      -0.1500       2.0000
    621.8556       0.0000       0.0000      40.0000      68.3973       1.6664       0.2000       0.2000       0.2000      -0.1500       2.0000
    622.0080       0.0000       0.0000      40.0000      68.3823       1.7004       0.2000       0.2000       0.2000      -0.1500       2.0000
    622.1604       0.0000       0.0000      40.0000      67.2090       1.7177       0.2000       0.2000       0.2000      -0.1500       2.0000
    622.3128       0.0000       0.0000      40.0000      65.7032       1.7303       0.2000       0.2000       0.2000      -0.1500       2.0000
    622.4652       0.0000       0.0000      40.0000      64.9657       1.7228       0.2000       0.2000       0.2000      -0.1500       2.0000
    622.6176       0.0000       0.0000      40.0000      64.4424       1.7098       0.2000       0.2000       0.2000      -0.1500       2.0000
    622.7700       0.0000       0.0000      40.0000      64.6693       1.6960       0.2000       0.2000       0.2000      -0.1500       2.0000
    622.9224       0.0000       0.0000      40.0000      65.0990       1.6820       0.2000       0.2000       0.2000      -0.1500       2.0000
    623.0748       0.0000       0.0000      40.0000      66.3527       1.6798       0.2000       0.2000       0.2000      -0.1500       2.0000
    623.2272       0.0000       0.0000      40.0000      67.8308       1.6808       0.2000       0.2000       0.2000      -0.1500       2.0000
    623.3796       0.0000       0.0000      40.0000      68.7250       1.7087       0.2000       0.2000       0.2000      -0.1500       2.0000
    623.5320       0.0000       0.0000      40.0000      69.4654       1.7437       0.2000       0.2000       0.2000      -0.1500       2.0000
    623.6844       0.0000       0.0000      40.0000      69.3046       1.7997       0.2000       0.2000       0.2000      -0.1500       2.0000
    623.8368       0.0000       0.0000      40.0000      68.9040       1.8614       0.2000       0.2000       0.2000      -0.1500       2.0000
    623.9892       0.0000       0.0000      40.0000      68.7064       1.9131       0.2000       0.2000       0.2000      -0.1500       2.0000
    624.1416       0.0000       0.0000      40.0000      68.5610       1.9622       0.2000       0.2000       0.2000      -0.1500       2.0000
    624.2940       0.0000       0.0000      40.0000      68.8688       1.9892       0.2000       0.2000       0.2000      -0.1500       2.0000
    624.4464       0.0000       0.0000      40.0000      69.2895       2.0107       0.2000       0.2000       0.2000      -0.1500       2.0000
    624.5988       0.0000       0.0000      40.0000      69.7394       2.0118       0.2000       0.2000       0.2000      -0.1500       2.0000
    624.7512       0.0000       0.0000      40.0000      70.1966       2.0078       0.2000       0.2000       0.2000      -0.1500       2.0000
    624.9036       0.0000       0.0000      40.0000      70.5111       1.9584       0.2000       0.2000       0.2000      -0.1500       2.0000
    625.0560       0.0000       0.0000      40.0000      70.7909       1.8979       0.2000       0.2000       0.2000      -0.1500       2.0000
    625.2084       0.0000       0.0000      40.0000      70.4088       1.8341       0.2000       0.2000       0.2000      -0.1500       2.0000
