#------------------------------------------------------------------------------
#
#   Created by  : [OpenWorks] Log Export Utility (LEXP)
#   Created on  : 2016-05-23 11:55:49
#   Project     : CANT971
#   User        : R5K
#   Interpreter : PEP
#
#------------------------------------------------------------------------------
~VERSION INFORMATION
VERS. 2.0 : CWLS Log ASCII Standard - version 2.0
WRAP.  NO : One line per depth step
~WELL INFORMATION
#MNEMONIC   .UNIT                                           VALUE :DESCRIPTION
#------------------------------------------------------------------------------
STRT        .M                                           773.4315 :START DEPTH
STOP        .M                                          2865.1216 :STOP DEPTH
STEP        .M                                             0.1524 :STEP
NULL        .                                           -999.2500 :NULL VALUE
COMP        .                                             UNKNOWN :COMPANY
WELL        .                                                408D :WELL
FLD         .                                             UNKNOWN :FIELD
LOC         .                                             UNKNOWN :LOCATION
CNTY        .                                             UNKNOWN :COUNTY
STAT        .                                             UNKNOWN :STATE
CTRY        .                                             UNKNOWN :COUNTRY
SRVC        .                                             UNKNOWN :SERVICE COMPANY
DATE        .                                             UNKNOWN :LOG DATE
UWI         .                                                408D :UNIQUE WELL ID
XCOORD      .                                       597130.770000 :SURFACE X
YCOORD      .                                      2144867.260000 :SURFACE Y
LAT         .                                           19.396814 :LATITUDE
LON         .                                          -92.074972 :LONGITUDE
ELEV        .M                                             0.0000 :SURFACE ELEV
ELEV_TYPE   .                                                  KB :ELEV TYPE
~CURVE INFORMATION
#MNEMONIC.UNIT        API CODE       : CURVE DESCRIPTION
#------------------------------------------------------------------------------
DEPTH    .M                          : Measured Depth
CALI     .inches      UNKNOWN        : CALI:litodensidad:rC:NONE:v0 (auto-composite)
CGR      .API         UNKNOWN        : CGR:PETROWORKS:rC:NONE:v1 
DRHO     .g/cm3       UNKNOWN        : DRHO:litodensidad:rC:NONE:v0 (auto-composite)
DT       .us/ft       UNKNOWN        : DT:PETROWORKS:rC:NONE:v1 
GR       .API         UNKNOWN        : GR:PETROWORKS:rC:NONE:v3 
GR-LWD   .UNKNOWN     UNKNOWN        : GR-LWD:resistivos-LWD:rC:NONE:v0 (auto-composite)
LLD      .ohm.m       UNKNOWN        : LLD:PETROWORKS:rC:NONE:v1 
LLD-LWD  .UNKNOWN     UNKNOWN        : LLD-LWD:resistivos-LWD:rC:NONE:v0 (auto-composite)
LLS      .UNKNOWN     UNKNOWN        : LLS:PETROWORKS:rC:NONE:v1 
LLS-LWD  .UNKNOWN     UNKNOWN        : LLS-LWD:resistivos-LWD:rC:NONE:v0 (auto-composite)
MSFL     .UNKNOWN     UNKNOWN        : MSFL:PETROWORKS:rC:NONE:v1 
MSFL-LWD .UNKNOWN     UNKNOWN        : MSFL-LWD:resistivos-LWD:rC:NONE:v0 (auto-composite)
NPHI     .v/v_decimal UNKNOWN        : NPHI:PETROWORKS:rC:NONE:v3 
PEF      .UNKNOWN     UNKNOWN        : PEF:litodensidad:rC:NONE:v0 (auto-composite)
POTA     .wtpercent   UNKNOWN        : POTA:PETROWORKS:rC:NONE:v1 
RHOB     .g/cm3       UNKNOWN        : RHOB:litodensidad:rC:NONE:v0 (auto-composite)
THOR     .ppm         UNKNOWN        : THOR:PETROWORKS:rC:NONE:v1 
URAN     .ppm         UNKNOWN        : URAN:PETROWORKS:rC:NONE:v1 
~A     DEPTH         CALI          CGR         DRHO           DT           GR       GR-LWD          LLD      LLD-LWD          LLS      LLS-LWD         MSFL     MSFL-LWD         NPHI          PEF         POTA         RHOB         THOR         URAN
# ...
   1824.5343    -999.2500    -999.2500    -999.2500      70.6270      19.1316      19.1390       6.2659       6.2660       5.7966       5.7920       6.7576       6.7520    -999.2500    -999.2500    -999.2500    -999.2500    -999.2500    -999.2500
   1824.6868    -999.2500    -999.2500    -999.2500      72.1777      18.4203      18.4160       6.2877       6.2870       6.2594       6.2550       7.1936       7.1900    -999.2500    -999.2500    -999.2500    -999.2500    -999.2500    -999.2500
   1824.8391    -999.2500    -999.2500    -999.2500      73.0878      17.9371      17.9340       6.3146       6.3150       6.5961       6.5940       7.5312       7.5280    -999.2500    -999.2500    -999.2500    -999.2500    -999.2500    -999.2500
   1824.9916    -999.2500    -999.2500    -999.2500      73.6916      17.7601      17.7350       6.2414       6.2420       6.7195       6.7190       7.7072       7.7060    -999.2500    -999.2500    -999.2500    -999.2500    -999.2500    -999.2500
   1825.1439    -999.2500    -999.2500    -999.2500      73.8973      18.0699      18.0590       6.0250       6.0270       6.5728       6.5750       7.4821       7.4860    -999.2500    -999.2500    -999.2500    -999.2500    -999.2500    -999.2500
   1825.2963    -999.2500    -999.2500    -999.2500      73.9000      18.9089      18.7970       5.7953       5.7970       6.2585       6.2620       7.0197       7.0250    -999.2500    -999.2500    -999.2500    -999.2500    -999.2500    -999.2500
   1825.4487    -999.2500    -999.2500    -999.2500      71.1384      20.5995      20.5590       5.5539       5.5570       5.9365       5.9400       6.5661       6.5700    -999.2500    -999.2500    -999.2500    -999.2500    -999.2500    -999.2500
   1825.6011    -999.2500    -999.2500    -999.2500      68.7339      23.1533      23.1500       5.1275       5.1280       5.4850       5.4860       6.0750       6.0760    -999.2500    -999.2500    -999.2500    -999.2500    -999.2500    -999.2500
   1825.7535    -999.2500    -999.2500    -999.2500      71.0670      25.7376      25.7250       4.4463       4.4540       4.6773       4.6860       5.2045       5.2140    -999.2500    -999.2500    -999.2500    -999.2500    -999.2500    -999.2500
   1825.9059    -999.2500    -999.2500    -999.2500      73.1702      28.1095      28.0590       3.6213       3.6290       3.7646       3.7730       4.1333       4.1430    -999.2500    -999.2500    -999.2500    -999.2500    -999.2500    -999.2500
   1826.0583    -999.2500    -999.2500    -999.2500      79.0184      30.5194      30.5030       2.8935       2.8990       2.9200       2.9270       3.1335       3.1420    -999.2500    -999.2500    -999.2500    -999.2500    -999.2500    -999.2500
   1826.2107    -999.2500    -999.2500    -999.2500      84.4273      32.7025      32.7520       2.4440       2.4470       2.3606       2.3640       2.4703       2.4740    -999.2500    -999.2500    -999.2500    -999.2500    -999.2500    -999.2500
   1826.3632    -999.2500    -999.2500    -999.2500      89.9237      34.0735      34.0810       2.1833       2.1850       2.0208       2.0230       2.1504       2.1530    -999.2500    -999.2500    -999.2500    -999.2500    -999.2500    -999.2500
   1826.5155    -999.2500    -999.2500    -999.2500      91.5784      34.9458      34.9030       2.0347       2.0360       1.8320       1.8330       2.0026       2.0030    -999.2500    -999.2500    -999.2500    -999.2500    -999.2500    -999.2500
   1826.6680    -999.2500    -999.2500    -999.2500      92.8819      36.2477      36.2410       1.8767       1.8790       1.7325       1.7330       1.9336       1.9340    -999.2500    -999.2500    -999.2500    -999.2500    -999.2500    -999.2500
   1826.8203    -999.2500    -999.2500    -999.2500      91.2231      37.5517      37.6010       1.6401       1.6420       1.6303       1.6310       1.8488       1.8500    -999.2500    -999.2500    -999.2500    -999.2500    -999.2500    -999.2500
   1826.9728    -999.2500    -999.2500    -999.2500      93.5664      37.6195      37.6410       1.4516       1.4530       1.5289       1.5300       1.7496       1.7500    -999.2500    -999.2500    -999.2500    -999.2500    -999.2500    -999.2500
   1827.1251    -999.2500    -999.2500    -999.2500      92.0218      37.2799      37.2470       1.3794       1.3790       1.4906       1.4900       1.7132       1.7130    -999.2500    -999.2500    -999.2500    -999.2500    -999.2500    -999.2500
   1827.2775    -999.2500    -999.2500    -999.2500      91.5070      37.9987      37.9500       1.3988       1.3980       1.5271       1.5270       1.7649       1.7640    -999.2500    -999.2500    -999.2500    -999.2500    -999.2500    -999.2500
   1827.4299    -999.2500    -999.2500    -999.2500      91.1055      39.1883      39.1730       1.4525       1.4520       1.5837       1.5830       1.8322       1.8320    -999.2500    -999.2500    -999.2500    -999.2500    -999.2500    -999.2500
   1827.5823    -999.2500    -999.2500    -999.2500      90.2127      39.5874      39.6380       1.4741       1.4740       1.6429       1.6420       1.8674       1.8670    -999.2500    -999.2500    -999.2500    -999.2500    -999.2500    -999.2500
   1827.7347    -999.2500    -999.2500    -999.2500      90.5945      39.4308      39.4270       1.4987       1.4980       1.6800       1.6800       1.8893       1.8890    -999.2500    -999.2500    -999.2500    -999.2500    -999.2500    -999.2500
   1827.8871    -999.2500    -999.2500    -999.2500      93.9518      39.7128      39.7100       1.4954       1.4960       1.6386       1.6390       1.8714       1.8720    -999.2500    -999.2500    -999.2500    -999.2500    -999.2500    -999.2500
   1828.0396    -999.2500    -999.2500    -999.2500      95.3806      40.2428      40.2670       1.3917       1.3930       1.5188       1.5200       1.7544       1.7560    -999.2500    -999.2500    -999.2500    -999.2500    -999.2500    -999.2500
   1828.1919    -999.2500    -999.2500    -999.2500      92.8350      39.5701      39.6300       1.3784       1.3780       1.4543       1.4550       1.6914       1.6920    -999.2500    -999.2500    -999.2500    -999.2500    -999.2500    -999.2500
   1828.3444    -999.2500    -999.2500    -999.2500      94.4764      38.0823      38.0430       1.4383       1.4380       1.4891       1.4890       1.7449       1.7440    -999.2500    -999.2500    -999.2500    -999.2500    -999.2500    -999.2500
   1828.4967    -999.2500    -999.2500    -999.2500      91.7379      38.0798      37.8680       1.4671       1.4670       1.5414       1.5410       1.8039       1.8030    -999.2500    -999.2500    -999.2500    -999.2500    -999.2500    -999.2500
   1828.6492    -999.2500    -999.2500    -999.2500      88.1502      39.9279      39.9720       1.4651       1.4650       1.5489       1.5490       1.8052       1.8060    -999.2500    -999.2500    -999.2500    -999.2500    -999.2500    -999.2500
   1828.8015    -999.2500    -999.2500    -999.2500      89.6782      40.7982      41.0370       1.4225       1.4230       1.5075       1.5080       1.7350       1.7350    -999.2500    -999.2500    -999.2500    -999.2500    -999.2500    -999.2500
   1828.9540    -999.2500    -999.2500    -999.2500      91.4748      39.8423      39.7930       1.3473       1.3480       1.4450       1.4450       1.6446       1.6450    -999.2500    -999.2500    -999.2500    -999.2500    -999.2500    -999.2500
   1829.1063    -999.2500    -999.2500    -999.2500      90.8096      39.6589      39.4850       1.3346       1.3340       1.4258       1.4260       1.6291       1.6290    -999.2500    -999.2500    -999.2500    -999.2500    -999.2500    -999.2500
   1829.2587    -999.2500    -999.2500    -999.2500      90.4056      41.0831      41.0850       1.3694       1.3690       1.4360       1.4360       1.6540       1.6540    -999.2500    -999.2500    -999.2500    -999.2500    -999.2500    -999.2500
   1829.4111    -999.2500    -999.2500    -999.2500      92.8657      42.5493      42.6060       1.2928       1.2940       1.3847       1.3860       1.6011       1.6020    -999.2500    -999.2500    -999.2500    -999.2500    -999.2500    -999.2500
