#------------------------------------------------------------------------------
#
#   Created by  : [OpenWorks] Log Export Utility (LEXP)
#   Created on  : 2016-05-23 11:53:36
#   Project     : CANT971
#   User        : R5K
#   Interpreter : PEP
#
#------------------------------------------------------------------------------
~VERSION INFORMATION
VERS. 2.0 : CWLS Log ASCII Standard - version 2.0
WRAP.  NO : One line per depth step
~WELL INFORMATION
#MNEMONIC   .UNIT                                           VALUE :DESCRIPTION
#------------------------------------------------------------------------------
STRT        .M                                           940.3716 :START DEPTH
STOP        .M                                          3167.2405 :STOP DEPTH
STEP        .M                                             0.1524 :STEP
NULL        .                                           -999.2500 :NULL VALUE
COMP        .                                   PEMEX EXPL & PROD :COMPANY
WELL        .                                                  24 :WELL
FLD         .                                           CANTARELL :FIELD
LOC         .                                             UNKNOWN :LOCATION
CNTY        .                                      CD. DEL CARMEN :COUNTY
STAT        .                                            CAMPECHE :STATE
CTRY        .                                              MEXICO :COUNTRY
SRVC        .                                             UNKNOWN :SERVICE COMPANY
DATE        .                                             UNKNOWN :LOG DATE
UWI         .                                          3060000153 :UNIQUE WELL ID
XCOORD      .                                       598455.290000 :SURFACE X
YCOORD      .                                      2145024.750000 :SURFACE Y
LAT         .                                           19.398172 :LATITUDE
LON         .                                          -92.062351 :LONGITUDE
ELEV        .M                                            26.5400 :SURFACE ELEV
ELEV_TYPE   .                                                  KB :ELEV TYPE
~CURVE INFORMATION
#MNEMONIC.UNIT        API CODE       : CURVE DESCRIPTION
#------------------------------------------------------------------------------
DEPTH    .M                          : Measured Depth
CALI     .inches      UNKNOWN        : CALI:Import:rC:NONE:v0 (auto-composite)
DRHO     .g/cm3       UNKNOWN        : DRHO:Import:rC:NONE:v0 (auto-composite)
DT       .us/ft       UNKNOWN        : DT:Import:rC:NONE:v0 (auto-composite)
GR       .API         UNKNOWN        : GR:Import:rC:NONE:v0 (auto-composite)
ILD      .ohm.m       UNKNOWN        : ILD:Import:rC:NONE:v0 (auto-composite)
LLD      .ohm.m       UNKNOWN        : LLD:Import:rC:NONE:v0 (auto-composite)
LLS      .ohm.m       UNKNOWN        : LLS:Import:rC:NONE:v0 (auto-composite)
MSFL     .ohm.m       UNKNOWN        : MSFL:Import:rC:NONE:v0 (auto-composite)
NPHI     .v/v_decimal UNKNOWN        : NPHI:Import:rC:NONE:v0 (auto-composite)
RHOB     .g/cm3       UNKNOWN        : RHOB:Import:rC:NONE:v0 (auto-composite)
~A     DEPTH         CALI         DRHO           DT           GR          ILD          LLD          LLS         MSFL         NPHI         RHOB
# ...
   2911.8179    -999.2500    -999.2500    -999.2500      38.7677    -999.2500      35.3324      35.0962      35.7668       0.1270    -999.2500
   2911.9705    -999.2500    -999.2500    -999.2500      40.2705    -999.2500      34.7896      34.7316      35.4330       0.1201    -999.2500
   2912.1228    -999.2500    -999.2500    -999.2500      42.3715    -999.2500      34.4767      33.9319      35.6479       0.1133    -999.2500
   2912.2751    -999.2500    -999.2500    -999.2500      44.1805    -999.2500      34.1250      33.0445      35.5667       0.1072    -999.2500
   2912.4275    -999.2500    -999.2500    -999.2500      43.5247    -999.2500      33.4456      31.4165      32.9870       0.1025    -999.2500
   2912.5801    -999.2500    -999.2500    -999.2500      42.8171    -999.2500      32.7537      29.8783      30.5777       0.1001    -999.2500
   2912.7324    -999.2500    -999.2500    -999.2500      41.6965    -999.2500      31.9615      29.0556      29.5256       0.1006    -999.2500
   2912.8848    -999.2500    -999.2500    -999.2500      40.7639    -999.2500      31.2384      28.3039      28.6830       0.1023    -999.2500
   2913.0371    -999.2500    -999.2500    -999.2500      41.3417    -999.2500      31.0701      28.1221      29.5235       0.1034    -999.2500
   2913.1897    -999.2500    -999.2500    -999.2500      41.8851    -999.2500      30.9984      28.0834      30.3742       0.1029    -999.2500
   2913.3420    -999.2500    -999.2500    -999.2500      42.1450    -999.2500      31.7236      29.2239      31.3098       0.0996    -999.2500
   2913.4944    -999.2500    -999.2500    -999.2500      42.5381    -999.2500      32.5262      30.3992      32.3021       0.0938    -999.2500
   2913.6467    -999.2500    -999.2500    -999.2500      44.0398    -999.2500      33.9727      31.8637      33.7662       0.0859    -999.2500
   2913.7991    -999.2500    -999.2500    -999.2500      45.6459    -999.2500      35.4305      33.3228      35.1802       0.0777    -999.2500
   2913.9517    -999.2500    -999.2500    -999.2500      48.0729    -999.2500      36.9763      34.7392      36.2013       0.0706    -999.2500
   2914.1040    -999.2500    -999.2500    -999.2500      50.4211    -999.2500      38.4480      36.1845      37.2924       0.0650    -999.2500
   2914.2563    -999.2500    -999.2500    -999.2500      52.1449    -999.2500      39.3325      37.8590      38.9389       0.0611    -999.2500
   2914.4087    -999.2500    -999.2500    -999.2500      53.7085    -999.2500      40.2145      39.6411      40.8982       0.0591    -999.2500
   2914.5613    -999.2500    -999.2500    -999.2500      53.9684    -999.2500      41.0771      42.2984      45.4007       0.0593    -999.2500
   2914.7136    -999.2500    -999.2500    -999.2500      53.9208    -999.2500      42.0818      45.0320      50.0490       0.0608    -999.2500
   2914.8660    -999.2500    -999.2500    -999.2500      51.3514    -999.2500      44.2519      48.3911      55.8925       0.0629    -999.2500
   2915.0183    -999.2500    -999.2500    -999.2500      48.6823    -999.2500      46.4449      51.5367      61.1976       0.0644    -999.2500
   2915.1709    -999.2500    -999.2500    -999.2500      45.1881    -999.2500      48.8280      52.9166      62.0469       0.0645    -999.2500
   2915.3232    -999.2500    -999.2500    -999.2500      42.1941    -999.2500      51.0574      53.8576      62.1409       0.0633    -999.2500
   2915.4756    -999.2500    -999.2500    -999.2500      43.1125    -999.2500      52.0847      51.3662      56.3261       0.0611    -999.2500
   2915.6279    -999.2500    -999.2500    -999.2500      44.0399    -999.2500      53.0771      49.0689      50.9855       0.0573    -999.2500
   2915.7803    -999.2500    -999.2500    -999.2500      45.0400    -999.2500      53.7908      48.3287      49.4482       0.0516    -999.2500
   2915.9329    -999.2500    -999.2500    -999.2500      45.7181    -999.2500      54.6352      47.9995      48.6493       0.0471    -999.2500
   2916.0852    -999.2500    -999.2500    -999.2500      43.7925    -999.2500      56.5369      50.9942      53.8235       0.0464    -999.2500
   2916.2375    -999.2500    -999.2500    -999.2500      41.8578    -999.2500      58.6403      54.7339      62.3836       0.0483    -999.2500
   2916.3899    -999.2500    -999.2500    -999.2500      39.8491    -999.2500      62.3896      64.5542      98.5769       0.0517    -999.2500
   2916.5425    -999.2500    -999.2500    -999.2500      38.0148    -999.2500      66.2590      74.9204     137.8152       0.0551    -999.2500
   2916.6948    -999.2500    -999.2500    -999.2500      37.6163    -999.2500      71.1165      89.7831     202.1275       0.0573    -999.2500
   2916.8472    -999.2500    -999.2500    -999.2500      37.1511    -999.2500      75.8861     105.0031     271.1411       0.0579    -999.2500
   2916.9995    -999.2500    -999.2500    -999.2500      36.1223    -999.2500      79.9122     123.2422     379.8805       0.0564    -999.2500
   2917.1521    -999.2500    -999.2500    -999.2500      35.0929    -999.2500      83.7321     138.8032     465.2895       0.0534    -999.2500
   2917.3044    -999.2500    -999.2500    -999.2500      34.0593    -999.2500      85.9056     132.9957     364.5365       0.0495    -999.2500
   2917.4568    -999.2500    -999.2500    -999.2500      33.1003    -999.2500      88.0648     127.4795     270.4085       0.0456    -999.2500
   2917.6091    -999.2500    -999.2500    -999.2500      32.7407    -999.2500      90.1077     124.3079     229.6088       0.0428    -999.2500
   2917.7615    -999.2500    -999.2500    -999.2500      32.4594    -999.2500      91.8887     121.0322     190.0754       0.0414    -999.2500
   2917.9141    -999.2500    -999.2500    -999.2500      32.8237    -999.2500      91.5069     116.8970     160.9965       0.0417    -999.2500
   2918.0664    -999.2500    -999.2500    -999.2500      33.4099    -999.2500      90.9671     112.5880     133.8678       0.0428    -999.2500
   2918.2188    -999.2500    -999.2500    -999.2500      35.8441    -999.2500      89.1109     106.8310     122.9867       0.0439    -999.2500
   2918.3711    -999.2500    -999.2500    -999.2500      38.2521    -999.2500      87.0755     101.2746     112.7460       0.0445    -999.2500
   2918.5237    -999.2500    -999.2500    -999.2500      40.4531    -999.2500      83.6290      97.2969     107.5473       0.0447    -999.2500
   2918.6760    -999.2500    -999.2500    -999.2500      42.5271    -999.2500      80.3756      93.6990     103.1434       0.0452    -999.2500
   2918.8284    -999.2500    -999.2500    -999.2500      43.5918    -999.2500      78.6552      93.1177     105.0510       0.0470    -999.2500
   2918.9807    -999.2500    -999.2500    -999.2500      44.4817    -999.2500      76.9087      92.3198     106.4572       0.0484    -999.2500
   2919.1333    -999.2500    -999.2500    -999.2500      43.9484    -999.2500      74.9495      89.7584     103.7809       0.0483    -999.2500
   2919.2856    -999.2500    -999.2500    -999.2500      43.3069    -999.2500      72.7955      86.7491     100.3396       0.0470    -999.2500
   2919.4380    -999.2500    -999.2500    -999.2500      41.7760    -999.2500      69.0401      80.0600      90.6143       0.0447    -999.2500
   2919.5903    -999.2500    -999.2500    -999.2500      40.4041    -999.2500      65.2259      73.4267      81.1308       0.0431    -999.2500
   2919.7427    -999.2500    -999.2500    -999.2500      40.3489    -999.2500      60.9245      67.2561      73.6521       0.0434    -999.2500
   2919.8953    -999.2500    -999.2500    -999.2500      40.7516    -999.2500      56.5383      60.9708      66.0260       0.0452    -999.2500
   2920.0476    -999.2500    -999.2500    -999.2500      44.7407    -999.2500      51.4886      53.7877      57.2453       0.0480    -999.2500
   2920.2000    -999.2500    -999.2500    -999.2500      48.8720    -999.2500      46.6469      47.0098      49.0885       0.0505    -999.2500
