#------------------------------------------------------------------------------
#
#   Created by  : [OpenWorks] Log Export Utility (LEXP)
#   Created on  : 2016-05-11 12:45:47
#   Project     : CANT971
#   User        : R5K
#   Interpreter : PEP
#
#------------------------------------------------------------------------------
~VERSION INFORMATION
VERS. 2.0 : CWLS Log ASCII Standard - version 2.0
WRAP.  NO : One line per depth step
~WELL INFORMATION
#MNEMONIC   .UNIT                                           VALUE :DESCRIPTION
#------------------------------------------------------------------------------
STRT        .M                                           801.4664 :START DEPTH
STOP        .M                                          3402.1724 :STOP DEPTH
STEP        .M                                             0.1524 :STEP
NULL        .                                           -999.2500 :NULL VALUE
COMP        .                                   PEMEX EXPL & PROD :COMPANY
WELL        .                                        CANTARELL-85 :WELL
FLD         .                                           CANTARELL :FIELD
LOC         .                                             UNKNOWN :LOCATION
CNTY        .                                      CD. DEL CARMEN :COUNTY
STAT        .                                            CAMPECHE :STATE
CTRY        .                                              MEXICO :COUNTRY
SRVC        .                                             UNKNOWN :SERVICE COMPANY
DATE        .                                             UNKNOWN :LOG DATE
UWI         .                                          3060000185 :UNIQUE WELL ID
XCOORD      .                                       604541.690000 :SURFACE X
YCOORD      .                                      2141649.620000 :SURFACE Y
LAT         .                                           19.367365 :LATITUDE
LON         .                                          -92.004578 :LONGITUDE
ELEV        .M                                            30.0000 :SURFACE ELEV
ELEV_TYPE   .                                                  KB :ELEV TYPE
~CURVE INFORMATION
#MNEMONIC.UNIT        API CODE       : CURVE DESCRIPTION
#------------------------------------------------------------------------------
DEPTH    .M                          : Measured Depth
CALI     .inches      UNKNOWN        : CALI:Import:rC:NONE:v0 (auto-composite)
DRHO     .g/cm3       UNKNOWN        : DRHO:Import:rC:NONE:v0 (auto-composite)
DT       .us/ft       UNKNOWN        : DT:Import:rC:NONE:v0 (auto-composite)
GR       .API         UNKNOWN        : GR:Import:rC:NONE:v0 (auto-composite)
ILD      .ohm.m       UNKNOWN        : ILD:Import:rC:NONE:v0 (auto-composite)
ILM      .ohm.m       UNKNOWN        : ILM:Import:rC:NONE:v0 (auto-composite)
NPHI     .v/v_decimal UNKNOWN        : NPHI:Import:rC:NONE:v0 (auto-composite)
RHOB     .g/cm3       UNKNOWN        : RHOB:Import:rC:NONE:v0 (auto-composite)
SN       .ohm.m       UNKNOWN        : SN:Import:rC:NONE:v0 (auto-composite)
SP       .mV          UNKNOWN        : SP:Import:rC:NONE:v0 (auto-composite)
~A     DEPTH         CALI         DRHO           DT           GR          ILD          ILM         NPHI         RHOB           SN           SP
# ...
   3003.3416       6.2159      -0.0460      67.6179       6.6628    1712.7559    -999.2500      -0.9365       2.1310    -999.2500    -999.2500
   3003.4939       6.2034      -0.0470      67.6866       5.9696    1715.7136    -999.2500      -0.9689       2.1300    -999.2500    -999.2500
   3003.6465       6.2059      -0.0470      67.7403       6.0611    1715.8101    -999.2500      -0.7377       2.1256    -999.2500    -999.2500
   3003.7988       6.2089      -0.0470      67.7932       6.1791    1715.8101    -999.2500      -0.4981       2.1211    -999.2500    -999.2500
   3003.9512       6.2182      -0.0485      67.9737       6.7708    1715.8101    -999.2500      -0.4924       2.1157    -999.2500    -999.2500
   3004.1035       6.2277      -0.0500      68.1576       7.3790    1715.8101    -999.2500      -0.4949       2.1102    -999.2500    -999.2500
   3004.2559       6.2280      -0.0481      68.0914       6.9596    1715.8101    -999.2500      -0.7491       2.1071    -999.2500    -999.2500
   3004.4084       6.2280      -0.0461      68.0166       6.5106    1715.8101    -999.2500      -1.0111       2.1041    -999.2500    -999.2500
   3004.5608       6.2159      -0.0528      68.0140       6.5876    1715.8101    -999.2500      -0.9585       2.0914    -999.2500    -999.2500
   3004.7131       6.2034      -0.0598      68.0140       6.6811    1715.8101    -999.2500      -0.8952       2.0784    -999.2500    -999.2500
   3004.8655       6.2151      -0.0595      68.0232       7.1241    1719.6611    -999.2500      -0.7077       2.0790    -999.2500    -999.2500
   3005.0181       6.2276      -0.0590      68.0327       7.5784    1723.6365    -999.2500      -0.5165       2.0800    -999.2500    -999.2500
   3005.1704       6.2033      -0.0532      68.1206       8.2475    1719.9164    -999.2500      -0.4485       2.0848    -999.2500    -999.2500
   3005.3228       6.1778      -0.0472      68.2110       8.9237    1715.9410    -999.2500      -0.3851       2.0898    -999.2500    -999.2500
   3005.4751       6.2017      -0.0470      68.2111       8.8438    1715.8101    -999.2500      -0.1977       2.0963    -999.2500    -999.2500
   3005.6277       6.2272      -0.0470      68.2081       8.7381    1715.8101    -999.2500      -0.0066       2.1028    -999.2500    -999.2500
   3005.7800       6.2251      -0.0499      68.1867       8.0124    1715.8101    -999.2500      -0.4939       2.0996    -999.2500    -999.2500
   3005.9324       6.2221      -0.0529      68.1647       7.2682    1715.8101    -999.2500      -1.0029       2.0961    -999.2500    -999.2500
   3006.0847       6.2002      -0.0520      68.0188       7.3187    1715.8101    -999.2500      -0.7732       2.0960    -999.2500    -999.2500
   3006.2371       6.1777      -0.0510      67.8692       7.3937    1715.8101    -999.2500      -0.5188       2.0960    -999.2500    -999.2500
   3006.3896       6.1799      -0.0476      67.8882       7.3360    1719.6600    -999.2500      -0.5667       2.1013    -999.2500    -999.2500
   3006.5420       6.1829      -0.0441      67.9132       7.2741    1723.6321    -999.2500      -0.6250       2.1068    -999.2500    -999.2500
   3006.6943       6.1927      -0.0455      67.8657       6.6076    1719.9208    -999.2500      -0.8026       2.1031    -999.2500    -999.2500
   3006.8467       6.2027      -0.0470      67.8157       5.9204    1715.9456    -999.2500      -0.9837       2.0991    -999.2500    -999.2500
   3006.9993       6.1904      -0.0465      67.8349       5.9692    1723.5143    -999.2500      -1.0069       2.0995    -999.2500    -999.2500
   3007.1516       6.1774      -0.0460      67.8563       6.0439    1731.4905    -999.2500      -1.0244       2.1000    -999.2500    -999.2500
   3007.3040       6.1770      -0.0436      67.9331       6.9442    1727.8562    -999.2500      -1.0371       2.1082    -999.2500    -999.2500
   3007.4563       6.1770      -0.0411      68.0113       7.8688    1723.8809    -999.2500      -1.0496       2.1167    -999.2500    -999.2500
   3007.6089       6.2017      -0.0473      68.1592       7.7264    1727.6194    -999.2500      -1.0476       2.1088    -999.2500    -999.2500
   3007.7612       6.2272      -0.0538      68.3089       7.5516    1731.5914    -999.2500      -1.0451       2.1003    -999.2500    -999.2500
   3007.9136       6.2159      -0.0540      68.2050       7.9331    1724.0208    -999.2500      -0.7858       2.1000    -999.2500    -999.2500
   3008.0659       6.2034      -0.0540      68.0929       8.3329    1716.0703    -999.2500      -0.5193       2.1000    -999.2500    -999.2500
   3008.2183       6.2059      -0.0487      68.0890       8.2015    1716.7657    -999.2500      -0.7569       2.1063    -999.2500    -999.2500
   3008.3708       6.2089      -0.0432      68.0890       8.0520    1717.7538    -999.2500      -1.0113       2.1128    -999.2500    -999.2500
   3008.5232       6.2182      -0.0459      67.9559       7.6041    1721.6473    -999.2500      -1.0200       2.1072    -999.2500    -999.2500
   3008.6755       6.2277      -0.0489      67.8188       7.1459    1725.6420    -999.2500      -1.0200       2.1012    -999.2500    -999.2500
   3008.8279       6.2033      -0.0485      67.9350       6.9879    1728.6488    -999.2500      -0.9595       2.1015    -999.2500    -999.2500
   3008.9805       6.1778      -0.0480      68.0597       6.8386    1731.6272    -999.2500      -0.8971       2.1020    -999.2500    -999.2500
   3009.1328       6.1799      -0.0456      68.0426       6.3800    1731.7180    -999.2500      -0.6509       2.1035    -999.2500    -999.2500
   3009.2852       6.1829      -0.0431      68.0207       5.9117    1731.7180    -999.2500      -0.3994       2.1050    -999.2500    -999.2500
   3009.4375       6.1927      -0.0430      67.8599       5.9870    1731.7180    -999.2500      -0.2018       2.1094    -999.2500    -999.2500
   3009.5901       6.2027      -0.0430      67.6947       6.0800    1731.7180    -999.2500      -0.0067       2.1139    -999.2500    -999.2500
   3009.7424       6.2030      -0.0435      67.6982       6.5251    1731.7180    -999.2500      -0.2372       2.1218    -999.2500    -999.2500
   3009.8948       6.2030      -0.0440      67.7077       6.9819    1731.7180    -999.2500      -0.4818       2.1298    -999.2500    -999.2500
   3010.0471       6.2151      -0.0459      67.8923       6.3188    1727.8651    -999.2500      -0.4900       2.1295    -999.2500    -999.2500
   3010.1995       6.2276      -0.0479      68.0824       5.6175    1723.8802    -999.2500      -0.4900       2.1290    -999.2500    -999.2500
   3010.3521       6.2033      -0.0480      68.0527       5.6334    1724.7267    -999.2500      -0.7272       2.1174    -999.2500    -999.2500
   3010.5044       6.1778      -0.0480      68.0153       5.6709    1725.7183    -999.2500      -0.9717       2.1054    -999.2500    -999.2500
   3010.6567       6.1799      -0.0495      68.0503       5.8111    1728.6422    -999.2500      -0.9766       2.1060    -999.2500    -999.2500
   3010.8091       6.1829      -0.0510      68.0877       5.9546    1731.6259    -999.2500      -0.9731       2.1070    -999.2500    -999.2500
   3010.9617       6.1927      -0.0500      68.0043       7.1394    1731.7180    -999.2500      -0.9595       2.1109    -999.2500    -999.2500
   3011.1140       6.2027      -0.0490      67.9170       8.3573    1731.7180    -999.2500      -0.9455       2.1149    -999.2500    -999.2500
   3011.2664       6.1904      -0.0495      67.9383       8.3056    1731.7180    -999.2500      -0.9378       2.1155    -999.2500    -999.2500
   3011.4187       6.1774      -0.0500      67.9631       8.2122    1731.7180    -999.2500      -0.9303       2.1160    -999.2500    -999.2500
   3011.5713       6.1770      -0.0539      67.8793       7.8832    1731.7180    -999.2500      -0.9252       2.1179    -999.2500    -999.2500
   3011.7236       6.1770      -0.0579      67.7920       7.5458    1731.7180    -999.2500      -0.9202       2.1199    -999.2500    -999.2500
