#------------------------------------------------------------------------------
#
#   Created by  : [OpenWorks] Log Export Utility (LEXP)
#   Created on  : 2016-05-23 11:57:02
#   Project     : CANT971
#   User        : R5K
#   Interpreter : PEP
#
#------------------------------------------------------------------------------
~VERSION INFORMATION
VERS. 2.0 : CWLS Log ASCII Standard - version 2.0
WRAP.  NO : One line per depth step
~WELL INFORMATION
#MNEMONIC   .UNIT                                           VALUE :DESCRIPTION
#------------------------------------------------------------------------------
STRT        .M                                           493.3184 :START DEPTH
STOP        .M                                          2467.0508 :STOP DEPTH
STEP        .M                                             0.1524 :STEP
NULL        .                                           -999.2500 :NULL VALUE
COMP        .                                   PEMEX EXPL & PROD :COMPANY
WELL        .                                                  63 :WELL
FLD         .                                           CANTARELL :FIELD
LOC         .                                             UNKNOWN :LOCATION
CNTY        .                                      CD. DEL CARMEN :COUNTY
STAT        .                                            CAMPECHE :STATE
CTRY        .                                              MEXICO :COUNTRY
SRVC        .                                             UNKNOWN :SERVICE COMPANY
DATE        .                                             UNKNOWN :LOG DATE
UWI         .                                          3060000615 :UNIQUE WELL ID
XCOORD      .                                       601716.240000 :SURFACE X
YCOORD      .                                      2142344.800000 :SURFACE Y
LAT         .                                           19.373792 :LATITUDE
LON         .                                          -92.031441 :LONGITUDE
ELEV        .M                                            24.0000 :SURFACE ELEV
ELEV_TYPE   .                                                  KB :ELEV TYPE
~CURVE INFORMATION
#MNEMONIC.UNIT        API CODE       : CURVE DESCRIPTION
#------------------------------------------------------------------------------
DEPTH    .M                          : Measured Depth
CALI     .inches      UNKNOWN        : CALI:Import:rC:NONE:v0 (auto-composite)
DRHO     .g/cm3       UNKNOWN        : DRHO:Import:rC:NONE:v0 (auto-composite)
DT       .us/ft       UNKNOWN        : DT:Import:rC:NONE:v0 (auto-composite)
GR       .API         UNKNOWN        : GR:Import:rC:NONE:v0 (auto-composite)
ILD      .ohm.m       UNKNOWN        : ILD:Import:rC:NONE:v0 (auto-composite)
ILM      .ohm.m       UNKNOWN        : ILM:Import:rC:NONE:v0 (auto-composite)
LLD      .ohm.m       UNKNOWN        : LLD:Import:rC:NONE:v0 (auto-composite)
LLS      .ohm.m       UNKNOWN        : LLS:Import:rC:NONE:v0 (auto-composite)
MSFL     .ohm.m       UNKNOWN        : MSFL:Import:rC:NONE:v0 (auto-composite)
NPHI     .v/v_decimal UNKNOWN        : NPHI:Import:rC:NONE:v0 (auto-composite)
PEF      .b/elec      UNKNOWN        : PEF:Import:rC:NONE:v0 (auto-composite)
RHOB     .g/cm3       UNKNOWN        : RHOB:Import:rC:NONE:v0 (auto-composite)
~A     DEPTH         CALI         DRHO           DT           GR          ILD          ILM          LLD          LLS         MSFL         NPHI          PEF         RHOB
# ...
   2329.4336       6.0754       0.0525      49.1354      20.0948    -999.2500    -999.2500    2775.5752     853.1735      71.0096       0.0343       3.0244       2.8215
   2329.5859       6.1720       0.0460      49.2500      21.1410    -999.2500    -999.2500    2721.9929     836.8700      65.5940       0.0328       3.0890       2.8280
   2329.7383       6.1445       0.0365      49.7620      21.0282    -999.2500    -999.2500    2547.1235     788.5330     112.7336       0.0342       3.2688       2.8215
   2329.8909       6.1170       0.0270      50.2750      20.9150    -999.2500    -999.2500    2371.9319     740.1070     159.9600       0.0360       3.4490       2.8150
   2330.0432       6.0925       0.0380      50.7370      20.7658    -999.2500    -999.2500    2328.0476     745.4253     231.2224       0.0384       3.4260       2.7920
   2330.1956       6.0680       0.0490      51.2000      20.6160    -999.2500    -999.2500    2284.0769     750.7540     302.6250       0.0407       3.4030       2.7690
   2330.3479       6.1199       0.0745      51.1411      19.5506    -999.2500    -999.2500    2345.1494     772.8299     281.3848       0.0415       3.3890       2.7760
   2330.5002       6.1720       0.1000      51.0820      18.4830    -999.2500    -999.2500    2406.3501     794.9520     260.1000       0.0420       3.3750       2.7830
   2330.6528       6.1515       0.1345      50.9132      17.7893    -999.2500    -999.2500    2236.6729     751.7155     164.3752       0.0409       3.3625       2.8160
   2330.8052       6.1310       0.1690      50.7440      17.0940    -999.2500    -999.2500    2066.6189     708.3830      68.4380       0.0399       3.3500       2.8490
   2330.9575       6.2159       0.1570      49.8481      17.7847    -999.2500    -999.2500    1794.3340     608.5616      59.5419       0.0415       3.1592       2.8270
   2331.1099       6.3010       0.1450      48.9500      18.4770    -999.2500    -999.2500    1521.4100     508.5060      50.6250       0.0432       2.9680       2.8050
   2331.2625       6.2935       0.1230      49.3495      18.8970    -999.2500    -999.2500    1639.8926     525.5490      54.9077       0.0431       3.0000       2.8120
   2331.4148       6.2860       0.1010      49.7500      19.3180    -999.2500    -999.2500    1758.6680     542.6340      59.2010       0.0429       3.0320       2.8190
   2331.5671       6.2346       0.0715      49.7106      19.3764    -999.2500    -999.2500    2113.8140     624.6869     122.6645       0.0422       3.0575       2.7915
   2331.7195       6.1830       0.0420      49.6710      19.4350    -999.2500    -999.2500    2469.8831     706.9530     186.2930       0.0414       3.0830       2.7640
   2331.8721       6.1795       0.0315      48.8366      19.6547    -999.2500    -999.2500    2571.7124     716.2408     237.0774       0.0409       3.2488       2.7485
   2332.0244       6.1760       0.0210      48.0000      19.8750    -999.2500    -999.2500    2673.8191     725.5540     288.0000       0.0402       3.4150       2.7330
   2332.1768       6.1780       0.0355      47.5756      19.2724    -999.2500    -999.2500    2733.0806     756.7366     225.4327       0.0378       3.2507       2.7400
   2332.3291       6.1800       0.0500      47.1500      18.6680    -999.2500    -999.2500    2792.5110     788.0080     162.6870       0.0355       3.0860       2.7470
   2332.4814       6.1146       0.0660      47.4393      17.9835    -999.2500    -999.2500    2643.8667     753.1633     191.7692       0.0363       2.9802       2.7735
   2332.6340       6.0490       0.0820      47.7290      17.2970    -999.2500    -999.2500    2494.7800     718.2150     220.9380       0.0373       2.8740       2.8000
   2332.7864       6.0645       0.0765      48.2681      19.7687    -999.2500    -999.2500    2081.0359     621.8355     306.3989       0.0388       2.9364       2.8250
   2332.9387       6.0800       0.0710      48.8080      22.2480    -999.2500    -999.2500    1666.0081     525.1570     392.1250       0.0401       2.9990       2.8500
   2333.0911       6.1589       0.0540      49.0038      27.1007    -999.2500    -999.2500    1529.3169     497.6838     321.9629       0.0400       3.0435       2.8330
   2333.2437       6.2380       0.0370      49.2000      31.9690    -999.2500    -999.2500    1392.4041     470.1660     251.6870       0.0396       3.0880       2.8160
   2333.3960       6.1161       0.0455      48.5760      28.9935    -999.2500    -999.2500    1314.5560     453.8088     467.9046       0.0391       3.0975       2.8210
   2333.5483       5.9940       0.0540      47.9510      26.0080    -999.2500    -999.2500    1236.5720     437.4230     684.5000       0.0384       3.1070       2.8260
   2333.7007       6.0649       0.0670      47.6298      26.6319    -999.2500    -999.2500    1209.8181     449.5786     611.7806       0.0367       3.1490       2.8175
   2333.8533       6.1360       0.0800      47.3080      27.2580    -999.2500    -999.2500    1183.0140     461.7570     538.9250       0.0349       3.1910       2.8090
   2334.0056       6.1590       0.0945      46.8794      25.3160    -999.2500    -999.2500    1171.1544     453.5777     333.2620       0.0336       3.2195       2.8110
   2334.1580       6.1820       0.1090      46.4500      23.3670    -999.2500    -999.2500    1159.2710     445.3820     127.1880       0.0324       3.2480       2.8130
   2334.3103       6.0746       0.1130      46.6748      19.6455    -999.2500    -999.2500     980.7838     377.1870      80.9671       0.0328       3.2935       2.8350
   2334.4626       5.9670       0.1170      46.9000      15.9160    -999.2500    -999.2500     801.9170     308.8470      34.6480       0.0333       3.3390       2.8570
   2334.6152       5.9905       0.1115      47.2496      15.7981    -999.2500    -999.2500     781.3227     300.9044      59.4276       0.0341       3.3470       2.8595
   2334.7676       6.0140       0.1060      47.6000      15.6800    -999.2500    -999.2500     760.6820     292.9440      84.2630       0.0349       3.3550       2.8620
   2334.9199       6.0704       0.0995      47.3004      17.4000    -999.2500    -999.2500     973.2008     364.0050      97.2880       0.0346       3.3500       2.8420
   2335.0723       6.1270       0.0930      47.0000      19.1240    -999.2500    -999.2500    1186.2250     435.2350     110.3440       0.0341       3.3450       2.8220
   2335.2249       6.0421       0.0965      47.1748      20.2366    -999.2500    -999.2500    1504.4569     542.5098      62.4904       0.0333       3.2951       2.8335
   2335.3772       5.9570       0.1000      47.3500      21.3520    -999.2500    -999.2500    1823.4850     650.0530      14.5170       0.0324       3.2450       2.8450
   2335.5295       6.0124       0.0875      47.3001      19.9598    -999.2500    -999.2500    2108.5466     738.8263       9.9815       0.0318       3.1466       2.8555
   2335.6819       6.0680       0.0750      47.2500      18.5640    -999.2500    -999.2500    2394.3579     827.8330       5.4340       0.0315       3.0480       2.8660
   2335.8345       6.0380       0.0625      48.2986      17.8764    -999.2500    -999.2500    1665.9119     583.3651      43.3523       0.0345       3.1334       2.8465
   2335.9868       6.0080       0.0500      49.3500      17.1870    -999.2500    -999.2500     935.4600     338.2240      81.3750       0.0376       3.2190       2.8270
   2336.1392       6.0080       0.0395      49.1004      17.2030    -999.2500    -999.2500     935.6113     338.8431      81.0165       0.0377       3.1421       2.8075
   2336.2915       6.0080       0.0290      48.8500      17.2190    -999.2500    -999.2500     935.7630     339.4640      80.6570       0.0375       3.0650       2.7880
   2336.4438       6.0075       0.0290      49.6245      17.3583    -999.2500    -999.2500     937.6072     345.0905      77.7653       0.0362       3.0660       2.7875
   2336.5964       6.0070       0.0290      50.4000      17.4980    -999.2500    -999.2500     939.4570     350.7340      74.8650       0.0349       3.0670       2.7870
