#------------------------------------------------------------------------------
#
#   Created by  : [OpenWorks] Log Export Utility (LEXP)
#   Created on  : 2016-05-23 11:52:02
#   Project     : CANT971
#   User        : R5K
#   Interpreter : PEP
#
#------------------------------------------------------------------------------
~VERSION INFORMATION
VERS. 2.0 : CWLS Log ASCII Standard - version 2.0
WRAP.  NO : One line per depth step
~WELL INFORMATION
#MNEMONIC   .UNIT                                           VALUE :DESCRIPTION
#------------------------------------------------------------------------------
STRT        .M                                           300.3808 :START DEPTH
STOP        .M                                          2575.7129 :STOP DEPTH
STEP        .M                                             0.1524 :STEP
NULL        .                                           -999.2500 :NULL VALUE
COMP        .                                   PEMEX EXPL & PROD :COMPANY
WELL        .                                                  19 :WELL
FLD         .                                           CANTARELL :FIELD
LOC         .                                             UNKNOWN :LOCATION
CNTY        .                                      CD. DEL CARMEN :COUNTY
STAT        .                                            CAMPECHE :STATE
CTRY        .                                              MEXICO :COUNTRY
SRVC        .                                             UNKNOWN :SERVICE COMPANY
DATE        .                                             UNKNOWN :LOG DATE
UWI         .                                          3060000151 :UNIQUE WELL ID
XCOORD      .                                       603362.598000 :SURFACE X
YCOORD      .                                      2145096.350000 :SURFACE Y
LAT         .                                           19.398572 :LATITUDE
LON         .                                          -92.015617 :LONGITUDE
ELEV        .M                                            27.1400 :SURFACE ELEV
ELEV_TYPE   .                                                  KB :ELEV TYPE
~CURVE INFORMATION
#MNEMONIC.UNIT        API CODE       : CURVE DESCRIPTION
#------------------------------------------------------------------------------
DEPTH    .M                          : Measured Depth
CALI     .inches      UNKNOWN        : CALI:Import:rC:NONE:v0 (auto-composite)
DRHO     .g/cm3       UNKNOWN        : DRHO:Import:rC:NONE:v0 (auto-composite)
DT       .us/ft       UNKNOWN        : DT:Import:rC:NONE:v0 (auto-composite)
GR       .API         UNKNOWN        : GR:Import:rC:NONE:v0 (auto-composite)
ILD      .ohm.m       UNKNOWN        : ILD:Import:rC:NONE:v0 (auto-composite)
LLD      .ohm.m       UNKNOWN        : LLD:Import:rC:NONE:v0 (auto-composite)
LLS      .ohm.m       UNKNOWN        : LLS:Import:rC:NONE:v0 (auto-composite)
NPHI     .v/v_decimal UNKNOWN        : NPHI:Import:rC:NONE:v0 (auto-composite)
RHOB     .g/cm3       UNKNOWN        : RHOB:RHOB-Load:rC:NONE:v0 (auto-composite)
~A     DEPTH         CALI         DRHO           DT           GR          ILD          LLD          LLS         NPHI         RHOB
# ...
   2407.4631       5.5101       0.0400      48.3895      41.6973       0.0010      17.3884      59.9427       0.0667       2.4529
   2407.6155       5.5480       0.0390      53.1050      38.1860       0.0010       9.0210      29.1510       0.0689       2.3980
   2407.7681       5.6121       0.0355      52.1918      35.6571       0.0010      11.5233      19.3646       0.0853       2.4175
   2407.9204       5.6760       0.0320      51.2810      33.1390       0.0010      14.0190       9.6040       0.1034       2.4370
   2408.0728       5.7181       0.0410      47.1944      33.7027       0.0010      50.4324      11.7031       0.1298       2.5066
   2408.2251       5.7600       0.0500      43.1180      34.2640       0.0010      86.7540      13.7970       0.1557       2.5760
   2408.3777       5.7690       0.0495      43.9094      37.1122       0.0010      81.6038      27.9750       0.1663       2.6531
   2408.5300       5.7780       0.0490      44.6990      39.9490       0.0010      76.4660      42.1190       0.1741       2.7300
   2408.6824       5.7780       0.0420      49.3318      39.8408       0.0010      51.8696      76.6743       0.1590       2.7155
   2408.8347       5.7780       0.0350      53.9540      39.7330       0.0010      27.3290     111.0960       0.1419       2.7010
   2408.9873       5.7675       0.0150      53.9049      38.8358       0.0010      28.1203     102.9613       0.1221       2.7030
   2409.1396       5.7570      -0.0050      53.8560      37.9420       0.0010      28.9100      94.8570       0.1031       2.7050
   2409.2920       5.7014      -0.0035      52.7294      36.3581       0.0010      33.1102      62.7549       0.0977       2.7115
   2409.4443       5.6460      -0.0020      51.6050      34.7800       0.0010      37.3020      30.7690       0.0940       2.7180
   2409.5967       5.5203       0.0070      48.8409      34.3808       0.0010      46.9536      34.4870       0.0979       2.7260
   2409.7493       5.3950       0.0160      46.0820      33.9830       0.0010      56.5870      38.1920       0.1017       2.7340
   2409.9016       5.3950       0.0150      48.0482      32.3873       0.0010      71.4681      50.8663       0.0982       2.7455
   2410.0540       5.3950       0.0140      50.0110      30.7970       0.0010      86.2990      63.4980       0.0940       2.7570
   2410.2063       5.4050       0.0115      49.4946      27.8547       0.0010      83.5310      67.8395       0.0895       2.7700
   2410.3589       5.4150       0.0090      48.9790      24.9220       0.0010      80.7720      72.1670       0.0853       2.7830
   2410.5112       5.4581       0.0070      47.2752      26.5696       0.0010      89.7710     125.0259       0.0835       2.7810
   2410.6636       5.5010       0.0050      45.5740      28.2120       0.0010      98.7420     177.7200       0.0818       2.7790
   2410.8159       5.5706       0.0030      44.1220      36.3251       0.0010     129.7774     174.8207       0.0799       2.7800
   2410.9685       5.6400       0.0010      42.6720      44.4140       0.0010     160.7200     171.9300       0.0778       2.7810
   2411.1208       5.6996       0.0020      43.4136      60.1506       0.0010     201.1604     160.3669       0.0740       2.7860
   2411.2732       5.7590       0.0030      44.1530      75.8420       0.0010     241.4850     148.8370       0.0700       2.7910
   2411.4255       5.7685       0.0020      47.6368     102.0303       0.0010     710.6448     177.6189       0.0640       2.7830
   2411.5779       5.7780       0.0010      51.1110     128.1050       0.0010    1178.5200     206.3220       0.0580       2.7750
   2411.7305       5.7780       0.0040      60.1608     126.8018       0.0010    1136.7859     392.8810       0.0530       2.7394
   2411.8828       5.7780       0.0070      69.1870     125.5040       0.0010    1095.1610     578.9520       0.0484       2.7040
   2412.0352       5.7780       0.0055      64.5392     116.1784       0.0010     850.1077     497.8566       0.0459       2.6494
   2412.1875       5.7780       0.0040      59.9030     106.8910       0.0010     605.6640     416.9630       0.0444       2.5950
   2412.3401       5.7519       0.0185      60.2044      87.6875       0.0010     358.0177     259.1259       0.0530       2.5454
   2412.4924       5.7260       0.0330      60.5050      68.5600       0.0010     110.9570     101.6620       0.0629       2.4960
   2412.6448       5.7270       0.0305      65.2909      55.0446       0.0010      58.4367      58.0629       0.0788       2.4604
   2412.7971       5.7280       0.0280      70.0660      41.5810       0.0010       6.0340      14.6310       0.0951       2.4250
   2412.9497       5.7375       0.0035      87.2251      34.9202       0.0010       6.1041       9.4679       0.1125       2.4445
   2413.1021       5.7470      -0.0210     104.3480      28.2840       0.0010       6.1740       4.3240       0.1301       2.4640
   2413.2544       5.7625      -0.0150     100.5132      29.2297       0.0010       8.1179       4.4207       0.1498       2.5292
   2413.4067       5.7780      -0.0090      96.6860      30.1720       0.0010      10.0580       4.5170       0.1690       2.5940
   2413.5591       5.7780      -0.0115      84.6338      32.6939       0.0010      25.3407       6.0441       0.1819       2.6677
   2413.7117       5.7780      -0.0140      72.6040      35.2070       0.0010      40.5950       7.5660       0.1928       2.7410
   2413.8640       5.7780      -0.0135      61.0645      34.1743       0.0010     152.0469      18.4932       0.1920       2.7400
   2414.0164       5.7780      -0.0130      49.5450      33.1450       0.0010     263.1270      29.3840       0.1877       2.7390
   2414.1687       5.7665      -0.0095      50.0714      29.2422       0.0010     250.8919      96.3114       0.1623       2.7315
   2414.3213       5.7550      -0.0060      50.5970      25.3520       0.0010     238.6960     163.0240       0.1351       2.7240
   2414.4736       5.7109       0.0125      54.0866      26.3676       0.0010     173.9781     162.3715       0.1104       2.6959
   2414.6260       5.6670       0.0310      57.5710      27.3800       0.0010     109.4600     161.7210       0.0878       2.6680
   2414.7783       5.6730       0.0305      74.5025      32.9663       0.0010     112.8165     150.4669       0.0823       2.6680
   2414.9309       5.6790       0.0300      91.4110      38.5360       0.0010     116.1630     139.2460       0.0797       2.6680
   2415.0833       5.7236       0.0270      90.8828      37.6843       0.0010     113.0776     118.9673       0.0875       2.6725
   2415.2356       5.7680       0.0240      90.3560      36.8350       0.0010     110.0010      98.7460       0.0962       2.6770
   2415.3879       5.7580       0.0165      84.8751      29.1264       0.0010      79.5628      85.6873       0.1041       2.6915
   2415.5403       5.7480       0.0090      79.4090      21.4510       0.0010      49.2070      72.6640       0.1110       2.7060
   2415.6929       5.7059       0.0030      69.1067      22.6039       0.0010      50.1462      52.5265       0.1092       2.7185
   2415.8452       5.6640      -0.0030      58.8310      23.7520       0.0010      51.0830      32.4410       0.1065       2.7310
   2415.9976       5.5653      -0.0100      55.2942      28.2351       0.0010      89.9863      38.7553       0.1038       2.7250
   2416.1499       5.4670      -0.0170      51.7660      32.7000       0.0010     128.7940      45.0540       0.1013       2.7190
   2416.3025       5.5261      -0.0155      48.4096      38.2644       0.0010     124.5901      96.5476       0.1001       2.7000
   2416.4548       5.5850      -0.0140      45.0610      43.8070       0.0010     120.3960     147.9210       0.0990       2.6810
   2416.6072       5.5825      -0.0045      46.9491      42.2826       0.0010      94.6306     129.6928       0.0976       2.6559
   2416.7595       5.5800       0.0050      48.8330      40.7640       0.0010      68.9220     111.5340       0.0962       2.6310
