#------------------------------------------------------------------------------
#
#   Created by  : [OpenWorks] Log Export Utility (LEXP)
#   Created on  : 2016-05-23 11:52:02
#   Project     : CANT971
#   User        : R5K
#   Interpreter : PEP
#
#------------------------------------------------------------------------------
~VERSION INFORMATION
VERS. 2.0 : CWLS Log ASCII Standard - version 2.0
WRAP.  NO : One line per depth step
~WELL INFORMATION
#MNEMONIC   .UNIT                                           VALUE :DESCRIPTION
#------------------------------------------------------------------------------
STRT        .M                                           300.3808 :START DEPTH
STOP        .M                                          2575.7129 :STOP DEPTH
STEP        .M                                             0.1524 :STEP
NULL        .                                           -999.2500 :NULL VALUE
COMP        .                                   PEMEX EXPL & PROD :COMPANY
WELL        .                                                  19 :WELL
FLD         .                                           CANTARELL :FIELD
LOC         .                                             UNKNOWN :LOCATION
CNTY        .                                      CD. DEL CARMEN :COUNTY
STAT        .                                            CAMPECHE :STATE
CTRY        .                                              MEXICO :COUNTRY
SRVC        .                                             UNKNOWN :SERVICE COMPANY
DATE        .                                             UNKNOWN :LOG DATE
UWI         .                                          3060000151 :UNIQUE WELL ID
XCOORD      .                                       603362.598000 :SURFACE X
YCOORD      .                                      2145096.350000 :SURFACE Y
LAT         .                                           19.398572 :LATITUDE
LON         .                                          -92.015617 :LONGITUDE
ELEV        .M                                            27.1400 :SURFACE ELEV
ELEV_TYPE   .                                                  KB :ELEV TYPE
~CURVE INFORMATION
#MNEMONIC.UNIT        API CODE       : CURVE DESCRIPTION
#------------------------------------------------------------------------------
DEPTH    .M                          : Measured Depth
CALI     .inches      UNKNOWN        : CALI:Import:rC:NONE:v0 (auto-composite)
DRHO     .g/cm3       UNKNOWN        : DRHO:Import:rC:NONE:v0 (auto-composite)
DT       .us/ft       UNKNOWN        : DT:Import:rC:NONE:v0 (auto-composite)
GR       .API         UNKNOWN        : GR:Import:rC:NONE:v0 (auto-composite)
ILD      .ohm.m       UNKNOWN        : ILD:Import:rC:NONE:v0 (auto-composite)
LLD      .ohm.m       UNKNOWN        : LLD:Import:rC:NONE:v0 (auto-composite)
LLS      .ohm.m       UNKNOWN        : LLS:Import:rC:NONE:v0 (auto-composite)
NPHI     .v/v_decimal UNKNOWN        : NPHI:Import:rC:NONE:v0 (auto-composite)
RHOB     .g/cm3       UNKNOWN        : RHOB:RHOB-Load:rC:NONE:v0 (auto-composite)
~A     DEPTH         CALI         DRHO           DT           GR          ILD          LLD          LLS         NPHI         RHOB
# ...
   2227.9360       5.8890       0.0075      51.3388      28.4144       0.0010     239.3722     177.0835       0.0640       2.7595
   2228.0884       5.8890       0.0220      51.1840      30.4950       0.0010     230.0560     139.8210       0.0637       2.7690
   2228.2407       5.8890       0.0145      50.7098      33.3775       0.0010     198.7887     142.2710       0.0643       2.7655
   2228.3933       5.8890       0.0070      50.2370      36.2470       0.0010     167.6130     144.7100       0.0654       2.7620
   2228.5457       5.8890       0.0165      49.5130      38.5000       0.0010     191.8940     210.7445       0.0671       2.7485
   2228.6980       5.8890       0.0260      48.7910      40.7430       0.0010     216.1070     276.3830       0.0693       2.7350
   2228.8503       5.8890       0.0220      48.8230      42.0408       0.0010     279.4253     272.2203       0.0722       2.7405
   2229.0027       5.8890       0.0180      48.8550      43.3330       0.0010     342.5740     268.0820       0.0746       2.7460
   2229.1553       5.8890       0.0195      49.3141      43.1536       0.0010     342.2566     268.6451       0.0749       2.7630
   2229.3076       5.8890       0.0210      49.7720      42.9750       0.0010     341.9400     269.2050       0.0737       2.7800
   2229.4600       5.8890       0.0185      49.4884      41.7550       0.0010     359.6250     273.6149       0.0701       2.7775
   2229.6123       5.8890       0.0160      49.2060      40.5400       0.0010     377.2670     278.0000       0.0661       2.7750
   2229.7649       5.8890       0.0040      48.6755      37.7886       0.0010     365.5405     282.0837       0.0630       2.7815
   2229.9172       5.8890      -0.0080      48.1470      35.0480       0.0010     353.8410     286.1450       0.0609       2.7880
   2230.0696       5.8890      -0.0060      48.7647      31.7768       0.0010     382.7426     299.7711       0.0604       2.8065
   2230.2219       5.8890      -0.0040      49.3800      28.5180       0.0010     411.5350     313.3240       0.0612       2.8250
   2230.3745       5.8574       0.0150      50.1729      25.9849       0.0010     494.3360     373.4402       0.0641       2.8180
   2230.5269       5.8260       0.0340      50.9630      23.4610       0.0010     576.8350     433.2410       0.0681       2.8110
   2230.6792       5.7479       0.0340      50.6565      23.8462       0.0010     539.7141     505.0327       0.0724       2.7980
   2230.8315       5.6700       0.0340      50.3510      24.2300       0.0010     502.7240     576.4570       0.0761       2.7850
   2230.9839       5.6760       0.0200      49.4299      25.6295       0.0010     409.1030     526.3964       0.0774       2.7780
   2231.1365       5.6820       0.0060      48.5120      27.0220       0.0010     315.8000     476.5860       0.0777       2.7710
   2231.2888       5.7306       0.0070      48.9773      29.4820       0.0010     347.7047     404.8990       0.0773       2.7625
   2231.4412       5.7790       0.0080      49.4410      31.9300       0.0010     379.5050     333.5610       0.0770       2.7540
   2231.5935       5.8276       0.0065      52.2509      34.1929       0.0010     485.5033     363.2925       0.0776       2.7425
   2231.7461       5.8760       0.0050      55.0520      36.4450       0.0010     591.1680     392.8830       0.0797       2.7310
   2231.8984       5.8825       0.0015      54.5593      37.6513       0.0010     846.3569     469.6111       0.0855       2.7400
   2232.0508       5.8890      -0.0020      54.0680      38.8520       0.0010    1100.7740     545.9850       0.0909       2.7490
   2232.2031       5.8890       0.0045      51.9625      38.6014       0.0010    1098.3835     694.7198       0.0917       2.7610
   2232.3557       5.8890       0.0110      49.8630      38.3520       0.0010    1096.0000     842.7860       0.0896       2.7730
   2232.5081       5.8890       0.0195      50.5319      36.6939       0.0010     970.2972     762.1931       0.0836       2.7640
   2232.6604       5.8890       0.0280      51.1990      35.0430       0.0010     844.9430     682.0810       0.0781       2.7550
   2232.8127       5.8890       0.0270      49.9614      30.6131       0.0010     646.7062     565.8323       0.0776       2.7440
   2232.9651       5.8890       0.0260      48.7290      26.2020       0.0010     448.9940     450.2620       0.0783       2.7330
   2233.1177       5.8890       0.0200      48.9114      26.5302       0.0010     451.2398     404.7254       0.0773       2.7285
   2233.2700       5.8890       0.0140      49.0930      26.8570       0.0010     453.4800     359.4490       0.0758       2.7240
   2233.4224       5.8890       0.0020      51.0950      28.6110       0.0010     460.4058     348.4964       0.0744       2.7165
   2233.5747       5.8890      -0.0100      53.0890      30.3580       0.0010     467.3150     337.6050       0.0738       2.7090
   2233.7273       5.8890      -0.0010      52.5019      36.8881       0.0010     529.3685     350.7800       0.0748       2.7095
   2233.8796       5.8890       0.0080      51.9170      43.3930       0.0010     591.2810     363.8830       0.0755       2.7100
   2234.0320       5.8890       0.0055      50.2288      53.9718       0.0010     565.7762     404.0632       0.0740       2.7190
   2234.1843       5.8890       0.0030      48.5470      64.5110       0.0010     540.3670     444.0290       0.0705       2.7280
   2234.3369       5.8890       0.0040      48.7143      73.2112       0.0010     460.2216     412.7845       0.0645       2.7370
   2234.4893       5.8890       0.0050      48.8810      81.8800       0.0010     380.3660     381.7030       0.0588       2.7460
   2234.6416       5.8890       0.0145      51.2702      79.7077       0.0010     305.2628     292.0505       0.0560       2.7500
   2234.7939       5.8890       0.0240      53.6510      77.5430       0.0010     230.4220     202.8540       0.0564       2.7540
   2234.9463       5.8890       0.0225      53.2423      71.5506       0.0010     262.5546     216.6673       0.0617       2.7505
   2235.0989       5.8890       0.0210      52.8350      65.5880       0.0010     294.5790     230.4120       0.0682       2.7470
   2235.2512       5.8890       0.0165      51.4307      59.8511       0.0010     343.4908     280.1558       0.0727       2.7335
   2235.4036       5.8890       0.0120      50.0310      54.1420       0.0010     392.2440     329.6590       0.0742       2.7200
   2235.5559       5.8890       0.0060      50.6404      52.1769       0.0010     433.5889     440.4853       0.0706       2.6995
   2235.7085       5.8890       0.0000      51.2480      50.2210       0.0010     474.8050     550.7890       0.0679       2.6790
   2235.8608       5.8890       0.0010      52.5334      53.4018       0.0010     716.1908     771.2947       0.0727       2.6540
   2236.0132       5.8890       0.0020      53.8150      56.5680       0.0010     956.8540     990.7890       0.0814       2.6290
   2236.1655       5.8890       0.0005      53.3804      61.4253       0.0010    1672.2236     954.2139       0.0925       2.6395
   2236.3181       5.8890      -0.0010      52.9470      66.2610       0.0010    2385.5430     917.8020       0.1030       2.6500
   2236.4705       5.9371      -0.0030      51.3463      68.1346       0.0010    1545.4537     764.2619       0.1100       2.6445
   2236.6228       5.9850      -0.0050      49.7500      70.0000       0.0010     707.6690     611.6330       0.1142       2.6390
   2236.7751       5.9615       0.0000      50.8799      68.5845       0.0010     727.6967     503.2304       0.1151       2.6400
   2236.9275       5.9380       0.0050      52.0050      67.1750       0.0010     747.6720     395.4570       0.1139       2.6410
   2237.0801       5.9134       0.0255      51.9920      60.4242       0.0010    1029.1708     476.8564       0.1110       2.6575
   2237.2324       5.8890       0.0460      51.9790      53.7010       0.0010    1309.9680     557.7930       0.1091       2.6740
