#------------------------------------------------------------------------------
#
#   Created by  : [OpenWorks] Log Export Utility (LEXP)
#   Created on  : 2016-05-23 11:57:21
#   Project     : CANT971
#   User        : R5K
#   Interpreter : PEP
#
#------------------------------------------------------------------------------
~VERSION INFORMATION
VERS. 2.0 : CWLS Log ASCII Standard - version 2.0
WRAP.  NO : One line per depth step
~WELL INFORMATION
#MNEMONIC   .UNIT                                           VALUE :DESCRIPTION
#------------------------------------------------------------------------------
STRT        .M                                           117.7290 :START DEPTH
STOP        .M                                          2309.5459 :STOP DEPTH
STEP        .M                                             0.1524 :STEP
NULL        .                                           -999.2500 :NULL VALUE
COMP        .                                   PEMEX EXPL & PROD :COMPANY
WELL        .                                                  7A :WELL
FLD         .                                           CANTARELL :FIELD
LOC         .                                             UNKNOWN :LOCATION
CNTY        .                                      CD. DEL CARMEN :COUNTY
STAT        .                                            CAMPECHE :STATE
CTRY        .                                              MEXICO :COUNTRY
SRVC        .                                             UNKNOWN :SERVICE COMPANY
DATE        .                                             UNKNOWN :LOG DATE
UWI         .                                          3060000143 :UNIQUE WELL ID
XCOORD      .                                       603360.310000 :SURFACE X
YCOORD      .                                      2145096.320000 :SURFACE Y
LAT         .                                           19.398572 :LATITUDE
LON         .                                          -92.015639 :LONGITUDE
ELEV        .M                                            27.1400 :SURFACE ELEV
ELEV_TYPE   .                                                  KB :ELEV TYPE
~CURVE INFORMATION
#MNEMONIC.UNIT        API CODE       : CURVE DESCRIPTION
#------------------------------------------------------------------------------
DEPTH    .M                          : Measured Depth
CALI     .in          UNKNOWN        : CALI:resistivos:rC:NONE:v0 (auto-composite)
DRHO     .g/cm3       UNKNOWN        : DRHO:PETROWORKS:rC:NONE:v2 
DT       .us/ft       UNKNOWN        : DT:DT:rC:NONE:v0 (auto-composite)
GR       .API         UNKNOWN        : GR:UNKNOWN:rC:NONE:v0 (auto-composite)
ILD      .ohmm        UNKNOWN        : ILD:resistivos:rC:NONE:v0 (auto-composite)
LLD      .ohm.m       UNKNOWN        : LLD:UNKNOWN:rC:NONE:v0 (auto-composite)
LLS      .ohm.m       UNKNOWN        : LLS:UNKNOWN:rC:NONE:v0 (auto-composite)
MSFL     .ohm.m       UNKNOWN        : MSFL:UNKNOWN:rC:NONE:v0 (auto-composite)
NPHI     .v/v_decimal     UNKNOWN        : NPHI:PETROWORKS:rC:NONE:v1 
RHOB     .g/cm3       UNKNOWN        : RHOB:UNKNOWN:rC:NONE:v0 (auto-composite)
SN       .ohm.m       UNKNOWN        : SN:UNKNOWN:rC:NONE:v0 (auto-composite)
~A     DEPTH         CALI         DRHO           DT           GR          ILD          LLD          LLS         MSFL         NPHI         RHOB           SN
# ...
   1980.0570       6.9443       0.0768      58.0746      23.0220    -999.2500     685.4920     481.0670     252.1023       0.0632       2.8015    -999.2500
   1980.2094       6.8333       0.0783      55.0172      23.0220    -999.2500     525.0056     476.2815     139.6290       0.0709       2.7945    -999.2500
   1980.3618       6.7780       0.0792      53.5030      23.0551    -999.2500     430.5298     462.9865      63.3448       0.0787       2.7868    -999.2500
   1980.5142       6.7780       0.0797      53.5190      23.1215    -999.2500     402.7733     441.0904      23.6385       0.0845       2.7783    -999.2500
   1980.6666       6.7780       0.0795      55.9359      26.7652    -999.2500     370.9270     409.4597       3.6472       0.0903       2.7678    -999.2500
   1980.8190       6.7780       0.0787      60.7337      34.0369    -999.2500     334.9326     367.9557       3.6518       0.0891       2.7552    -999.2500
   1980.9714       6.7783       0.0774      61.2322      46.0050    -999.2500     317.1376     332.1621       4.2412       0.0877       2.7242    -999.2500
   1981.1238       6.7788       0.0756      57.4659      62.6469    -999.2500     317.4539     302.0511       5.4127       0.0849       2.6747    -999.2500
   1981.2762       6.8772       0.0733      55.6015      70.9283    -999.2500     346.6707     287.1515      18.8310       0.0820       2.6500    -999.2500
   1981.4286       7.0732       0.0707      55.6245      70.8608    -999.2500     404.7478     287.4423      44.4791       0.0841       2.6500    -999.2500
   1981.5811       7.1705       0.0690      58.0452      66.6396    -999.2500     539.4340     312.4323      84.4031       0.0865       2.6659    -999.2500
   1981.7334       7.1695       0.0678      62.8456      58.2426    -999.2500     751.1343     362.2523     138.6784       0.0826       2.6979    -999.2500
   1981.8859       7.1139       0.0679      65.2154      48.9767    -999.2500     857.0556     387.2042     175.3236       0.0783       2.7073    -999.2500
   1982.0382       7.0039       0.0688      65.1724      38.8316    -999.2500     855.9281     386.9893     194.1270       0.0674       2.6938    -999.2500
   1982.1906       6.9062       0.0697      62.4983      33.7506    -999.2500     807.3280     376.6453     203.5132       0.0561       2.6870    -999.2500
   1982.3430       6.8207       0.0706      57.2114      33.8123    -999.2500     710.5192     356.0151     203.3362       0.0577       2.6870    -999.2500
   1982.4954       6.7788       0.0708      54.5818      37.5369    -999.2500     575.7331     308.1085     195.9479       0.0599       2.6975    -999.2500
   1982.6478       6.7803       0.0704      54.5913      44.8998    -999.2500     403.2267     233.1099     181.3970       0.0675       2.7185    -999.2500
   1982.8002       6.8358       0.0692      56.2234      48.5188    -999.2500     316.9790     170.7703     148.1012       0.0755       2.7290    -999.2500
   1982.9526       6.9453       0.0676      59.4676      48.3944    -999.2500     316.9790     121.0882      96.0631       0.0838       2.7290    -999.2500
   1983.1050       7.0005       0.0660      61.0820      41.3858    -999.2500     316.9132      96.1737      79.6874       0.0922       2.7148    -999.2500
   1983.2574       7.0015       0.0645      61.0820      27.4478    -999.2500     316.7813      96.1892      99.2080       0.0982       2.6863    -999.2500
   1983.4098       7.0316       0.0639      60.7053      20.4619    -999.2500     312.5355      99.9152     108.8691       0.1040       2.6772    -999.2500
   1983.5623       7.0906       0.0640      59.9553      20.4979    -999.2500     304.1345     107.3890     108.5719       0.1051       2.6877    -999.2500
   1983.7146       7.1456       0.0653      59.5840      24.4532    -999.2500     291.0702     110.9944     100.9657       0.1059       2.6928    -999.2500
   1983.8669       7.1966       0.0673      59.5880      32.3937    -999.2500     273.2643     110.6665      85.9280       0.1107       2.6923    -999.2500
   1984.0194       7.2207       0.0692      60.5916      36.3375    -999.2500     253.8176     102.9166      74.2757       0.1158       2.6812    -999.2500
   1984.1718       7.2182       0.0709      62.5860      36.3065    -999.2500     232.7392      87.7857      65.9901       0.1261       2.6597    -999.2500
   1984.3242       7.1461       0.0719      63.0131      34.3889    -999.2500     212.2954      73.2749      58.8650       0.1366       2.6060    -999.2500
   1984.4766       7.0046       0.0725      61.8862      30.5825    -999.2500     192.4869      59.3849      52.9015       0.1428       2.5201    -999.2500
   1984.6290       6.9348       0.0726      61.3310      28.7211    -999.2500     182.8910      54.1571      39.7119       0.1488       2.4777    -999.2500
   1984.7814       6.9363       0.0724      61.3430      28.8135    -999.2500     183.5544      57.6312      19.2630       0.1505       2.4792    -999.2500
   1984.9338       7.0039       0.0716      61.6427      32.8308    -999.2500     244.7903      56.5445       9.0789       0.1519       2.5111    -999.2500
   1985.0862       7.1374       0.0705      62.2276      40.8174    -999.2500     367.2834      50.8455       9.2758       0.1468       2.5735    -999.2500
   1985.2386       7.2035       0.0692      64.2095      43.9594    -999.2500     427.8484      48.0536      20.3905       0.1413       2.6321    -999.2500
   1985.3910       7.2025       0.0678      67.5773      42.1852    -999.2500     425.5685      48.2120      42.5847       0.1280       2.6867    -999.2500
   1985.5435       7.1767       0.0666      69.0776      41.5534    -999.2500     387.8507      53.0834      60.5437       0.1142       2.7135    -999.2500
   1985.6958       7.1262       0.0656      68.7241      42.0592    -999.2500     314.8463      62.6478      74.2858       0.1139       2.7125    -999.2500
   1985.8481       7.0341       0.0645      68.6474      40.4915    -999.2500     255.8265      67.2526      74.0935       0.1145       2.6715    -999.2500
   1986.0006       6.9006       0.0633      68.8453      36.8520    -999.2500     210.7800      66.9019      59.9782       0.1180       2.5906    -999.2500
   1986.1530       6.8348       0.0622      72.5359      35.0723    -999.2500     163.6231      57.5820      52.9625       0.1218       2.5500    -999.2500
   1986.3054       6.8363       0.0611      79.6946      35.1633    -999.2500     114.3434      39.2404      53.0880       0.1304       2.5500    -999.2500
   1986.4578       6.8638       0.0607      93.1777      40.8343    -999.2500      89.7394      30.0481      55.4899       0.1394       2.5512    -999.2500
   1986.6102       6.9173       0.0607     112.9426      52.1374    -999.2500      90.0417      30.0906      60.1895       0.1475       2.5537    -999.2500
   1986.7626       7.0099       0.0611     122.5928      57.8017    -999.2500      95.9948      32.8190      66.4481       0.1555       2.5826    -999.2500
   1986.9150       7.1414       0.0618     122.1936      57.7365    -999.2500     107.6897      38.2767      74.2908       0.1511       2.6383    -999.2500
   1987.0674       7.2867       0.0625     114.2574      56.5589    -999.2500     135.5859      39.6289      67.2363       0.1458       2.6833    -999.2500
   1987.2198       7.4457       0.0633      98.8549      54.2758    -999.2500     179.5828      36.9012      45.3770       0.1334       2.7178    -999.2500
   1987.3722       7.5240       0.0641      92.3867      48.3691    -999.2500     215.7578      35.6969      34.7301       0.1206       2.7348    -999.2500
   1987.5247       7.5220       0.0648      94.7711      38.8372    -999.2500     244.1075      36.0168      35.3003       0.1214       2.7343    -999.2500
   1987.6770       7.4897       0.0654      95.9206      32.6963    -999.2500     253.3154      42.0793      50.6361       0.1231       2.7255    -999.2500
   1987.8293       7.4272       0.0659      95.8461      29.9596    -999.2500     243.3067      53.9070      80.7950       0.1272       2.7085    -999.2500
