#------------------------------------------------------------------------------
#
#   Created by  : [OpenWorks] Log Export Utility (LEXP)
#   Created on  : 2016-05-11 12:45:47
#   Project     : CANT971
#   User        : R5K
#   Interpreter : PEP
#
#------------------------------------------------------------------------------
~VERSION INFORMATION
VERS. 2.0 : CWLS Log ASCII Standard - version 2.0
WRAP.  NO : One line per depth step
~WELL INFORMATION
#MNEMONIC   .UNIT                                           VALUE :DESCRIPTION
#------------------------------------------------------------------------------
STRT        .M                                           801.4664 :START DEPTH
STOP        .M                                          3402.1724 :STOP DEPTH
STEP        .M                                             0.1524 :STEP
NULL        .                                           -999.2500 :NULL VALUE
COMP        .                                   PEMEX EXPL & PROD :COMPANY
WELL        .                                        CANTARELL-85 :WELL
FLD         .                                           CANTARELL :FIELD
LOC         .                                             UNKNOWN :LOCATION
CNTY        .                                      CD. DEL CARMEN :COUNTY
STAT        .                                            CAMPECHE :STATE
CTRY        .                                              MEXICO :COUNTRY
SRVC        .                                             UNKNOWN :SERVICE COMPANY
DATE        .                                             UNKNOWN :LOG DATE
UWI         .                                          3060000185 :UNIQUE WELL ID
XCOORD      .                                       604541.690000 :SURFACE X
YCOORD      .                                      2141649.620000 :SURFACE Y
LAT         .                                           19.367365 :LATITUDE
LON         .                                          -92.004578 :LONGITUDE
ELEV        .M                                            30.0000 :SURFACE ELEV
ELEV_TYPE   .                                                  KB :ELEV TYPE
~CURVE INFORMATION
#MNEMONIC.UNIT        API CODE       : CURVE DESCRIPTION
#------------------------------------------------------------------------------
DEPTH    .M                          : Measured Depth
CALI     .inches      UNKNOWN        : CALI:Import:rC:NONE:v0 (auto-composite)
DRHO     .g/cm3       UNKNOWN        : DRHO:Import:rC:NONE:v0 (auto-composite)
DT       .us/ft       UNKNOWN        : DT:Import:rC:NONE:v0 (auto-composite)
GR       .API         UNKNOWN        : GR:Import:rC:NONE:v0 (auto-composite)
ILD      .ohm.m       UNKNOWN        : ILD:Import:rC:NONE:v0 (auto-composite)
ILM      .ohm.m       UNKNOWN        : ILM:Import:rC:NONE:v0 (auto-composite)
NPHI     .v/v_decimal UNKNOWN        : NPHI:Import:rC:NONE:v0 (auto-composite)
RHOB     .g/cm3       UNKNOWN        : RHOB:Import:rC:NONE:v0 (auto-composite)
SN       .ohm.m       UNKNOWN        : SN:Import:rC:NONE:v0 (auto-composite)
SP       .mV          UNKNOWN        : SP:Import:rC:NONE:v0 (auto-composite)
~A     DEPTH         CALI         DRHO           DT           GR          ILD          ILM         NPHI         RHOB           SN           SP
# ...
   1219.6520    -999.2500    -999.2500    -999.2500      38.5829       0.9865       1.0509    -999.2500       2.3200       0.8800      -2.7958
   1219.8043    -999.2500    -999.2500    -999.2500      39.7299       1.0035       1.0724    -999.2500       2.3200       0.8800       5.2802
   1219.9568    -999.2500    -999.2500    -999.2500      41.5901       1.0064       1.0871    -999.2500       2.3215       0.8800       2.6900
   1220.1091    -999.2500    -999.2500    -999.2500      43.4720       1.0089       1.1015    -999.2500       2.3230       0.8800      -0.2266
   1220.2616    -999.2500    -999.2500    -999.2500      42.1092       1.0080       1.0826    -999.2500       2.3264       0.8800      -4.4717
   1220.4139    -999.2500    -999.2500    -999.2500      40.6413       1.0070       1.0626    -999.2500       2.3299       0.8800      -8.7598
   1220.5664    -999.2500    -999.2500    -999.2500      42.4221       0.9852       1.0528    -999.2500       2.3300       0.8800     -12.1920
   1220.7188    -999.2500    -999.2500    -999.2500      44.3110       0.9628       1.0433    -999.2500       2.3300       0.8800     -15.5957
   1220.8712    -999.2500    -999.2500    -999.2500      45.1471       0.9509       1.0285    -999.2500       2.3252       0.9139      -3.1166
   1221.0236    -999.2500    -999.2500    -999.2500      45.9464       0.9393       1.0134    -999.2500       2.3202       0.9489       9.9196
   1221.1760    -999.2500    -999.2500    -999.2500      43.6933       0.9351       1.0062    -999.2500       2.3229       1.0241       5.6794
   1221.3284    -999.2500    -999.2500    -999.2500      41.3513       0.9311       0.9992    -999.2500       2.3259       1.1006       0.9353
   1221.4807    -999.2500    -999.2500    -999.2500      41.7289       0.9208       0.9966    -999.2500       2.3328       1.1064      -3.3112
   1221.6332    -999.2500    -999.2500    -999.2500      42.1907       0.9103       0.9941    -999.2500       2.3398       1.1099      -7.5424
   1221.7855    -999.2500    -999.2500    -999.2500      43.5432       0.8945       0.9843    -999.2500       2.3429       1.1100     -19.5481
   1221.9380    -999.2500    -999.2500    -999.2500      44.9241       0.8785       0.9743    -999.2500       2.3459       1.1100     -31.8014
   1222.0903    -999.2500    -999.2500    -999.2500      41.4093       0.8770       0.9653    -999.2500       2.3571       1.1100     -41.3567
   1222.2428    -999.2500    -999.2500    -999.2500      37.7298       0.8760       0.9563    -999.2500       2.3686       1.1100     -50.8213
   1222.3951    -999.2500    -999.2500    -999.2500      35.9653       0.8867       0.9700    -999.2500       2.3937       1.1100     -55.3119
   1222.5476    -999.2500    -999.2500    -999.2500      34.2686       0.8977       0.9846    -999.2500       2.4192       1.1100     -59.6264
   1222.7000    -999.2500    -999.2500    -999.2500      33.2490       0.9339       1.0073    -999.2500       2.4171       1.1100     -52.0463
   1222.8524    -999.2500    -999.2500    -999.2500      32.2493       0.9709       1.0303    -999.2500       2.4141       1.1100     -44.1154
   1223.0048    -999.2500    -999.2500    -999.2500      36.2322       0.9841       1.0538    -999.2500       2.3878       1.1100     -57.4607
   1223.1572    -999.2500    -999.2500    -999.2500      40.3709       0.9966       1.0773    -999.2500       2.3608       1.1100     -71.4711
   1223.3096    -999.2500    -999.2500    -999.2500      37.0210       0.9709       1.0582    -999.2500       2.3600       1.1100     -73.7675
   1223.4619    -999.2500    -999.2500    -999.2500      33.4300       0.9439       1.0377    -999.2500       2.3600       1.1100     -75.6870
   1223.6144    -999.2500    -999.2500    -999.2500      36.1068       0.9367       1.0094    -999.2500       2.3634       1.1100     -63.0901
   1223.7667    -999.2500    -999.2500    -999.2500      38.9966       0.9302       0.9810    -999.2500       2.3669       1.1100     -50.0003
   1223.9192    -999.2500    -999.2500    -999.2500      36.3393       0.9348       0.9926    -999.2500       2.3733       1.1100     -34.4960
   1224.0715    -999.2500    -999.2500    -999.2500      33.4886       0.9399       1.0056    -999.2500       2.3798       1.1100     -18.9076
   1224.2240    -999.2500    -999.2500    -999.2500      35.1201       0.9468       1.0225    -999.2500       2.3785       1.1100     -10.1970
   1224.3763    -999.2500    -999.2500    -999.2500      36.8853       0.9538       1.0395    -999.2500       2.3770       1.1100      -1.6917
   1224.5288    -999.2500    -999.2500    -999.2500      36.4834       0.9458       1.0415    -999.2500       2.3639       1.1100     -26.2425
   1224.6812    -999.2500    -999.2500    -999.2500      36.0148       0.9373       1.0430    -999.2500       2.3504       1.1100     -51.8097
   1224.8336    -999.2500    -999.2500    -999.2500      37.9807       0.9293       1.0178    -999.2500       2.3515       1.1100     -69.9549
   1224.9860    -999.2500    -999.2500    -999.2500      40.0258       0.9213       0.9918    -999.2500       2.3530       1.1100     -87.8587
   1225.1384    -999.2500    -999.2500    -999.2500      41.0898       0.9384       1.0026    -999.2500       2.3661       1.1100     -73.0092
   1225.2908    -999.2500    -999.2500    -999.2500      42.1209       0.9564       1.0146    -999.2500       2.3796       1.1100     -57.0645
   1225.4431    -999.2500    -999.2500    -999.2500      40.9452       0.9652       1.0460    -999.2500       2.3785       1.1100     -49.0488
   1225.5956    -999.2500    -999.2500    -999.2500      39.6917       0.9738       1.0781    -999.2500       2.3770       1.1100     -41.3123
   1225.7479    -999.2500    -999.2500    -999.2500      38.9537       0.9881       1.0877    -999.2500       2.3639       1.1100     -38.3478
   1225.9004    -999.2500    -999.2500    -999.2500      38.2308       1.0026       1.0967    -999.2500       2.3504       1.1100     -35.5231
   1226.0527    -999.2500    -999.2500    -999.2500      37.0321       1.0321       1.0888    -999.2500       2.3534       1.1100     -50.0702
   1226.2052    -999.2500    -999.2500    -999.2500      35.8186       1.0621       1.0803    -999.2500       2.3569       1.1100     -65.1572
   1226.3575    -999.2500    -999.2500    -999.2500      34.5858       1.0766       1.1158    -999.2500       2.3633       1.1100     -49.4234
   1226.5100    -999.2500    -999.2500    -999.2500      33.3523       1.0905       1.1528    -999.2500       2.3698       1.1100     -32.7033
   1226.6624    -999.2500    -999.2500    -999.2500      33.9395       1.0760       1.1729    -999.2500       2.3715       1.1100     -16.3485
   1226.8148    -999.2500    -999.2500    -999.2500      34.5882       1.0605       1.1923    -999.2500       2.3730       1.1100      -0.0061
   1226.9672    -999.2500    -999.2500    -999.2500      37.4025       1.0314       1.1291    -999.2500       2.3812       1.1100      -8.2883
   1227.1196    -999.2500    -999.2500    -999.2500      40.2918       1.0019       1.0629    -999.2500       2.3897       1.1100     -17.4249
   1227.2720    -999.2500    -999.2500    -999.2500      38.1616       0.9792       1.0261    -999.2500       2.3885       1.1100     -10.4129
   1227.4243    -999.2500    -999.2500    -999.2500      35.8826       0.9567       0.9901    -999.2500       2.3870       1.1100      -2.9222
   1227.5768    -999.2500    -999.2500    -999.2500      34.2080       0.9259       0.9909    -999.2500       2.3788       1.1100      11.5783
   1227.7291    -999.2500    -999.2500    -999.2500      32.5519       0.8950       0.9929    -999.2500       2.3703       1.1100      26.2931
   1227.8816    -999.2500    -999.2500    -999.2500      34.2095       0.9061       1.0056    -999.2500       2.3506       1.1100      34.3771
   1228.0339    -999.2500    -999.2500    -999.2500      35.9742       0.9186       1.0186    -999.2500       2.3306       1.1100      42.2467
