#------------------------------------------------------------------------------
#
#   Created by  : [OpenWorks] Log Export Utility (LEXP)
#   Created on  : 2016-05-23 11:53:41
#   Project     : CANT971
#   User        : R5K
#   Interpreter : PEP
#
#------------------------------------------------------------------------------
~VERSION INFORMATION
VERS. 2.0 : CWLS Log ASCII Standard - version 2.0
WRAP.  NO : One line per depth step
~WELL INFORMATION
#MNEMONIC   .UNIT                                           VALUE :DESCRIPTION
#------------------------------------------------------------------------------
STRT        .M                                           901.1412 :START DEPTH
STOP        .M                                          2449.6777 :STOP DEPTH
STEP        .M                                             0.1524 :STEP
NULL        .                                           -999.2500 :NULL VALUE
COMP        .                                   PEMEX EXPL & PROD :COMPANY
WELL        .                                                  25 :WELL
FLD         .                                           CANTARELL :FIELD
LOC         .                                             UNKNOWN :LOCATION
CNTY        .                                      CD. DEL CARMEN :COUNTY
STAT        .                                            CAMPECHE :STATE
CTRY        .                                              MEXICO :COUNTRY
SRVC        .                                             UNKNOWN :SERVICE COMPANY
DATE        .                                             UNKNOWN :LOG DATE
UWI         .                                          3060000154 :UNIQUE WELL ID
XCOORD      .                                       603358.080000 :SURFACE X
YCOORD      .                                      2145091.420000 :SURFACE Y
LAT         .                                           19.398528 :LATITUDE
LON         .                                          -92.015660 :LONGITUDE
ELEV        .M                                            27.1400 :SURFACE ELEV
ELEV_TYPE   .                                                  KB :ELEV TYPE
~CURVE INFORMATION
#MNEMONIC.UNIT        API CODE       : CURVE DESCRIPTION
#------------------------------------------------------------------------------
DEPTH    .M                          : Measured Depth
CALI     .in          UNKNOWN        : CALI:registros:rC:NONE:v0 (auto-composite)
DRHO     .g/cm3       UNKNOWN        : DRHO:registros:rC:NONE:v0 (auto-composite)
DT       .us/ft       UNKNOWN        : DT:registros:rC:NONE:v0 (auto-composite)
GR       .api         UNKNOWN        : GR:registros:rC:NONE:v0 (auto-composite)
ILD      .ohmm        UNKNOWN        : ILD:registros:rC:NONE:v0 (auto-composite)
LLD      .ohmm        UNKNOWN        : LLD:registros:rC:NONE:v0 (auto-composite)
LLS      .ohmm        UNKNOWN        : LLS:registros:rC:NONE:v0 (auto-composite)
MSFL     .ohmm        UNKNOWN        : MSFL:registros:rC:NONE:v0 (auto-composite)
NPHI     .v/v_decimal UNKNOWN        : NPHI:registros:rC:NONE:v0 (auto-composite)
PEF      .b/elec      UNKNOWN        : PEF:registros:rC:NONE:v0 (auto-composite)
RHOB     .g/cm3       UNKNOWN        : RHOB:registros:rC:NONE:v0 (auto-composite)
~A     DEPTH         CALI         DRHO           DT           GR          ILD          LLD          LLS         MSFL         NPHI          PEF         RHOB
# ...
   2383.0789       5.8800       0.0960      54.9963      28.9777    -999.2500      48.7855      55.0458      44.8690       0.0739       2.7585       2.6470
   2383.2312       5.8710       0.0910      54.5580      28.1310    -999.2500      55.2820      63.0100      46.8340       0.0778       2.7420       2.6510
   2383.3835       5.8246       0.0955      55.0121      27.7929    -999.2500      64.2715      69.2227      53.2542       0.0869       2.6960       2.6475
   2383.5361       5.7780       0.1000      55.4700      27.4530    -999.2500      73.3080      75.4680      59.7080       0.0961       2.6500       2.6440
   2383.6885       5.7780       0.1040      55.3057      28.1697    -999.2500      76.5619      77.6439      81.2611       0.0960       2.7851       2.6246
   2383.8408       5.7780       0.1080      55.1400      28.8890    -999.2500      79.8280      79.8280     102.8950       0.0958       2.9200       2.6050
   2383.9932       5.7780       0.1204      55.0310      28.2118    -999.2500      88.6070      88.6070      96.5388       0.0926       2.8775       2.5915
   2384.1458       5.7780       0.1330      54.9210      27.5320    -999.2500      97.4200      97.4200      90.1580       0.0894       2.8350       2.5780
   2384.2981       5.7780       0.1464      55.5134      27.1039    -999.2500     111.7767     111.7189      91.1785       0.0842       2.8065       2.6004
   2384.4504       5.7780       0.1600      56.1110      26.6740    -999.2500     126.1910     126.0750      92.2030       0.0789       2.7780       2.6230
   2384.6028       5.7780       0.1495      56.0299      27.1984    -999.2500     124.6257     117.6524      94.5796       0.0761       2.7905       2.6494
   2384.7551       5.7780       0.1390      55.9480      27.7250    -999.2500     123.0540     109.1950      96.9660       0.0733       2.8030       2.6760
   2384.9077       5.7780       0.1211      56.0162      28.0199    -999.2500     112.7724     102.2892     107.1184       0.0767       2.8816       2.6850
   2385.0601       5.7780       0.1030      56.0850      28.3160    -999.2500     102.4470      95.3540     117.3140       0.0801       2.9600       2.6940
   2385.2124       5.7780       0.1065      56.9442      28.4008    -999.2500      87.7063      90.6708      99.6163       0.0798       3.0236       2.6800
   2385.3647       5.7780       0.1100      57.8100      28.4860    -999.2500      72.9010      85.9670      81.8410       0.0795       3.0870       2.6660
   2385.5173       5.7780       0.1135      58.3474      28.6870    -999.2500      64.4755      75.7929      67.9443       0.0781       3.0990       2.6765
   2385.6697       5.7780       0.1170      58.8890      28.8890    -999.2500      56.0120      65.5730      53.9850       0.0767       3.1110       2.6870
   2385.8220       5.7850       0.0991      58.3810      28.8481    -999.2500      62.4486      58.1771      50.4432       0.0801       3.0605       2.6835
   2385.9744       5.7920       0.0810      57.8690      28.8070    -999.2500      68.9150      50.7470      46.8850       0.0836       3.0100       2.6800
   2386.1270       5.8304       0.0586      58.1324      28.2673    -999.2500      76.1737      52.9927      56.0013       0.0914       2.9595       2.6755
   2386.2793       5.8690       0.0360      58.3980      27.7250    -999.2500      83.4670      55.2490      65.1610       0.0992       2.9090       2.6710
   2386.4316       5.9049       0.0226      58.9956      27.2791    -999.2500      86.9156      57.3189      84.0728       0.1033       2.8730       2.6565
   2386.5840       5.9410       0.0090      59.5980      26.8310    -999.2500      90.3810      59.3990     103.0770       0.1073       2.8370       2.6420
   2386.7363       5.9704       0.0170      60.3006      25.9213    -999.2500      84.6419      65.7351     113.0984       0.0972       2.8075       2.6545
   2386.8889       6.0000       0.0250      61.0090      25.0070    -999.2500      78.8740      72.1030     123.1700       0.0871       2.7780       2.6670
   2387.0413       5.9466       0.0285      60.5474      25.6284    -999.2500      74.4289      70.7006     109.4303       0.0758       2.8220       2.6944
   2387.1936       5.8930       0.0320      60.0820      26.2530    -999.2500      69.9610      69.2910      95.6200       0.0645       2.8660       2.7220
   2387.3459       5.9349       0.0380      57.7853      27.3257    -999.2500      66.0593      67.4025      84.0310       0.0614       2.8775       2.7165
   2387.4985       5.9770       0.0440      55.4690      28.4040    -999.2500      62.1370      65.5040      72.3810       0.0583       2.8890       2.7110
   2387.6509       5.9885       0.0510      53.8525      29.3462    -999.2500      59.4825      65.5714      62.6464       0.0634       2.8890       2.7135
   2387.8032       6.0000       0.0580      52.2220      30.2920    -999.2500      56.8180      65.6390      52.8750       0.0685       2.8890       2.7160
   2387.9556       6.0000       0.0635      55.6784      31.8095    -999.2500      59.6365      61.1977      54.2548       0.0769       2.8890       2.7155
   2388.1082       6.0000       0.0690      59.1650      33.3330    -999.2500      62.4660      56.7390      55.6400       0.0854       2.8890       2.7150
   2388.2605       6.0000       0.0745      65.0678      31.9453    -999.2500      61.3328      54.5928      69.4387       0.0954       2.8890       2.6876
   2388.4128       6.0000       0.0800      71.0230      30.5520    -999.2500      60.1950      52.4380      83.2930       0.1054       2.8890       2.6600
   2388.5652       5.9067       0.1049      66.2385      31.2600    -999.2500      58.1577      52.5877      83.2496       0.0998       2.8334       2.6091
   2388.7175       5.8130       0.1300      61.4110      31.9710    -999.2500      56.1120      52.7380      83.2060       0.0942       2.7780       2.5580
   2388.8701       5.7402       0.1738      66.3325      33.3475    -999.2500      51.6710      51.2103      79.0519       0.0877       2.8080       2.5874
   2389.0225       5.6670       0.2180      71.2910      34.7300    -999.2500      47.2110      49.6760      74.8800       0.0812       2.8380       2.6170
   2389.1748       5.6670       0.2554      69.2807      36.8663    -999.2500      42.2225      46.2002      71.6586       0.0847       2.9191       2.6424
   2389.3271       5.6670       0.2930      67.2550      39.0120    -999.2500      37.2120      42.7090      68.4230       0.0882       3.0000       2.6680
   2389.4797       5.7014       0.3224      63.1455      40.3854    -999.2500      32.3994      38.7250      54.6493       0.0901       2.9655       2.6944
   2389.6321       5.7360       0.3520      59.0040      41.7650    -999.2500      27.5650      34.7230      40.8130       0.0921       2.9310       2.7210
   2389.7844       5.7545       0.3445      57.0124      41.9930    -999.2500      28.4435      33.9792      43.9906       0.0939       2.8684       2.7549
   2389.9368       5.7730       0.3370      55.0050      42.2220    -999.2500      29.3260      33.2320      47.1830       0.0958       2.8060       2.7890
   2390.0894       5.7755       0.2862      55.5389      41.5302    -999.2500      33.9774      33.3816      53.4196       0.0962       2.7830       2.7646
   2390.2417       5.7780       0.2350      56.0770      40.8350    -999.2500      38.6510      33.5320      59.6860       0.0967       2.7600       2.7400
   2390.3940       5.7970       0.1822      56.6472      38.8130    -999.2500      48.7282      37.0284      76.9246       0.0944       2.7030       2.7036
   2390.5464       5.8160       0.1290      57.2220      36.7810    -999.2500      58.8550      40.5420      94.2480       0.0921       2.6460       2.6670
   2390.6987       5.8464       0.1046      57.0791      36.0114    -999.2500      71.6707      50.1373     117.5851       0.0850       2.6010       2.6700
   2390.8513       5.8770       0.0800      56.9350      35.2380    -999.2500      84.5510      59.7810     141.0400       0.0779       2.5560       2.6730
