#------------------------------------------------------------------------------
#
#   Created by  : [OpenWorks] Log Export Utility (LEXP)
#   Created on  : 2015-10-01 09:49:56
#   Project     : CANT971
#   User        : R5K
#   Interpreter : PEP
#
#------------------------------------------------------------------------------
~VERSION INFORMATION
VERS. 2.0 : CWLS Log ASCII Standard - version 2.0
WRAP.  NO : One line per depth step
~WELL INFORMATION
#MNEMONIC   .UNIT                                           VALUE :DESCRIPTION
#------------------------------------------------------------------------------
STRT        .M                                           799.8710 :START DEPTH
STOP        .M                                          1367.5610 :STOP DEPTH
STEP        .M                                             0.1524 :STEP
NULL        .                                           -999.2500 :NULL VALUE
COMP        .                                   PEMEX EXPL & PROD :COMPANY
WELL        .                                        CANTARELL-1A :WELL
FLD         .                                           CANTARELL :FIELD
LOC         .                                             UNKNOWN :LOCATION
CNTY        .                                      CD. DEL CARMEN :COUNTY
STAT        .                                            CAMPECHE :STATE
CTRY        .                                              MEXICO :COUNTRY
SRVC        .                                             UNKNOWN :SERVICE COMPANY
DATE        .                                             UNKNOWN :LOG DATE
UWI         .                                          3060000138 :UNIQUE WELL ID
XCOORD      .                                       600823.080000 :SURFACE X
YCOORD      .                                      2145118.550000 :SURFACE Y
LAT         .                                           19.398902 :LATITUDE
LON         .                                          -92.039798 :LONGITUDE
ELEV        .M                                            27.7000 :SURFACE ELEV
ELEV_TYPE   .                                                  KB :ELEV TYPE
~CURVE INFORMATION
#MNEMONIC.UNIT        API CODE       : CURVE DESCRIPTION
#------------------------------------------------------------------------------
DEPTH    .M                          : Measured Depth
CALI     .inches      UNKNOWN        : CALI:UNKNOWN:rC:NONE:v0 (auto-composite)
DRHO     .g/cm3       UNKNOWN        : DRHO:UNKNOWN:rC:NONE:v0 (auto-composite)
DT       .us/ft       UNKNOWN        : DT:DT:rC:NONE:v0 (auto-composite)
ILD      .ohm.m       UNKNOWN        : ILD:UNKNOWN:rC:NONE:v0 (auto-composite)
LLD      .ohm.m       UNKNOWN        : LLD:UNKNOWN:rC:NONE:v0 (auto-composite)
LLS      .ohm.m       UNKNOWN        : LLS:UNKNOWN:rC:NONE:v0 (auto-composite)
MSFL     .ohm.m       UNKNOWN        : MSFL:UNKNOWN:rC:NONE:v0 (auto-composite)
NPHI     .v/v_decimal UNKNOWN        : NPHI:NPHI:rC:NONE:v0 (auto-composite)
GR       .API         UNKNOWN        : RG:UNKNOWN:rC:NONE:v0 (auto-composite)
RHOB     .g/cm3       UNKNOWN        : RHOB:UNKNOWN:rC:NONE:v0 (auto-composite)
~A     DEPTH         CALI         DRHO           DT          ILD          LLD          LLS         MSFL         NPHI           GR         RHOB
# ...
   1158.3158      15.9018       0.0223    -999.2500       1.0458       0.2000       0.2000       0.2000      45.9215      43.5293       2.3747
   1158.4683      15.8978       0.0272    -999.2500       1.0586       0.2000       0.2000       0.2000      45.4530      43.3808       2.3884
   1158.6206      15.8988       0.0322    -999.2500       1.0702       0.2000       0.2000       0.2000      44.9617      43.2991       2.4044
   1158.7731      15.8994       0.0376    -999.2500       1.0825       0.2000       0.2000       0.2000      44.4475      42.9618       2.4041
   1158.9254      15.8999       0.0431    -999.2500       1.0951       0.2000       0.2000       0.2000      43.1588      42.5759       2.4005
   1159.0779      15.8924       0.0398    -999.2500       1.1228       0.2000       0.2000       0.2000      41.0929      43.2868       2.3780
   1159.2302      15.8834       0.0348    -999.2500       1.1534       0.2000       0.2000       0.2000      40.2416      44.1994       2.3519
   1159.3827      15.8743       0.0263    -999.2500       1.1738       0.2000       0.2000       0.2000      40.6096      44.4281       2.3403
   1159.5350      15.8653       0.0173    -999.2500       1.1923       0.2000       0.2000       0.2000      40.4210      44.5364       2.3313
   1159.6874      15.8477       0.0237    -999.2500       1.1886       0.2000       0.2000       0.2000      39.6735      44.6472       2.3399
   1159.8398      15.8287       0.0327    -999.2500       1.1810       0.2000       0.2000       0.2000      39.4462      44.7585       2.3514
   1159.9922      15.8182       0.0379    -999.2500       1.1869       0.2000       0.2000       0.2000      39.7412      44.1876       2.3547
   1160.1447      15.8092       0.0424    -999.2500       1.1949       0.2000       0.2000       0.2000      39.7092      43.5062       2.3567
   1160.2970      15.7828       0.0400    -999.2500       1.1990       0.2000       0.2000       0.2000      39.3487      43.0806       2.3514
   1160.4495      15.7537       0.0365    -999.2500       1.2025       0.2000       0.2000       0.2000      39.6264      42.6946       2.3448
   1160.6018      15.7679       0.0273    -999.2500       1.1729       0.2000       0.2000       0.2000      40.5454      42.7472       2.3296
   1160.7543      15.7885       0.0172    -999.2500       1.1383       0.2000       0.2000       0.2000      41.5626      42.8645       2.3130
   1160.9066      15.7831       0.0142    -999.2500       1.0843       0.2000       0.2000       0.2000      42.6786      42.5407       2.3044
   1161.0591      15.7741       0.0122    -999.2500       1.0277       0.2000       0.2000       0.2000      44.0217      42.1546       2.2969
   1161.2114      15.7995       0.0098    -999.2500       0.9533       0.2000       0.2000       0.2000      45.5931      40.9796       2.2889
   1161.3639      15.8296       0.0073    -999.2500       0.8766       0.2000       0.2000       0.2000      47.9883      39.6991       2.2809
   1161.5162      15.8686       0.0026    -999.2500       0.8071       0.2000       0.2000       0.2000      51.2117      37.8924       2.2426
   1161.6686      15.9087      -0.0025    -999.2500       0.7384       0.2000       0.2000       0.2000      52.5907      36.0189       2.2005
   1161.8210      15.8875      -0.0084    -999.2500       0.6943       0.2000       0.2000       0.2000      52.1147      34.7657       2.1329
   1161.9734      15.8589      -0.0144    -999.2500       0.6532       0.2000       0.2000       0.2000      51.9004      33.5875       2.0622
   1162.1259      15.8565      -0.0074    -999.2500       0.6620       0.2000       0.2000       0.2000      51.9494      33.6506       2.1063
   1162.2782      15.8570       0.0012    -999.2500       0.6766       0.2000       0.2000       0.2000      52.1873      33.8551       2.1634
   1162.4307      15.8846       0.0061    -999.2500       0.7680       0.2000       0.2000       0.2000      52.6153      35.6855       2.2292
   1162.5830      15.9152       0.0106    -999.2500       0.8678       0.2000       0.2000       0.2000      53.0067      37.6915       2.2959
   1162.7355      15.9093       0.0137    -999.2500       1.0414       0.2000       0.2000       0.2000      53.3614      37.8865       2.3097
   1162.8878      15.8998       0.0167    -999.2500       1.2224       0.2000       0.2000       0.2000      53.2852      37.8980       2.3183
   1163.0403      15.8546       0.0147    -999.2500       1.4005       0.2000       0.2000       0.2000      52.7767      37.4571       2.3181
   1163.1926      15.8060       0.0122    -999.2500       1.5785       0.2000       0.2000       0.2000      52.2652      36.9735       2.3171
   1163.3451      15.7753       0.0120    -999.2500       1.6096       0.2000       0.2000       0.2000      51.7508      36.8576       2.3221
   1163.4974      15.7462       0.0120    -999.2500       1.6276       0.2000       0.2000       0.2000      51.6250      36.7743       2.3276
   1163.6498      15.7542       0.0176    -999.2500       1.6165       0.2000       0.2000       0.2000      51.8895      35.4932       2.3558
   1163.8022      15.7652       0.0236    -999.2500       1.6030       0.2000       0.2000       0.2000      52.2505      34.1134       2.3859
   1163.9546      15.7571       0.0296    -999.2500       1.5908       0.2000       0.2000       0.2000      52.7085      33.3830       2.3903
   1164.1071      15.7476       0.0356    -999.2500       1.5788       0.2000       0.2000       0.2000      53.3114      32.7018       2.3928
   1164.2594      15.6833       0.0323    -999.2500       1.5967       0.2000       0.2000       0.2000      54.0599      32.9493       2.3967
   1164.4119      15.6151       0.0282    -999.2500       1.6168       0.2000       0.2000       0.2000      54.7647      33.2621       2.4008
   1164.5642      15.5653       0.0289    -999.2500       1.6439       0.2000       0.2000       0.2000      55.4257      33.1162       2.4071
   1164.7167      15.5167       0.0299    -999.2500       1.6715       0.2000       0.2000       0.2000      56.0141      32.9407       2.4136
   1164.8690      15.5059       0.0186    -999.2500       1.7180       0.2000       0.2000       0.2000      56.5296      32.7544       2.4126
   1165.0215      15.4974       0.0066    -999.2500       1.7656       0.2000       0.2000       0.2000      56.7523      32.5673       2.4111
   1165.1738      15.3855       0.0103    -999.2500       1.7851       0.2000       0.2000       0.2000      56.6808      32.2889       2.4072
   1165.3262      15.2682       0.0148    -999.2500       1.8032       0.2000       0.2000       0.2000      56.5368      32.0056       2.4032
   1165.4786      15.2357       0.0198    -999.2500       1.7647       0.2000       0.2000       0.2000      56.3198      32.7664       2.4064
   1165.6310      15.2071       0.0248    -999.2500       1.7236       0.2000       0.2000       0.2000      56.0540      33.5759       2.4099
   1165.7834      15.2349       0.0289    -999.2500       1.6926       0.2000       0.2000       0.2000      55.7390      33.6249       2.4042
   1165.9358      15.2650       0.0329    -999.2500       1.6620       0.2000       0.2000       0.2000      55.3447      33.6424       2.3982
   1166.0883      15.2093       0.0432    -999.2500       1.6116       0.2000       0.2000       0.2000      54.8707      33.7505       2.4096
   1166.2406      15.1507       0.0537    -999.2500       1.5605       0.2000       0.2000       0.2000      54.4311      33.8618       2.4217
   1166.3931      15.0925       0.0540    -999.2500       1.5546       0.2000       0.2000       0.2000      54.0262      33.6834       2.4235
   1166.5454      15.0344       0.0540    -999.2500       1.5501       0.2000       0.2000       0.2000      53.6046      33.4965       2.4250
   1166.6979      15.1108       0.0471    -999.2500       1.6082       0.2000       0.2000       0.2000      53.1665      32.7329       2.4191
