#------------------------------------------------------------------------------
#
#   Created by  : [OpenWorks] Log Export Utility (LEXP)
#   Created on  : 2016-05-12 17:01:16
#   Project     : CANT971
#   User        : R5K
#   Interpreter : PEP
#
#------------------------------------------------------------------------------
~VERSION INFORMATION
VERS. 2.0 : CWLS Log ASCII Standard - version 2.0
WRAP.  NO : One line per depth step
~WELL INFORMATION
#MNEMONIC   .UNIT                                           VALUE :DESCRIPTION
#------------------------------------------------------------------------------
STRT        .M                                          4907.2798 :START DEPTH
STOP        .M                                          5813.7549 :STOP DEPTH
STEP        .M                                             0.1524 :STEP
NULL        .                                           -999.2500 :NULL VALUE
COMP        .                                   PEMEX EXPL & PROD :COMPANY
WELL        .                                            3026D_ST :WELL
FLD         .                                           CANTARELL :FIELD
LOC         .                                             UNKNOWN :LOCATION
CNTY        .                                      CD. DEL CARMEN :COUNTY
STAT        .                                            CAMPECHE :STATE
CTRY        .                                              MEXICO :COUNTRY
SRVC        .                                             UNKNOWN :SERVICE COMPANY
DATE        .                                             UNKNOWN :LOG DATE
UWI         .                                      3060000820D_ST :UNIQUE WELL ID
XCOORD      .                                       601717.200000 :SURFACE X
YCOORD      .                                      2148573.570000 :SURFACE Y
LAT         .                                           19.430078 :LATITUDE
LON         .                                          -92.031099 :LONGITUDE
ELEV        .M                                            30.0000 :SURFACE ELEV
ELEV_TYPE   .                                                  KB :ELEV TYPE
~CURVE INFORMATION
#MNEMONIC.UNIT        API CODE       : CURVE DESCRIPTION
#------------------------------------------------------------------------------
DEPTH    .M                          : Measured Depth
CALI     .inches      UNKNOWN        : CALI:registros:rC:NONE:v0 (auto-composite)
CGR      .API         UNKNOWN        : CGR:registros:rC:NONE:v0 (auto-composite)
DRHO     .g/cm3       UNKNOWN        : DRHO:registros:rC:NONE:v0 (auto-composite)
DT       .us/ft       UNKNOWN        : DT:registros:rC:NONE:v0 (auto-composite)
GR       .API         UNKNOWN        : GR:registros:rC:NONE:v0 (auto-composite)
ILD      .ohm.m       UNKNOWN        : ILD:registros:rC:NONE:v0 (auto-composite)
ILM      .ohm.m       UNKNOWN        : ILM:registros:rC:NONE:v0 (auto-composite)
NPHI     .UNKNOWN     UNKNOWN        : NPHI:registros:rC:NONE:v0 (auto-composite)
PEF      .b/elec      UNKNOWN        : PEF:registros:rC:NONE:v0 (auto-composite)
POTA     .UNKNOWN     UNKNOWN        : POTA:registros:rC:NONE:v0 (auto-composite)
RHOB     .g/cm3       UNKNOWN        : RHOB:registros:rC:NONE:v0 (auto-composite)
THOR     .ppm         UNKNOWN        : THOR:registros:rC:NONE:v0 (auto-composite)
URAN     .ppm         UNKNOWN        : URAN:registros:rC:NONE:v0 (auto-composite)
~A     DEPTH         CALI          CGR         DRHO           DT           GR          ILD          ILM         NPHI          PEF         POTA         RHOB         THOR         URAN
# ...
   5698.5405       8.8391    -999.2500      -0.0357      64.3120     109.6716       5.1085       4.7440       0.2576      59.6605    -999.2500       2.6602    -999.2500    -999.2500
   5698.6929       9.3578    -999.2500      -0.0410      65.6907     106.9864       5.1499       4.7767       0.2535      60.6963    -999.2500       2.6548    -999.2500    -999.2500
   5698.8452       8.7690    -999.2500      -0.0525      57.8457     107.8762       4.9937       4.6440       0.2589      67.4040    -999.2500       2.6363    -999.2500    -999.2500
   5698.9976       8.6989    -999.2500      -0.0720      55.8727     106.4265       5.1075       4.7370       0.2669      66.9267    -999.2500       2.6065    -999.2500    -999.2500
   5699.1504       8.6605    -999.2500      -0.0794      56.2780     110.0471       5.2265       4.8350       0.2689      57.9383    -999.2500       2.5907    -999.2500    -999.2500
   5699.3027       8.6004    -999.2500      -0.0824      56.4341     111.2002       5.4533       5.0205       0.2589      64.9800    -999.2500       2.5895    -999.2500    -999.2500
   5699.4551       8.4038    -999.2500      -0.0817      58.3304     116.5530       5.4686       5.0436       0.2624      51.3985    -999.2500       2.5948    -999.2500    -999.2500
   5699.6074       8.6138    -999.2500      -0.0831      59.4849     115.6730       5.6832       5.2245       0.2581      63.1054    -999.2500       2.5898    -999.2500    -999.2500
   5699.7598       8.7756    -999.2500      -0.0844      59.6499     116.9530       5.7436       5.2753       0.2575      51.5014    -999.2500       2.5870    -999.2500    -999.2500
   5699.9121       8.5004    -999.2500      -0.0871      60.9897     112.6875       5.7157       5.2538       0.2534      50.8969    -999.2500       2.5767    -999.2500    -999.2500
   5700.0645       8.4287    -999.2500      -0.0888      61.8231     113.8175       5.6638       5.2101       0.2596      54.6881    -999.2500       2.5850    -999.2500    -999.2500
   5700.2168       8.4798    -999.2500      -0.1020      63.1061     110.7602       5.6069       5.1604       0.2644      27.6642    -999.2500       2.5644    -999.2500    -999.2500
   5700.3696       8.4420    -999.2500      -0.1157      65.8265     110.8668       5.5565       5.1161       0.2695      67.2415    -999.2500       2.5377    -999.2500    -999.2500
   5700.5220       8.4369    -999.2500      -0.1286      67.0821     108.9939       5.5283       5.0924       0.2637      55.0609    -999.2500       2.5103    -999.2500    -999.2500
   5700.6743       8.1635    -999.2500      -0.1422      67.0646     110.5262       5.4197       5.0044       0.2648     114.8055    -999.2500       2.4986    -999.2500    -999.2500
   5700.8267       7.5353    -999.2500      -0.1497      62.7926     110.2206       5.4791       5.0523       0.2769     174.4798    -999.2500       2.5056    -999.2500    -999.2500
   5700.9790       7.5263    -999.2500      -0.1476      60.0746     112.7835       5.8412       5.3712       0.2690     102.8858    -999.2500       2.5131    -999.2500    -999.2500
   5701.1313       7.8491    -999.2500      -0.1497      62.7518     114.2285       5.5950       5.1610       0.2658      64.9968    -999.2500       2.5115    -999.2500    -999.2500
   5701.2837       7.8643    -999.2500      -0.1423      65.8529     114.5669       5.3801       4.9825       0.2583      57.9693    -999.2500       2.5225    -999.2500    -999.2500
   5701.4360       7.7519    -999.2500      -0.1437      65.8738     116.2344       5.5844       5.1687       0.2627      58.3432    -999.2500       2.5200    -999.2500    -999.2500
   5701.5884       7.7927    -999.2500      -0.1343      63.2040     113.3455       5.6923       5.2594       0.2621      99.7335    -999.2500       2.5259    -999.2500    -999.2500
   5701.7412       7.8626    -999.2500      -0.1220      62.5729     113.1872       5.7438       5.3119       0.2637      99.6203    -999.2500       2.5419    -999.2500    -999.2500
   5701.8936       7.8184    -999.2500      -0.1054      62.8475     109.4497       5.8164       5.3888       0.2677     116.9974    -999.2500       2.5639    -999.2500    -999.2500
   5702.0459       7.9326    -999.2500      -0.0926      63.7957     109.1577       5.8819       5.4389       0.2641      89.7469    -999.2500       2.5847    -999.2500    -999.2500
   5702.1982       7.9065    -999.2500      -0.0818      65.7104     110.5426       5.8661       5.4343       0.2600      72.1458    -999.2500       2.5856    -999.2500    -999.2500
   5702.3506       7.7570    -999.2500      -0.0858      62.7529     109.9621       5.8432       5.4026       0.2606      60.5421    -999.2500       2.5834    -999.2500    -999.2500
   5702.5029       7.4514    -999.2500      -0.0960      61.2985     109.6117       5.8235       5.4094       0.2698      59.4830    -999.2500       2.5710    -999.2500    -999.2500
   5702.6553       7.5999    -999.2500      -0.1117      62.1317     113.5545       5.8775       5.4645       0.2615      67.0945    -999.2500       2.5571    -999.2500    -999.2500
   5702.8076       7.6013    -999.2500      -0.1389      58.6806     114.6577       5.9534       5.5480       0.2552      72.0005    -999.2500       2.5209    -999.2500    -999.2500
   5702.9600       7.5241    -999.2500      -0.1619      58.6906     115.9300       5.9971       5.5996       0.2456      62.9319    -999.2500       2.5005    -999.2500    -999.2500
   5703.1128       7.4705    -999.2500      -0.1676      59.9294     111.5709       6.0359       5.6547       0.2558      55.9827    -999.2500       2.5036    -999.2500    -999.2500
   5703.2651       7.5356    -999.2500      -0.1673      62.8353     112.6582       6.0230       5.6668       0.2584      56.2671    -999.2500       2.5167    -999.2500    -999.2500
   5703.4175       7.1792    -999.2500      -0.1790      61.4707     116.2443       6.0686       5.7323       0.2685      54.8993    -999.2500       2.5055    -999.2500    -999.2500
   5703.5698       7.0296    -999.2500      -0.1890      63.7058     116.5813       6.0628       5.7519       0.2696      56.4413    -999.2500       2.4945    -999.2500    -999.2500
   5703.7222       7.0310    -999.2500      -0.1992      63.2373     114.2071       5.9536       5.6789       0.2771      50.7654    -999.2500       2.4822    -999.2500    -999.2500
   5703.8745       7.3600    -999.2500      -0.1637      62.7688     110.8602       5.8016       5.5630       0.2771      51.9534    -999.2500       2.5320    -999.2500    -999.2500
   5704.0269       7.9624    -999.2500      -0.1362      64.4736     113.3160       5.6608       5.4589       0.2679      70.2395    -999.2500       2.5664    -999.2500    -999.2500
   5704.1792       7.9474    -999.2500      -0.1091      61.2915     115.6902       5.5609       5.3899       0.2565      59.8483    -999.2500       2.6057    -999.2500    -999.2500
   5704.3315       8.0212    -999.2500      -0.0943      62.0190     119.2782       5.5111       5.3647       0.2545      67.3198    -999.2500       2.6177    -999.2500    -999.2500
   5704.4844       8.0796    -999.2500      -0.0802      71.5095     114.0802       5.4608       5.3362       0.2470      65.8063    -999.2500       2.6322    -999.2500    -999.2500
   5704.6367       8.0734    -999.2500      -0.0893      60.8529     110.4802       5.2730       5.1808       0.2498     103.6942    -999.2500       2.6223    -999.2500    -999.2500
   5704.7891       7.7857    -999.2500      -0.1024      62.1665     106.3354       5.1267       5.0526       0.2539      70.3882    -999.2500       2.6081    -999.2500    -999.2500
   5704.9414       7.5652    -999.2500      -0.1206      63.9688     109.7055       4.9739       4.9123       0.2635      78.8655    -999.2500       2.5794    -999.2500    -999.2500
   5705.0938       7.5518    -999.2500      -0.1391      61.0702     113.0329       4.7841       4.7386       0.2700      65.5029    -999.2500       2.5507    -999.2500    -999.2500
