#------------------------------------------------------------------------------
#
#   Created by  : [OpenWorks] Log Export Utility (LEXP)
#   Created on  : 2016-05-23 11:56:01
#   Project     : CANT971
#   User        : R5K
#   Interpreter : PEP
#
#------------------------------------------------------------------------------
~VERSION INFORMATION
VERS. 2.0 : CWLS Log ASCII Standard - version 2.0
WRAP.  NO : One line per depth step
~WELL INFORMATION
#MNEMONIC   .UNIT                                           VALUE :DESCRIPTION
#------------------------------------------------------------------------------
STRT        .M                                          1572.0055 :START DEPTH
STOP        .M                                          3732.1230 :STOP DEPTH
STEP        .M                                             0.1524 :STEP
NULL        .                                           -999.2500 :NULL VALUE
COMP        .                                             UNKNOWN :COMPANY
WELL        .                                               428-V :WELL
FLD         .                                             UNKNOWN :FIELD
LOC         .                                             UNKNOWN :LOCATION
CNTY        .                                             UNKNOWN :COUNTY
STAT        .                                             UNKNOWN :STATE
CTRY        .                                             UNKNOWN :COUNTRY
SRVC        .                                             UNKNOWN :SERVICE COMPANY
DATE        .                                             UNKNOWN :LOG DATE
UWI         .                                               428-V :UNIQUE WELL ID
XCOORD      .                                            0.000000 :SURFACE X
YCOORD      .                                            0.000000 :SURFACE Y
LAT         .                                            0.000000 :LATITUDE
LON         .                                            0.000000 :LONGITUDE
ELEV        .M                                             0.0000 :SURFACE ELEV
ELEV_TYPE   .                                                  KB :ELEV TYPE
~CURVE INFORMATION
#MNEMONIC .UNIT        API CODE       : CURVE DESCRIPTION
#------------------------------------------------------------------------------
DEPTH     .M                          : Measured Depth
CALIH-LWD .inches      UNKNOWN        : CALIH-LWD:PETROWORKS:rC:NONE:v5 
CALIV-LWD .inches      UNKNOWN        : CALIV-LWD:PETROWORKS:rC:NONE:v5 
CGR       .API         UNKNOWN        : CGR:Espectrometria:rC:NONE:v0 (auto-composite)
DRHO-LWD  .g/cm3       UNKNOWN        : DRHO-LWD:PETROWORKS:rC:NONE:v5 
DT        .us/ft       UNKNOWN        : DT:sonico:rC:NONE:v0 (auto-composite)
GR        .API         UNKNOWN        : GR:Espectrometria:rC:NONE:v0 (auto-composite)
GR-LWD    .API         UNKNOWN        : GR-LWD:PETROWORKS:rC:NONE:v3 
ILD-LWD   .ohm.m       UNKNOWN        : ILD-LWD:PETROWORKS:rC:NONE:v2 
ILM-LWD   .ohm.m       UNKNOWN        : ILM-LWD:PETROWORKS:rC:NONE:v2 
LLD-LWD   .ohm.m       UNKNOWN        : LLD-LWD:registros-LWD:rC:NONE:v0 (auto-composite)
LLS-LWD   .ohm.m       UNKNOWN        : LLS-LWD:registros-LWD:rC:NONE:v0 (auto-composite)
MSFL-LWD  .ohm.m       UNKNOWN        : MSFL-LWD:registros-LWD:rC:NONE:v0 (auto-composite)
NPHI-LWD  .v/v_decimal UNKNOWN        : NPHI-LWD:PETROWORKS:rC:NONE:v5 
PEF-LWD   .b/elec      UNKNOWN        : PEF-LWD:PETROWORKS:rC:NONE:v5 
POTA      .wtpercent   UNKNOWN        : POTA:Espectrometria:rC:NONE:v0 (auto-composite)
RHOB-LWD  .g/cm3       UNKNOWN        : RHOB-LWD:PETROWORKS:rC:NONE:v5 
THOR      .UNKNOWN     UNKNOWN        : THOR:Espectrometria:rC:NONE:v0 (auto-composite)
URAN      .UNKNOWN     UNKNOWN        : URAN:Espectrometria:rC:NONE:v0 (auto-composite)
~A     DEPTH    CALIH-LWD    CALIV-LWD          CGR     DRHO-LWD           DT           GR       GR-LWD      ILD-LWD      ILM-LWD      LLD-LWD      LLS-LWD     MSFL-LWD     NPHI-LWD      PEF-LWD         POTA     RHOB-LWD         THOR         URAN
# ...
   3367.4299       6.5357       6.9700      15.6752       0.2392      57.7338      34.4229      26.2064      82.5559      80.6844    -999.2500    -999.2500    -999.2500       0.0778       2.6360       0.0084       2.7108       1.0935       2.0873
   3367.5823       6.6070       7.0176      17.9922       0.2519      58.6066      32.3391      23.7542      90.7284      86.2602    -999.2500    -999.2500    -999.2500       0.0780       2.7201       0.0085       2.7335       1.7492       1.5973
   3367.7346       6.6053       7.0129      17.7490       0.2622      59.2484      30.8302      22.9430      94.5984      91.8608    -999.2500    -999.2500    -999.2500       0.0791       2.8559       0.0081       2.7545       1.8151       1.4563
   3367.8872       6.5855       7.0021      15.3478       0.2642      59.8481      28.8623      23.6991      95.4862      96.6745    -999.2500    -999.2500    -999.2500       0.0796       2.9560       0.0078       2.7554       1.2507       1.5047
   3368.0396       6.5716       6.9981      13.3615       0.2542      60.8193      27.0138      24.5247      95.3050      98.6346    -999.2500    -999.2500    -999.2500       0.0793       2.9678       0.0071       2.7309       0.9682       1.5199
   3368.1919       6.5437       6.9794      11.7829       0.2385      62.3687      24.1419      24.1691      98.5909     101.2818    -999.2500    -999.2500    -999.2500       0.0788       2.8927       0.0056       2.6983       1.1068       1.3760
   3368.3442       6.5367       6.9703      10.0743       0.2232      64.6167      22.4994      23.2596     104.0004     104.6229    -999.2500    -999.2500    -999.2500       0.0790       2.8032       0.0043       2.6690       1.1618       1.3833
   3368.4966       6.5417       6.9543       8.9733       0.2198      67.3717      21.0948      22.3596     107.5094     107.7395    -999.2500    -999.2500    -999.2500       0.0810       2.7902       0.0038       2.6507       1.0291       1.3495
   3368.6492       6.5552       6.9516       8.2601       0.2291      70.3893      21.0654      22.0247     110.8632     110.3322    -999.2500    -999.2500    -999.2500       0.0842       2.8404       0.0039       2.6331       0.7853       1.4257
   3368.8015       6.6387       7.0274       8.3331       0.2432      72.8477      21.5866      21.7412     114.6492     114.9281    -999.2500    -999.2500    -999.2500       0.0866       2.8430       0.0045       2.5983       0.5594       1.4756
   3368.9539       6.8289       7.1793       8.4340       0.2691      73.2012      22.5333      22.2139     116.0103     117.0102    -999.2500    -999.2500    -999.2500       0.0887       2.7270       0.0047       2.5693       0.5233       1.5697
   3369.1062       6.9229       7.2327       8.8685       0.2855      71.4185      22.7202      23.7446     122.2592     121.5475    -999.2500    -999.2500    -999.2500       0.0937       2.5562       0.0048       2.5896       0.6183       1.5422
   3369.2588       6.7620       7.1063       8.3780       0.2711      68.5236      22.8653      25.2427     127.5498     125.0461    -999.2500    -999.2500    -999.2500       0.0957       2.5320       0.0039       2.6335       0.8396       1.6130
   3369.4111       6.6465       7.0519       7.8741       0.2441      66.2519      23.1247      26.2631     129.2274     130.9317    -999.2500    -999.2500    -999.2500       0.0915       2.5789       0.0034       2.6637       0.8671       1.6979
   3369.5635       6.6634       7.1152       8.7823       0.2275      64.9598      23.7637      25.8512     127.6133     127.6454    -999.2500    -999.2500    -999.2500       0.0845       2.6136       0.0038       2.6748       0.9826       1.6679
   3369.7158       6.6267       7.1149      10.3504       0.2188      63.9624      24.4225      25.6077     135.6830     135.7089    -999.2500    -999.2500    -999.2500       0.0776       2.6539       0.0045       2.6702       1.1541       1.5667
   3369.8684       6.5597       7.0422      12.5579       0.2320      62.9378      24.8819      24.9222     137.0425     135.3587    -999.2500    -999.2500    -999.2500       0.0732       2.6984       0.0057       2.6863       1.2924       1.3721
   3370.0208       6.4883       6.9655      12.5283       0.2488      61.8725      25.5525      24.7200     142.8787     136.5309    -999.2500    -999.2500    -999.2500       0.0709       2.7325       0.0062       2.6951       1.0791       1.4500
   3370.1731       6.4797       6.9617      12.4675       0.2588      60.7484      26.4860      24.7399     140.2540     134.4507    -999.2500    -999.2500    -999.2500       0.0695       2.7538       0.0069       2.6892       0.8118       1.5607
   3370.3254       6.3803       6.8518      12.9106       0.2543      59.5932      26.6188      25.8548     143.1146     139.0065    -999.2500    -999.2500    -999.2500       0.0701       2.6160       0.0076       2.6619       0.6526       1.5262
   3370.4778       6.2319       6.7672      13.6357       0.2450      58.6089      26.1723      27.6046     138.2460     134.7017    -999.2500    -999.2500    -999.2500       0.0715       2.5871       0.0079       2.6531       0.7327       1.3957
   3370.6304       6.2178       6.8505      13.7912       0.2345      58.0562      25.6799      29.4214     142.9303     131.2531    -999.2500    -999.2500    -999.2500       0.0714       2.6561       0.0069       2.6531       1.1764       1.3236
   3370.7827       6.4939       7.1225      14.6046       0.2437      57.9099      25.1340      30.4659     137.1256     130.4874    -999.2500    -999.2500    -999.2500       0.0711       2.7679       0.0061       2.6686       1.7344       1.1723
   3370.9351       6.7212       7.2620      14.3769       0.2560      57.8239      25.2157      31.3955     143.1062     136.8161    -999.2500    -999.2500    -999.2500       0.0702       2.7122       0.0059       2.6817       1.7463       1.2068
   3371.0874       6.6555       7.1531      13.1265       0.2603      57.3727      26.6465      33.1021     140.9602     130.5306    -999.2500    -999.2500    -999.2500       0.0705       2.5924       0.0062       2.6797       1.2797       1.5052
   3371.2400       6.3848       6.9499      12.0880       0.2417      56.3086      27.9502      34.4968     134.5234     128.3663    -999.2500    -999.2500    -999.2500       0.0707       2.5175       0.0065       2.6630       0.8466       1.7660
   3371.3923       6.3196       6.8814      10.1011       0.2302      54.9472      29.8232      34.5789     136.6922     133.3376    -999.2500    -999.2500    -999.2500       0.0722       2.6223       0.0064       2.6581       0.3422       2.1957
   3371.5447       6.5334       7.2898       9.2808       0.1835      53.7767      31.0068      32.8839     132.9090     135.7912    -999.2500    -999.2500    -999.2500       0.0734       2.6576       0.0059       2.5332       0.2965       2.4189
   3371.6970       6.5005       7.3578      10.8396       0.1485      53.0644      31.9847      31.0854     121.1239     131.0371    -999.2500    -999.2500    -999.2500       0.0730       2.6255       0.0058       2.4784       0.7802       2.3542
   3371.8496       6.5003       7.3353      12.9239       0.1813      52.9659      32.9173      30.9970     120.9661     130.9276    -999.2500    -999.2500    -999.2500       0.0743       2.6224       0.0063       2.5400       1.1527       2.2259
   3372.0020       6.4936       7.1093      15.0390       0.2238      53.2030      33.8658      29.6375     137.5000     135.4100    -999.2500    -999.2500    -999.2500       0.0740       2.7649       0.0069       2.6342       1.5430       2.0961
   3372.1543       6.4353       6.8827      15.7050       0.2520      53.4660      34.6379      27.8280     137.5198     135.4776    -999.2500    -999.2500    -999.2500       0.0719       2.6876       0.0079       2.6849       1.3251       2.1078
   3372.3066       6.5030       6.8660      14.5850       0.2567      53.5074      33.4702      25.5406     138.7351     139.4030    -999.2500    -999.2500    -999.2500       0.0712       2.8361       0.0079       2.7060       0.9926       2.1025
