#------------------------------------------------------------------------------
#
#   Created by  : [OpenWorks] Log Export Utility (LEXP)
#   Created on  : 2016-05-23 11:52:56
#   Project     : CANT971
#   User        : R5K
#   Interpreter : PEP
#
#------------------------------------------------------------------------------
~VERSION INFORMATION
VERS. 2.0 : CWLS Log ASCII Standard - version 2.0
WRAP.  NO : One line per depth step
~WELL INFORMATION
#MNEMONIC   .UNIT                                           VALUE :DESCRIPTION
#------------------------------------------------------------------------------
STRT        .M                                           340.6189 :START DEPTH
STOP        .M                                          3243.0769 :STOP DEPTH
STEP        .M                                             0.1524 :STEP
NULL        .                                           -999.2500 :NULL VALUE
COMP        .                                   PEMEX EXPL & PROD :COMPANY
WELL        .                                                2098 :WELL
FLD         .                                           CANTARELL :FIELD
LOC         .                                             UNKNOWN :LOCATION
CNTY        .                                      CD. DEL CARMEN :COUNTY
STAT        .                                            CAMPECHE :STATE
CTRY        .                                              MEXICO :COUNTRY
SRVC        .                                             UNKNOWN :SERVICE COMPANY
DATE        .                                             UNKNOWN :LOG DATE
UWI         .                                          3060000229 :UNIQUE WELL ID
XCOORD      .                                       599692.800000 :SURFACE X
YCOORD      .                                      2143031.510000 :SURFACE Y
LAT         .                                           19.380099 :LATITUDE
LON         .                                          -92.050671 :LONGITUDE
ELEV        .M                                            26.7400 :SURFACE ELEV
ELEV_TYPE   .                                                  KB :ELEV TYPE
~CURVE INFORMATION
#MNEMONIC.UNIT        API CODE       : CURVE DESCRIPTION
#------------------------------------------------------------------------------
DEPTH    .M                          : Measured Depth
CALI     .inches      UNKNOWN        : CALI:litodensidad:rC:NONE:v0 (auto-composite)
CGR      .API         UNKNOWN        : CGR:Espectrometria:rC:NONE:v0 (auto-composite)
DRHO     .g/cm3       UNKNOWN        : DRHO:litodensidad:rC:NONE:v0 (auto-composite)
DT       .us/ft       UNKNOWN        : DT:DT-Load:rC:NONE:v0 (auto-composite)
GR       .API         UNKNOWN        : GR:GR-load:rC:NONE:v0 (auto-composite)
ILD      .UNKNOWN     UNKNOWN        : ILD:resistivos:rC:NONE:v0 (auto-composite)
LLD      .ohm.m       UNKNOWN        : LLD:resistivos:rC:NONE:v0 (auto-composite)
LLS      .UNKNOWN     UNKNOWN        : LLS:resistivos:rC:NONE:v0 (auto-composite)
MSFL     .UNKNOWN     UNKNOWN        : MSFL:resistivos:rC:NONE:v0 (auto-composite)
NPHI     .v/v_decimal UNKNOWN        : NPHI:porosidad:rC:NONE:v0 (auto-composite)
PEF      .UNKNOWN     UNKNOWN        : PEF:litodensidad:rC:NONE:v0 (auto-composite)
POTA     .UNKNOWN     UNKNOWN        : POTA:Espectrometria:rC:NONE:v0 (auto-composite)
RHOB     .UNKNOWN     UNKNOWN        : RHOB:litodensidad:rC:NONE:v0 (auto-composite)
THOR     .ppm         UNKNOWN        : THOR:Espectrometria:rC:NONE:v0 (auto-composite)
URAN     .ppm         UNKNOWN        : URAN:Espectrometria:rC:NONE:v0 (auto-composite)
~A     DEPTH         CALI          CGR         DRHO           DT           GR          ILD          LLD          LLS         MSFL         NPHI          PEF         POTA         RHOB         THOR         URAN
# ...
   3187.6033       5.9134      25.9103       0.0376      58.8124      63.1319    -999.2500      61.0981      67.9732      84.5068       0.0534       4.5128       0.0082       2.5927       2.6785       4.2171
   3187.7556       5.8443      24.9620       0.0341      58.9324      61.3106    -999.2500      83.7810      92.0487     126.0741       0.0516       4.2964       0.0080       2.5913       2.5095       4.1182
   3187.9080       5.8360      19.5786       0.0373      59.1591      53.7059    -999.2500     108.2595     117.5799     159.6595       0.0484       4.2759       0.0066       2.6163       1.8429       3.8666
   3188.0605       5.8345      17.7031       0.0385      58.4587      51.1656    -999.2500     134.7101     144.7572     188.4418       0.0405       4.4786       0.0061       2.6294       1.6320       3.7912
   3188.2129       5.8400      16.0126       0.0306      58.0467      48.7550    -999.2500     140.6120     150.0471     157.1527       0.0312       4.7531       0.0057       2.6343       1.3916       3.7096
   3188.3652       5.8572      15.3127       0.0224      57.6591      47.9242    -999.2500     145.5461     154.7077     201.0263       0.0249       4.6377       0.0056       2.6273       1.2799       3.6948
   3188.5176       5.8441      14.5505       0.0148      56.2735      46.6387    -999.2500     150.1990     159.1769     770.5684       0.0230       4.6764       0.0057       2.6193       1.0600       3.6355
   3188.6702       5.8619      14.4350       0.0187      54.6799      46.3459    -999.2500     150.7155     159.8683     402.1416       0.0223       4.8430       0.0059       2.6300       0.9179       3.6154
   3188.8225       5.9169      14.0795       0.0245      54.4607      45.9343    -999.2500     142.3567     151.6487     276.1914       0.0204       5.2063       0.0060       2.6475       0.8276       3.6091
   3188.9749       5.8984      15.9064       0.0361      54.9711      48.7418    -999.2500     122.4678     132.1924     125.9155       0.0211       4.7875       0.0068       2.6734       0.8905       3.7202
   3189.1272       5.8743      18.1893       0.0448      55.1493      52.2703    -999.2500     100.3773     109.2976      78.5438       0.0221       4.5397       0.0075       2.6588       1.1499       3.8613
   3189.2798       5.8923      20.0904       0.0459      55.5690      55.3618    -999.2500      88.7310      97.4773      97.5155       0.0239       4.4338       0.0078       2.6534       1.4656       3.9962
   3189.4321       5.8886      20.1169       0.0453      55.2163      55.2096    -999.2500      70.5984      78.5381      95.5413       0.0245       4.5254       0.0079       2.6457       1.4400       3.9759
   3189.5845       5.8663      16.9462       0.0499      55.1808      44.1824    -999.2500      63.0208      70.6099      67.1112       0.0261       4.6108       0.0071       2.6642       1.0396       3.0858
   3189.7368       5.8902      17.5268       0.0552      55.4503      45.0158    -999.2500      60.4341      68.0207      40.8415       0.0267       4.6313       0.0072       2.6719       1.1251       3.1144
   3189.8892       5.8922      15.3191       0.0435      55.2497      41.6357    -999.2500      60.1539      68.1199      80.7729       0.0277       4.9095       0.0069       2.6623       0.7453       2.9816
   3190.0417       5.8527      25.9789       0.0508      55.5902      52.8014    -999.2500      59.0038      67.0078     312.8857       0.0268       5.0423       0.0118       2.6667       1.2017       3.0389
   3190.1941       5.8480      25.2180       0.0414      55.4119      51.7804    -999.2500      59.7033      67.9296     114.9932       0.0269       4.9703       0.0115       2.6592       1.1249       3.0095
   3190.3464       5.9099      27.7269       0.0379      54.7197      56.6819    -999.2500      61.7228      70.5338      38.7459       0.0256       4.8365       0.0124       2.6589       1.3637       3.2805
   3190.4988       5.8983      24.7434       0.0316      55.8245      52.6937    -999.2500      56.6635      65.2503      78.1402       0.0248       4.7593       0.0113       2.6575       1.1092       3.1667
   3190.6514       5.8967      24.8670       0.0365      56.1571      53.7074    -999.2500      54.8695      62.8726      65.5938       0.0239       4.7691       0.0110       2.6612       1.2701       3.2675
   3190.8037       5.8930      25.0773       0.0226      54.6603      54.3207    -999.2500      56.7980      64.6290      71.0494       0.0235       4.5959       0.0110       2.6557       1.3074       3.3132
   3190.9561       5.9038      24.6536       0.0202      55.1073      54.1746    -999.2500      57.7704      65.2145      55.4026       0.0237       4.4234       0.0108       2.6661       1.3088       3.3447
   3191.1084       5.9036      20.7965       0.0124      54.6347      49.0055    -999.2500      59.1199      66.2656     108.1003       0.0234       4.3515       0.0092       2.6687       1.0482       3.1960
   3191.2610       5.8968      20.2147       0.0087      53.8513      48.7168    -999.2500      63.6665      70.7490      46.4217       0.0235       4.3771       0.0087       2.6643       1.1153       3.2292
   3191.4133       5.8966      19.1985       0.0006      54.1440      47.9326    -999.2500      69.1534      75.9465      67.8620       0.0244       4.6726       0.0082       2.6537       1.0995       3.2555
   3191.5657       5.8959      17.8596       0.0012      53.7636      46.6529    -999.2500      75.1225      81.8391      56.5909       0.0257       4.8888       0.0077       2.6447       0.9746       3.2622
   3191.7180       5.8933      16.5472       0.0093      54.5005      45.3227    -999.2500      78.6005      85.1357      66.3603       0.0272       5.0616       0.0071       2.6393       0.9290       3.2602
   3191.8704       5.8681      14.4084       0.0120      54.6282      42.0746    -999.2500      84.5974      90.5825      67.9772       0.0297       4.9545       0.0064       2.6290       0.7241       3.1345
   3192.0229       5.8654      15.5115       0.0128      56.7671      43.6291    -999.2500      94.7918     100.9252     118.6043       0.0334       4.7353       0.0067       2.6250       0.8554       3.1857
   3192.1753       5.8645      13.2167       0.0179      56.9298      40.1635    -999.2500      86.3014      92.8397     105.9827       0.0388       4.3944       0.0061       2.6252       0.5497       3.0530
   3192.3276       5.8658      13.1104       0.0184      59.5594      39.8141    -999.2500      84.4137      90.4876     102.5092       0.0425       4.0937       0.0062       2.6212       0.4968       3.0255
   3192.4800       5.8633      13.2997       0.0110      60.0027      39.8405    -999.2500      87.7764      94.0114     100.4516       0.0431       4.0422       0.0062       2.6061       0.5310       3.0070
   3192.6326       5.8515      14.6391       0.0116      61.4240      41.4709    -999.2500      89.0981      95.2487     106.2640       0.0419       4.4247       0.0067       2.6118       0.6408       3.0400
   3192.7849       5.8862      14.7644       0.0116      60.8844      41.1720    -999.2500      86.9941      92.6087      92.5987       0.0391       4.6997       0.0068       2.6205       0.6222       2.9919
   3192.9373       5.8950      15.5281       0.0110      59.8205      41.7587    -999.2500      82.9191      87.5038      77.5950       0.0383       4.9564       0.0071       2.6286       0.7014       2.9719
   3193.0896       5.8966      18.1486       0.0108      57.6223      45.2212    -999.2500      69.2422      72.6829     106.6035       0.0395       4.8283       0.0079       2.6325       0.9931       3.0673
   3193.2422       5.8909      18.0655       0.0083      57.0999      44.6700    -999.2500      59.9423      61.9805      98.7178       0.0400       4.8205       0.0082       2.6241       0.8394       3.0142
   3193.3945       5.8636      17.8119       0.0076      56.6536      44.1570    -999.2500      58.9039      60.5148      31.3814       0.0395       4.5379       0.0085       2.6220       0.6616       2.9848
