#------------------------------------------------------------------------------
#
#   Created by  : [OpenWorks] Log Export Utility (LEXP)
#   Created on  : 2016-05-23 11:57:25
#   Project     : CANT971
#   User        : R5K
#   Interpreter : PEP
#
#------------------------------------------------------------------------------
~VERSION INFORMATION
VERS. 2.0 : CWLS Log ASCII Standard - version 2.0
WRAP.  NO : One line per depth step
~WELL INFORMATION
#MNEMONIC   .UNIT                                           VALUE :DESCRIPTION
#------------------------------------------------------------------------------
STRT        .M                                           497.5860 :START DEPTH
STOP        .M                                          2904.1343 :STOP DEPTH
STEP        .M                                             0.1524 :STEP
NULL        .                                           -999.2500 :NULL VALUE
COMP        .                                   PEMEX EXPL & PROD :COMPANY
WELL        .                                                 82A :WELL
FLD         .                                           CANTARELL :FIELD
LOC         .                                             UNKNOWN :LOCATION
CNTY        .                                      CD. DEL CARMEN :COUNTY
STAT        .                                            CAMPECHE :STATE
CTRY        .                                              MEXICO :COUNTRY
SRVC        .                                             UNKNOWN :SERVICE COMPANY
DATE        .                                             UNKNOWN :LOG DATE
UWI         .                                          3060000184 :UNIQUE WELL ID
XCOORD      .                                       601716.340000 :SURFACE X
YCOORD      .                                      2142348.150000 :SURFACE Y
LAT         .                                           19.373822 :LATITUDE
LON         .                                          -92.031440 :LONGITUDE
ELEV        .M                                            24.0000 :SURFACE ELEV
ELEV_TYPE   .                                                  KB :ELEV TYPE
~CURVE INFORMATION
#MNEMONIC.UNIT        API CODE       : CURVE DESCRIPTION
#------------------------------------------------------------------------------
DEPTH    .M                          : Measured Depth
CAL      .inches      UNKNOWN        : CAL:UNKNOWN:rC:NONE:v0 (auto-composite)
DRHO     .g/cm3       UNKNOWN        : DRHO:UNKNOWN:rC:NONE:v0 (auto-composite)
DT       .us/ft       UNKNOWN        : DT:DT:rC:NONE:v0 (auto-composite)
GR       .api         UNKNOWN        : GR:GR-Load:rC:NONE:v0 (auto-composite)
ILD      .ohm.m       UNKNOWN        : ILD:PETROWORKS:rC:NONE:v1 
LLD      .ohmm        UNKNOWN        : LLD:UNKNOWN:rC:NONE:v0 (auto-composite)
LLS      .ohmm        UNKNOWN        : LLS:UNKNOWN:rC:NONE:v0 (auto-composite)
MSFL     .ohmm        UNKNOWN        : MSFL:PETROWORKS:rC:NONE:v1 
NPHI     .v/v_decimal UNKNOWN        : NPHI:NPHI:rC:NONE:v0 (auto-composite)
PEF      .b/elec      UNKNOWN        : PEF:UNKNOWN:rC:NONE:v0 (auto-composite)
RG       .API         UNKNOWN        : RG:UNKNOWN:rC:NONE:v0 (auto-composite)
RHOB     .g/cm3       UNKNOWN        : RHOB:UNKNOWN:rC:NONE:v0 (auto-composite)
~A     DEPTH          CAL         DRHO           DT           GR          ILD          LLD          LLS         MSFL         NPHI          PEF           RG         RHOB
# ...
   1894.7892      11.6350       0.0686    -999.2500      26.7626    -999.2500     171.0556      90.9216       2.5027      11.8109       1.5887      41.3747       1.4862
   1894.9417      11.6865       0.0685    -999.2500      27.2249    -999.2500     157.3180      83.2404       3.8852      11.9879       1.6845      40.8565       1.4749
   1895.0940      11.1043       0.0655    -999.2500      28.4168    -999.2500     147.9881      77.6538       4.5463      12.1264       1.8080      39.6775       1.5949
   1895.2463      10.5656       0.0623    -999.2500      29.8519    -999.2500     140.2493      73.4791       4.1982      12.2179       1.9442      38.5179       1.7074
   1895.3988      10.2343       0.0583    -999.2500      31.4638    -999.2500     140.0954      76.0345       4.5274      12.7239       2.1416      37.4503       1.7849
   1895.5511       9.9206       0.0565    -999.2500      32.1016    -999.2500     142.5853      79.3290       5.7584      13.7312       2.2972      36.7350       1.8456
   1895.7036       9.6912       0.0650    -999.2500      32.0301    -999.2500     157.8247      86.1880       8.1409      14.1659       2.2517      37.7191       1.8256
   1895.8560       9.5404       0.0711    -999.2500      31.2976    -999.2500     173.7248      93.1812      11.9691      13.9098       2.1737      38.4330       1.7975
   1896.0084       9.7712       0.0656    -999.2500      30.0837    -999.2500     192.8304     100.8248      11.8349      13.3156       1.9379      37.8360       1.7300
   1896.1608      10.2438       0.0642    -999.2500      28.8576    -999.2500     210.5143     107.6847       6.3647      12.3146       1.7412      36.9408       1.6782
   1896.3132      11.9029       0.0832    -999.2500      27.6226    -999.2500     221.2184     110.6967       3.7571      11.8316       1.7362      34.5818       1.7032
   1896.4656      13.3898       0.1039    -999.2500      27.7002    -999.2500     229.2174     112.7188       5.1208      11.9716       1.7832      32.2562       1.7461
   1896.6180      14.0216       0.1334    -999.2500      28.7312    -999.2500     223.7767     109.8231       5.2977      11.7705       2.0885      30.0972       1.8781
   1896.7704      14.5206       0.1564    -999.2500      30.0277    -999.2500     217.1634     106.6311       3.8731      11.1603       2.3318      28.3285       1.9793
   1896.9229      14.3562       0.1469    -999.2500      31.5173    -999.2500     204.6873     101.9579       2.8223      10.8307       2.2649      28.5113       1.9268
   1897.0752      14.2503       0.1336    -999.2500      33.3666    -999.2500     190.0402      95.8446       2.3207      10.8367       2.1555      28.9862       1.8512
   1897.2275      14.4403       0.1012    -999.2500      35.4766    -999.2500     164.4088      82.4438       1.9323      10.5391       1.8311      30.9389       1.6582
   1897.3800      14.6229       0.0697    -999.2500      36.3587    -999.2500     139.6132      69.7719       1.7129       9.8793       1.5494      32.4174       1.4682
   1897.5323      14.7688       0.0438    -999.2500      36.3511    -999.2500     119.0733      60.8103     326.0456       9.3343       1.4850      31.4817       1.2929
   1897.6848      14.8178       0.0201    -999.2500      37.0645    -999.2500      99.6880      52.5722    1068.5902       8.9256       1.4664      30.6614       1.1491
   1897.8372      14.3675       0.0086    -999.2500      38.2984    -999.2500      86.2538      48.0627    1501.2289       8.4579       1.6843      30.4360       1.1681
   1897.9896      13.8492       0.0017    -999.2500      39.0746    -999.2500      73.9487      43.9037    1501.4319       7.9202       1.9058      30.2405       1.2032
   1898.1420      12.9779       0.0187    -999.2500      39.5201    -999.2500      67.5001      41.5631    1285.3003       7.3323       2.1461      30.2006       1.3221
   1898.2944      12.2610       0.0368    -999.2500      38.7700    -999.2500      61.9544      39.5406     791.5735       6.6851       2.3505      30.0496       1.4298
   1898.4468      12.3550       0.0608    -999.2500      37.1559    -999.2500      61.1508      39.1883     503.7831       6.1809       2.3660      29.3154       1.4788
   1898.5992      12.4788       0.0823    -999.2500      35.4681    -999.2500      60.8996      38.8699     502.1986       5.8453       2.3749      28.7160       1.5207
   1898.7516      12.7606       0.0903    -999.2500      33.7272    -999.2500      63.5684      38.7310     402.2480       5.6079       2.3489      28.8294       1.5252
   1898.9041      12.9433       0.0932    -999.2500      33.1116    -999.2500      66.1930      38.7494     176.6837       5.4858       2.3474      29.1433       1.5234
   1899.0564      12.5955       0.0692    -999.2500      33.3071    -999.2500      68.5816      39.6091      46.2519       5.7629       2.4768      30.5296       1.4879
   1899.2087      12.3302       0.0470    -999.2500      36.6150    -999.2500      71.8069      40.9458      47.3824       6.5074       2.6123      32.0381       1.4677
   1899.3612      12.5111       0.0340    -999.2500      42.1665    -999.2500      79.5676      44.8666     113.5567       7.3787       2.7812      34.2087       1.5302
   1899.5135      12.7707       0.0290    -999.2500      43.9199    -999.2500      88.1541      49.0664     262.4395       8.3985       2.9295      35.9925       1.6034
   1899.6660      13.4596       0.0674    -999.2500      42.9434    -999.2500     101.2462      54.7887     285.9735       8.6944       2.9650      35.6668       1.7353
   1899.8184      14.0723       0.1037    -999.2500      41.5489    -999.2500     112.9511      59.6044     143.5944       8.1447       3.0004      35.5328       1.8524
   1899.9708      14.2638       0.1277    -999.2500      39.8540    -999.2500     116.9908      59.4115      55.2802       7.2651       3.0359      36.4579       1.8873
   1900.1232      14.4444       0.1501    -999.2500      39.5221    -999.2500     119.5766      58.7210      41.9233       6.0011       3.0771      37.4276       1.9200
   1900.2756      14.5653       0.1641    -999.2500      40.1703    -999.2500     114.0747      55.2629     181.3601       4.9378       3.1501      38.6456       1.9395
   1900.4280      14.7320       0.1736    -999.2500      41.2715    -999.2500     108.8422      52.0419     514.5887       4.1075       3.2012      39.4155       1.9539
   1900.5804      15.1568       0.1576    -999.2500      42.6975    -999.2500     105.1278      50.1573     662.7269       3.6989       3.1298      37.6608       1.9399
   1900.7328      15.5057       0.1387    -999.2500      43.8116    -999.2500     101.3867      48.2258     562.2615       3.7784       3.0118      35.7931       1.9246
   1900.8853      15.4238       0.1032    -999.2500      44.7021    -999.2500      97.4945      46.0292     722.9438       4.2092       2.6301      33.2847       1.9021
   1901.0376      15.2851       0.0690    -999.2500      43.9590    -999.2500      94.4276      44.2886    1216.9657       5.0455       2.2702      31.4191       1.8881
   1901.1899      14.8203       0.0420    -999.2500      42.0443    -999.2500      96.1048      45.1703    1320.3251       5.1353       2.0353      33.2489       1.9226
   1901.3424      14.5279       0.0153    -999.2500      39.6336    -999.2500      98.2612      46.1859     910.5555       4.3660       1.8540      35.2793       1.9619
   1901.4948      15.2333      -0.0097    -999.2500      36.8682    -999.2500     103.1900      47.9769     545.2910       4.0146       1.9829      38.4717       2.0288
   1901.6472      15.6683      -0.0289    -999.2500      35.8973    -999.2500     107.7220      49.5389     254.2964       4.1427       2.1199      40.8411       2.1084
   1901.7996      14.5173      -0.0144    -999.2500      36.2099    -999.2500     109.9257      49.7577     318.0741       4.0146       2.3042      38.3842       2.2623
   1901.9520      13.5476      -0.0007    -999.2500      36.9763    -999.2500     112.3192      50.2102     838.8256       3.5934       2.4559      36.0049       2.4029
