#------------------------------------------------------------------------------
#
#   Created by  : [OpenWorks] Log Export Utility (LEXP)
#   Created on  : 2016-05-23 11:57:10
#   Project     : CANT971
#   User        : R5K
#   Interpreter : PEP
#
#------------------------------------------------------------------------------
~VERSION INFORMATION
VERS. 2.0 : CWLS Log ASCII Standard - version 2.0
WRAP.  NO : One line per depth step
~WELL INFORMATION
#MNEMONIC   .UNIT                                           VALUE :DESCRIPTION
#------------------------------------------------------------------------------
STRT        .M                                           345.0980 :START DEPTH
STOP        .M                                          2040.8528 :STOP DEPTH
STEP        .M                                             0.1524 :STEP
NULL        .                                           -999.2500 :NULL VALUE
COMP        .                                   PEMEX EXPL & PROD :COMPANY
WELL        .                                                  71 :WELL
FLD         .                                           CANTARELL :FIELD
LOC         .                                             UNKNOWN :LOCATION
CNTY        .                                      CD. DEL CARMEN :COUNTY
STAT        .                                            CAMPECHE :STATE
CTRY        .                                              MEXICO :COUNTRY
SRVC        .                                             UNKNOWN :SERVICE COMPANY
DATE        .                                             UNKNOWN :LOG DATE
UWI         .                                          3060000175 :UNIQUE WELL ID
XCOORD      .                                       599724.470000 :SURFACE X
YCOORD      .                                      2147216.900000 :SURFACE Y
LAT         .                                           19.417919 :LATITUDE
LON         .                                          -92.050150 :LONGITUDE
ELEV        .M                                            27.8000 :SURFACE ELEV
ELEV_TYPE   .                                                  KB :ELEV TYPE
~CURVE INFORMATION
#MNEMONIC.UNIT        API CODE       : CURVE DESCRIPTION
#------------------------------------------------------------------------------
DEPTH    .M                          : Measured Depth
DT       .us/ft       UNKNOWN        : DT:DT:rC:NONE:v0 (auto-composite)
GR       .UNKNOWN     UNKNOWN        : GR:GR-Load:rC:NONE:v0 (auto-composite)
ILD      .UNKNOWN     UNKNOWN        : ILD:ILD-Load:rC:NONE:v0 (auto-composite)
NPHI     .v/v_decimal UNKNOWN        : NPHI:NPHI:rC:NONE:v0 (auto-composite)
RG       .UNKNOWN     UNKNOWN        : RG:RG-Loader:rC:NONE:v0 (auto-composite)
RHOB     .UNKNOWN     UNKNOWN        : RHOB:RHOB-Load:rC:NONE:v0 (auto-composite)
~A     DEPTH           DT           GR          ILD         NPHI           RG         RHOB
# ...
   1873.9749    -999.2500      81.8975      70.9801      11.1839    -999.2500    -999.2500
   1874.1272    -999.2500      79.1251      63.9443      11.0693    -999.2500    -999.2500
   1874.2797    -999.2500      74.6605      59.9036      10.5076    -999.2500    -999.2500
   1874.4320    -999.2500      67.8692      59.9811       9.3312    -999.2500    -999.2500
   1874.5845    -999.2500      64.4897      60.9288       8.6662    -999.2500    -999.2500
   1874.7368    -999.2500      65.8027      63.0732       8.7047    -999.2500    -999.2500
   1874.8893    -999.2500      66.5072      65.2056       9.3024    -999.2500    -999.2500
   1875.0416    -999.2500      66.3747      67.3214      10.6693    -999.2500    -999.2500
   1875.1940    -999.2500      64.9304      69.3974      11.1123    -999.2500    -999.2500
   1875.3464    -999.2500      61.6810      71.4188      10.2839    -999.2500    -999.2500
   1875.4988    -999.2500      57.5861      72.9124       9.8183    -999.2500    -999.2500
   1875.6512    -999.2500      52.3272      73.6819       9.8523    -999.2500    -999.2500
   1875.8036    -999.2500      49.6559      73.9468      10.3053    -999.2500    -999.2500
   1875.9561    -999.2500      50.5468      73.5193      11.3353    -999.2500    -999.2500
   1876.1084    -999.2500      50.9330      73.2882      11.9158    -999.2500    -999.2500
   1876.2609    -999.2500      50.6240      73.3267      11.8773    -999.2500    -999.2500
   1876.4132    -999.2500      46.2752      75.1111      11.1625    -999.2500    -999.2500
   1876.5657    -999.2500      36.3615      79.2924       9.5160    -999.2500    -999.2500
   1876.7180    -999.2500      30.6526      81.6593       8.5727    -999.2500    -999.2500
   1876.8705    -999.2500      30.7181      81.5343       8.5982    -999.2500    -999.2500
   1877.0228    -999.2500      34.4080      80.2805       8.8342    -999.2500    -999.2500
   1877.1752    -999.2500      43.0768      77.4761       9.3602    -999.2500    -999.2500
   1877.3276    -999.2500      48.0689      73.2769      10.0238    -999.2500    -999.2500
   1877.4800    -999.2500      48.0094      67.1611      10.8773    -999.2500    -999.2500
   1877.6324    -999.2500      46.7695      61.2316      11.3611    -999.2500    -999.2500
   1877.7848    -999.2500      43.9071      55.5583      11.3351    -999.2500    -999.2500
   1877.9373    -999.2500      42.2702      49.8913      11.3229    -999.2500    -999.2500
   1878.0896    -999.2500      42.3182      44.2330      11.3299    -999.2500    -999.2500
   1878.2421    -999.2500      42.7409      40.9692      11.4157    -999.2500    -999.2500
   1878.3944    -999.2500      43.6789      40.9982      11.6097    -999.2500    -999.2500
   1878.5469    -999.2500      44.6133      41.2645      12.2242    -999.2500    -999.2500
   1878.6992    -999.2500      45.5428      41.8572      13.4172    -999.2500    -999.2500
   1878.8516    -999.2500      46.6374      42.7491      14.8168    -999.2500    -999.2500
   1879.0040    -999.2500      47.9594      44.0510      16.5007    -999.2500    -999.2500
   1879.1564    -999.2500      54.2931      45.5324      19.8527    -999.2500    -999.2500
   1879.3088    -999.2500      67.5237      47.2598      25.5000    -999.2500    -999.2500
   1879.4612    -999.2500      75.1449      49.6641      28.7399    -999.2500    -999.2500
   1879.6136    -999.2500      75.0449      52.9970      28.6659    -999.2500    -999.2500
   1879.7660    -999.2500      74.2207      56.6443      28.0992    -999.2500    -999.2500
   1879.9185    -999.2500      72.3992      60.7232      26.8543    -999.2500    -999.2500
   1880.0708    -999.2500      69.9798      65.7402      25.9101    -999.2500    -999.2500
   1880.2233    -999.2500      66.7369      72.0450      25.3801    -999.2500    -999.2500
   1880.3756    -999.2500      61.6918      78.0357      23.4859    -999.2500    -999.2500
   1880.5281    -999.2500      54.1641      83.5950      19.7125    -999.2500    -999.2500
   1880.6804    -999.2500      49.2493      87.8042      17.7417    -999.2500    -999.2500
   1880.8328    -999.2500      47.9234      90.1591      18.2547    -999.2500    -999.2500
   1880.9852    -999.2500      47.2567      90.4031      18.5261    -999.2500    -999.2500
   1881.1376    -999.2500      47.4957      87.7472      18.4646    -999.2500    -999.2500
   1881.2900    -999.2500      50.7976      86.2283      18.0218    -999.2500    -999.2500
   1881.4424    -999.2500      58.3084      86.2718      17.0534    -999.2500    -999.2500
   1881.5948    -999.2500      62.6221      86.7146      16.1369    -999.2500    -999.2500
   1881.7472    -999.2500      62.5416      87.7060      15.2921    -999.2500    -999.2500
   1881.8997    -999.2500      61.8051      90.6824      15.6171    -999.2500    -999.2500
   1882.0520    -999.2500      60.1666      96.3877      17.5506    -999.2500    -999.2500
   1882.2045    -999.2500      56.2872     102.0716      18.6471    -999.2500    -999.2500
   1882.3568    -999.2500      49.3259     107.7259      18.5926    -999.2500    -999.2500
   1882.5093    -999.2500      44.3306     112.8628      17.4200    -999.2500    -999.2500
   1882.6616    -999.2500      42.0397     117.2879      14.7096    -999.2500    -999.2500
   1882.8140    -999.2500      40.4710     119.7319      13.1970    -999.2500    -999.2500
   1882.9664    -999.2500      39.8960     119.4589      13.3325    -999.2500    -999.2500
   1883.1188    -999.2500      39.5990     117.6613      15.5170    -999.2500    -999.2500
   1883.2712    -999.2500      39.6845     113.7724      20.5213    -999.2500    -999.2500
   1883.4236    -999.2500      42.6433     109.2552      23.0220    -999.2500    -999.2500
   1883.5760    -999.2500      49.5576     103.8759      22.0760    -999.2500    -999.2500
   1883.7284    -999.2500      53.5066      97.4696      22.6189    -999.2500    -999.2500
   1883.8809    -999.2500      53.3726      89.6538      25.2118    -999.2500    -999.2500
   1884.0332    -999.2500      52.4544      82.2835      26.6726    -999.2500    -999.2500
   1884.1857    -999.2500      50.4559      75.5247      26.5741    -999.2500    -999.2500
   1884.3380    -999.2500      47.5503      71.7031      25.8479    -999.2500    -999.2500
   1884.4905    -999.2500      43.3947      71.9146      24.2569    -999.2500    -999.2500
   1884.6428    -999.2500      39.6690      73.5324      21.4013    -999.2500    -999.2500
   1884.7952    -999.2500      36.5336      77.0818      16.8029    -999.2500    -999.2500
   1884.9476    -999.2500      34.7287     100.3728      14.9738    -999.2500    -999.2500
   1885.1000    -999.2500      34.7517     150.7857      16.9618    -999.2500    -999.2500
   1885.2524    -999.2500      34.9185     179.6428      18.1020    -999.2500    -999.2500
   1885.4048    -999.2500      35.2830     178.8778      18.0735    -999.2500    -999.2500
   1885.5573    -999.2500      35.9642     163.8030      17.9184    -999.2500    -999.2500
   1885.7096    -999.2500      37.0806     129.0586      17.5888    -999.2500    -999.2500
   1885.8621    -999.2500      38.1369     109.0931      16.5422    -999.2500    -999.2500
   1886.0144    -999.2500      39.1104     109.4470      14.5098    -999.2500    -999.2500
   1886.1669    -999.2500      40.7296     115.9046      13.4018    -999.2500    -999.2500
   1886.3192    -999.2500      43.2371     130.7561      13.5653    -999.2500    -999.2500
   1886.4717    -999.2500      46.0436     134.6608      14.8270    -999.2500    -999.2500
   1886.6240    -999.2500      49.2615     123.5066      17.5994    -999.2500    -999.2500
   1886.7764    -999.2500      50.9312     117.2112      19.2021    -999.2500    -999.2500
   1886.9288    -999.2500      50.4707     117.5792      19.1951    -999.2500    -999.2500
   1887.0812    -999.2500      47.5836     122.8789      19.1443    -999.2500    -999.2500
   1887.2336    -999.2500      41.3568     134.9440      19.0333    -999.2500    -999.2500
