#------------------------------------------------------------------------------
#
#   Created by  : [OpenWorks] Log Export Utility (LEXP)
#   Created on  : 2016-05-23 11:50:56
#   Project     : CANT971
#   User        : R5K
#   Interpreter : PEP
#
#------------------------------------------------------------------------------
~VERSION INFORMATION
VERS. 2.0 : CWLS Log ASCII Standard - version 2.0
WRAP.  NO : One line per depth step
~WELL INFORMATION
#MNEMONIC   .UNIT                                           VALUE :DESCRIPTION
#------------------------------------------------------------------------------
STRT        .M                                           679.7040 :START DEPTH
STOP        .M                                          2836.1641 :STOP DEPTH
STEP        .M                                             0.1524 :STEP
NULL        .                                           -999.2500 :NULL VALUE
COMP        .                                   PEMEX EXPL & PROD :COMPANY
WELL        .                                                1044 :WELL
FLD         .                                           CANTARELL :FIELD
LOC         .                                             UNKNOWN :LOCATION
CNTY        .                                      CD. DEL CARMEN :COUNTY
STAT        .                                            CAMPECHE :STATE
CTRY        .                                              MEXICO :COUNTRY
SRVC        .                                             UNKNOWN :SERVICE COMPANY
DATE        .                                             UNKNOWN :LOG DATE
UWI         .                                          3060000497 :UNIQUE WELL ID
XCOORD      .                                       596164.320000 :SURFACE X
YCOORD      .                                      2150609.730000 :SURFACE Y
LAT         .                                           19.448753 :LATITUDE
LON         .                                          -92.083884 :LONGITUDE
ELEV        .M                                            30.0000 :SURFACE ELEV
ELEV_TYPE   .                                                  KB :ELEV TYPE
~CURVE INFORMATION
#MNEMONIC.UNIT        API CODE       : CURVE DESCRIPTION
#------------------------------------------------------------------------------
DEPTH    .M                          : Measured Depth
CALI     .inches      UNKNOWN        : CALI:litodensidad:rC:NONE:v0 (auto-composite)
DRHO     .g/cm3       UNKNOWN        : DRHO:litodensidad:rC:NONE:v0 (auto-composite)
DT       .us/ft       UNKNOWN        : DT:DT:rC:NONE:v0 (auto-composite)
GR       .API         UNKNOWN        : GR:UNKNOWN:rC:NONE:v0 (auto-composite)
ILD      .ohm.m       UNKNOWN        : ILD:UNKNOWN:rC:NONE:v0 (auto-composite)
ILM      .ohm.m       UNKNOWN        : ILM:UNKNOWN:rC:NONE:v0 (auto-composite)
LLD      .ohm.m       UNKNOWN        : LLD:UNKNOWN:rC:NONE:v0 (auto-composite)
LLS      .ohm.m       UNKNOWN        : LLS:UNKNOWN:rC:NONE:v0 (auto-composite)
MSFL     .ohm.m       UNKNOWN        : MSFL:UNKNOWN:rC:NONE:v0 (auto-composite)
NPHI     .v/v_decimal UNKNOWN        : NPHI:NPHI:rC:NONE:v0 (auto-composite)
PEF      .b/elec      UNKNOWN        : PEF:UNKNOWN:rC:NONE:v0 (auto-composite)
RHOB     .g/cm3       UNKNOWN        : RHOB:UNKNOWN:rC:NONE:v0 (auto-composite)
~A     DEPTH         CALI         DRHO           DT           GR          ILD          ILM          LLD          LLS         MSFL         NPHI          PEF         RHOB
# ...
   2435.3521       8.8250       0.0080      59.5760      64.5430    -999.2500    -999.2500      39.2891      52.6738     202.6650       0.1174       3.2740       2.6370
   2435.5044       8.8589       0.0070      57.3453      66.5414    -999.2500    -999.2500      36.9556      49.9590     200.4962       0.1032       3.2765       2.6660
   2435.6567       8.8930       0.0060      55.1070      68.5370    -999.2500    -999.2500      34.6142      47.2349     198.3199       0.0888       3.2790       2.6950
   2435.8091       8.8626       0.0025      55.5337      67.4228    -999.2500    -999.2500      37.4351      51.1491     189.4424       0.0896       3.3599       2.6890
   2435.9617       8.8320      -0.0010      55.9620      66.3100    -999.2500    -999.2500      40.2660      55.0773     180.5335       0.0904       3.4410       2.6830
   2436.1140       8.7646      -0.0000      57.0989      63.6033    -999.2500    -999.2500      45.0848      61.5731     167.8261       0.0956       3.4235       2.6730
   2436.2664       8.6970       0.0010      58.2400      60.9040    -999.2500    -999.2500      49.9213      68.0927     155.0723       0.1008       3.4060       2.6630
   2436.4187       8.6555       0.0050      57.8879      59.0631    -999.2500    -999.2500      53.4332      72.8719     134.0668       0.0974       3.3830       2.6730
   2436.5713       8.6140       0.0090      57.5350      57.2270    -999.2500    -999.2500      56.9527      77.6616     113.0156       0.0939       3.3600       2.6830
   2436.7236       8.6040       0.0085      56.0617      56.2708    -999.2500    -999.2500      56.3938      76.9714     102.7696       0.0947       3.3775       2.6810
   2436.8760       8.5940       0.0080      54.5850      55.3170    -999.2500    -999.2500      55.8335      76.2795      92.4999       0.0954       3.3950       2.6790
   2437.0283       8.5880       0.0060      54.9486      55.9377    -999.2500    -999.2500      54.1510      74.0200      92.9253       0.0987       3.4649       2.6710
   2437.1807       8.5820       0.0040      55.3130      56.5570    -999.2500    -999.2500      52.4643      71.7550      93.3517       0.1020       3.5350       2.6630
   2437.3333       8.6125       0.0020      56.4595      57.4180    -999.2500    -999.2500      51.3884      70.2435     105.1701       0.1013       3.7602       2.6555
   2437.4856       8.6430       0.0000      57.6090      58.2770    -999.2500    -999.2500      50.3098      68.7281     117.0188       0.1005       3.9860       2.6480
   2437.6379       8.6285      -0.0005      58.7410      58.9002    -999.2500    -999.2500      50.4857      68.8601     151.1284       0.0984       3.9545       2.6515
   2437.7903       8.6140      -0.0010      59.8760      59.5220    -999.2500    -999.2500      50.6621      68.9925     185.3295       0.0964       3.9230       2.6550
   2437.9429       8.6190      -0.0000      60.7907      60.2743    -999.2500    -999.2500      51.8890      70.4111     208.8410       0.0936       3.8321       2.6695
   2438.0952       8.6240       0.0010      61.7080      61.0250    -999.2500    -999.2500      53.1194      71.8337     232.4184       0.0909       3.7410       2.6840
   2438.2476       8.6754       0.0005      60.8887      60.5270    -999.2500    -999.2500      56.3808      75.6503     242.2055       0.0922       3.5712       2.6795
   2438.3999       8.7270       0.0000      60.0670      60.0300    -999.2500    -999.2500      59.6517      79.4782     252.0213       0.0935       3.4010       2.6750
   2438.5525       8.7265      -0.0015      57.2084      60.2932    -999.2500    -999.2500      65.9635      86.8995     239.2100       0.0973       3.4734       2.6665
   2438.7048       8.7260      -0.0030      54.3410      60.5560    -999.2500    -999.2500      72.2947      94.3436     226.3594       0.1011       3.5460       2.6580
   2438.8572       8.7175      -0.0045      54.5067      62.1963    -999.2500    -999.2500      83.1290     107.0056     208.8370       0.1070       3.4292       2.6485
   2439.0095       8.7090      -0.0060      54.6730      63.8340    -999.2500    -999.2500      93.9978     119.7079     191.2587       0.1129       3.3120       2.6390
   2439.1619       8.6751      -0.0045      55.2191      63.1925    -999.2500    -999.2500     109.5519     137.5852     180.0471       0.1122       3.3200       2.6395
   2439.3145       8.6410      -0.0030      55.7670      62.5520    -999.2500    -999.2500     125.1575     155.5217     168.7984       0.1115       3.3280       2.6400
   2439.4668       8.6091      -0.0035      56.1798      61.0310    -999.2500    -999.2500     143.1706     175.5452     173.7179       0.1136       3.3055       2.6360
   2439.6191       8.5770      -0.0040      56.5940      59.5120    -999.2500    -999.2500     161.2458     195.6377     178.6543       0.1157       3.2830       2.6320
   2439.7715       8.5705      -0.0045      56.6719      57.0475    -999.2500    -999.2500     177.6323     212.8221     183.4502       0.1183       3.2136       2.6260
   2439.9241       8.5640      -0.0050      56.7500      54.5860    -999.2500    -999.2500     194.0509     230.0401     188.2555       0.1209       3.1440       2.6200
   2440.0764       8.5575      -0.0055      57.6436      51.5293    -999.2500    -999.2500     201.9479     236.9054     195.6834       0.1219       3.0766       2.6155
   2440.2288       8.5510      -0.0060      58.5390      48.4810    -999.2500    -999.2500     209.8613     243.7850     203.1268       0.1228       3.0090       2.6110
   2440.3811       8.5475      -0.0060      57.7778      49.0122    -999.2500    -999.2500     203.3788     234.1149     209.6575       0.1250       3.0460       2.6045
   2440.5337       8.5440      -0.0060      57.0150      49.5420    -999.2500    -999.2500     196.8820     224.4234     216.2028       0.1273       3.0830       2.5980
   2440.6860       8.5420      -0.0060      57.2917      51.1600    -999.2500    -999.2500     177.2345     200.7668     216.8395       0.1317       3.1464       2.5910
   2440.8384       8.5400      -0.0060      57.5690      52.7740    -999.2500    -999.2500     157.5411     177.0551     217.4777       0.1361       3.2100       2.5840
   2440.9907       8.5405      -0.0045      58.8040      55.8121    -999.2500    -999.2500     133.1961     148.8238     200.1955       0.1431       3.2639       2.5790
   2441.1431       8.5410      -0.0030      60.0420      58.8430    -999.2500    -999.2500     108.7911     120.5229     182.8708       0.1502       3.3180       2.5740
   2441.2957       8.5420      -0.0040      62.7510      58.0506    -999.2500    -999.2500      89.8593      98.7857     160.2681       0.1499       3.2800       2.5710
   2441.4480       8.5430      -0.0050      65.4670      57.2600    -999.2500    -999.2500      70.8785      76.9922     137.6070       0.1495       3.2420       2.5680
   2441.6003       8.5440      -0.0065      64.9747      57.7655    -999.2500    -999.2500      60.8902      65.5183     106.5132       0.1479       3.1881       2.5560
   2441.7527       8.5450      -0.0080      64.4810      58.2700    -999.2500    -999.2500      50.8747      54.0134      75.3350       0.1463       3.1340       2.5440
   2441.9053       8.5510      -0.0080      61.6680      62.0472    -999.2500    -999.2500      46.5119      48.7952      60.4816       0.1421       3.1150       2.5525
   2442.0576       8.5570      -0.0080      58.8470      65.8170    -999.2500    -999.2500      42.1367      43.5622      45.5861       0.1379       3.0960       2.5610
   2442.2100       8.5690      -0.0075      59.1506      74.0946    -999.2500    -999.2500      37.9137      38.8456      39.1197       0.1239       3.0860       2.5935
   2442.3623       8.5810      -0.0070      59.4550      82.3570    -999.2500    -999.2500      33.6782      34.1150      32.6341       0.1098       3.0760       2.6260
   2442.5149       8.6060      -0.0060      60.4080      94.0185    -999.2500    -999.2500      29.4336      29.5196      29.4130       0.1136       3.1060       2.6185
