#------------------------------------------------------------------------------
#
#   Created by  : [OpenWorks] Log Export Utility (LEXP)
#   Created on  : 2016-05-12 17:01:25
#   Project     : CANT971
#   User        : R5K
#   Interpreter : PEP
#
#------------------------------------------------------------------------------
~VERSION INFORMATION
VERS. 2.0 : CWLS Log ASCII Standard - version 2.0
WRAP.  NO : One line per depth step
~WELL INFORMATION
#MNEMONIC   .UNIT                                           VALUE :DESCRIPTION
#------------------------------------------------------------------------------
STRT        .M                                           310.6675 :START DEPTH
STOP        .M                                          2665.7046 :STOP DEPTH
STEP        .M                                             0.1524 :STEP
NULL        .                                           -999.2500 :NULL VALUE
COMP        .                                   PEMEX EXPL & PROD :COMPANY
WELL        .                                                 77A :WELL
FLD         .                                           CANTARELL :FIELD
LOC         .                                             UNKNOWN :LOCATION
CNTY        .                                      CD. DEL CARMEN :COUNTY
STAT        .                                            CAMPECHE :STATE
CTRY        .                                              MEXICO :COUNTRY
SRVC        .                                             UNKNOWN :SERVICE COMPANY
DATE        .                                             UNKNOWN :LOG DATE
UWI         .                                          3060000181 :UNIQUE WELL ID
XCOORD      .                                       602151.310000 :SURFACE X
YCOORD      .                                      2147165.430000 :SURFACE Y
LAT         .                                           19.417331 :LATITUDE
LON         .                                          -92.027040 :LONGITUDE
ELEV        .M                                            28.1700 :SURFACE ELEV
ELEV_TYPE   .                                                  KB :ELEV TYPE
~CURVE INFORMATION
#MNEMONIC.UNIT        API CODE       : CURVE DESCRIPTION
#------------------------------------------------------------------------------
DEPTH    .M                          : Measured Depth
CALI     .inches      UNKNOWN        : CALI:UNKNOWN:rC:NONE:v0 (auto-composite)
DRHO     .UNKNOWN     UNKNOWN        : DRHO:PETROWORKS:rC:NONE:v1 
DT       .us/ft       UNKNOWN        : DT:DT:rC:NONE:v0 (auto-composite)
GR       .API         UNKNOWN        : GR:UNKNOWN:rC:NONE:v0 (auto-composite)
ILD      .UNKNOWN     UNKNOWN        : ILD:UNKNOWN:rC:NONE:v0 (auto-composite)
LLD      .ohm.m       UNKNOWN        : LLD:UNKNOWN:rC:NONE:v0 (auto-composite)
LLS      .ohm.m       UNKNOWN        : LLS:UNKNOWN:rC:NONE:v0 (auto-composite)
MSFL     .ohm.m       UNKNOWN        : MSFL:UNKNOWN:rC:NONE:v0 (auto-composite)
NPHI     .v/v_decimal UNKNOWN        : NPHI:PETROWORKS:rC:NONE:v1 
RHOB     .UNKNOWN     UNKNOWN        : RHOB:PETROWORKS:rC:NONE:v1 
SP       .UNKNOWN     UNKNOWN        : SP:UNKNOWN:rC:NONE:v0 (auto-composite)
~A     DEPTH         CALI         DRHO           DT           GR          ILD          LLD          LLS         MSFL         NPHI         RHOB           SP
# ...
    437.4643      22.8298       0.1032     153.9074      29.6841       1.0793    -999.2500    -999.2500    -999.2500       0.5104       1.8012      95.6880
    437.6167      22.8556       0.1077     146.0267      27.7584       1.0911    -999.2500    -999.2500    -999.2500       0.5197       1.7894      95.6847
    437.7691      22.8420       0.1095     142.4016      28.4197       1.0936    -999.2500    -999.2500    -999.2500       0.5178       1.7771      95.5769
    437.9215      22.8285       0.1089     143.0007      29.0653       1.0960    -999.2500    -999.2500    -999.2500       0.5047       1.7628      95.4789
    438.0739      22.8150       0.1064     146.5145      29.2939       1.0960    -999.2500    -999.2500    -999.2500       0.4990       1.7453      95.6403
    438.2263      22.8020       0.1030     152.9198      29.5458       1.0961    -999.2500    -999.2500    -999.2500       0.5006       1.7321      95.8017
    438.3787      22.8020       0.0999     155.9863      30.3338       1.0986    -999.2500    -999.2500    -999.2500       0.5043       1.7296      95.9637
    438.5311      22.8020       0.0993     155.7398      31.1670       1.1021    -999.2500    -999.2500    -999.2500       0.5102       1.7307      96.1130
    438.6835      22.8020       0.1033     154.0643      32.9212       1.1257    -999.2500    -999.2500    -999.2500       0.5182       1.7294      96.0052
    438.8359      22.8020       0.1060     150.9706      34.5800       1.1506    -999.2500    -999.2500    -999.2500       0.5284       1.7351      95.8974
    438.9883      22.8020       0.1027     145.6063      34.5038       1.2002    -999.2500    -999.2500    -999.2500       0.5330       1.7555      95.7896
    439.1407      22.8028       0.0968     137.9895      34.3418       1.2490    -999.2500    -999.2500    -999.2500       0.5320       1.7835      95.6818
    439.2931      22.8163       0.0912     134.7850      32.7656       1.2846    -999.2500    -999.2500    -999.2500       0.5298       1.8133      95.5740
    439.4455      22.8290       0.0888     135.9585      31.1671       1.3193    -999.2500    -999.2500    -999.2500       0.5263       1.8321      95.4629
    439.5979      22.8290       0.0919     133.2825      29.2351       1.3409    -999.2500    -999.2500    -999.2500       0.5233       1.8303      95.3009
    439.7503      22.8290       0.0964     126.7861      27.3841       1.3641    -999.2500    -999.2500    -999.2500       0.5207       1.8139      95.1610
    439.9027      22.8290       0.0991     124.0688      26.6466       1.4092    -999.2500    -999.2500    -999.2500       0.5132       1.7884      95.3229
    440.0551      22.8280       0.1020     125.1003      26.1135       1.4545    -999.2500    -999.2500    -999.2500       0.5009       1.7781      95.5084
    440.2075      22.8145       0.1064     127.7741      28.1728       1.5026    -999.2500    -999.2500    -999.2500       0.4949       1.8008      95.9932
    440.3599      22.8031       0.1111     132.0775      30.1088       1.5459    -999.2500    -999.2500    -999.2500       0.4951       1.8549      96.4569
    440.5123      22.8166       0.1153     131.2076      30.5915       1.5319    -999.2500    -999.2500    -999.2500       0.4926       1.9377      96.6730
    440.6647      22.8301       0.1154     125.2037      30.9554       1.5142    -999.2500    -999.2500    -999.2500       0.4875       2.0076      96.8755
    440.8171      22.8437       0.1087     122.2358      30.0150       1.4571    -999.2500    -999.2500    -999.2500       0.4709       2.0348      96.9291
    440.9695      22.8548       0.1023     122.2793      29.2527       1.3998    -999.2500    -999.2500    -999.2500       0.4429       2.0160      96.9636
    441.1219      22.8413       0.1011     123.0808      30.3206       1.3411    -999.2500    -999.2500    -999.2500       0.4318       1.9508      96.8017
    441.2743      22.8303       0.1033     124.6342      31.5653       1.2819    -999.2500    -999.2500    -999.2500       0.4376       1.8749      96.6550
    441.4267      22.8438       0.1075     128.8531      34.5139       1.2173    -999.2500    -999.2500    -999.2500       0.4511       1.8137      96.6550
    441.5791      22.8533       0.1130     135.7171      37.3919       1.1549    -999.2500    -999.2500    -999.2500       0.4722       1.7790      96.6924
    441.7315      22.8262       0.1192     144.1621      39.6294       1.1133    -999.2500    -999.2500    -999.2500       0.4899       1.7778      97.0699
    441.8839      22.8020       0.1246     154.1753      41.7021       1.0757    -999.2500    -999.2500    -999.2500       0.5042       1.8002      97.4418
    442.0363      22.8020       0.1283     158.5855      42.3633       1.0732    -999.2500    -999.2500    -999.2500       0.5011       1.8388      97.7651
    442.1887      22.8035       0.1298     157.4370      42.8181       1.0726    -999.2500    -999.2500    -999.2500       0.4808       1.8802      98.0648
    442.3411      22.8170       0.1288     152.4821      41.5974       1.0877    -999.2500    -999.2500    -999.2500       0.4706       1.9157      98.1726
    442.4935      22.8290       0.1249     143.7499      40.4615       1.1013    -999.2500    -999.2500    -999.2500       0.4707       1.9395      98.2618
    442.6459      22.8290       0.1181     139.4108      39.9787       1.1038    -999.2500    -999.2500    -999.2500       0.4735       1.9484      98.2082
    442.7983      22.8306       0.1094     139.4323      39.4532       1.1051    -999.2500    -999.2500    -999.2500       0.4792       1.9402      98.1286
    442.9507      22.8442       0.0998     139.8268      38.6139       1.0976    -999.2500    -999.2500    -999.2500       0.4926       1.9145      97.8589
    443.1031      22.8560       0.0926     140.5912      37.9693       1.0901    -999.2500    -999.2500    -999.2500       0.5137       1.8759      97.6163
    443.2555      22.8560       0.0899     144.0490      38.6812       1.0825    -999.2500    -999.2500    -999.2500       0.5344       1.8279      97.5626
    443.4079      22.8542       0.0916     150.1793      39.1837       1.0748    -999.2500    -999.2500    -999.2500       0.5546       1.7849      97.5442
    443.5603      22.8407       0.0975     153.0295      38.2939       1.0652    -999.2500    -999.2500    -999.2500       0.5635       1.7552      97.7597
    443.7127      22.8290       0.1036     152.6239      37.3729       1.0573    -999.2500    -999.2500    -999.2500       0.5611       1.7390      97.9679
    443.8651      22.8290       0.1074     151.5571      36.2544       1.0598    -999.2500    -999.2500    -999.2500       0.5547       1.7357      98.1294
    444.0175      22.8271       0.1093     149.8341      35.2725       1.0630    -999.2500    -999.2500    -999.2500       0.5442       1.7401      98.2757
    444.1699      22.8136       0.1094     148.2098      35.1201       1.0700    -999.2500    -999.2500    -999.2500       0.5288       1.7490      98.3298
    444.3223      22.8020       0.1094     146.6833      35.1613       1.0767    -999.2500    -999.2500    -999.2500       0.5086       1.7621      98.3996
    444.4747      22.8020       0.1101     145.8585      36.3310       1.0817    -999.2500    -999.2500    -999.2500       0.4988       1.7793      98.5611
    444.6271      22.8020       0.1151     145.7300      37.4850       1.0871    -999.2500    -999.2500    -999.2500       0.4993       1.8018      98.6980
    444.7795      22.8020       0.1260     145.4153      38.5523       1.0947    -999.2500    -999.2500    -999.2500       0.5004       1.8302      98.6980
    444.9319      22.8020       0.1352     144.9158      39.3602       1.1027    -999.2500    -999.2500    -999.2500       0.5023       1.8583      98.6811
    445.0843      22.8020       0.1387     144.1505      38.7757       1.1132    -999.2500    -999.2500    -999.2500       0.5065       1.8827      98.5733
    445.2367      22.8042       0.1382     143.1215      38.5583       1.1232    -999.2500    -999.2500    -999.2500       0.5132       1.9034      98.4568
