#------------------------------------------------------------------------------
#
#   Created by  : [OpenWorks] Log Export Utility (LEXP)
#   Created on  : 2016-05-23 11:51:57
#   Project     : CANT971
#   User        : R5K
#   Interpreter : PEP
#
#------------------------------------------------------------------------------
~VERSION INFORMATION
VERS. 2.0 : CWLS Log ASCII Standard - version 2.0
WRAP. YES : Mulitple lines per depth step
~WELL INFORMATION
#MNEMONIC   .UNIT                                           VALUE :DESCRIPTION
#------------------------------------------------------------------------------
STRT        .M                                           782.8787 :START DEPTH
STOP        .M                                          2966.0088 :STOP DEPTH
STEP        .M                                             0.1524 :STEP
NULL        .                                           -999.2500 :NULL VALUE
COMP        .                                   PEMEX EXPL & PROD :COMPANY
WELL        .                                                 178 :WELL
FLD         .                                           CANTARELL :FIELD
LOC         .                                             UNKNOWN :LOCATION
CNTY        .                                      CD. DEL CARMEN :COUNTY
STAT        .                                            CAMPECHE :STATE
CTRY        .                                              MEXICO :COUNTRY
SRVC        .                                             UNKNOWN :SERVICE COMPANY
DATE        .                                             UNKNOWN :LOG DATE
UWI         .                                          3060000702 :UNIQUE WELL ID
XCOORD      .                                       602144.590000 :SURFACE X
YCOORD      .                                      2147185.340000 :SURFACE Y
LAT         .                                           19.417512 :LATITUDE
LON         .                                          -92.027103 :LONGITUDE
ELEV        .M                                            28.1700 :SURFACE ELEV
ELEV_TYPE   .                                                  KB :ELEV TYPE
~CURVE INFORMATION
#MNEMONIC.UNIT        API CODE       : CURVE DESCRIPTION
#------------------------------------------------------------------------------
DEPTH    .M                          : Measured Depth
CALI     .inches      UNKNOWN        : CALI:registros:rC:NONE:v0 (auto-composite)
CGR      .API         UNKNOWN        : CGR:registros:rC:NONE:v0 (auto-composite)
DRHO     .g/cm3       UNKNOWN        : DRHO:registros:rC:NONE:v0 (auto-composite)
DT       .UNKNOWN     UNKNOWN        : DT:registros:rC:NONE:v0 (auto-composite)
GR       .API         UNKNOWN        : GR:registros:rC:NONE:v0 (auto-composite)
GR-LWD   .UNKNOWN     UNKNOWN        : GR-LWD:registros:rC:NONE:v0 (auto-composite)
ILD      .ohm.m       UNKNOWN        : ILD:registros:rC:NONE:v0 (auto-composite)
ILM      .ohm.m       UNKNOWN        : ILM:registros:rC:NONE:v0 (auto-composite)
LLD      .ohm.m       UNKNOWN        : LLD:registros:rC:NONE:v0 (auto-composite)
LLD-LWD  .UNKNOWN     UNKNOWN        : LLD-LWD:registros:rC:NONE:v0 (auto-composite)
LLS      .ohm.m       UNKNOWN        : LLS:registros:rC:NONE:v0 (auto-composite)
LLS-LWD  .UNKNOWN     UNKNOWN        : LLS-LWD:registros:rC:NONE:v0 (auto-composite)
MSFL     .ohm.m       UNKNOWN        : MSFL:registros:rC:NONE:v0 (auto-composite)
MSFL-LWD .UNKNOWN     UNKNOWN        : MSFL-LWD:registros:rC:NONE:v0 (auto-composite)
NPHI     .v/v_decimal UNKNOWN        : NPHI:registros:rC:NONE:v0 (auto-composite)
PEF      .b/elec      UNKNOWN        : PEF:registros:rC:NONE:v0 (auto-composite)
POTA     .wtpercent   UNKNOWN        : POTA:registros:rC:NONE:v0 (auto-composite)
RHOB     .g/cm3       UNKNOWN        : RHOB:registros:rC:NONE:v0 (auto-composite)
THOR     .ppm         UNKNOWN        : THOR:registros:rC:NONE:v0 (auto-composite)
URAN     .ppm         UNKNOWN        : URAN:registros:rC:NONE:v0 (auto-composite)
~A
# ...
   2665.6284
    -999.2500      55.6786    -999.2500    -999.2500      77.8741      43.1554
    -999.2500    -999.2500    -999.2500       9.7282    -999.2500      13.9868
    -999.2500      16.3738       0.0769    -999.2500       0.0164    -999.2500
       8.2936       3.3275
   2665.7808
    -999.2500      59.0950    -999.2500    -999.2500      80.9835      50.0484
    -999.2500    -999.2500    -999.2500      11.2267    -999.2500      14.5346
    -999.2500      17.0194       0.0944    -999.2500       0.0175    -999.2500
       8.7852       3.2098
   2665.9331
    -999.2500      62.5573    -999.2500    -999.2500      82.9357      79.8550
    -999.2500    -999.2500    -999.2500      11.6870    -999.2500      12.3315
    -999.2500      13.2488       0.1521    -999.2500       0.0184    -999.2500
       9.3369       3.0657
   2666.0854
    -999.2500      66.0122    -999.2500    -999.2500      86.5675     115.8255
    -999.2500    -999.2500    -999.2500      10.2454    -999.2500       9.0085
    -999.2500       8.9166       0.2287    -999.2500       0.0190    -999.2500
      10.1079       3.1699
   2666.2380
    -999.2500      65.7409    -999.2500    -999.2500      85.0259     138.9295
    -999.2500    -999.2500    -999.2500       9.0627    -999.2500       7.3366
    -999.2500       6.9701       0.2706    -999.2500       0.0194    -999.2500
       9.8165       3.0183
   2666.3904
    -999.2500      64.3651    -999.2500    -999.2500      82.7995     147.6378
    -999.2500    -999.2500    -999.2500       7.4111    -999.2500       5.9988
    -999.2500       5.4635       0.2287    -999.2500       0.0189    -999.2500
       9.6253       2.8997
   2666.5427
    -999.2500      63.7066    -999.2500    -999.2500      82.1898     147.7024
    -999.2500    -999.2500    -999.2500       6.4277    -999.2500       5.6513
    -999.2500       5.2483       0.2025    -999.2500       0.0190    -999.2500
       9.4096       2.8471
   2666.6951
    -999.2500      64.1731    -999.2500    -999.2500      82.4978     142.6803
    -999.2500    -999.2500    -999.2500       6.1682    -999.2500       6.6557
    -999.2500       6.3348       0.1592    -999.2500       0.0192    -999.2500
       9.4138       2.8727
   2666.8474
    -999.2500      63.4735    -999.2500    -999.2500      83.3910     128.8486
    -999.2500    -999.2500    -999.2500       6.4694    -999.2500       8.0363
    -999.2500       8.1225       0.1386    -999.2500       0.0196    -999.2500
       8.9376       3.1208
   2667.0000
    -999.2500      62.9371    -999.2500    -999.2500      82.5231     109.0589
    -999.2500    -999.2500    -999.2500       6.9600    -999.2500       9.0100
    -999.2500       9.9600       0.1305    -999.2500       0.0190    -999.2500
       9.1220       3.2254
   2667.1523
    -999.2500      61.4267    -999.2500    -999.2500      81.9033      88.5547
    -999.2500    -999.2500    -999.2500       7.7583    -999.2500       9.5283
    -999.2500      10.9808       0.1751    -999.2500       0.0188    -999.2500
       8.7924       3.4261
   2667.3047
    -999.2500      61.7438    -999.2500    -999.2500      80.8859      72.3010
    -999.2500    -999.2500    -999.2500       8.0446    -999.2500       9.1171
    -999.2500       9.9277       0.2786    -999.2500       0.0185    -999.2500
       9.0612       3.3847
   2667.4570
    -999.2500      62.0839    -999.2500    -999.2500      83.1384      74.0235
    -999.2500    -999.2500    -999.2500       6.7690    -999.2500       6.7970
    -999.2500       6.7940       0.5195    -999.2500       0.0185    -999.2500
       9.1411       3.8302
   2667.6096
    -999.2500      63.5898    -999.2500    -999.2500      85.8580      98.3034
    -999.2500    -999.2500    -999.2500       5.5742    -999.2500       5.1628
    -999.2500       5.1328       0.4859    -999.2500       0.0187    -999.2500
       9.5422       4.1530
   2667.7620
    -999.2500      65.8785    -999.2500    -999.2500      90.1464     131.4959
    -999.2500    -999.2500    -999.2500       4.9035    -999.2500       4.6482
    -999.2500       4.6369       0.4507    -999.2500       0.0192    -999.2500
       9.9452       4.5806
   2667.9143
    -999.2500      66.1025    -999.2500    -999.2500      91.3630     154.6034
    -999.2500    -999.2500    -999.2500       4.4754    -999.2500       4.3484
    -999.2500       4.3370       0.4794    -999.2500       0.0189    -999.2500
      10.2253       4.8083
   2668.0667
    -999.2500      66.6149    -999.2500    -999.2500      91.3630     166.2935
    -999.2500    -999.2500    -999.2500       4.2766    -999.2500       4.2333
    -999.2500       4.2667       0.4899    -999.2500       0.0188    -999.2500
      10.4451       4.8566
   2668.2192
    -999.2500      66.5482    -999.2500    -999.2500      91.3630     171.0164
    -999.2500    -999.2500    -999.2500       4.2873    -999.2500       4.2753
    -999.2500       4.3892       0.4200    -999.2500       0.0184    -999.2500
      10.6677       5.0326
   2668.3716
    -999.2500      67.0596    -999.2500    -999.2500      91.3630     170.3182
    -999.2500    -999.2500    -999.2500       4.5793    -999.2500       4.4230
    -999.2500       4.5172       0.3914    -999.2500       0.0182    -999.2500
      10.9261       5.0503
   2668.5239
    -999.2500      67.7845    -999.2500    -999.2500      91.3630     168.7361
    -999.2500    -999.2500    -999.2500       5.3004    -999.2500       4.5124
    -999.2500       4.5352       0.3247    -999.2500       0.0181    -999.2500
      11.2401       5.0525
   2668.6763
    -999.2500      67.7845    -999.2500    -999.2500      91.3630     172.0997
    -999.2500    -999.2500    -999.2500       4.7016    -999.2500       4.6426
    -999.2500       4.3898       0.3593    -999.2500       0.0181    -999.2500
      11.2401       5.0525
   2668.8286
    -999.2500      67.7845    -999.2500    -999.2500      91.3630     177.8730
    -999.2500    -999.2500    -999.2500       4.4874    -999.2500       4.7292
    -999.2500       4.3471       0.3655    -999.2500       0.0181    -999.2500
      11.2401       5.0525
   2668.9812
    -999.2500      67.7845    -999.2500    -999.2500      91.3630     175.9004
    -999.2500    -999.2500    -999.2500       4.8549    -999.2500       5.4266
    -999.2500       4.8273       0.4446    -999.2500       0.0181    -999.2500
      11.2401       5.0525
   2669.1335
    -999.2500      67.7845    -999.2500    -999.2500      91.3630     168.4292
    -999.2500    -999.2500    -999.2500       5.5806    -999.2500       6.3527
    -999.2500       5.8592       0.5172    -999.2500       0.0181    -999.2500
      11.2401       5.0525
   2669.2859
    -999.2500      67.7845    -999.2500    -999.2500      91.3630     165.1338
    -999.2500    -999.2500    -999.2500       4.7372    -999.2500       4.3838
    -999.2500       3.9472       0.5237    -999.2500       0.0181    -999.2500
      11.2401       5.0525
   2669.4382
    -999.2500      67.7845    -999.2500    -999.2500      91.3630     164.0521
    -999.2500    -999.2500    -999.2500       4.4538    -999.2500       3.8969
    -999.2500       3.7600       0.3286    -999.2500       0.0181    -999.2500
      11.2401       5.0525
   2669.5908
    -999.2500      67.7845    -999.2500    -999.2500      91.3630     160.1446
    -999.2500    -999.2500    -999.2500       5.0628    -999.2500       4.5956
    -999.2500       4.5591       0.2074    -999.2500       0.0181    -999.2500
      11.2401       5.0525
   2669.7432
    -999.2500      67.7845    -999.2500    -999.2500      91.3630     153.0898
    -999.2500    -999.2500    -999.2500       5.7125    -999.2500       5.1082
    -999.2500       4.9995       0.1941    -999.2500       0.0181    -999.2500
      11.2401       5.0525
   2669.8955
    -999.2500      67.7845    -999.2500    -999.2500      91.3630     142.4684
    -999.2500    -999.2500    -999.2500       6.3137    -999.2500       5.3440
    -999.2500       5.2623       0.2282    -999.2500       0.0181    -999.2500
      11.2401       5.0525
