#------------------------------------------------------------------------------
#
#   Created by  : [OpenWorks] Log Export Utility (LEXP)
#   Created on  : 2016-05-23 11:56:20
#   Project     : CANT971
#   User        : R5K
#   Interpreter : PEP
#
#------------------------------------------------------------------------------
~VERSION INFORMATION
VERS. 2.0 : CWLS Log ASCII Standard - version 2.0
WRAP.  NO : One line per depth step
~WELL INFORMATION
#MNEMONIC   .UNIT                                           VALUE :DESCRIPTION
#------------------------------------------------------------------------------
STRT        .M                                          1446.1469 :START DEPTH
STOP        .M                                          3739.7668 :STOP DEPTH
STEP        .M                                             0.1524 :STEP
NULL        .                                           -999.2500 :NULL VALUE
COMP        .                                             UNKNOWN :COMPANY
WELL        .                                               468-V :WELL
FLD         .                                             UNKNOWN :FIELD
LOC         .                                             UNKNOWN :LOCATION
CNTY        .                                             UNKNOWN :COUNTY
STAT        .                                             UNKNOWN :STATE
CTRY        .                                             UNKNOWN :COUNTRY
SRVC        .                                             UNKNOWN :SERVICE COMPANY
DATE        .                                             UNKNOWN :LOG DATE
UWI         .                                               468-V :UNIQUE WELL ID
XCOORD      .                                       598699.140000 :SURFACE X
YCOORD      .                                      2143301.650000 :SURFACE Y
LAT         .                                           19.382589 :LATITUDE
LON         .                                          -92.060118 :LONGITUDE
ELEV        .M                                             0.0000 :SURFACE ELEV
ELEV_TYPE   .                                                  NA :ELEV TYPE
~CURVE INFORMATION
#MNEMONIC.UNIT        API CODE       : CURVE DESCRIPTION
#------------------------------------------------------------------------------
DEPTH    .M                          : Measured Depth
CALI     .inches      UNKNOWN        : CALI:PETROWORKS:rC:NONE:v1 
DRHO     .g/cm3       UNKNOWN        : DRHO:PETROWORKS:rC:NONE:v1 
DT       .us/ft       UNKNOWN        : DT:sonico:rC:NONE:v0 (auto-composite)
GR       .API         UNKNOWN        : GR:PETROWORKS:rC:NONE:v1 
GR-LWD   .API         UNKNOWN        : GR-LWD:PETROWORKS:rC:NONE:v3 
ILD-LWD  .ohm.m       UNKNOWN        : ILD-LWD:PETROWORKS:rC:NONE:v3 
ILM-LWD  .UNKNOWN     UNKNOWN        : ILM-LWD:PETROWORKS:rC:NONE:v3 
NPHI     .v/v_decimal UNKNOWN        : NPHI:PETROWORKS:rC:NONE:v1 
PEF      .b/elec      UNKNOWN        : PEF:PETROWORKS:rC:NONE:v1 
RHOB     .g/cm3       UNKNOWN        : RHOB:PETROWORKS:rC:NONE:v1 
~A     DEPTH         CALI         DRHO           DT           GR       GR-LWD      ILD-LWD      ILM-LWD         NPHI          PEF         RHOB
# ...
   2214.2429       9.5424      -0.0103    -999.2500      63.8241      37.8357      16.2300      17.3843      -0.0168       3.1362       1.8677
   2214.3953       9.0808       0.0038    -999.2500      49.6202      30.9162      20.8519      24.8574      -0.0163       3.4800       2.4179
   2214.5476       8.9481       0.0121    -999.2500      46.3521      29.1039      25.0747      31.3840      -0.0173       3.7139       2.5887
   2214.7000       8.9509       0.0229    -999.2500      47.2263      28.6700      31.8700      40.1100      -0.0185       4.2918       2.6635
   2214.8525       9.0649       0.0225    -999.2500      49.8124      28.4767      40.7539      49.2675      -0.0192       4.5140       2.6867
   2215.0049       9.2613       0.0213    -999.2500      49.6455      28.6571      53.0249      60.2886      -0.0220       4.6011       2.7133
   2215.1572       9.3307       0.0199    -999.2500      44.8595      29.5277      68.2392      73.7810      -0.0218       4.6221       2.7114
   2215.3096       9.1212       0.0154    -999.2500      42.3366      29.9994      85.9273      89.1896      -0.0210       4.6219       2.6980
   2215.4622       9.0917       0.0144    -999.2500      48.0273      30.2769      95.0225     100.0838      -0.0209       4.5857       2.6925
   2215.6145       9.0730       0.0139    -999.2500      53.6270      29.2689     102.2231     110.1975      -0.0204       4.5350       2.6860
   2215.7668       8.9981       0.0121    -999.2500      52.4912      27.6152     106.9109     117.2029      -0.0205       4.4349       2.6682
   2215.9192       8.9404       0.0118    -999.2500      51.3261      26.6571     109.8404     121.4293      -0.0198       3.9519       2.6043
   2216.0715       9.1066       0.0220    -999.2500      51.3935      26.4771     111.2110     123.3571      -0.0202       3.7525       2.5765
   2216.2241       9.1561       0.0376    -999.2500      49.8858      26.5317     110.9722     123.0261      -0.0201       3.9277       2.5798
   2216.3765       9.0978       0.0458    -999.2500      43.6433      26.6842     109.3241     121.0652      -0.0206       4.3191       2.6057
   2216.5288       9.3004       0.0465    -999.2500      40.3363      26.7168     106.4002     117.4446      -0.0217       4.3553       2.6208
   2216.6812       9.3167       0.0497    -999.2500      41.1651      26.6263     100.9579     111.2197      -0.0220       4.3874       2.6410
   2216.8337       9.2354       0.0441    -999.2500      44.1280      27.2695      94.8277     104.2262      -0.0214       4.5615       2.6499
   2216.9861       9.1400       0.0327    -999.2500      46.1259      28.2817      87.1979      95.9079      -0.0195       4.7151       2.6464
   2217.1384       9.0237       0.0266    -999.2500      45.9807      29.8142      79.8768      88.4153      -0.0202       4.6430       2.6380
   2217.2908       9.1272       0.0217    -999.2500      44.3369      31.1690      72.0465      80.9661      -0.0198       4.5038       2.6306
   2217.4434       9.2326       0.0183    -999.2500      48.3232      31.8433      65.6320      75.7001      -0.0204       4.5244       2.6400
   2217.5957       9.2830       0.0135    -999.2500      57.1160      31.9764      60.0713      71.3380      -0.0205       4.6056       2.6511
   2217.7480       9.3135       0.0115    -999.2500      59.4394      31.4823      55.4939      67.6401      -0.0214       4.5988       2.6501
   2217.9004       9.3387       0.0160    -999.2500      55.7737      30.8800      50.5400      63.2400      -0.0222       4.4794       2.6579
   2218.0527       9.1232       0.0172    -999.2500      50.9253      31.4834      44.8752      56.5046      -0.0217       4.2610       2.6579
   2218.2053       9.0961       0.0174    -999.2500      44.8077      33.3822      37.8878      46.9252      -0.0200       3.9365       2.6444
   2218.3577       8.9955       0.0175    -999.2500      44.0133      36.4110      32.1426      38.2938      -0.0184       4.1073       2.6458
   2218.5100       8.9944       0.0110    -999.2500      47.6704      39.9020      26.5659      29.6515      -0.0180       4.5592       2.6476
   2218.6624       9.0938       0.0058    -999.2500      53.7105      43.9584      22.5202      23.9995      -0.0189       4.6129       2.6479
   2218.8149       9.2603       0.0007    -999.2500      59.4488      46.4898      18.5231      18.7005      -0.0175       4.5459       2.6604
   2218.9673       9.3026      -0.0013    -999.2500      62.4802      48.6174      14.8143      14.2850      -0.0168       4.5249       2.6662
   2219.1196       9.1585      -0.0061    -999.2500      72.8850      50.2053      11.1521      10.0845      -0.0133       4.4285       2.6571
   2219.2720       9.0541      -0.0081    -999.2500      78.7843      51.0513       8.9950       7.9054      -0.0095       4.3098       2.6446
   2219.4246       9.0131      -0.0113    -999.2500      81.2311      51.1940       7.7576       6.8370      -0.0054       4.2111       2.6244
   2219.5769       8.9958      -0.0168    -999.2500      77.2124      48.7320       7.0813       6.3511      -0.0028       4.1766       2.5901
   2219.7292       8.9538      -0.0042    -999.2500      72.9011      43.1794       6.6502       6.1812      -0.0014       4.1396       2.5471
   2219.8816       9.0278       0.0386    -999.2500      74.2649      37.0265       6.3584       6.1028      -0.0008       4.0590       2.5095
   2220.0339       9.0645       0.0521    -999.2500      72.7842      33.5395       5.9922       5.9460      -0.0019       3.9917       2.5303
   2220.1865       9.2037       0.0224    -999.2500      58.1040      33.2695       5.7978       5.8065      -0.0080       3.8724       2.5686
   2220.3389       9.1527       0.0043    -999.2500      42.3986      34.1150       5.6395       5.6634      -0.0089       3.7446       2.5852
   2220.4912       9.0354       0.0227    -999.2500      34.9379      38.6257       5.3319       5.3984      -0.0088       3.7228       2.5917
   2220.6436       9.0764       0.0798    -999.2500      47.1384      43.8041       5.2013       5.2151      -0.0051       3.9187       2.5892
   2220.7961       8.8357       0.1457    -999.2500      64.6718      48.7254       5.1228       5.0356      -0.0019       4.1086       2.5872
   2220.9485       8.9518       0.1580    -999.2500      72.5258      52.3303       4.9275       4.7627      -0.0014       4.1008       2.5945
   2221.1008       9.4088       0.0850    -999.2500      76.8033      54.9500       4.7100       4.5100       0.0023       3.9845       2.6074
   2221.2532       9.2237       0.0328    -999.2500      74.5405      56.0844       4.3756       4.2269       0.0010       3.9684       2.6055
   2221.4058       9.3603       0.0179    -999.2500      73.7690      56.9522       4.2540       4.1552      -0.0007       3.8945       2.5084
   2221.5581       9.4093       0.0524    -999.2500      79.4515      57.1726       4.4244       4.3618       0.0012       3.6995       2.3944
   2221.7104       9.4399       0.1647    -999.2500      89.1656      55.8899       4.8293       4.8166       0.0026       3.3602       2.3561
   2221.8628       9.7387       0.2072    -999.2500      88.1587      54.0945       5.5770       5.7025       0.0053       3.3194       2.4421
   2222.0151       9.2420       0.1337    -999.2500      78.8330      50.5400       6.1950       6.4657       0.0039       3.5142       2.5563
   2222.1677       9.1834       0.0605    -999.2500      72.6697      46.9628       6.7283       7.2071       0.0017       3.6735       2.5712
   2222.3201       9.1511       0.0016    -999.2500      65.0508      43.8333       7.2201       7.9861      -0.0035       3.8339       2.4948
   2222.4724       9.1609      -0.0027    -999.2500      60.2304      40.4445       7.6557       8.6599      -0.0050       3.8676       2.4284
   2222.6248       9.2022       0.0019    -999.2500      54.4091      38.3704       8.2717       9.4964      -0.0052       3.7898       2.3238
