#------------------------------------------------------------------------------
#
#   Created by  : [OpenWorks] Log Export Utility (LEXP)
#   Created on  : 2016-05-23 11:51:58
#   Project     : CANT971
#   User        : R5K
#   Interpreter : PEP
#
#------------------------------------------------------------------------------
~VERSION INFORMATION
VERS. 2.0 : CWLS Log ASCII Standard - version 2.0
WRAP.  NO : One line per depth step
~WELL INFORMATION
#MNEMONIC   .UNIT                                           VALUE :DESCRIPTION
#------------------------------------------------------------------------------
STRT        .M                                           695.7060 :START DEPTH
STOP        .M                                          3054.7056 :STOP DEPTH
STEP        .M                                             0.1524 :STEP
NULL        .                                           -999.2500 :NULL VALUE
COMP        .                                   PEMEX EXPL & PROD :COMPANY
WELL        .                                                 17D :WELL
FLD         .                                           CANTARELL :FIELD
LOC         .                                             UNKNOWN :LOCATION
CNTY        .                                      CD. DEL CARMEN :COUNTY
STAT        .                                            CAMPECHE :STATE
CTRY        .                                              MEXICO :COUNTRY
SRVC        .                                             UNKNOWN :SERVICE COMPANY
DATE        .                                             UNKNOWN :LOG DATE
UWI         .                                          3060000460 :UNIQUE WELL ID
XCOORD      .                                       603362.626000 :SURFACE X
YCOORD      .                                      2145093.910000 :SURFACE Y
LAT         .                                           19.398550 :LATITUDE
LON         .                                          -92.015617 :LONGITUDE
ELEV        .M                                            27.1400 :SURFACE ELEV
ELEV_TYPE   .                                                  KB :ELEV TYPE
~CURVE INFORMATION
#MNEMONIC.UNIT        API CODE       : CURVE DESCRIPTION
#------------------------------------------------------------------------------
DEPTH    .M                          : Measured Depth
CALI     .in          UNKNOWN        : CALI:UNKNOWN:rC:NONE:v0 (auto-composite)
DT       .us/ft       UNKNOWN        : DT:DT:rC:NONE:v0 (auto-composite)
GR       .API         UNKNOWN        : GR:UNKNOWN:rC:NONE:v0 (auto-composite)
ILD      .ohmm        UNKNOWN        : ILD:UNKNOWN:rC:NONE:v0 (auto-composite)
LLD      .ohmm        UNKNOWN        : LLD:UNKNOWN:rC:NONE:v0 (auto-composite)
LLS      .ohmm        UNKNOWN        : LLS:UNKNOWN:rC:NONE:v0 (auto-composite)
MSFL     .ohmm        UNKNOWN        : MSFL:UNKNOWN:rC:NONE:v0 (auto-composite)
NPHI     .v/v_decimal UNKNOWN        : NPHI:UNKNOWN:rC:NONE:v0 (auto-composite)
PEF      .b/elec      UNKNOWN        : PEF:UNKNOWN:rC:NONE:v0 (auto-composite)
RHOB     .g/cm3       UNKNOWN        : RHOB:UNKNOWN:rC:NONE:v0 (auto-composite)
~A     DEPTH         CALI           DT           GR          ILD          LLD          LLS         MSFL         NPHI          PEF         RHOB
# ...
   2684.2212       6.1640      71.2839      61.3471    -999.2500      70.8972      84.3315    1083.7318       0.0540       3.2254       2.7435
   2684.3735       6.1640      69.4290      61.1070    -999.2500      75.2400      89.7090    1188.6030       0.0544       3.3080       2.7460
   2684.5259       6.1640      69.5322      60.7985    -999.2500      87.3052     103.5836    1101.3032       0.0538       3.2960       2.7490
   2684.6785       6.1640      69.9608      60.4880    -999.2500      99.4490     117.5040    1013.7150       0.0532       3.2840       2.7520
   2684.8308       6.1640      71.3659      60.8356    -999.2500     118.6029     138.7540    1033.4830       0.0500       3.2236       2.7610
   2684.9832       6.1640      72.8439      61.1860    -999.2500     137.9150     160.0770    1053.3190       0.0468       3.1630       2.7700
   2685.1355       6.1645      72.0303      62.7365    -999.2500     155.4446     177.7857     876.2688       0.0411       3.0981       2.7840
   2685.2881       6.1650      70.3938      64.2950    -999.2500     173.0650     195.5290     698.8730       0.0353       3.0330       2.7980
   2685.4404       6.1660      66.6789      66.2360    -999.2500     169.6111     190.7594     481.4617       0.0355       3.0669       2.8120
   2685.5928       6.1670      63.1451      68.1810    -999.2500     166.1500     185.9800     263.5990       0.0357       3.1010       2.8260
   2685.7451       6.1665      62.8512      66.8341    -999.2500     161.3985     178.7684     295.9788       0.0347       3.1649       2.8230
   2685.8977       6.1660      63.4629      65.4820    -999.2500     156.6290     171.5410     328.4300       0.0338       3.2290       2.8200
   2686.0500       6.1650      65.0980      62.8672    -999.2500     161.8814     176.7804     472.9233       0.0327       3.2749       2.8105
   2686.2024       6.1640      66.8805      60.2380    -999.2500     167.1630     182.0320     617.7530       0.0315       3.3210       2.8010
   2686.3547       6.1640      68.5995      58.2045    -999.2500     167.1167     181.7029     901.8392       0.0338       3.3565       2.7896
   2686.5071       6.1640      70.2477      56.1530    -999.2500     167.0700     181.3730    1186.6230       0.0360       3.3920       2.7780
   2686.6597       6.1640      70.8554      53.5506    -999.2500     162.9505     176.1632    1367.6226       0.0399       3.4749       2.7710
   2686.8120       6.1640      71.3683      50.9330    -999.2500     158.8070     170.9400    1549.0890       0.0438       3.5580       2.7640
   2686.9644       6.1640      71.7728      47.1396    -999.2500     153.0157     163.6843    1530.6285       0.0469       3.5470       2.7665
   2687.1167       6.1640      72.1606      43.3420    -999.2500     147.2180     156.4090    1512.1180       0.0500       3.5360       2.7690
   2687.2693       6.1640      72.9308      40.3631    -999.2500     142.7754     150.6756    1544.7074       0.0528       3.4461       2.7750
   2687.4216       6.1640      72.7677      37.3710    -999.2500     138.3130     144.9260    1577.3890       0.0557       3.3560       2.7810
   2687.5740       6.1640      69.5199      35.9077    -999.2500     130.9860     136.7531    1511.5210       0.0594       3.3620       2.7865
   2687.7263       6.1640      65.8656      34.4330    -999.2500     123.6020     128.5560    1445.4580       0.0632       3.3680       2.7920
   2687.8789       6.1640      65.6894      34.9108    -999.2500     113.6788     118.5200    1301.7151       0.0626       3.4059       2.7970
   2688.0312       6.1640      66.6941      35.3900    -999.2500     103.7250     108.4530    1157.5291       0.0619       3.4440       2.8020
   2688.1836       6.1640      70.3819      35.2514    -999.2500      96.6483     101.5890    1044.5969       0.0604       3.3971       2.8015
   2688.3359       6.1640      73.7963      35.1130    -999.2500      89.5830      94.7030     931.3020       0.0588       3.3500       2.8010
   2688.4883       6.1645      74.0360      34.5070    -999.2500      85.7238      90.9543     835.8886       0.0598       3.2547       2.8005
   2688.6409       6.1650      73.3087      33.9000    -999.2500      81.8580      87.1930     740.1570       0.0607       3.1590       2.8000
   2688.7932       6.1660      71.6346      33.0706    -999.2500      79.5119      84.9214     756.3345       0.0625       3.1795       2.7980
   2688.9456       6.1670      69.9337      32.2370    -999.2500      77.1540      82.6420     772.5680       0.0642       3.2000       2.7960
   2689.0979       6.1675      68.4732      31.3714    -999.2500      79.0336      84.5581     796.0187       0.0655       3.2504       2.7885
   2689.2505       6.1680      67.0890      30.5000    -999.2500      80.9260      86.4780     819.5160       0.0668       3.3010       2.7810
   2689.4028       6.1670      68.7847      30.8097    -999.2500      85.9226      91.4473     686.9352       0.0682       3.3304       2.7710
   2689.5552       6.1660      70.7214      31.1220    -999.2500      90.9620      96.4270     554.0750       0.0695       3.3600       2.7610
   2689.7075       6.1680      73.3547      32.1273    -999.2500      95.6716     100.9789     393.6642       0.0719       3.3475       2.7545
   2689.8601       6.1700      75.9138      33.1380    -999.2500     100.4070     105.5410     232.8950       0.0742       3.3350       2.7480
   2690.0125       6.1750      75.4514      33.7693    -999.2500     102.4626     107.4577     265.0416       0.0771       3.3550       2.7410
   2690.1648       6.1800      74.1893      34.4020    -999.2500     104.5230     109.3790     297.2640       0.0801       3.3750       2.7340
   2690.3171       6.1825      71.1761      33.3317    -999.2500     105.7545     110.6235     284.8844       0.0796       3.3720       2.7066
   2690.4695       6.1850      68.4038      32.2570    -999.2500     106.9910     111.8710     272.4740       0.0792       3.3690       2.6790
   2690.6221       6.1830      69.0465      30.4034    -999.2500     108.4014     113.5943     253.9497       0.0796       3.3196       2.6227
   2690.7744       6.1810      70.7474      28.5390    -999.2500     109.8200     115.3220     235.3770       0.0800       3.2700       2.5660
   2690.9268       6.1780      74.2853      27.4928    -999.2500     108.9161     114.4407     307.8308       0.0832       3.2096       2.5302
   2691.0791       6.1750      77.3346      26.4370    -999.2500     108.0040     113.5570     380.4830       0.0863       3.1490       2.4940
   2691.2317       6.1725      77.6752      26.8231    -999.2500     104.4408     109.9292     598.9818       0.0855       3.1805       2.5223
   2691.3840       6.1700      77.1220      27.2140    -999.2500     100.8330     106.2910     818.1060       0.0847       3.2120       2.5510
   2691.5364       6.1670      75.6993      29.3192    -999.2500      95.2325     100.8282    1027.7736       0.0813       3.2949       2.5968
   2691.6887       6.1640      74.5886      31.4410    -999.2500      89.5880      95.3490    1238.0680       0.0779       3.3780       2.6430
   2691.8413       6.1640      74.5515      35.6549    -999.2500      92.1405      98.2784    1079.9137       0.0737       3.3775       2.6774
   2691.9937       6.1640      75.0282      39.8820    -999.2500      94.7010     101.2170     921.2670       0.0695       3.3770       2.7120
   2692.1460       6.1640      78.8976      43.6135    -999.2500     101.5006     108.6524     797.6664       0.0706       3.3461       2.7354
   2692.2983       6.1640      81.5590      47.3690    -999.2500     108.3440     116.1120     673.6650       0.0718       3.3150       2.7590
   2692.4507       6.1640      79.9362      49.3513    -999.2500     115.5138     123.6164     782.3488       0.0741       3.2736       2.7734
   2692.6033       6.1640      77.3608      51.3530    -999.2500     122.7540     131.1340     891.2240       0.0763       3.2320       2.7880
