#------------------------------------------------------------------------------
#
#   Created by  : [OpenWorks] Log Export Utility (LEXP)
#   Created on  : 2016-05-23 11:57:10
#   Project     : CANT971
#   User        : R5K
#   Interpreter : PEP
#
#------------------------------------------------------------------------------
~VERSION INFORMATION
VERS. 2.0 : CWLS Log ASCII Standard - version 2.0
WRAP.  NO : One line per depth step
~WELL INFORMATION
#MNEMONIC   .UNIT                                           VALUE :DESCRIPTION
#------------------------------------------------------------------------------
STRT        .M                                           345.0980 :START DEPTH
STOP        .M                                          2040.8528 :STOP DEPTH
STEP        .M                                             0.1524 :STEP
NULL        .                                           -999.2500 :NULL VALUE
COMP        .                                   PEMEX EXPL & PROD :COMPANY
WELL        .                                                  71 :WELL
FLD         .                                           CANTARELL :FIELD
LOC         .                                             UNKNOWN :LOCATION
CNTY        .                                      CD. DEL CARMEN :COUNTY
STAT        .                                            CAMPECHE :STATE
CTRY        .                                              MEXICO :COUNTRY
SRVC        .                                             UNKNOWN :SERVICE COMPANY
DATE        .                                             UNKNOWN :LOG DATE
UWI         .                                          3060000175 :UNIQUE WELL ID
XCOORD      .                                       599724.470000 :SURFACE X
YCOORD      .                                      2147216.900000 :SURFACE Y
LAT         .                                           19.417919 :LATITUDE
LON         .                                          -92.050150 :LONGITUDE
ELEV        .M                                            27.8000 :SURFACE ELEV
ELEV_TYPE   .                                                  KB :ELEV TYPE
~CURVE INFORMATION
#MNEMONIC.UNIT        API CODE       : CURVE DESCRIPTION
#------------------------------------------------------------------------------
DEPTH    .M                          : Measured Depth
DT       .us/ft       UNKNOWN        : DT:DT:rC:NONE:v0 (auto-composite)
GR       .UNKNOWN     UNKNOWN        : GR:GR-Load:rC:NONE:v0 (auto-composite)
ILD      .UNKNOWN     UNKNOWN        : ILD:ILD-Load:rC:NONE:v0 (auto-composite)
NPHI     .v/v_decimal UNKNOWN        : NPHI:NPHI:rC:NONE:v0 (auto-composite)
RG       .UNKNOWN     UNKNOWN        : RG:RG-Loader:rC:NONE:v0 (auto-composite)
RHOB     .UNKNOWN     UNKNOWN        : RHOB:RHOB-Load:rC:NONE:v0 (auto-composite)
~A     DEPTH           DT           GR          ILD         NPHI           RG         RHOB
# ...
    734.0228     126.1362      49.7441     129.3305    -999.2500    -999.2500    -999.2500
    734.1752     126.9297      49.4446     131.1595    -999.2500    -999.2500    -999.2500
    734.3276     128.0344      49.8873     131.3946    -999.2500    -999.2500    -999.2500
    734.4800     129.5647      51.3533     129.4398    -999.2500    -999.2500    -999.2500
    734.6324     131.8539      51.7383     127.1887    -999.2500    -999.2500    -999.2500
    734.7849     135.1793      50.6328     124.5313    -999.2500    -999.2500    -999.2500
    734.9372     136.9310      50.5674     122.0214    -999.2500    -999.2500    -999.2500
    735.0896     136.5335      51.9363     119.7140    -999.2500    -999.2500    -999.2500
    735.2420     137.0552      51.9543     117.2291    -999.2500    -999.2500    -999.2500
    735.3944     138.8327      50.1083     114.5007    -999.2500    -999.2500    -999.2500
    735.5468     140.5615      49.6280     112.9846    -999.2500    -999.2500    -999.2500
    735.6992     142.2240      51.0323     113.1331    -999.2500    -999.2500    -999.2500
    735.8516     143.1008      51.1940     113.9078    -999.2500    -999.2500    -999.2500
    736.0040     142.9038      49.6436     115.5428    -999.2500    -999.2500    -999.2500
    736.1564     142.6195      48.3489     117.2383    -999.2500    -999.2500    -999.2500
    736.3088     142.2159      47.4070     119.0171    -999.2500    -999.2500    -999.2500
    736.4612     140.7039      46.6008     120.6018    -999.2500    -999.2500    -999.2500
    736.6136     137.6785      45.9818     121.9203    -999.2500    -999.2500    -999.2500
    736.7661     136.0947      45.7401     122.4518    -999.2500    -999.2500    -999.2500
    736.9184     136.4797      46.0185     121.9033    -999.2500    -999.2500    -999.2500
    737.0708     137.7202      46.5429     121.1633    -999.2500    -999.2500    -999.2500
    737.2232     140.1291      47.4064     120.1603    -999.2500    -999.2500    -999.2500
    737.3756     143.2355      48.2701     119.1059    -999.2500    -999.2500    -999.2500
    737.5280     147.2949      49.1343     117.9810    -999.2500    -999.2500    -999.2500
    737.6804     148.5601      49.4567     116.5468    -999.2500    -999.2500    -999.2500
    737.8328     146.0067      49.0327     114.6878    -999.2500    -999.2500    -999.2500
    737.9852     143.1653      49.3811     112.8457    -999.2500    -999.2500    -999.2500
    738.1376     139.9302      50.7941     111.0268    -999.2500    -999.2500    -999.2500
    738.2900     138.5862      51.5716     109.6572    -999.2500    -999.2500    -999.2500
    738.4424     139.8237      51.4731     108.9051    -999.2500    -999.2500    -999.2500
    738.5948     140.2548      51.3378     108.9702    -999.2500    -999.2500    -999.2500
    738.7472     139.5848      51.1518     110.1566    -999.2500    -999.2500    -999.2500
    738.8996     139.0042      51.3176     111.4149    -999.2500    -999.2500    -999.2500
    739.0520     138.5457      51.9686     112.7719    -999.2500    -999.2500    -999.2500
    739.2044     138.6290      51.4543     113.1878    -999.2500    -999.2500    -999.2500
    739.3568     139.4525      49.3324     112.3119    -999.2500    -999.2500    -999.2500
    739.5092     140.3341      48.4212     111.0944    -999.2500    -999.2500    -999.2500
    739.6616     141.2950      49.1808     109.4080    -999.2500    -999.2500    -999.2500
    739.8140     142.3018      49.7516     107.4449    -999.2500    -999.2500    -999.2500
    739.9664     143.3713      50.0620     105.1020    -999.2500    -999.2500    -999.2500
    740.1188     143.8944      50.4678     102.6239    -999.2500    -999.2500    -999.2500
    740.2712     143.6703      51.0047      99.9599    -999.2500    -999.2500    -999.2500
    740.4236     142.8648      51.7790      98.0073    -999.2500    -999.2500    -999.2500
    740.5760     141.2654      52.8805      97.0309    -999.2500    -999.2500    -999.2500
    740.7284     140.6026      53.2891      96.4753    -999.2500    -999.2500    -999.2500
    740.8808     141.2191      52.7421      96.4973    -999.2500    -999.2500    -999.2500
    741.0332     141.7197      52.1323      96.9599    -999.2500    -999.2500    -999.2500
    741.1856     142.0622      51.4358      98.0273    -999.2500    -999.2500    -999.2500
    741.3380     142.4476      50.7847      98.6191    -999.2500    -999.2500    -999.2500
    741.4904     142.8916      50.1961      98.5576    -999.2500    -999.2500    -999.2500
    741.6428     143.0122      50.1565      98.2073    -999.2500    -999.2500    -999.2500
    741.7952     142.6907      50.8735      97.4603    -999.2500    -999.2500    -999.2500
    741.9476     143.1821      51.4883      96.7668    -999.2500    -999.2500    -999.2500
    742.1000     144.7849      51.9623      96.1467    -999.2500    -999.2500    -999.2500
    742.2524     144.9107      53.2856      95.4727    -999.2500    -999.2500    -999.2500
    742.4048     143.0203      55.7801      94.7247    -999.2500    -999.2500    -999.2500
    742.5573     142.5453      56.9763      94.1588    -999.2500    -999.2500    -999.2500
    742.7096     144.0033      56.3824      93.8428    -999.2500    -999.2500    -999.2500
    742.8620     144.2319      55.7440      94.0945    -999.2500    -999.2500    -999.2500
    743.0144     142.7815      55.0446      95.1255    -999.2500    -999.2500    -999.2500
    743.1668     141.3175      54.5743      95.9856    -999.2500    -999.2500    -999.2500
    743.3192     139.8351      54.4203      96.6111    -999.2500    -999.2500    -999.2500
    743.4716     139.3143      54.2478      96.2612    -999.2500    -999.2500    -999.2500
    743.6240     140.1078      54.0498      94.5717    -999.2500    -999.2500    -999.2500
    743.7764     140.5423      54.0590      92.8768    -999.2500    -999.2500    -999.2500
    743.9288     140.4863      54.3540      91.1743    -999.2500    -999.2500    -999.2500
    744.0812     141.4542      54.1452      89.4671    -999.2500    -999.2500    -999.2500
    744.2336     143.8221      53.2417      87.7533    -999.2500    -999.2500    -999.2500
    744.3860     144.9949      52.8662      86.0574    -999.2500    -999.2500    -999.2500
    744.5385     144.5360      53.2187      84.3859    -999.2500    -999.2500    -999.2500
    744.6908     144.1514      53.3394      83.5088    -999.2500    -999.2500    -999.2500
    744.8432     143.8684      53.1404      83.7218    -999.2500    -999.2500    -999.2500
    744.9956     144.1342      52.8907      83.9858    -999.2500    -999.2500    -999.2500
    745.1480     145.1496      52.5713      84.3197    -999.2500    -999.2500    -999.2500
    745.3004     145.5044      52.5270      84.6609    -999.2500    -999.2500    -999.2500
    745.4528     144.9565      52.8625      85.0119    -999.2500    -999.2500    -999.2500
    745.6052     144.7513      52.7229      85.3075    -999.2500    -999.2500    -999.2500
    745.7576     145.0148      51.9284      85.5270    -999.2500    -999.2500    -999.2500
    745.9100     145.1518      51.5525      85.6460    -999.2500    -999.2500    -999.2500
    746.0624     145.1158      51.7535      85.6270    -999.2500    -999.2500    -999.2500
    746.2148     144.9760      51.8259      85.7174    -999.2500    -999.2500    -999.2500
    746.3672     144.6945      51.7209      85.9579    -999.2500    -999.2500    -999.2500
    746.5196     144.4775      51.8332      86.3819    -999.2500    -999.2500    -999.2500
    746.6720     144.3485      52.2452      87.0579    -999.2500    -999.2500    -999.2500
    746.8244     144.7072      51.5349      87.2305    -999.2500    -999.2500    -999.2500
    746.9768     145.7322      49.2765      86.7120    -999.2500    -999.2500    -999.2500
    747.1292     146.5968      48.1586      85.6211    -999.2500    -999.2500    -999.2500
    747.2816     147.2423      48.6147      83.7441    -999.2500    -999.2500    -999.2500
