#------------------------------------------------------------------------------
#
#   Created by  : [OpenWorks] Log Export Utility (LEXP)
#   Created on  : 2016-05-12 17:01:20
#   Project     : CANT971
#   User        : R5K
#   Interpreter : PEP
#
#------------------------------------------------------------------------------
~VERSION INFORMATION
VERS. 2.0 : CWLS Log ASCII Standard - version 2.0
WRAP.  NO : One line per depth step
~WELL INFORMATION
#MNEMONIC   .UNIT                                           VALUE :DESCRIPTION
#------------------------------------------------------------------------------
STRT        .M                                           993.9530 :START DEPTH
STOP        .M                                          2371.9539 :STOP DEPTH
STEP        .M                                             0.1524 :STEP
NULL        .                                           -999.2500 :NULL VALUE
COMP        .                                   PEMEX EXPL & PROD :COMPANY
WELL        .                                                  55 :WELL
FLD         .                                           CANTARELL :FIELD
LOC         .                                             UNKNOWN :LOCATION
CNTY        .                                      CD. DEL CARMEN :COUNTY
STAT        .                                            CAMPECHE :STATE
CTRY        .                                              MEXICO :COUNTRY
SRVC        .                                             UNKNOWN :SERVICE COMPANY
DATE        .                                             UNKNOWN :LOG DATE
UWI         .                                          3060000168 :UNIQUE WELL ID
XCOORD      .                                       602149.520000 :SURFACE X
YCOORD      .                                      2147170.290000 :SURFACE Y
LAT         .                                           19.417375 :LATITUDE
LON         .                                          -92.027057 :LONGITUDE
ELEV        .M                                            28.1700 :SURFACE ELEV
ELEV_TYPE   .                                                  KB :ELEV TYPE
~CURVE INFORMATION
#MNEMONIC.UNIT        API CODE       : CURVE DESCRIPTION
#------------------------------------------------------------------------------
DEPTH    .M                          : Measured Depth
CALI     .inches      UNKNOWN        : CALI:CALI-Load:rC:NONE:v0 (auto-composite)
DRHO     .UNKNOWN     UNKNOWN        : DRHO:DRHO-Load:rC:NONE:v0 (auto-composite)
DT       .us/ft       UNKNOWN        : DT:DT:rC:NONE:v0 (auto-composite)
GR       .UNKNOWN     UNKNOWN        : GR:GR-Load:rC:NONE:v0 (auto-composite)
ILD      .UNKNOWN     UNKNOWN        : ILD:ILD-Load:rC:NONE:v0 (auto-composite)
LLD      .UNKNOWN     UNKNOWN        : LLD:LLD-Load:rC:NONE:v0 (auto-composite)
LLS      .UNKNOWN     UNKNOWN        : LLS:LLS-Load:rC:NONE:v0 (auto-composite)
MSFL     .UNKNOWN     UNKNOWN        : MSFL:MSFL-Load:rC:NONE:v0 (auto-composite)
NPHI     .v/v_decimal UNKNOWN        : NPHI:NPHI:rC:NONE:v0 (auto-composite)
RHOB     .UNKNOWN     UNKNOWN        : RHOB:RHOB-Load:rC:NONE:v0 (auto-composite)
SP       .UNKNOWN     UNKNOWN        : SP:SP-Load:rC:NONE:v0 (auto-composite)
~A     DEPTH         CALI         DRHO           DT           GR          ILD          LLD          LLS         MSFL         NPHI         RHOB           SP
# ...
   1905.3051       5.3500       0.0170      69.1700      48.1340    -999.2500      41.2990      39.3820      44.5620      15.5700       2.5500      43.6010
   1905.4574       5.3885       0.0340      67.2957      38.3170    -999.2500      47.0202      44.8867      38.3313      14.2584       2.5739      43.6509
   1905.6099       5.4270       0.0510      65.4200      28.4770    -999.2500      52.7410      50.3910      32.1010      12.9480       2.5980      43.7010
   1905.7622       5.4365       0.0500      65.4200      29.1252    -999.2500      52.3984      49.6687      26.1068      12.6839       2.6070      44.1000
   1905.9146       5.4460       0.0490      65.4200      29.7750    -999.2500      52.0560      48.9470      20.1170      12.4200       2.6160      44.5000
   1906.0670       5.4730       0.0400      66.7294      34.8889    -999.2500      46.3977      43.1622      23.2160      13.3953       2.6180      44.0536
   1906.2194       5.5000       0.0310      68.0400      40.0160    -999.2500      40.7430      37.3810      26.3130      14.3700       2.6200      43.6060
   1906.3718       5.4745       0.0240      67.8016      38.0122    -999.2500      38.5620      35.6046      15.5173      13.9224       2.6100      41.4864
   1906.5242       5.4490       0.0170      67.5630      36.0030    -999.2500      36.3820      33.8290       4.7270      13.4750       2.6000      39.3610
   1906.6766       5.4145       0.0110      66.2513      34.1526    -999.2500      40.3717      38.0883       7.2990      12.5698       2.6000      38.0963
   1906.8290       5.3800       0.0050      64.9380      32.2970    -999.2500      44.3600      42.3460       9.8700      11.6650       2.6000      36.8280
   1906.9814       5.4150       0.0240      63.1195      33.0529    -999.2500      45.2391      41.8019       9.7515      11.5125       2.5945      38.8485
   1907.1338       5.4500       0.0430      61.3000      33.8110    -999.2500      46.1180      41.2580       9.6330      11.3600       2.5890      40.8750
   1907.2863       5.4250       0.0295      63.9502      37.4718    -999.2500      45.3210      41.3070      28.9111      13.0251       2.5346      40.8515
   1907.4386       5.4000       0.0160      66.6000      41.1440    -999.2500      44.5240      41.3560      48.1870      14.6900       2.4800      40.8280
   1907.5909       5.4145       0.0160      66.5680      44.1152    -999.2500      45.8535      42.8875      47.9330      14.6485       2.4805      40.1536
   1907.7434       5.4290       0.0160      66.5360      47.0960    -999.2500      47.1830      44.4190      47.6790      14.6070       2.4810      39.4770
   1907.8958       5.4145       0.0175      65.4031      47.6877    -999.2500      50.8678      47.4013      40.2385      13.1386       2.5005      39.3402
   1908.0482       5.4000       0.0190      64.2700      48.2810    -999.2500      54.5530      50.3840      32.7970      11.6700       2.5200      39.2030
   1908.2006       5.4200       0.0200      64.0420      52.5740    -999.2500      52.5088      47.9423      43.0927      11.3699       2.5360      39.3279
   1908.3530       5.4400       0.0210      63.8140      56.8750    -999.2500      50.4640      45.5000      53.3910      11.0700       2.5520      39.4530
   1908.5054       5.4700       0.0245      63.2366      60.9879    -999.2500      45.2295      40.7819      44.5642      10.6262       2.5719      39.9056
   1908.6578       5.5000       0.0280      62.6590      65.1090    -999.2500      39.9930      36.0620      35.7340      10.1830       2.5920      40.3590
   1908.8102       5.4900       0.0180      61.8797      56.5001    -999.2500      44.8123      39.5241      38.9257       9.7313       2.6194      39.7491
   1908.9626       5.4800       0.0080      61.1000      47.8730    -999.2500      49.6340      42.9880      42.1190       9.2800       2.6470      39.1380
   1909.1150       5.4650       0.0095      62.7245      39.1223    -999.2500      59.9337      52.0036      51.1111      10.0154       2.6485      38.9382
   1909.2675       5.4500       0.0110      64.3500      30.3520    -999.2500      70.2400      61.0250      60.1090      10.7500       2.6500      38.7380
   1909.4198       5.4500       0.0110      64.3095      30.3850    -999.2500      64.6464      56.3284      40.8746      10.6840       2.6301      36.6135
   1909.5721       5.4500       0.0110      64.2690      30.4180    -999.2500      59.0530      51.6320      21.6410      10.6180       2.6100      34.4840
   1909.7246       5.4500       0.0170      63.7827      31.0722    -999.2500      59.7598      52.2047      22.2087       9.9523       2.6110      34.4905
   1909.8770       5.4500       0.0230      63.2960      31.7280    -999.2500      60.4660      52.7770      22.7760       9.2870       2.6120      34.4970
   1910.0294       5.4500       0.0290      61.9237      35.7807    -999.2500      69.7057      60.1787      31.6561       8.4232       2.6210      34.5689
   1910.1818       5.4500       0.0350      60.5500      39.8440    -999.2500      78.9400      67.5760      40.5310       7.5600       2.6300      34.6410
   1910.3342       5.4400       0.0280      61.2301      41.6705    -999.2500      77.4482      66.3157      65.2397       7.6900       2.6255      33.8995
   1910.4866       5.4300       0.0210      61.9110      43.5020    -999.2500      75.9570      65.0560      89.9370       7.8200       2.6210      33.1560
   1910.6390       5.4515       0.0250      62.7150      44.0392    -999.2500      63.7139      54.3787      63.3545       8.1566       2.6105      33.9544
   1910.7914       5.4730       0.0290      63.5200      44.5780    -999.2500      51.4750      43.7050      36.7810       8.4930       2.6000      34.7550
   1910.9438       5.4765       0.0225      62.3453      44.7807    -999.2500      47.6066      40.2556      49.8609       8.5515       2.6000      36.1724
   1911.0962       5.4800       0.0160      61.1700      44.9840    -999.2500      43.7390      36.8070      62.9380       8.6100       2.6000      37.5940
   1911.2487       5.4650       0.0160      61.3330      43.0630    -999.2500      52.7269      42.8183      47.1048       9.1450       2.6110      36.0180
   1911.4010       5.4500       0.0160      61.4960      41.1360    -999.2500      61.7140      48.8290      31.2730       9.6800       2.6220      34.4370
   1911.5533       5.4650       0.0275      62.8830      38.6735    -999.2500      67.4239      54.5054      33.3240       9.6710       2.6410      34.7260
   1911.7058       5.4800       0.0390      64.2700      36.2030    -999.2500      73.1340      60.1820      35.3750       9.6620       2.6600      35.0160
   1911.8582       5.4765       0.0380      64.2585      36.4202    -999.2500      74.5789      62.0488      34.9500       9.5880       2.6595      34.9895
   1912.0106       5.4730       0.0370      64.2470      36.6380    -999.2500      76.0240      63.9160      34.5250       9.5140       2.6590      34.9630
   1912.1630       5.4515       0.0320      64.1735      38.0207    -999.2500      78.0777      65.6108      32.0479       9.3370       2.6545      34.7942
   1912.3154       5.4300       0.0270      64.1000      39.4060    -999.2500      80.1320      67.3060      29.5700       9.1600       2.6500      34.6250
   1912.4678       5.4300       0.0305      63.4101      50.3540    -999.2500      64.6042      54.3482      30.3588       8.7863       2.6455      35.1425
   1912.6202       5.4300       0.0340      62.7200      61.3240    -999.2500      49.0700      41.3850      31.1480       8.4130       2.6410      35.6610
   1912.7726       5.4550       0.0360      62.7665      63.6006    -999.2500      28.0847      23.8142      22.9957       8.2464       2.6360      36.0331
   1912.9250       5.4800       0.0380      62.8130      65.8820    -999.2500       7.0880       6.2340      14.8390       8.0800       2.6310      36.4060
   1913.0774       5.4550       0.0225      62.9580      68.1105    -999.2500       5.8524       5.0674       7.9388       8.7418       2.6071      35.6414
