#------------------------------------------------------------------------------
#
#   Created by  : [OpenWorks] Log Export Utility (LEXP)
#   Created on  : 2016-05-23 11:53:41
#   Project     : CANT971
#   User        : R5K
#   Interpreter : PEP
#
#------------------------------------------------------------------------------
~VERSION INFORMATION
VERS. 2.0 : CWLS Log ASCII Standard - version 2.0
WRAP.  NO : One line per depth step
~WELL INFORMATION
#MNEMONIC   .UNIT                                           VALUE :DESCRIPTION
#------------------------------------------------------------------------------
STRT        .M                                           901.1412 :START DEPTH
STOP        .M                                          2449.6777 :STOP DEPTH
STEP        .M                                             0.1524 :STEP
NULL        .                                           -999.2500 :NULL VALUE
COMP        .                                   PEMEX EXPL & PROD :COMPANY
WELL        .                                                  25 :WELL
FLD         .                                           CANTARELL :FIELD
LOC         .                                             UNKNOWN :LOCATION
CNTY        .                                      CD. DEL CARMEN :COUNTY
STAT        .                                            CAMPECHE :STATE
CTRY        .                                              MEXICO :COUNTRY
SRVC        .                                             UNKNOWN :SERVICE COMPANY
DATE        .                                             UNKNOWN :LOG DATE
UWI         .                                          3060000154 :UNIQUE WELL ID
XCOORD      .                                       603358.080000 :SURFACE X
YCOORD      .                                      2145091.420000 :SURFACE Y
LAT         .                                           19.398528 :LATITUDE
LON         .                                          -92.015660 :LONGITUDE
ELEV        .M                                            27.1400 :SURFACE ELEV
ELEV_TYPE   .                                                  KB :ELEV TYPE
~CURVE INFORMATION
#MNEMONIC.UNIT        API CODE       : CURVE DESCRIPTION
#------------------------------------------------------------------------------
DEPTH    .M                          : Measured Depth
CALI     .in          UNKNOWN        : CALI:registros:rC:NONE:v0 (auto-composite)
DRHO     .g/cm3       UNKNOWN        : DRHO:registros:rC:NONE:v0 (auto-composite)
DT       .us/ft       UNKNOWN        : DT:registros:rC:NONE:v0 (auto-composite)
GR       .api         UNKNOWN        : GR:registros:rC:NONE:v0 (auto-composite)
ILD      .ohmm        UNKNOWN        : ILD:registros:rC:NONE:v0 (auto-composite)
LLD      .ohmm        UNKNOWN        : LLD:registros:rC:NONE:v0 (auto-composite)
LLS      .ohmm        UNKNOWN        : LLS:registros:rC:NONE:v0 (auto-composite)
MSFL     .ohmm        UNKNOWN        : MSFL:registros:rC:NONE:v0 (auto-composite)
NPHI     .v/v_decimal UNKNOWN        : NPHI:registros:rC:NONE:v0 (auto-composite)
PEF      .b/elec      UNKNOWN        : PEF:registros:rC:NONE:v0 (auto-composite)
RHOB     .g/cm3       UNKNOWN        : RHOB:registros:rC:NONE:v0 (auto-composite)
~A     DEPTH         CALI         DRHO           DT           GR          ILD          LLD          LLS         MSFL         NPHI          PEF         RHOB
# ...
   1915.5156       6.4745      -0.0050      78.1891      43.7891    -999.2500     155.3709      28.0299      26.8935       0.0867       3.0914       2.6657
   1915.6681       6.4440       0.0010      81.2340      41.6730    -999.2500     153.7710      31.1830      23.4150       0.0945       2.9790       2.6150
   1915.8204       6.4440       0.0105      91.0637      38.8736    -999.2500     138.4789      27.9735      37.1500       0.1167       2.8680       2.5707
   1915.9728       6.4440       0.0200     100.9170      36.0630    -999.2500     123.1010      24.7460      50.9620       0.1390       2.7570       2.5260
   1916.1252       6.4440       0.0255     106.3397      36.8149    -999.2500     160.7854      29.1060      64.2324       0.1390       2.9156       2.5340
   1916.2776       6.4440       0.0310     111.7760      37.5700    -999.2500     198.6860      33.4910      77.5790       0.1389       3.0740       2.5420
   1916.4301       6.4440       0.0280     107.3044      40.0901    -999.2500     244.1995      41.1256      77.4843       0.1273       3.2591       2.5774
   1916.5824       6.4440       0.0250     102.8210      42.6210    -999.2500     289.9800      48.8050      77.3890       0.1157       3.4440       2.6130
   1916.7349       6.4440       0.0220      93.2962      45.7087    -999.2500     274.9325      46.9877      66.6169       0.1256       3.3375       2.6399
   1916.8872       6.4440       0.0190      83.7450      48.8100    -999.2500     259.8070      45.1610      55.7890       0.1356       3.2310       2.6670
   1917.0397       6.4440       0.0080      87.8041      57.4076    -999.2500     240.7220      36.8048      40.5957       0.1425       3.1155       2.6466
   1917.1920       6.4440      -0.0030      91.8750      66.0440    -999.2500     221.5510      28.4110      25.3340       0.1495       3.0000       2.6260
   1917.3445       6.4440      -0.0085      96.1358      60.6039    -999.2500     226.0930      28.7547      29.6605       0.1366       3.0000       2.6125
   1917.4968       6.4440      -0.0140     100.4060      55.1430    -999.2500     230.6560      29.1000      34.0070       0.1236       3.0000       2.5990
   1917.6493       6.4665      -0.0055      95.5163      47.4980    -999.2500     258.3047      30.5999      33.6568       0.1061       3.0225       2.6194
   1917.8016       6.4890       0.0030      90.6190      39.8290    -999.2500     286.0850      32.1070      33.3050       0.0886       3.0450       2.6400
   1917.9540       6.5155       0.0179      94.3619      41.6530    -999.2500     325.8379      34.2338      32.0416       0.0955       3.1660       2.6729
   1918.1064       6.5420       0.0330      98.1110      43.4830    -999.2500     365.7850      36.3710      30.7720       0.1025       3.2870       2.7060
   1918.2588       6.5490       0.0410     107.0520      47.9514    -999.2500     311.5728      39.6962      40.4128       0.1142       3.2240       2.6886
   1918.4113       6.5560       0.0490     116.0090      52.4350    -999.2500     257.0890      43.0380      50.1020       0.1259       3.1610       2.6710
   1918.5636       6.5470       0.0326     112.1927      56.8926    -999.2500     213.5499      40.9708      62.4109       0.1346       2.9694       2.6536
   1918.7161       6.5380       0.0160     108.3690      61.3660    -999.2500     169.7870      38.8930      74.7830       0.1433       2.7780       2.6360
   1918.8684       6.4910       0.0036     102.6189      70.9874    -999.2500     146.1422      34.6168      67.4169       0.1402       2.8130       2.6425
   1919.0209       6.4440      -0.0090      96.8570      80.6440    -999.2500     122.3730      30.3180      60.0120       0.1370       2.8480       2.6490
   1919.1732       6.4440      -0.0130      97.9583      79.2566    -999.2500     163.6607      31.6409      57.1766       0.1303       2.9576       2.6460
   1919.3257       6.4440      -0.0170      99.0620      77.8640    -999.2500     205.1710      32.9710      54.3260       0.1235       3.0670       2.6430
   1919.4780       6.4440      -0.0115     103.0239      74.3299    -999.2500     345.9896      39.1195      76.2929       0.1201       3.1445       2.6390
   1919.6305       6.4440      -0.0060     106.9950      70.7820    -999.2500     487.5850      45.3020      98.3810       0.1167       3.2220       2.6350
   1919.7828       6.3885       0.0045     105.4299      64.7447    -999.2500     759.9046      53.2984      92.6168       0.1192       3.1790       2.6250
   1919.9352       6.3330       0.0150     103.8610      58.6830    -999.2500    1033.7610      61.3400      86.8200       0.1217       3.1360       2.6150
   1920.0876       6.3330       0.0075      95.6510      53.2348    -999.2500    1009.9323      59.1169      95.5573       0.1141       3.0680       2.5951
   1920.2400       6.3330       0.0000      87.4200      47.7640    -999.2500     985.9660      56.8810     104.3450       0.1066       3.0000       2.5750
   1920.3925       6.3330       0.0030      76.5835      44.7864    -999.2500     805.8571      51.9855      91.0254       0.0961       3.0000       2.5910
   1920.5448       6.3330       0.0060      65.7180      41.7960    -999.2500     624.8310      47.0650      77.6380       0.0856       3.0000       2.6070
   1920.6973       6.3625       0.0135      71.7041      40.9000    -999.2500     461.9588      44.0087      64.6352       0.0795       3.0295       2.6524
   1920.8496       6.3920       0.0210      77.7070      40.0000    -999.2500     298.3680      40.9390      51.5750       0.0733       3.0590       2.6980
   1921.0021       6.4140       0.0175      71.6319      41.1484    -999.2500     223.6949      45.4413      65.9619       0.0756       3.0810       2.7429
   1921.1544       6.4360       0.0140      65.5390      42.3010    -999.2500     148.6830      49.9640      80.4140       0.0779       3.1030       2.7880
   1921.3069       6.4400       0.0080      72.3273      45.1037    -999.2500     181.2141      44.6439      88.8478       0.0878       3.1625       2.7845
   1921.4592       6.4440       0.0020      79.1310      47.9150    -999.2500     213.8970      39.2990      97.3210       0.0978       3.2220       2.7810
   1921.6117       6.4600      -0.0030      75.6762      57.2072    -999.2500     316.4279      35.0192      79.0662       0.1130       3.2060       2.7621
   1921.7640       6.4760      -0.0080      72.2160      66.5290    -999.2500     419.4500      30.7190      60.7240       0.1282       3.1900       2.7430
   1921.9164       6.5065      -0.0125      65.4173      79.5560    -999.2500     332.1601      28.8915      51.2229       0.1452       3.1350       2.7091
   1922.0688       6.5370      -0.0170      58.6070      92.6260    -999.2500     244.4410      27.0550      41.6750       0.1622       3.0800       2.6750
   1922.2212       6.5465      -0.0100      67.4304      88.9972    -999.2500     153.2390      25.7483      38.1319       0.1671       3.0125       2.6331
   1922.3737       6.5560      -0.0030      76.2700      85.3560    -999.2500      61.5770      24.4350      34.5710       0.1721       2.9450       2.5910
   1922.5260       6.5000       0.0149      85.4975      70.9117    -999.2500      47.3164      23.3678      71.3076       0.1599       2.8644       2.6020
   1922.6785       6.4440       0.0330      94.7430      56.4160    -999.2500      32.9820      22.2950     108.2340       0.1477       2.7840       2.6130
   1922.8308       6.4440       0.0275      90.0509      47.9581    -999.2500      89.4026      24.0922     103.2278       0.1293       2.8330       2.6469
   1922.9833       6.4440       0.0220      85.3490      39.4690    -999.2500     146.1220      25.8990      98.1950       0.1109       2.8820       2.6810
   1923.1356       6.4440       0.0056      88.3881      37.1010    -999.2500     370.1946      33.0546      98.3735       0.0983       2.9690       2.7084
   1923.2881       6.4440      -0.0110      91.4340      34.7240    -999.2500     595.4820      40.2490      98.5530       0.0857       3.0560       2.7360
