#------------------------------------------------------------------------------
#
#   Created by  : [OpenWorks] Log Export Utility (LEXP)
#   Created on  : 2016-05-23 11:57:14
#   Project     : CANT971
#   User        : R5K
#   Interpreter : PEP
#
#------------------------------------------------------------------------------
~VERSION INFORMATION
VERS. 2.0 : CWLS Log ASCII Standard - version 2.0
WRAP.  NO : One line per depth step
~WELL INFORMATION
#MNEMONIC   .UNIT                                           VALUE :DESCRIPTION
#------------------------------------------------------------------------------
STRT        .M                                           551.2302 :START DEPTH
STOP        .M                                          2435.9609 :STOP DEPTH
STEP        .M                                             0.1524 :STEP
NULL        .                                           -999.2500 :NULL VALUE
COMP        .                                   PEMEX EXPL & PROD :COMPANY
WELL        .                                                  76 :WELL
FLD         .                                           CANTARELL :FIELD
LOC         .                                             UNKNOWN :LOCATION
CNTY        .                                      CD. DEL CARMEN :COUNTY
STAT        .                                            CAMPECHE :STATE
CTRY        .                                              MEXICO :COUNTRY
SRVC        .                                             UNKNOWN :SERVICE COMPANY
DATE        .                                             UNKNOWN :LOG DATE
UWI         .                                          3060000416 :UNIQUE WELL ID
XCOORD      .                                       599729.570000 :SURFACE X
YCOORD      .                                      2147218.620000 :SURFACE Y
LAT         .                                           19.417934 :LATITUDE
LON         .                                          -92.050101 :LONGITUDE
ELEV        .M                                            27.8000 :SURFACE ELEV
ELEV_TYPE   .                                                  KB :ELEV TYPE
~CURVE INFORMATION
#MNEMONIC.UNIT        API CODE       : CURVE DESCRIPTION
#------------------------------------------------------------------------------
DEPTH    .M                          : Measured Depth
CAL      .inches      UNKNOWN        : CAL:UNKNOWN:rC:NONE:v0 (auto-composite)
DRHO     .UNKNOWN     UNKNOWN        : DRHO:UNKNOWN:rC:NONE:v0 (auto-composite)
DT       .us/ft       UNKNOWN        : DT:DT:rC:NONE:v0 (auto-composite)
GR       .UNKNOWN     UNKNOWN        : GR:GR-Load:rC:NONE:v0 (auto-composite)
ILD      .UNKNOWN     UNKNOWN        : ILD:ILD-Load:rC:NONE:v0 (auto-composite)
LLD      .UNKNOWN     UNKNOWN        : LLD:UNKNOWN:rC:NONE:v0 (auto-composite)
LLS      .UNKNOWN     UNKNOWN        : LLS:UNKNOWN:rC:NONE:v0 (auto-composite)
NPHI     .v/v_decimal UNKNOWN        : NPHI:NPHI:rC:NONE:v0 (auto-composite)
RHOB     .UNKNOWN     UNKNOWN        : RHOB:UNKNOWN:rC:NONE:v0 (auto-composite)
~A     DEPTH          CAL         DRHO           DT           GR          ILD          LLD          LLS         NPHI         RHOB
# ...
   1448.8662       0.0000       0.2500    -999.2500      28.7596       0.2000       0.2000       0.2000    -999.2500       1.9500
   1449.0187       0.0000       0.2500    -999.2500      28.3830       0.2000       0.2000       0.2000    -999.2500       1.9500
   1449.1710       0.0000       0.2500    -999.2500      28.5334       0.2000       0.2000       0.2000    -999.2500       1.9500
   1449.3234       0.0000       0.2500    -999.2500      28.6840       0.2000       0.2000       0.2000    -999.2500       1.9500
   1449.4758       0.0000       0.2500    -999.2500      30.4582       0.2000       0.2000       0.2000    -999.2500       1.9500
   1449.6282       0.0000       0.2500    -999.2500      32.2340       0.2000       0.2000       0.2000    -999.2500       1.9500
   1449.7806       0.0000       0.2500    -999.2500      31.4606       0.2000       0.2000       0.2000    -999.2500       1.9500
   1449.9330       0.0000       0.2500    -999.2500      30.6870       0.2000       0.2000       0.2000    -999.2500       1.9500
   1450.0854       0.0000       0.2500    -999.2500      27.6788       0.2000       0.2000       0.2000    -999.2500       1.9500
   1450.2378       0.0000       0.2500    -999.2500      24.6720       0.2000       0.2000       0.2000    -999.2500       1.9500
   1450.3903       0.0000       0.2500    -999.2500      24.8715       0.2000       0.2000       0.2000    -999.2500       1.9500
   1450.5426       0.0000       0.2500    -999.2500      25.0710       0.2000       0.2000       0.2000    -999.2500       1.9500
   1450.6951       0.0000       0.2500    -999.2500      26.0281       0.2000       0.2000       0.2000    -999.2500       1.9500
   1450.8474       0.0000       0.2500    -999.2500      26.9850       0.2000       0.2000       0.2000    -999.2500       1.9500
   1450.9999       0.0000       0.2500    -999.2500      30.0007       0.2000       0.2000       0.2000    -999.2500       1.9500
   1451.1522       0.0000       0.2500    -999.2500      33.0160       0.2000       0.2000       0.2000    -999.2500       1.9500
   1451.3046       0.0000       0.2500    -999.2500      32.5355       0.2000       0.2000       0.2000    -999.2500       1.9500
   1451.4570       0.0000       0.2500    -999.2500      32.0550       0.2000       0.2000       0.2000    -999.2500       1.9500
   1451.6094       0.0000       0.2500    -999.2500      33.8984       0.2000       0.2000       0.2000    -999.2500       1.9500
   1451.7618       0.0000       0.2500    -999.2500      35.7420       0.2000       0.2000       0.2000    -999.2500       1.9500
   1451.9142       0.0000       0.2500    -999.2500      40.7058       0.2000       0.2000       0.2000    -999.2500       1.9500
   1452.0667       0.0000       0.2500    -999.2500      45.6710       0.2000       0.2000       0.2000    -999.2500       1.9500
   1452.2190       0.0000       0.2500    -999.2500      49.6237       0.2000       0.2000       0.2000    -999.2500       1.9500
   1452.3715       0.0000       0.2500    -999.2500      53.5780       0.2000       0.2000       0.2000    -999.2500       1.9500
   1452.5238       0.0000       0.2500    -999.2500      51.5080       0.2000       0.2000       0.2000    -999.2500       1.9500
   1452.6763       0.0000       0.2500    -999.2500      49.4370       0.2000       0.2000       0.2000    -999.2500       1.9500
   1452.8286       0.0000       0.2500    -999.2500      49.7759       0.2000       0.2000       0.2000    -999.2500       1.9500
   1452.9811       0.0000       0.2500    -999.2500      50.1150       0.2000       0.2000       0.2000    -999.2500       1.9500
   1453.1334       0.0000       0.2500    -999.2500      53.2748       0.2000       0.2000       0.2000    -999.2500       1.9500
   1453.2858       0.0000       0.2500    -999.2500      56.4370       0.2000       0.2000       0.2000    -999.2500       1.9500
   1453.4382       0.0000       0.2500    -999.2500      55.3145       0.2000       0.2000       0.2000    -999.2500       1.9500
   1453.5906       0.0000       0.2500    -999.2500      54.1910       0.2000       0.2000       0.2000    -999.2500       1.9500
   1453.7430       0.0000       0.2500    -999.2500      46.9088       0.2000       0.2000       0.2000    -999.2500       1.9500
   1453.8954       0.0000       0.2500    -999.2500      39.6250       0.2000       0.2000       0.2000    -999.2500       1.9500
   1454.0479       0.0000       0.2500    -999.2500      39.8200       0.2000       0.2000       0.2000    -999.2500       1.9500
   1454.2002       0.0000       0.2500    -999.2500      40.0150       0.2000       0.2000       0.2000    -999.2500       1.9500
   1454.3527       0.0000       0.2500    -999.2500      44.8443       0.2000       0.2000       0.2000    -999.2500       1.9500
   1454.5050       0.0000       0.2500    -999.2500      49.6720       0.2000       0.2000       0.2000    -999.2500       1.9500
   1454.6575       0.0000       0.2500    -999.2500      49.5545       0.2000       0.2000       0.2000    -999.2500       1.9500
   1454.8098       0.0000       0.2500    -999.2500      49.4370       0.2000       0.2000       0.2000    -999.2500       1.9500
   1454.9623       0.0000       0.2500    -999.2500      49.4565       0.2000       0.2000       0.2000    -999.2500       1.9500
   1455.1146       0.0000       0.2500    -999.2500      49.4760       0.2000       0.2000       0.2000    -999.2500       1.9500
   1455.2670       0.0000       0.2500    -999.2500      50.7460       0.2000       0.2000       0.2000    -999.2500       1.9500
   1455.4194       0.0000       0.2500    -999.2500      52.0160       0.2000       0.2000       0.2000    -999.2500       1.9500
   1455.5718       0.0000       0.2500    -999.2500      50.9241       0.2000       0.2000       0.2000    -999.2500       1.9500
   1455.7242       0.0000       0.2500    -999.2500      49.8320       0.2000       0.2000       0.2000    -999.2500       1.9500
   1455.8766       0.0000       0.2500    -999.2500      47.7478       0.2000       0.2000       0.2000    -999.2500       1.9500
   1456.0291       0.0000       0.2500    -999.2500      45.6630       0.2000       0.2000       0.2000    -999.2500       1.9500
   1456.1814       0.0000       0.2500    -999.2500      44.3823       0.2000       0.2000       0.2000    -999.2500       1.9500
   1456.3339       0.0000       0.2500    -999.2500      43.1010       0.2000       0.2000       0.2000    -999.2500       1.9500
   1456.4862       0.0000       0.2500    -999.2500      42.0428       0.2000       0.2000       0.2000    -999.2500       1.9500
   1456.6387       0.0000       0.2500    -999.2500      40.9840       0.2000       0.2000       0.2000    -999.2500       1.9500
   1456.7910       0.0000       0.2500    -999.2500      41.3919       0.2000       0.2000       0.2000    -999.2500       1.9500
   1456.9435       0.0000       0.2500    -999.2500      41.8000       0.2000       0.2000       0.2000    -999.2500       1.9500
   1457.0958       0.0000       0.2500    -999.2500      42.6577       0.2000       0.2000       0.2000    -999.2500       1.9500
   1457.2482       0.0000       0.2500    -999.2500      43.5160       0.2000       0.2000       0.2000    -999.2500       1.9500
   1457.4006       0.0000       0.2500    -999.2500      42.9655       0.2000       0.2000       0.2000    -999.2500       1.9500
   1457.5530       0.0000       0.2500    -999.2500      42.4150       0.2000       0.2000       0.2000    -999.2500       1.9500
   1457.7054       0.0000       0.2500    -999.2500      41.9719       0.2000       0.2000       0.2000    -999.2500       1.9500
   1457.8578       0.0000       0.2500    -999.2500      41.5290       0.2000       0.2000       0.2000    -999.2500       1.9500
   1458.0103       0.0000       0.2500    -999.2500      40.2407       0.2000       0.2000       0.2000    -999.2500       1.9500
   1458.1626       0.0000       0.2500    -999.2500      38.9530       0.2000       0.2000       0.2000    -999.2500       1.9500
