#------------------------------------------------------------------------------
#
#   Created by  : [OpenWorks] Log Export Utility (LEXP)
#   Created on  : 2016-05-23 11:57:27
#   Project     : CANT971
#   User        : R5K
#   Interpreter : PEP
#
#------------------------------------------------------------------------------
~VERSION INFORMATION
VERS. 2.0 : CWLS Log ASCII Standard - version 2.0
WRAP.  NO : One line per depth step
~WELL INFORMATION
#MNEMONIC   .UNIT                                           VALUE :DESCRIPTION
#------------------------------------------------------------------------------
STRT        .M                                           813.0000 :START DEPTH
STOP        .M                                          2589.2219 :STOP DEPTH
STEP        .M                                             0.1524 :STEP
NULL        .                                           -999.2500 :NULL VALUE
COMP        .                                   PEMEX EXPL & PROD :COMPANY
WELL        .                                                  84 :WELL
FLD         .                                           CANTARELL :FIELD
LOC         .                                             UNKNOWN :LOCATION
CNTY        .                                      CD. DEL CARMEN :COUNTY
STAT        .                                            CAMPECHE :STATE
CTRY        .                                              MEXICO :COUNTRY
SRVC        .                                             UNKNOWN :SERVICE COMPANY
DATE        .                                             UNKNOWN :LOG DATE
UWI         .                                          3060000616 :UNIQUE WELL ID
XCOORD      .                                       601709.550000 :SURFACE X
YCOORD      .                                      2142344.590000 :SURFACE Y
LAT         .                                           19.373791 :LATITUDE
LON         .                                          -92.031505 :LONGITUDE
ELEV        .M                                            24.0000 :SURFACE ELEV
ELEV_TYPE   .                                                  KB :ELEV TYPE
~CURVE INFORMATION
#MNEMONIC.UNIT        API CODE       : CURVE DESCRIPTION
#------------------------------------------------------------------------------
DEPTH    .M                          : Measured Depth
CALI     .in          UNKNOWN        : CALI:UNKNOWN:rC:NONE:v0 (auto-composite)
DRHO     .g/cm3       UNKNOWN        : DRHO:UNKNOWN:rC:NONE:v0 (auto-composite)
DT       .us/ft       UNKNOWN        : DT:DT:rC:NONE:v0 (auto-composite)
ILD      .ohmm        UNKNOWN        : ILD:UNKNOWN:rC:NONE:v0 (auto-composite)
ILM      .ohmm        UNKNOWN        : ILM:UNKNOWN:rC:NONE:v0 (auto-composite)
LLD      .ohmm        UNKNOWN        : LLD:UNKNOWN:rC:NONE:v0 (auto-composite)
LLS      .ohmm        UNKNOWN        : LLS:UNKNOWN:rC:NONE:v0 (auto-composite)
MSFL     .ohmm        UNKNOWN        : MSFL:UNKNOWN:rC:NONE:v0 (auto-composite)
NPHI     .v/v_decimal UNKNOWN        : NPHI:NPHI:rC:NONE:v0 (auto-composite)
PEF      .b/elec      UNKNOWN        : PEF:UNKNOWN:rC:NONE:v0 (auto-composite)
RG       .UNKNOWN     UNKNOWN        : RG:UNKNOWN:rC:NONE:v0 (auto-composite)
RHOB     .g/cm3       UNKNOWN        : RHOB:UNKNOWN:rC:NONE:v0 (auto-composite)
~A     DEPTH         CALI         DRHO           DT          ILD          ILM          LLD          LLS         MSFL         NPHI          PEF           RG         RHOB
# ...
   1047.0864       0.0000      -0.1000    -999.2500       1.0477       1.0791       0.0000       0.0000       0.0000    -999.2500       0.0000      43.4672       0.0000
   1047.2388       0.0000      -0.1000    -999.2500       1.0637       1.0586       0.0000       0.0000       0.0000    -999.2500       0.0000      46.3801       0.0000
   1047.3912       0.0000      -0.1000    -999.2500       1.0781       1.0384       0.0000       0.0000       0.0000    -999.2500       0.0000      49.0344       0.0000
   1047.5436       0.0000      -0.1000    -999.2500       1.0580       1.0264       0.0000       0.0000       0.0000    -999.2500       0.0000      46.4493       0.0000
   1047.6960       0.0000      -0.1000    -999.2500       1.0362       1.0131       0.0000       0.0000       0.0000    -999.2500       0.0000      44.0379       0.0000
   1047.8484       0.0000      -0.1000    -999.2500       0.9836       0.9765       0.0000       0.0000       0.0000    -999.2500       0.0000      44.7589       0.0000
   1048.0009       0.0000      -0.1000    -999.2500       0.9318       0.9394       0.0000       0.0000       0.0000    -999.2500       0.0000      45.4325       0.0000
   1048.1532       0.0000      -0.1000    -999.2500       0.8948       0.8943       0.0000       0.0000       0.0000    -999.2500       0.0000      45.3383       0.0000
   1048.3055       0.0000      -0.1000    -999.2500       0.8580       0.8502       0.0000       0.0000       0.0000    -999.2500       0.0000      45.2835       0.0000
   1048.4580       0.0000      -0.1000    -999.2500       0.8270       0.8216       0.0000       0.0000       0.0000    -999.2500       0.0000      45.8159       0.0000
   1048.6104       0.0000      -0.1000    -999.2500       0.7958       0.7934       0.0000       0.0000       0.0000    -999.2500       0.0000      46.4384       0.0000
   1048.7628       0.0000      -0.1000    -999.2500       0.7637       0.7704       0.0000       0.0000       0.0000    -999.2500       0.0000      48.2868       0.0000
   1048.9152       0.0000      -0.1000    -999.2500       0.7329       0.7484       0.0000       0.0000       0.0000    -999.2500       0.0000      49.8854       0.0000
   1049.0676       0.0000      -0.1000    -999.2500       0.7184       0.7409       0.0000       0.0000       0.0000    -999.2500       0.0000      48.3186       0.0000
   1049.2200       0.0000      -0.1000    -999.2500       0.7063       0.7354       0.0000       0.0000       0.0000    -999.2500       0.0000      46.9391       0.0000
   1049.3724       0.0000      -0.1000    -999.2500       0.7228       0.7529       0.0000       0.0000       0.0000    -999.2500       0.0000      47.7539       0.0000
   1049.5248       0.0000      -0.1000    -999.2500       0.7418       0.7727       0.0000       0.0000       0.0000    -999.2500       0.0000      48.3918       0.0000
   1049.6772       0.0000      -0.1000    -999.2500       0.7864       0.8163       0.0000       0.0000       0.0000    -999.2500       0.0000      47.1078       0.0000
   1049.8296       0.0000      -0.1000    -999.2500       0.8324       0.8603       0.0000       0.0000       0.0000    -999.2500       0.0000      45.8989       0.0000
   1049.9821       0.0000      -0.1000    -999.2500       0.8925       0.9090       0.0000       0.0000       0.0000    -999.2500       0.0000      45.4597       0.0000
   1050.1344       0.0000      -0.1000    -999.2500       0.9495       0.9552       0.0000       0.0000       0.0000    -999.2500       0.0000      44.9465       0.0000
   1050.2867       0.0000      -0.1000    -999.2500       0.9761       0.9788       0.0000       0.0000       0.0000    -999.2500       0.0000      43.7246       0.0000
   1050.4392       0.0000      -0.1000    -999.2500       0.9971       0.9944       0.0000       0.0000       0.0000    -999.2500       0.0000      42.9181       0.0000
   1050.5916       0.0000      -0.1000    -999.2500       0.9686       0.9388       0.0000       0.0000       0.0000    -999.2500       0.0000      45.8470       0.0000
   1050.7440       0.0000      -0.1000    -999.2500       0.9374       0.8821       0.0000       0.0000       0.0000    -999.2500       0.0000      48.3951       0.0000
   1050.8964       0.0000      -0.1000    -999.2500       0.8843       0.8164       0.0000       0.0000       0.0000    -999.2500       0.0000      47.6896       0.0000
   1051.0488       0.0000      -0.1000    -999.2500       0.8331       0.7563       0.0000       0.0000       0.0000    -999.2500       0.0000      47.1606       0.0000
   1051.2012       0.0000      -0.1000    -999.2500       0.7975       0.7407       0.0000       0.0000       0.0000    -999.2500       0.0000      48.0541       0.0000
   1051.3536       0.0000      -0.1000    -999.2500       0.7617       0.7268       0.0000       0.0000       0.0000    -999.2500       0.0000      49.1326       0.0000
   1051.5060       0.0000      -0.1000    -999.2500       0.7246       0.7248       0.0000       0.0000       0.0000    -999.2500       0.0000      51.6225       0.0000
   1051.6584       0.0000      -0.1000    -999.2500       0.6931       0.7244       0.0000       0.0000       0.0000    -999.2500       0.0000      53.6041       0.0000
   1051.8108       0.0000      -0.1000    -999.2500       0.7027       0.7359       0.0000       0.0000       0.0000    -999.2500       0.0000      51.8808       0.0000
   1051.9633       0.0000      -0.1000    -999.2500       0.7168       0.7500       0.0000       0.0000       0.0000    -999.2500       0.0000      50.0746       0.0000
   1052.1156       0.0000      -0.1000    -999.2500       0.7629       0.7816       0.0000       0.0000       0.0000    -999.2500       0.0000      47.6940       0.0000
   1052.2679       0.0000      -0.1000    -999.2500       0.8053       0.8119       0.0000       0.0000       0.0000    -999.2500       0.0000      45.4096       0.0000
   1052.4204       0.0000      -0.1000    -999.2500       0.8228       0.8339       0.0000       0.0000       0.0000    -999.2500       0.0000      43.7646       0.0000
   1052.5728       0.0000      -0.1000    -999.2500       0.8387       0.8519       0.0000       0.0000       0.0000    -999.2500       0.0000      42.2927       0.0000
   1052.7252       0.0000      -0.1000    -999.2500       0.8437       0.8439       0.0000       0.0000       0.0000    -999.2500       0.0000      41.9166       0.0000
   1052.8776       0.0000      -0.1000    -999.2500       0.8474       0.8361       0.0000       0.0000       0.0000    -999.2500       0.0000      41.8586       0.0000
   1053.0300       0.0000      -0.1000    -999.2500       0.8428       0.8301       0.0000       0.0000       0.0000    -999.2500       0.0000      43.7221       0.0000
   1053.1824       0.0000      -0.1000    -999.2500       0.8359       0.8237       0.0000       0.0000       0.0000    -999.2500       0.0000      45.4454       0.0000
   1053.3348       0.0000      -0.1000    -999.2500       0.8149       0.8152       0.0000       0.0000       0.0000    -999.2500       0.0000      46.3544       0.0000
   1053.4872       0.0000      -0.1000    -999.2500       0.7967       0.8078       0.0000       0.0000       0.0000    -999.2500       0.0000      46.7122       0.0000
   1053.6396       0.0000      -0.1000    -999.2500       0.7947       0.8063       0.0000       0.0000       0.0000    -999.2500       0.0000      44.0017       0.0000
   1053.7920       0.0000      -0.1000    -999.2500       0.7958       0.8096       0.0000       0.0000       0.0000    -999.2500       0.0000      41.2542       0.0000
   1053.9445       0.0000      -0.1000    -999.2500       0.8139       0.8387       0.0000       0.0000       0.0000    -999.2500       0.0000      38.3097       0.0000
   1054.0968       0.0000      -0.1000    -999.2500       0.8336       0.8698       0.0000       0.0000       0.0000    -999.2500       0.0000      35.5765       0.0000
   1054.2491       0.0000      -0.1000    -999.2500       0.8622       0.9120       0.0000       0.0000       0.0000    -999.2500       0.0000      33.9309       0.0000
