#------------------------------------------------------------------------------
#
#   Created by  : [OpenWorks] Log Export Utility (LEXP)
#   Created on  : 2016-05-23 11:50:37
#   Project     : CANT971
#   User        : R5K
#   Interpreter : PEP
#
#------------------------------------------------------------------------------
~VERSION INFORMATION
VERS. 2.0 : CWLS Log ASCII Standard - version 2.0
WRAP.  NO : One line per depth step
~WELL INFORMATION
#MNEMONIC   .UNIT                                           VALUE :DESCRIPTION
#------------------------------------------------------------------------------
STRT        .M                                           690.6770 :START DEPTH
STOP        .M                                          3400.6538 :STOP DEPTH
STEP        .M                                             0.1524 :STEP
NULL        .                                           -999.2500 :NULL VALUE
COMP        .                                   PEMEX EXPL & PROD :COMPANY
WELL        .                                                1024 :WELL
FLD         .                                           CANTARELL :FIELD
LOC         .                                             UNKNOWN :LOCATION
CNTY        .                                      CD. DEL CARMEN :COUNTY
STAT        .                                            CAMPECHE :STATE
CTRY        .                                              MEXICO :COUNTRY
SRVC        .                                             UNKNOWN :SERVICE COMPANY
DATE        .                                             UNKNOWN :LOG DATE
UWI         .                                          3060000490 :UNIQUE WELL ID
XCOORD      .                                       596162.640000 :SURFACE X
YCOORD      .                                      2150611.280000 :SURFACE Y
LAT         .                                           19.448767 :LATITUDE
LON         .                                          -92.083900 :LONGITUDE
ELEV        .M                                            30.0000 :SURFACE ELEV
ELEV_TYPE   .                                                  KB :ELEV TYPE
~CURVE INFORMATION
#MNEMONIC.UNIT        API CODE       : CURVE DESCRIPTION
#------------------------------------------------------------------------------
DEPTH    .M                          : Measured Depth
CALI     .inches      UNKNOWN        : CALI:registros:rC:NONE:v0 (auto-composite)
DRHO     .g/cm3       UNKNOWN        : DRHO:registros:rC:NONE:v0 (auto-composite)
DT       .us/ft       UNKNOWN        : DT:registros:rC:NONE:v0 (auto-composite)
GR       .API         UNKNOWN        : GR:registros:rC:NONE:v0 (auto-composite)
ILD      .ohm.m       UNKNOWN        : ILD:registros:rC:NONE:v0 (auto-composite)
ILM      .ohm.m       UNKNOWN        : ILM:registros:rC:NONE:v0 (auto-composite)
LLD      .ohm.m       UNKNOWN        : LLD:registros:rC:NONE:v0 (auto-composite)
LLS      .ohm.m       UNKNOWN        : LLS:registros:rC:NONE:v0 (auto-composite)
MSFL     .ohm.m       UNKNOWN        : MSFL:registros:rC:NONE:v0 (auto-composite)
NPHI     .v/v_decimal UNKNOWN        : NPHI:registros:rC:NONE:v0 (auto-composite)
PEF      .b/elec      UNKNOWN        : PEF:registros:rC:NONE:v0 (auto-composite)
RHOB     .g/cm3       UNKNOWN        : RHOB:registros:rC:NONE:v0 (auto-composite)
~A     DEPTH         CALI         DRHO           DT           GR          ILD          ILM          LLD          LLS         MSFL         NPHI          PEF         RHOB
# ...
   3389.9858       8.1970       0.0920     247.4160      34.4680    -999.2500    -999.2500     612.9310     224.5330     574.3780       0.1111       3.1520       2.4780
   3390.1382       8.1755       0.0900     253.6083      34.6376    -999.2500    -999.2500     612.1407     224.4631     573.7374       0.1096       3.0242       2.5344
   3390.2905       8.1540       0.0880     259.8190      34.8060    -999.2500    -999.2500     611.3480     224.3930     573.0950       0.1009       2.8960       2.5910
   3390.4431       8.5324       0.0810     269.2035      34.9665    -999.2500    -999.2500     611.4364     224.3566     572.0765       0.0874       2.6454       2.6264
   3390.5955       8.9120       0.0740     278.6170      35.1260    -999.2500    -999.2500     611.5250     224.3200     571.0550       0.0714       2.3940       2.6620
   3390.7478       9.6798       0.0680     298.4795      34.8762    -999.2500    -999.2500     611.4516     224.2666     571.2167       0.0552       2.1983       2.6340
   3390.9001      10.4500       0.0620     318.4060      34.6280    -999.2500    -999.2500     611.3780     224.2130     571.3790       0.0406       2.0020       2.6060
   3391.0525      10.9871       0.0685     330.3715      34.9916    -999.2500    -999.2500     611.4219     224.2924     573.8838       0.0295       1.9361       2.5581
   3391.2051      11.5260       0.0750     342.3770      35.3530    -999.2500    -999.2500     611.4660     224.3720     576.3970       0.0215       1.8700       2.5100
   3391.3574      11.8420       0.0695     341.3802      36.2563    -999.2500    -999.2500     611.7191     224.2941     575.7131       0.0166       1.8191       2.3712
   3391.5098      12.1590       0.0640     340.3800      37.1540    -999.2500    -999.2500     611.9730     224.2160     575.0270       0.0137       1.7680       2.2320
   3391.6621      12.1510       0.0480     339.4811      37.8927    -999.2500    -999.2500     611.9276     224.2165     573.7877       0.0122       1.6617       1.9864
   3391.8147      12.1430       0.0320     338.5790      38.6270    -999.2500    -999.2500     611.8820     224.2170     572.5440       0.0116       1.5550       1.7400
   3391.9670      11.8625       0.0155     338.3125      38.8898    -999.2500    -999.2500     611.8266     224.2424     571.7475       0.0120       1.4572       1.5329
   3392.1194      11.5810      -0.0010     338.0450      39.1510    -999.2500    -999.2500     611.7710     224.2680     570.9480       0.0129       1.3590       1.3250
   3392.2717      11.2122      -0.0110     338.0470    -999.2500    -999.2500    -999.2500     611.8968     224.2625     569.2328       0.0141       1.3046       1.2227
   3392.4243      10.8420      -0.0210     338.0490    -999.2500    -999.2500    -999.2500     612.0230     224.2570     567.5110       0.0152       1.2500       1.1200
   3392.5767      10.6908      -0.0255     338.0919    -999.2500    -999.2500    -999.2500     612.4407     224.2380     569.0879       0.0155       1.2510       1.0796
   3392.7290      10.5390      -0.0300     338.1350    -999.2500    -999.2500    -999.2500     612.8600     224.2190     570.6710       0.0154       1.2520       1.0390
   3392.8813      10.5155      -0.0310     338.1800    -999.2500    -999.2500    -999.2500     612.7551     224.2360     573.7537       0.0152       1.2595       1.0235
   3393.0337      10.4920      -0.0320     338.2250    -999.2500    -999.2500    -999.2500     612.6500     224.2530     576.8440       0.0150       1.2670       1.0080
   3393.1863      10.4920      -0.0320     338.2365    -999.2500    -999.2500    -999.2500     611.8470     224.2745     581.3785       0.0148       1.2870       1.0025
   3393.3386      10.4920      -0.0320     338.2480    -999.2500    -999.2500    -999.2500     611.0420     224.2960     585.9250       0.0147       1.3070       0.9970
   3393.4910      10.4920      -0.0325     338.2410    -999.2500    -999.2500    -999.2500     611.5688     224.2306     583.5233       0.0147       1.3390       0.9950
   3393.6433      10.4920      -0.0330     338.2340    -999.2500    -999.2500    -999.2500     612.0970     224.1650     581.1150       0.0149       1.3710       0.9930
   3393.7959      10.4920      -0.0340     338.2080    -999.2500    -999.2500    -999.2500     612.0701     224.1775     579.0549       0.0151       1.4439       0.9885
   3393.9482      10.4920      -0.0350     338.1820    -999.2500    -999.2500    -999.2500     612.0430     224.1900     576.9890       0.0153       1.5170       0.9840
   3394.1006      10.4920      -0.0345     338.1520    -999.2500    -999.2500    -999.2500     611.9706     224.1775     578.1158       0.0154       1.5080       0.9785
   3394.2529      10.4920      -0.0340     338.1220    -999.2500    -999.2500    -999.2500     611.8980     224.1650     579.2460       0.0156       1.4990       0.9730
   3394.4055      10.4920      -0.0325     338.0905    -999.2500    -999.2500    -999.2500     611.7233     224.1745     583.0066       0.0158       1.4411       0.9745
   3394.5579      10.4920      -0.0310     338.0590    -999.2500    -999.2500    -999.2500     611.5480     224.1840     586.7790       0.0159       1.3830       0.9760
   3394.7102      10.4920      -0.0310     338.0435    -999.2500    -999.2500    -999.2500     611.3718     224.1915     590.7685       0.0158       1.2837       0.9810
   3394.8625      10.4920      -0.0310     338.0280    -999.2500    -999.2500    -999.2500     611.1950     224.1990     594.7710       0.0157       1.1840       0.9860
   3395.0149      10.4920      -0.0315     338.0560    -999.2500    -999.2500    -999.2500     611.2619     224.2015     593.0419       0.0154       1.1855       0.9905
   3395.1675      10.4920      -0.0320     338.0840    -999.2500    -999.2500    -999.2500     611.3290     224.2040     591.3070       0.0151       1.1870       0.9950
   3395.3198      10.4920      -0.0320     338.1504    -999.2500    -999.2500    -999.2500     611.2526     224.2085     589.1677       0.0149       1.2030       0.9945
   3395.4722      10.4920      -0.0320     338.2170    -999.2500    -999.2500    -999.2500     611.1760     224.2130     587.0210       0.0148       1.2190       0.9940
   3395.6245      10.4920      -0.0310     338.2115    -999.2500    -999.2500    -999.2500     611.3073     224.2045     592.9138       0.0149       1.2190       0.9960
   3395.7771      10.4920      -0.0300     338.2060    -999.2500    -999.2500    -999.2500     611.4390     224.1960     598.8280       0.0151       1.2190       0.9980
   3395.9294      10.4920      -0.0300     338.1601    -999.2500    -999.2500    -999.2500     611.9151     224.2035     598.4841       0.0153       1.2170       0.9980
   3396.0818      10.4920      -0.0300     338.1140    -999.2500    -999.2500    -999.2500     612.3930     224.2110     598.1390       0.0154       1.2150       0.9980
   3396.2341      10.4920      -0.0310     338.0601    -999.2500    -999.2500    -999.2500     612.0811     224.2414     594.2031       0.0154       1.2320       0.9950
   3396.3867      10.4920      -0.0320     338.0060    -999.2500    -999.2500    -999.2500     611.7680     224.2720     590.2520       0.0153       1.2490       0.9920
   3396.5391      10.4920      -0.0345     338.0190    -999.2500    -999.2500    -999.2500     611.2705     224.2895     586.1378       0.0151       1.2794       0.9875
   3396.6914      10.4920      -0.0370     338.0320    -999.2500    -999.2500    -999.2500     610.7710     224.3070     582.0070       0.0150       1.3100       0.9830
   3396.8438      10.4920      -0.0360     338.0834    -999.2500    -999.2500    -999.2500     610.5558     224.2825     578.2627       0.0148       1.3445       0.9805
   3396.9961      10.4920      -0.0350     338.1350    -999.2500    -999.2500    -999.2500     610.3400     224.2580     574.5090       0.0145       1.3790       0.9780
   3397.1487      10.4920      -0.0330     338.1800    -999.2500    -999.2500    -999.2500     610.5198     224.2295     570.4868       0.0143       1.3695       0.9740
