#------------------------------------------------------------------------------
#
#   Created by  : [OpenWorks] Log Export Utility (LEXP)
#   Created on  : 2016-05-12 17:01:25
#   Project     : CANT971
#   User        : R5K
#   Interpreter : PEP
#
#------------------------------------------------------------------------------
~VERSION INFORMATION
VERS. 2.0 : CWLS Log ASCII Standard - version 2.0
WRAP.  NO : One line per depth step
~WELL INFORMATION
#MNEMONIC   .UNIT                                           VALUE :DESCRIPTION
#------------------------------------------------------------------------------
STRT        .M                                           310.6675 :START DEPTH
STOP        .M                                          2665.7046 :STOP DEPTH
STEP        .M                                             0.1524 :STEP
NULL        .                                           -999.2500 :NULL VALUE
COMP        .                                   PEMEX EXPL & PROD :COMPANY
WELL        .                                                 77A :WELL
FLD         .                                           CANTARELL :FIELD
LOC         .                                             UNKNOWN :LOCATION
CNTY        .                                      CD. DEL CARMEN :COUNTY
STAT        .                                            CAMPECHE :STATE
CTRY        .                                              MEXICO :COUNTRY
SRVC        .                                             UNKNOWN :SERVICE COMPANY
DATE        .                                             UNKNOWN :LOG DATE
UWI         .                                          3060000181 :UNIQUE WELL ID
XCOORD      .                                       602151.310000 :SURFACE X
YCOORD      .                                      2147165.430000 :SURFACE Y
LAT         .                                           19.417331 :LATITUDE
LON         .                                          -92.027040 :LONGITUDE
ELEV        .M                                            28.1700 :SURFACE ELEV
ELEV_TYPE   .                                                  KB :ELEV TYPE
~CURVE INFORMATION
#MNEMONIC.UNIT        API CODE       : CURVE DESCRIPTION
#------------------------------------------------------------------------------
DEPTH    .M                          : Measured Depth
CALI     .inches      UNKNOWN        : CALI:UNKNOWN:rC:NONE:v0 (auto-composite)
DRHO     .UNKNOWN     UNKNOWN        : DRHO:PETROWORKS:rC:NONE:v1 
DT       .us/ft       UNKNOWN        : DT:DT:rC:NONE:v0 (auto-composite)
GR       .API         UNKNOWN        : GR:UNKNOWN:rC:NONE:v0 (auto-composite)
ILD      .UNKNOWN     UNKNOWN        : ILD:UNKNOWN:rC:NONE:v0 (auto-composite)
LLD      .ohm.m       UNKNOWN        : LLD:UNKNOWN:rC:NONE:v0 (auto-composite)
LLS      .ohm.m       UNKNOWN        : LLS:UNKNOWN:rC:NONE:v0 (auto-composite)
MSFL     .ohm.m       UNKNOWN        : MSFL:UNKNOWN:rC:NONE:v0 (auto-composite)
NPHI     .v/v_decimal UNKNOWN        : NPHI:PETROWORKS:rC:NONE:v1 
RHOB     .UNKNOWN     UNKNOWN        : RHOB:PETROWORKS:rC:NONE:v1 
SP       .UNKNOWN     UNKNOWN        : SP:UNKNOWN:rC:NONE:v0 (auto-composite)
~A     DEPTH         CALI         DRHO           DT           GR          ILD          LLD          LLS         MSFL         NPHI         RHOB           SP
# ...
    928.8019       9.9314       0.0466     130.0189      48.7004       1.2669    -999.2500    -999.2500    -999.2500       0.3313       2.2468     122.8952
    928.9543      10.0151       0.0537     129.9689      48.8698       1.2625    -999.2500    -999.2500    -999.2500       0.3329       2.2626     123.0830
    929.1067      11.1360       0.0512     129.9470      48.7430       1.2594    -999.2500    -999.2500    -999.2500       0.3363       2.2695     123.2444
    929.2591      12.8390       0.0482     129.9530      48.6820       1.2580    -999.2500    -999.2500    -999.2500       0.3415       2.2696     123.2382
    929.4115      15.0813       0.0447     129.9670      48.6820       1.2580    -999.2500    -999.2500    -999.2500       0.3457       2.2632     123.0767
    929.5639      15.5802       0.0441     129.9890      49.4821       1.2567    -999.2500    -999.2500    -999.2500       0.3489       2.2611     122.8585
    929.7163      14.4999       0.0461     130.0110      51.0070       1.2542    -999.2500    -999.2500    -999.2500       0.3554       2.2632     122.5888
    929.8687      13.5843       0.0486     130.0331      52.0069       1.2530    -999.2500    -999.2500    -999.2500       0.3651       2.2688     122.4907
    930.0211      12.8148       0.0517     130.0425      52.5407       1.2530    -999.2500    -999.2500    -999.2500       0.3644       2.2776     122.5448
    930.1735      12.0958       0.0554     130.0395      51.2387       1.2514    -999.2500    -999.2500    -999.2500       0.3535       2.2798     122.3970
    930.3259      11.4205       0.0599     130.0317      48.3407       1.2484    -999.2500    -999.2500    -999.2500       0.3485       2.2759     122.0737
    930.4783      11.3361       0.0642     130.0192      47.5986       1.2454    -999.2500    -999.2500    -999.2500       0.3492       2.2732     121.7501
    930.6307      11.7548       0.0682     129.9957      48.6922       1.2424    -999.2500    -999.2500    -999.2500       0.3510       2.2716     121.4262
    930.7831      11.0680       0.0714     129.9612      50.3958       1.2410    -999.2500    -999.2500    -999.2500       0.3538       2.2682     121.3673
    930.9355       9.4609       0.0742     129.9503      52.6075       1.2410    -999.2500    -999.2500    -999.2500       0.3566       2.2635     121.5293
    931.0879       8.3745       0.0820     129.9628      52.8309       1.2393    -999.2500    -999.2500    -999.2500       0.3594       2.2641     121.6614
    931.2403       7.7128       0.0941     130.0066      51.4328       1.2363    -999.2500    -999.2500    -999.2500       0.3635       2.2690     121.7691
    931.3927       7.7417       0.1006     130.0816      49.7518       1.2350    -999.2500    -999.2500    -999.2500       0.3690       2.2652     121.9368
    931.5451       8.3222       0.1020     130.1002      47.8449       1.2350    -999.2500    -999.2500    -999.2500       0.3751       2.2536     122.1524
    931.6975       8.0996       0.1102     130.0627      47.2221       1.2305    -999.2500    -999.2500    -999.2500       0.3819       2.2477     122.2774
    931.8499       7.2487       0.1244     130.0440      47.6036       1.2225    -999.2500    -999.2500    -999.2500       0.3838       2.2469     122.3315
    932.0023       6.4210       0.1333     130.0440      48.1724       1.2190    -999.2500    -999.2500    -999.2500       0.3807       2.2421     122.3243
    932.1547       5.6109       0.1370     130.0440      48.8842       1.2190    -999.2500    -999.2500    -999.2500       0.3853       2.2338     122.2702
    932.3071       5.2563       0.1373     130.0440      48.4332       1.2270    -999.2500    -999.2500    -999.2500       0.3974       2.2280     122.2470
    932.4595       5.2427       0.1340     130.0440      47.1113       1.2411    -999.2500    -999.2500    -999.2500       0.4033       2.2241     122.2470
    932.6119       5.2370       0.1272     130.0440      46.4493       1.2623    -999.2500    -999.2500    -999.2500       0.4028       2.2166     122.2160
    932.7643       5.2370       0.1174     130.0440      46.2713       1.2889    -999.2500    -999.2500    -999.2500       0.4029       2.2057     122.1624
    932.9167       5.2449       0.1104     130.0440      46.1970       1.3140    -999.2500    -999.2500    -999.2500       0.4034       2.1969     122.0772
    933.0691       5.2584       0.1064     130.0440      46.1970       1.3381    -999.2500    -999.2500    -999.2500       0.4055       2.1903     121.9694
    933.2215       5.2720       0.1085     130.0440      46.1970       1.3648    -999.2500    -999.2500    -999.2500       0.4091       2.1885     121.8617
    933.3739       5.2855       0.1159     130.0440      46.1970       1.3934    -999.2500    -999.2500    -999.2500       0.4146       2.1914     121.7539
    933.5263       5.2910       0.1223     130.0440      46.1970       1.3997    -999.2500    -999.2500    -999.2500       0.4219       2.1989     121.6779
    933.6787       5.2910       0.1280     130.0440      46.1970       1.3906    -999.2500    -999.2500    -999.2500       0.4256       2.2104     121.6238
    933.8311       5.3069       0.1357     130.0440      46.1970       1.3573    -999.2500    -999.2500    -999.2500       0.4256       2.2223     121.6020
    933.9835       5.3335       0.1440     130.0440      46.1970       1.3077    -999.2500    -999.2500    -999.2500       0.4255       2.2329     121.6020
    934.1359       5.3440       0.1411     130.0440      46.1970       1.2862    -999.2500    -999.2500    -999.2500       0.4255       2.2308     121.6020
    934.2883       5.3440       0.1288     130.0440      46.1970       1.2832    -999.2500    -999.2500    -999.2500       0.4253       2.2175     121.6020
    934.4407       5.3361       0.1227     130.0440      46.1970       1.2802    -999.2500    -999.2500    -999.2500       0.4251       2.2062     121.7988
    934.5931       5.3230       0.1225     130.0440      46.1970       1.2772    -999.2500    -999.2500    -999.2500       0.4250       2.1977     122.1221
    934.7455       5.3260       0.1248     130.0440      46.1970       1.2742    -999.2500    -999.2500    -999.2500       0.4250       2.1983     122.3793
    934.8979       5.3390       0.1290     130.0440      46.1970       1.2711    -999.2500    -999.2500    -999.2500       0.4250       2.2063     122.5948
    935.0503       5.3440       0.1313     130.0440      46.1970       1.2700    -999.2500    -999.2500    -999.2500       0.4250       2.2109     122.7105
    935.2027       5.3440       0.1318     130.0440      46.1970       1.2700    -999.2500    -999.2500    -999.2500       0.4250       2.2124     122.7647
    935.3551       5.3440       0.1323     130.0440      46.1970       1.2700    -999.2500    -999.2500    -999.2500       0.4250       2.2133     122.8185
    935.5075       5.3440       0.1329     130.0440      46.1970       1.2700    -999.2500    -999.2500    -999.2500       0.4250       2.2142     122.8721
    935.6599       5.3440       0.1336     130.0440      46.1970       1.2738    -999.2500    -999.2500    -999.2500       0.4249       2.2178     122.9261
    935.8123       5.3440       0.1345     130.0377      46.1970       1.2798    -999.2500    -999.2500    -999.2500       0.4247       2.2231     122.9802
    935.9647       5.3440       0.1344     130.0252      46.1970       1.2820    -999.2500    -999.2500    -999.2500       0.4244       2.2234     123.0000
    936.1171       5.3440       0.1337     130.0205      46.1970       1.2820    -999.2500    -999.2500    -999.2500       0.4222       2.2202     123.0000
    936.2695       5.3270       0.1349     130.0235      42.3501       1.2820    -999.2500    -999.2500    -999.2500       0.4184       2.2225     122.8274
    936.4219       5.3004       0.1374     130.0298      36.3379       1.2820    -999.2500    -999.2500    -999.2500       0.3958       2.2285     122.5576
    936.5743       5.2910       0.1361     130.0393      34.6586       1.2820    -999.2500    -999.2500    -999.2500       0.3546       2.2278     122.3578
