#------------------------------------------------------------------------------
#
#   Created by  : [OpenWorks] Log Export Utility (LEXP)
#   Created on  : 2016-05-23 11:51:18
#   Project     : CANT971
#   User        : R5K
#   Interpreter : PEP
#
#------------------------------------------------------------------------------
~VERSION INFORMATION
VERS. 2.0 : CWLS Log ASCII Standard - version 2.0
WRAP.  NO : One line per depth step
~WELL INFORMATION
#MNEMONIC   .UNIT                                           VALUE :DESCRIPTION
#------------------------------------------------------------------------------
STRT        .M                                           690.7880 :START DEPTH
STOP        .M                                          2950.1179 :STOP DEPTH
STEP        .M                                             0.1524 :STEP
NULL        .                                           -999.2500 :NULL VALUE
COMP        .                                   PEMEX EXPL & PROD :COMPANY
WELL        .                                                1066 :WELL
FLD         .                                           CANTARELL :FIELD
LOC         .                                             UNKNOWN :LOCATION
CNTY        .                                      CD. DEL CARMEN :COUNTY
STAT        .                                            CAMPECHE :STATE
CTRY        .                                              MEXICO :COUNTRY
SRVC        .                                             UNKNOWN :SERVICE COMPANY
DATE        .                                             UNKNOWN :LOG DATE
UWI         .                                          3060000505 :UNIQUE WELL ID
XCOORD      .                                       596157.670000 :SURFACE X
YCOORD      .                                      2150605.920000 :SURFACE Y
LAT         .                                           19.448718 :LATITUDE
LON         .                                          -92.083948 :LONGITUDE
ELEV        .M                                            30.0000 :SURFACE ELEV
ELEV_TYPE   .                                                  KB :ELEV TYPE
~CURVE INFORMATION
#MNEMONIC.UNIT        API CODE       : CURVE DESCRIPTION
#------------------------------------------------------------------------------
DEPTH    .M                          : Measured Depth
CALI     .inches      UNKNOWN        : CALI:litodensidad:rC:NONE:v0 (auto-composite)
DRHO     .g/cm3       UNKNOWN        : DRHO:litodensidad:rC:NONE:v0 (auto-composite)
DT       .us/ft       UNKNOWN        : DT:DT:rC:NONE:v0 (auto-composite)
GR       .API         UNKNOWN        : GR:UNKNOWN:rC:NONE:v0 (auto-composite)
ILD      .ohmm        UNKNOWN        : ILD:UNKNOWN:rC:NONE:v0 (auto-composite)
ILM      .ohmm        UNKNOWN        : ILM:UNKNOWN:rC:NONE:v0 (auto-composite)
LLD      .ohmm        UNKNOWN        : LLD:UNKNOWN:rC:NONE:v0 (auto-composite)
LLS      .ohmm        UNKNOWN        : LLS:UNKNOWN:rC:NONE:v0 (auto-composite)
MSFL     .ohmm        UNKNOWN        : MSFL:UNKNOWN:rC:NONE:v0 (auto-composite)
NPHI     .v/v_decimal UNKNOWN        : NPHI:PETROWORKS:rC:NONE:v2 
PEF      .b/elec      UNKNOWN        : PEF:litodensidad:rC:NONE:v0 (auto-composite)
RHOB     .g/cm3       UNKNOWN        : RHOB:litodensidad:rC:NONE:v0 (auto-composite)
~A     DEPTH         CALI         DRHO           DT           GR          ILD          ILM          LLD          LLS         MSFL         NPHI          PEF         RHOB
# ...
   1137.0153    -999.2500    -999.2500    -999.2500      24.1840       1.4054       1.3914       0.2000       0.2000       0.2000      -0.1500    -999.2500    -999.2500
   1137.1676    -999.2500    -999.2500    -999.2500      24.1671       1.3653       1.3515       0.2000       0.2000       0.2000      -0.1500    -999.2500    -999.2500
   1137.3201    -999.2500    -999.2500    -999.2500      24.2431       1.3244       1.3130       0.2000       0.2000       0.2000      -0.1500    -999.2500    -999.2500
   1137.4724    -999.2500    -999.2500    -999.2500      24.6202       1.3094       1.2893       0.2000       0.2000       0.2000      -0.1500    -999.2500    -999.2500
   1137.6249    -999.2500    -999.2500    -999.2500      25.0427       1.2984       1.2677       0.2000       0.2000       0.2000      -0.1500    -999.2500    -999.2500
   1137.7772    -999.2500    -999.2500    -999.2500      24.6447       1.3237       1.2948       0.2000       0.2000       0.2000      -0.1500    -999.2500    -999.2500
   1137.9296    -999.2500    -999.2500    -999.2500      24.1283       1.3543       1.3289       0.2000       0.2000       0.2000      -0.1500    -999.2500    -999.2500
   1138.0820    -999.2500    -999.2500    -999.2500      24.4293       1.3940       1.3831       0.2000       0.2000       0.2000      -0.1500    -999.2500    -999.2500
   1138.2344    -999.2500    -999.2500    -999.2500      24.8425       1.4350       1.4400       0.2000       0.2000       0.2000      -0.1500    -999.2500    -999.2500
   1138.3868    -999.2500    -999.2500    -999.2500      24.8767       1.4906       1.4791       0.2000       0.2000       0.2000      -0.1500    -999.2500    -999.2500
   1138.5392    -999.2500    -999.2500    -999.2500      24.8582       1.5483       1.5157       0.2000       0.2000       0.2000      -0.1500    -999.2500    -999.2500
   1138.6917    -999.2500    -999.2500    -999.2500      23.8141       1.6075       1.5544       0.2000       0.2000       0.2000      -0.1500    -999.2500    -999.2500
   1138.8440    -999.2500    -999.2500    -999.2500      22.6346       1.6670       1.5934       0.2000       0.2000       0.2000      -0.1500    -999.2500    -999.2500
   1138.9965    -999.2500    -999.2500    -999.2500      22.2987       1.6895       1.6197       0.2000       0.2000       0.2000      -0.1500    -999.2500    -999.2500
   1139.1488    -999.2500    -999.2500    -999.2500      22.0761       1.7070       1.6442       0.2000       0.2000       0.2000      -0.1500    -999.2500    -999.2500
   1139.3013    -999.2500    -999.2500    -999.2500      22.7783       1.7086       1.6470       0.2000       0.2000       0.2000      -0.1500    -999.2500    -999.2500
   1139.4536    -999.2500    -999.2500    -999.2500      23.5981       1.7081       1.6470       0.2000       0.2000       0.2000      -0.1500    -999.2500    -999.2500
   1139.6061    -999.2500    -999.2500    -999.2500      24.3202       1.7071       1.6381       0.2000       0.2000       0.2000      -0.1500    -999.2500    -999.2500
   1139.7584    -999.2500    -999.2500    -999.2500      25.0306       1.7061       1.6281       0.2000       0.2000       0.2000      -0.1500    -999.2500    -999.2500
   1139.9108    -999.2500    -999.2500    -999.2500      24.7220       1.6993       1.6248       0.2000       0.2000       0.2000      -0.1500    -999.2500    -999.2500
   1140.0632    -999.2500    -999.2500    -999.2500      24.2888       1.6918       1.6223       0.2000       0.2000       0.2000      -0.1500    -999.2500    -999.2500
   1140.2156    -999.2500    -999.2500    -999.2500      23.2366       1.6744       1.6171       0.2000       0.2000       0.2000      -0.1500    -999.2500    -999.2500
   1140.3680    -999.2500    -999.2500    -999.2500      22.1130       1.6559       1.6116       0.2000       0.2000       0.2000      -0.1500    -999.2500    -999.2500
   1140.5204    -999.2500    -999.2500    -999.2500      23.3044       1.6464       1.6002       0.2000       0.2000       0.2000      -0.1500    -999.2500    -999.2500
   1140.6729    -999.2500    -999.2500    -999.2500      24.7674       1.6378       1.5882       0.2000       0.2000       0.2000      -0.1500    -999.2500    -999.2500
   1140.8252    -999.2500    -999.2500    -999.2500      26.3908       1.6442       1.5915       0.2000       0.2000       0.2000      -0.1500    -999.2500    -999.2500
   1140.9777    -999.2500    -999.2500    -999.2500      28.0318       1.6522       1.5965       0.2000       0.2000       0.2000      -0.1500    -999.2500    -999.2500
   1141.1300    -999.2500    -999.2500    -999.2500      27.9954       1.6553       1.6092       0.2000       0.2000       0.2000      -0.1500    -999.2500    -999.2500
   1141.2825    -999.2500    -999.2500    -999.2500      27.7851       1.6578       1.6227       0.2000       0.2000       0.2000      -0.1500    -999.2500    -999.2500
   1141.4348    -999.2500    -999.2500    -999.2500      27.4861       1.6598       1.6272       0.2000       0.2000       0.2000      -0.1500    -999.2500    -999.2500
   1141.5873    -999.2500    -999.2500    -999.2500      27.1778       1.6618       1.6307       0.2000       0.2000       0.2000      -0.1500    -999.2500    -999.2500
   1141.7396    -999.2500    -999.2500    -999.2500      26.8063       1.6756       1.6355       0.2000       0.2000       0.2000      -0.1500    -999.2500    -999.2500
   1141.8920    -999.2500    -999.2500    -999.2500      26.4286       1.6906       1.6405       0.2000       0.2000       0.2000      -0.1500    -999.2500    -999.2500
   1142.0444    -999.2500    -999.2500    -999.2500      26.1167       1.7034       1.6497       0.2000       0.2000       0.2000      -0.1500    -999.2500    -999.2500
   1142.1968    -999.2500    -999.2500    -999.2500      25.8113       1.7159       1.6592       0.2000       0.2000       0.2000      -0.1500    -999.2500    -999.2500
   1142.3492    -999.2500    -999.2500    -999.2500      23.2775       1.7307       1.6811       0.2000       0.2000       0.2000      -0.1500    -999.2500    -999.2500
   1142.5016    -999.2500    -999.2500    -999.2500      20.5335       1.7458       1.7041       0.2000       0.2000       0.2000      -0.1500    -999.2500    -999.2500
   1142.6541    -999.2500    -999.2500    -999.2500      20.3077       1.7599       1.7239       0.2000       0.2000       0.2000      -0.1500    -999.2500    -999.2500
   1142.8064    -999.2500    -999.2500    -999.2500      20.3052       1.7738       1.7434       0.2000       0.2000       0.2000      -0.1500    -999.2500    -999.2500
   1142.9589    -999.2500    -999.2500    -999.2500      22.6410       1.7916       1.7478       0.2000       0.2000       0.2000      -0.1500    -999.2500    -999.2500
   1143.1112    -999.2500    -999.2500    -999.2500      25.1865       1.8096       1.7508       0.2000       0.2000       0.2000      -0.1500    -999.2500    -999.2500
   1143.2637    -999.2500    -999.2500    -999.2500      26.5624       1.8267       1.7671       0.2000       0.2000       0.2000      -0.1500    -999.2500    -999.2500
   1143.4160    -999.2500    -999.2500    -999.2500      27.8398       1.8437       1.7846       0.2000       0.2000       0.2000      -0.1500    -999.2500    -999.2500
   1143.5685    -999.2500    -999.2500    -999.2500      27.1012       1.8505       1.7943       0.2000       0.2000       0.2000      -0.1500    -999.2500    -999.2500
   1143.7208    -999.2500    -999.2500    -999.2500      26.1911       1.8566       1.8033       0.2000       0.2000       0.2000      -0.1500    -999.2500    -999.2500
   1143.8732    -999.2500    -999.2500    -999.2500      25.8983       1.8719       1.8189       0.2000       0.2000       0.2000      -0.1500    -999.2500    -999.2500
   1144.0256    -999.2500    -999.2500    -999.2500      25.6546       1.8879       1.8349       0.2000       0.2000       0.2000      -0.1500    -999.2500    -999.2500
   1144.1780    -999.2500    -999.2500    -999.2500      25.0051       1.9006       1.8481       0.2000       0.2000       0.2000      -0.1500    -999.2500    -999.2500
