#------------------------------------------------------------------------------
#
#   Created by  : [OpenWorks] Log Export Utility (LEXP)
#   Created on  : 2016-05-23 11:56:43
#   Project     : CANT971
#   User        : R5K
#   Interpreter : PEP
#
#------------------------------------------------------------------------------
~VERSION INFORMATION
VERS. 2.0 : CWLS Log ASCII Standard - version 2.0
WRAP.  NO : One line per depth step
~WELL INFORMATION
#MNEMONIC   .UNIT                                           VALUE :DESCRIPTION
#------------------------------------------------------------------------------
STRT        .M                                           650.2150 :START DEPTH
STOP        .M                                          2618.6135 :STOP DEPTH
STEP        .M                                             0.1524 :STEP
NULL        .                                           -999.2500 :NULL VALUE
COMP        .                                   PEMEX EXPL & PROD :COMPANY
WELL        .                                                  4D :WELL
FLD         .                                           CANTARELL :FIELD
LOC         .                                             UNKNOWN :LOCATION
CNTY        .                                      CD. DEL CARMEN :COUNTY
STAT        .                                            CAMPECHE :STATE
CTRY        .                                              MEXICO :COUNTRY
SRVC        .                                             UNKNOWN :SERVICE COMPANY
DATE        .                                             UNKNOWN :LOG DATE
UWI         .                                          3060000662 :UNIQUE WELL ID
XCOORD      .                                       598468.500000 :SURFACE X
YCOORD      .                                      2145023.700000 :SURFACE Y
LAT         .                                           19.398162 :LATITUDE
LON         .                                          -92.062225 :LONGITUDE
ELEV        .M                                            26.5400 :SURFACE ELEV
ELEV_TYPE   .                                                  KB :ELEV TYPE
~CURVE INFORMATION
#MNEMONIC.UNIT        API CODE       : CURVE DESCRIPTION
#------------------------------------------------------------------------------
DEPTH    .M                          : Measured Depth
CAL      .inches      UNKNOWN        : CAL:UNKNOWN:rC:NONE:v0 (auto-composite)
CGR      .UNKNOWN     UNKNOWN        : CGR:UNKNOWN:rC:NONE:v0 (auto-composite)
DRHO     .UNKNOWN     UNKNOWN        : DRHO:UNKNOWN:rC:NONE:v0 (auto-composite)
DT       .us/ft       UNKNOWN        : DT:DT:rC:NONE:v0 (auto-composite)
GR       .API         UNKNOWN        : GR:UNKNOWN:rC:NONE:v0 (auto-composite)
ILD      .UNKNOWN     UNKNOWN        : ILD:UNKNOWN:rC:NONE:v0 (auto-composite)
ILM      .UNKNOWN     UNKNOWN        : ILM:UNKNOWN:rC:NONE:v0 (auto-composite)
LLD      .UNKNOWN     UNKNOWN        : LLD:UNKNOWN:rC:NONE:v0 (auto-composite)
LLS      .UNKNOWN     UNKNOWN        : LLS:UNKNOWN:rC:NONE:v0 (auto-composite)
MSFL     .UNKNOWN     UNKNOWN        : MSFL:UNKNOWN:rC:NONE:v0 (auto-composite)
NPHI     .v/v_decimal UNKNOWN        : NPHI:PETROWORKS:rC:NONE:v1 
PEF      .UNKNOWN     UNKNOWN        : PEF:UNKNOWN:rC:NONE:v0 (auto-composite)
POTA     .UNKNOWN     UNKNOWN        : POTA:UNKNOWN:rC:NONE:v0 (auto-composite)
RHOB     .UNKNOWN     UNKNOWN        : RHOB:UNKNOWN:rC:NONE:v0 (auto-composite)
THOR     .UNKNOWN     UNKNOWN        : THOR:UNKNOWN:rC:NONE:v0 (auto-composite)
URAN     .UNKNOWN     UNKNOWN        : URAN:UNKNOWN:rC:NONE:v0 (auto-composite)
~A     DEPTH          CAL          CGR         DRHO           DT           GR          ILD          ILM          LLD          LLS         MSFL         NPHI          PEF         POTA         RHOB         THOR         URAN
# ...
   2527.9355       6.9526       9.1844       0.0215      49.3553      29.8747    -999.2500    -999.2500     550.7775     434.0523    1828.0891       0.0460       3.3314       0.0011       2.8053       1.2042       2.2881
   2528.0879       6.8981       7.7919       0.0360      56.7426      27.8138    -999.2500    -999.2500     579.6687     459.4333     932.2579       0.0442       3.3804       0.0016       2.8188       1.2052       2.3356
   2528.2402       6.8435       6.7970       0.0473      61.0564      26.4111    -999.2500    -999.2500     594.9520     471.8732     344.2027       0.0434       3.4515       0.0019       2.8291       1.2367       2.3872
   2528.3926       6.7880       7.7251       0.0433      50.5080      28.1919    -999.2500    -999.2500     544.4333     421.7347    1244.4309       0.0448       3.6296       0.0014       2.8241       1.4156       2.4587
   2528.5449       6.7394       8.2607       0.0397      42.1081      29.2630    -999.2500    -999.2500     491.6334     371.5977    1824.2626       0.0461       3.7587       0.0009       2.8194       1.5385       2.4977
   2528.6975       6.7244       6.8867       0.0382      44.0438      26.8819    -999.2500    -999.2500     427.7349     321.4678     845.3098       0.0472       3.6521       0.0004       2.8159       1.3889       2.3787
   2528.8499       6.7275       6.0042       0.0354      46.0335      25.1495    -999.2500    -999.2500     374.1130     278.7572     168.1499       0.0487       3.5301       0.0002       2.8108       1.2617       2.2761
   2529.0022       6.8169       7.5006       0.0264      48.2848      26.4535    -999.2500    -999.2500     370.2297     271.9547     951.6345       0.0515       3.3336       0.0012       2.7978       1.2422       2.2531
   2529.1545       6.9012       8.7829       0.0201      49.8870      27.3635    -999.2500    -999.2500     374.1306     270.2756    1467.6357       0.0533       3.1769       0.0021       2.7914       1.2026       2.2123
   2529.3071       6.9602       9.0230       0.0266      48.3634      26.4186    -999.2500    -999.2500     415.9371     293.2652     681.1274       0.0499       3.2114       0.0026       2.8169       1.0650       2.0847
   2529.4595       7.0082       9.3239       0.0314      47.4599      25.7442    -999.2500    -999.2500     453.3507     314.4076      34.5280       0.0479       3.2712       0.0031       2.8335       0.9607       1.9730
   2529.6118       7.0037       9.9197       0.0279      49.5265      26.3649    -999.2500    -999.2500     469.4847     326.6021      65.6715       0.0488       3.4516       0.0036       2.8075       1.0171       1.9380
   2529.7642       6.9841      10.2405       0.0257      51.5808      26.5022    -999.2500    -999.2500     486.6354     338.9125      84.0230       0.0506       3.5919       0.0039       2.7865       1.0281       1.8880
   2529.9167       6.8916       9.2211       0.0297      53.5755      24.3097    -999.2500    -999.2500     508.7411     351.7812      40.0277       0.0541       3.5389       0.0034       2.7895       0.8170       1.7644
   2530.0691       6.8003       8.3144       0.0343      54.7744      22.3501    -999.2500    -999.2500     532.7080     366.7124      13.6414       0.0558       3.4812       0.0031       2.7943       0.6140       1.6517
   2530.2214       6.7154       7.9540       0.0418      52.1575      21.5203    -999.2500    -999.2500     565.6993     391.5312      72.6314       0.0541       3.4012       0.0036       2.8078       0.4500       1.5912
   2530.3738       6.6556       7.9245       0.0459      49.8392      21.2621    -999.2500    -999.2500     569.0180     393.8383     114.4729       0.0517       3.3354       0.0040       2.8162       0.3525       1.5601
   2530.5261       6.7171       9.5086       0.0333      48.9608      23.6701    -999.2500    -999.2500     427.5893     287.5640      72.6610       0.0502       3.3379       0.0040       2.7997       0.5791       1.6721
   2530.6787       6.7890      10.6371       0.0238      47.9078      25.3922    -999.2500    -999.2500     306.4355     197.1781      35.9631       0.0494       3.3647       0.0041       2.7877       0.7519       1.7558
   2530.8311       6.9110       9.5547       0.0283      46.0167      23.8594    -999.2500    -999.2500     283.6711     183.0307      24.0827       0.0502       3.5082       0.0046       2.7977       0.6633       1.7018
   2530.9834       7.0127       8.4308       0.0334      44.8242      22.3804    -999.2500    -999.2500     272.6522     178.8518      13.2460       0.0507       3.6267       0.0047       2.8063       0.6002       1.6639
   2531.1357       7.0167       7.1069       0.0414      47.0050      21.1584    -999.2500    -999.2500     318.3360     222.7965       7.4475       0.0498       3.6252       0.0032       2.8078       0.6597       1.7038
   2531.2883       7.0100       5.7850       0.0491      48.7578      19.7088    -999.2500    -999.2500     364.3447     266.1335       2.9171       0.0485       3.5972       0.0018       2.8100       0.7061       1.7072
   2531.4407       6.9520       4.4730       0.0556      48.4549      17.1659    -999.2500    -999.2500     411.9318     306.5521       4.5457       0.0461       3.4418       0.0008       2.8160       0.6891       1.5326
   2531.5930       6.8902       3.7899       0.0598      48.0652      15.4854    -999.2500    -999.2500     440.2172     331.3200       5.5670       0.0447       3.3155       0.0003       2.8129       0.6538       1.3841
   2531.7454       6.8097       6.1454       0.0528      47.2559      17.9718    -999.2500    -999.2500     375.2397     280.4662       3.6544       0.0458       3.3300       0.0023       2.7659       0.5304       1.3611
   2531.8977       6.7402       8.5613       0.0463      46.8626      20.6367    -999.2500    -999.2500     312.6876     232.0207      11.7127       0.0487       3.3531       0.0041       2.7227       0.4897       1.3654
   2532.0503       6.7237      11.2708       0.0423      48.4689      24.1790    -999.2500    -999.2500     261.9259     195.1511      68.2441       0.0587       3.4176       0.0046       2.6977       0.8513       1.5024
   2532.2026       6.7168      14.1791       0.0385      50.0764      28.0124    -999.2500    -999.2500     215.8248     161.3702     106.8497       0.0680       3.4512       0.0053       2.6818       1.2292       1.6434
   2532.3550       6.7563      18.0489       0.0355      51.6895      33.2221    -999.2500    -999.2500     192.2629     142.5262      58.7640       0.0758       3.3368       0.0068       2.7098       1.6855       1.8033
   2532.5073       6.8003      21.2344       0.0317      52.9886      37.5689    -999.2500    -999.2500     176.2045     129.4116      97.0470       0.0824       3.2456       0.0079       2.7375       2.0695       1.9419
   2532.6599       6.8658      21.0898       0.0242      52.7772      37.8103    -999.2500    -999.2500     196.6556     143.8613     555.5747       0.0849       3.2666       0.0074       2.7635       2.1015       1.9764
   2532.8123       6.9142      20.1921       0.0184      52.6733      36.9621    -999.2500    -999.2500     219.9907     160.0787     855.7930       0.0832       3.3052       0.0066       2.7840       2.1076       2.0140
   2532.9646       6.8807      15.6491       0.0209      53.0894      30.8986    -999.2500    -999.2500     257.2861     184.8518     389.7278       0.0729       3.4282       0.0041       2.7780       1.9887       2.0665
   2533.1169       6.8340      11.6521       0.0235      53.1648      25.5237    -999.2500    -999.2500     291.9859     207.9339       5.3003       0.0622       3.5483       0.0021       2.7739       1.8269       2.0581
   2533.2695       6.7235      10.3147       0.0265      51.5992      23.5026    -999.2500    -999.2500     314.0451     222.8730      18.4506       0.0560       3.6549       0.0026       2.7794       1.4568       1.7535
   2533.4219       6.6524       9.3421       0.0301      50.6750      22.0169    -999.2500    -999.2500     338.3912     238.2413      27.0637       0.0510       3.6956       0.0031       2.7849       1.1655       1.5078
