#------------------------------------------------------------------------------
#
#   Created by  : [OpenWorks] Log Export Utility (LEXP)
#   Created on  : 2016-05-23 11:57:21
#   Project     : CANT971
#   User        : R5K
#   Interpreter : PEP
#
#------------------------------------------------------------------------------
~VERSION INFORMATION
VERS. 2.0 : CWLS Log ASCII Standard - version 2.0
WRAP.  NO : One line per depth step
~WELL INFORMATION
#MNEMONIC   .UNIT                                           VALUE :DESCRIPTION
#------------------------------------------------------------------------------
STRT        .M                                           117.7290 :START DEPTH
STOP        .M                                          2309.5459 :STOP DEPTH
STEP        .M                                             0.1524 :STEP
NULL        .                                           -999.2500 :NULL VALUE
COMP        .                                   PEMEX EXPL & PROD :COMPANY
WELL        .                                                  7A :WELL
FLD         .                                           CANTARELL :FIELD
LOC         .                                             UNKNOWN :LOCATION
CNTY        .                                      CD. DEL CARMEN :COUNTY
STAT        .                                            CAMPECHE :STATE
CTRY        .                                              MEXICO :COUNTRY
SRVC        .                                             UNKNOWN :SERVICE COMPANY
DATE        .                                             UNKNOWN :LOG DATE
UWI         .                                          3060000143 :UNIQUE WELL ID
XCOORD      .                                       603360.310000 :SURFACE X
YCOORD      .                                      2145096.320000 :SURFACE Y
LAT         .                                           19.398572 :LATITUDE
LON         .                                          -92.015639 :LONGITUDE
ELEV        .M                                            27.1400 :SURFACE ELEV
ELEV_TYPE   .                                                  KB :ELEV TYPE
~CURVE INFORMATION
#MNEMONIC.UNIT        API CODE       : CURVE DESCRIPTION
#------------------------------------------------------------------------------
DEPTH    .M                          : Measured Depth
CALI     .in          UNKNOWN        : CALI:resistivos:rC:NONE:v0 (auto-composite)
DRHO     .g/cm3       UNKNOWN        : DRHO:PETROWORKS:rC:NONE:v2 
DT       .us/ft       UNKNOWN        : DT:DT:rC:NONE:v0 (auto-composite)
GR       .API         UNKNOWN        : GR:UNKNOWN:rC:NONE:v0 (auto-composite)
ILD      .ohmm        UNKNOWN        : ILD:resistivos:rC:NONE:v0 (auto-composite)
LLD      .ohm.m       UNKNOWN        : LLD:UNKNOWN:rC:NONE:v0 (auto-composite)
LLS      .ohm.m       UNKNOWN        : LLS:UNKNOWN:rC:NONE:v0 (auto-composite)
MSFL     .ohm.m       UNKNOWN        : MSFL:UNKNOWN:rC:NONE:v0 (auto-composite)
NPHI     .v/v_decimal     UNKNOWN        : NPHI:PETROWORKS:rC:NONE:v1 
RHOB     .g/cm3       UNKNOWN        : RHOB:UNKNOWN:rC:NONE:v0 (auto-composite)
SN       .ohm.m       UNKNOWN        : SN:UNKNOWN:rC:NONE:v0 (auto-composite)
~A     DEPTH         CALI         DRHO           DT           GR          ILD          LLD          LLS         MSFL         NPHI         RHOB           SN
# ...
   2035.5306       7.4257       0.1220     101.9046      93.6583    -999.2500      61.9880       8.0402      18.3557       0.1712       2.5458    -999.2500
   2035.6830       7.1477       0.1219      86.7121      96.7131    -999.2500      79.0294      15.0513      15.9114       0.1702       2.5373    -999.2500
   2035.8354       7.0145       0.1215      80.0886      98.4003    -999.2500      86.7799      18.2755      12.3037       0.1693       2.5333    -999.2500
   2035.9878       7.0255       0.1200      81.9685      98.7262    -999.2500      85.2810      17.7297       7.5377       0.1732       2.5338    -999.2500
   2036.1403       7.1033       0.1161      87.7460      98.8890    -999.2500      80.7275      16.3624       4.0891       0.1789       2.5362    -999.2500
   2036.2926       7.2473       0.1118      97.3922      98.8890    -999.2500      73.1223      14.1742       1.9564       0.1876       2.5407    -999.2500
   2036.4449       7.5378       0.1066     100.2689      98.8890    -999.2500      64.3958      12.1316       0.9226       0.1973       2.5405    -999.2500
   2036.5974       7.9738       0.1020      96.4245      98.8890    -999.2500      54.5415      10.2354       0.9941       0.2065       2.5355    -999.2500
   2036.7498       8.0227       0.0986      85.5682      98.2052    -999.2500      47.3819       9.4894       1.2080       0.2154       2.5196    -999.2500
   2036.9022       7.6872       0.0958      67.7707      96.8313    -999.2500      42.9416       9.9040       1.5657       0.2220       2.4926    -999.2500
   2037.0546       7.5298       0.0938      60.0629      92.5880    -999.2500      39.7947       9.9066       2.8906       0.2276       2.4822    -999.2500
   2037.2070       7.5493       0.0927      62.3453      85.4297    -999.2500      37.9616       9.4904       5.1980       0.2286       2.4888    -999.2500
   2037.3594       7.6094       0.0931      67.3406      76.6491    -999.2500      37.1951       9.2830       6.1280       0.2278       2.5045    -999.2500
   2037.5118       7.7099       0.0940      75.0229      66.2568    -999.2500      37.4884       9.2830       5.6893       0.2276       2.5295    -999.2500
   2037.6642       7.8254       0.0959      74.6109      58.4304    -999.2500      38.4605       9.2977       4.8246       0.2277       2.5365    -999.2500
   2037.8167       7.9559       0.0975      66.1801      53.1707    -999.2500      40.1118       9.3272       3.5337       0.2325       2.5255    -999.2500
   2037.9690       8.0386       0.0987      68.0135      48.9136    -999.2500      40.5859       9.4238       2.9456       0.2392       2.4943    -999.2500
   2038.1215       8.0736       0.0995      80.0176      45.6628    -999.2500      39.8785       9.5876       3.0630       0.2457       2.4429    -999.2500
   2038.2738       8.1401       0.0993      85.2553      43.0840    -999.2500      38.1043       9.9516       3.0045       0.2521       2.4202    -999.2500
   2038.4261       8.2381       0.0989      83.7863      41.1840    -999.2500      35.2522      10.5176       2.7682       0.2467       2.4267    -999.2500
   2038.5786       8.4732       0.0979      78.4642      39.3394    -999.2500      32.5215      11.5549       2.3428       0.2366       2.4439    -999.2500
   2038.7310       8.8447       0.0967      69.3220      37.5509    -999.2500      29.9142      13.0716       1.7251       0.2226       2.4720    -999.2500
   2038.8834       9.0222       0.0952      70.2487      35.1874    -999.2500      28.6140      14.5422       1.2224       0.2071       2.5015    -999.2500
   2039.0358       9.0067       0.0940      81.1603      32.2519    -999.2500      28.6140      15.9671       0.8342       0.1980       2.5325    -999.2500
   2039.1882       8.7050       0.0931      86.4459      31.0402    -999.2500      28.8280      17.0233       0.6602       0.1915       2.5390    -999.2500
   2039.3406       8.1186       0.0927      86.1509      31.5550    -999.2500      29.2563      17.7106       0.7007       0.1939       2.5210    -999.2500
   2039.4930       7.8696       0.0932      85.1093      32.7272    -999.2500      29.4359      18.0082       0.9811       0.1999       2.4746    -999.2500
   2039.6454       7.9566       0.0936      83.3268      34.5602    -999.2500      29.3654      17.9142       1.5027       0.2118       2.3997    -999.2500
   2039.7979       8.2015       0.0941      83.8144      36.0847    -999.2500      28.7976      17.6899       1.5347       0.2262       2.2969    -999.2500
   2039.9502       8.6030       0.0942      86.5548      37.2972    -999.2500      27.7266      17.3335       1.0714       0.2433       2.1660    -999.2500
   2040.1027       9.1465       0.0936      92.8713      38.9782    -999.2500      27.1870      17.1540       0.8465       0.2615       2.1057    -999.2500
   2040.2550       9.8310       0.0930     102.7374      41.1348    -999.2500      27.1870      17.1540       0.8635       0.2740       2.1172    -999.2500
   2040.4073      10.0829       0.0926     103.9308      45.3345    -999.2500      27.1870      17.1540       0.8590       0.2840       2.1508    -999.2500
   2040.5598       9.9054       0.0923      96.5405      51.5693    -999.2500      27.1870      17.1540       0.8330       0.2833       2.2063    -999.2500
   2040.7122       9.5170       0.0922      93.1484      57.4194    -999.2500      27.1870      17.1540       0.7670       0.2779       2.2802    -999.2500
   2040.8646       8.9190       0.0922      93.7144      62.8848    -999.2500      27.1870      17.1540       0.6611       0.2644       2.3726    -999.2500
   2041.0170       8.3642       0.0923      97.6163      66.9832    -999.2500      27.2687      17.1540       0.5492       0.2474       2.4100    -999.2500
   2041.1694       7.8522       0.0925     104.8216      69.7060    -999.2500      27.4326      17.1540       0.4313       0.2251       2.3920    -999.2500
   2041.3218       7.6359       0.0929     106.1757      71.8307    -999.2500      27.8541      17.1540       0.3730       0.2004       2.3855    -999.2500
   2041.4742       7.7134       0.0936     101.7343      73.3514    -999.2500      28.5355      17.1540       0.3750       0.1844       2.3905    -999.2500
   2041.6266       7.9747       0.0947     100.5696      75.8968    -999.2500      29.2197      17.1540       0.3937       0.1720       2.4062    -999.2500
   2041.7791       8.4187       0.0956     102.6510      79.4838    -999.2500      29.9066      17.1540       0.4293       0.1726       2.4328    -999.2500
   2041.9314       8.5951       0.0963     102.3477      84.5486    -999.2500      30.4121      17.1540       0.5287       0.1787       2.4440    -999.2500
   2042.0839       8.5056       0.0967      99.6813      91.0827    -999.2500      30.7373      17.1540       0.6915       0.1812       2.4400    -999.2500
   2042.2362       8.1787       0.0968      92.4636      95.4763    -999.2500      31.0993      17.1540       0.8989       0.1821       2.4093    -999.2500
   2042.3885       7.6157       0.0975      80.7344      97.7278    -999.2500      31.4982      17.1540       1.1508       0.1778       2.3518    -999.2500
   2042.5410       7.5215       0.0989      80.8143      99.1412    -999.2500      31.5923      17.1540       1.5442       0.1712       2.3250    -999.2500
   2042.6934       7.8935       0.1005      92.6024      99.7127    -999.2500      31.3805      17.1540       2.0798       0.1776       2.3290    -999.2500
   2042.8458       8.0755       0.1025      97.6958     100.0000    -999.2500      30.2583      16.9413       4.0385       0.1897       2.3462    -999.2500
   2042.9982       8.0685       0.1035      96.1499     100.0000    -999.2500      28.2156      16.5134       7.4360       0.2025       2.3766    -999.2500
   2043.1506       8.0189       0.1034      93.0244     100.0000    -999.2500      27.1870      16.3214      11.1391       0.2156       2.4204    -999.2500
   2043.3030       7.9269       0.1021      88.3320     100.0000    -999.2500      27.1870      16.3685      15.1521       0.2137       2.4775    -999.2500
