#------------------------------------------------------------------------------
#
#   Created by  : [OpenWorks] Log Export Utility (LEXP)
#   Created on  : 2016-05-23 11:55:37
#   Project     : CANT971
#   User        : R5K
#   Interpreter : PEP
#
#------------------------------------------------------------------------------
~VERSION INFORMATION
VERS. 2.0 : CWLS Log ASCII Standard - version 2.0
WRAP.  NO : One line per depth step
~WELL INFORMATION
#MNEMONIC   .UNIT                                           VALUE :DESCRIPTION
#------------------------------------------------------------------------------
STRT        .M                                           299.0628 :START DEPTH
STOP        .M                                          2570.8896 :STOP DEPTH
STEP        .M                                             0.1524 :STEP
NULL        .                                           -999.2500 :NULL VALUE
COMP        .                                   PEMEX EXPL & PROD :COMPANY
WELL        .                                                  31 :WELL
FLD         .                                           CANTARELL :FIELD
LOC         .                                             UNKNOWN :LOCATION
CNTY        .                                      CD. DEL CARMEN :COUNTY
STAT        .                                            CAMPECHE :STATE
CTRY        .                                              MEXICO :COUNTRY
SRVC        .                                             UNKNOWN :SERVICE COMPANY
DATE        .                                             UNKNOWN :LOG DATE
UWI         .                                          3060000157 :UNIQUE WELL ID
XCOORD      .                                       599727.810000 :SURFACE X
YCOORD      .                                      2147216.930000 :SURFACE Y
LAT         .                                           19.417919 :LATITUDE
LON         .                                          -92.050118 :LONGITUDE
ELEV        .M                                            27.8000 :SURFACE ELEV
ELEV_TYPE   .                                                  KB :ELEV TYPE
~CURVE INFORMATION
#MNEMONIC.UNIT        API CODE       : CURVE DESCRIPTION
#------------------------------------------------------------------------------
DEPTH    .M                          : Measured Depth
CALI     .inches      UNKNOWN        : CALI:Import:rC:NONE:v0 (auto-composite)
DRHO     .g/cm3       UNKNOWN        : DRHO:Import:rC:NONE:v0 (auto-composite)
DT       .us/ft       UNKNOWN        : DT:Import:rC:NONE:v0 (auto-composite)
GR       .API         UNKNOWN        : GR:Import:rC:NONE:v0 (auto-composite)
ILD      .ohm.m       UNKNOWN        : ILD:Import:rC:NONE:v0 (auto-composite)
LLD      .ohm.m       UNKNOWN        : LLD:Import:rC:NONE:v0 (auto-composite)
LLS      .ohm.m       UNKNOWN        : LLS:Import:rC:NONE:v0 (auto-composite)
MSFL     .ohm.m       UNKNOWN        : MSFL:Import:rC:NONE:v0 (auto-composite)
NPHI     .v/v_decimal UNKNOWN        : NPHI:Import:rC:NONE:v0 (auto-composite)
RHOB     .g/cm3       UNKNOWN        : RHOB:Import:rC:NONE:v0 (auto-composite)
~A     DEPTH         CALI         DRHO           DT           GR          ILD          LLD          LLS         MSFL         NPHI         RHOB
# ...
   1621.8948    -999.2500    -999.2500      73.6636      36.1938    -999.2500    2837.7112    1238.5223    -999.2500       0.0325       2.7329
   1622.0472    -999.2500    -999.2500      64.7897      32.2680    -999.2500    4088.5322    1786.6835    -999.2500       0.0288       2.7349
   1622.1996    -999.2500    -999.2500      53.6562      27.3834    -999.2500    5628.6455    2463.4634    -999.2500       0.0282       2.7374
   1622.3521    -999.2500    -999.2500      50.9890      26.2210    -999.2500    5996.3652    2622.8840    -999.2500       0.0282       2.7502
   1622.5044    -999.2500    -999.2500      50.9890      26.2210    -999.2500    5996.3652    2622.8840    -999.2500       0.0305       2.7662
   1622.6569    -999.2500    -999.2500      51.0364      26.8220    -999.2500    4193.7383    2493.5984    -999.2500       0.0397       2.7578
   1622.8092    -999.2500    -999.2500      51.0985      27.6082    -999.2500    1835.4508    2324.9907    -999.2500       0.0508       2.7417
   1622.9615    -999.2500    -999.2500      53.0327      30.1608    -999.2500    1285.3658    1691.8424    -999.2500       0.0558       2.7464
   1623.1140    -999.2500    -999.2500      55.5392      33.2484    -999.2500    1285.4399     919.8757    -999.2500       0.0558       2.7575
   1623.2664    -999.2500    -999.2500      54.4191      33.9590    -999.2500    1285.4570     744.0710    -999.2500       0.0530       2.7392
   1623.4188    -999.2500    -999.2500      52.2100      33.9590    -999.2500    1285.4570     744.0710    -999.2500       0.0503       2.7122
   1623.5712    -999.2500    -999.2500      53.4091      42.3003    -999.2500    1353.8927     772.7132    -999.2500       0.0516       2.7269
   1623.7236    -999.2500    -999.2500      55.6182      53.1023    -999.2500    1442.5170     809.6898    -999.2500       0.0546       2.7539
   1623.8760    -999.2500    -999.2500      55.2086      55.5286    -999.2500    2599.3459    1274.1792    -999.2500       0.0550       2.7398
   1624.0284    -999.2500    -999.2500      54.0332      55.5281    -999.2500    4067.1155    1860.8381    -999.2500       0.0534       2.7138
   1624.1808    -999.2500    -999.2500      52.4029      51.9426    -999.2500    4394.6021    1989.8530    -999.2500       0.0507       2.7197
   1624.3333    -999.2500    -999.2500      50.6418      47.3322    -999.2500    4394.6021    1989.8530    -999.2500       0.0485       2.7347
   1624.4856    -999.2500    -999.2500      51.6253      49.9157    -999.2500    4347.0195    1963.0813    -999.2500       0.0496       2.7263
   1624.6381    -999.2500    -999.2500      53.3863      54.5279    -999.2500    4286.0186    1928.8651    -999.2500       0.0519       2.7113
   1624.7904    -999.2500    -999.2500      52.7072      52.2486    -999.2500    4031.2759    1592.0615    -999.2500       0.0525       2.7201
   1624.9427    -999.2500    -999.2500      51.3461      48.0612    -999.2500    3722.6387    1172.6617    -999.2500       0.0514       2.7357
   1625.0952    -999.2500    -999.2500      51.0530      48.1165    -999.2500    3298.3347    1131.6768    -999.2500       0.0490       2.7390
   1625.2476    -999.2500    -999.2500      51.0530      49.3305    -999.2500    2842.2954    1192.5554    -999.2500       0.0463       2.7390
   1625.4000    -999.2500    -999.2500      51.0621      49.9186    -999.2500    2559.5862    1205.3159    -999.2500       0.0451       2.7386
   1625.5524    -999.2500    -999.2500      51.0736      50.3383    -999.2500    2323.5527    1205.3043    -999.2500       0.0451       2.7381
   1625.7048    -999.2500    -999.2500      52.0825      50.4929    -999.2500    2196.5105    1193.9575    -999.2500       0.0454       2.7344
   1625.8572    -999.2500    -999.2500      53.3575      50.5775    -999.2500    2098.4087    1179.6588    -999.2500       0.0464       2.7299
   1626.0096    -999.2500    -999.2500      53.5899      50.9044    -999.2500    1948.0269    1126.9901    -999.2500       0.0491       2.7100
   1626.1620    -999.2500    -999.2500      53.5493      51.2943    -999.2500    1783.9587    1064.4714    -999.2500       0.0520       2.6859
   1626.3145    -999.2500    -999.2500      53.3989      51.9633    -999.2500    1605.1971     966.1194    -999.2500       0.0527       2.6826
   1626.4668    -999.2500    -999.2500      53.2202      52.7040    -999.2500    1422.6621     858.7458    -999.2500       0.0517       2.6846
   1626.6193    -999.2500    -999.2500      52.9337      54.9783    -999.2500    1404.8123     844.9348    -999.2500       0.0492       2.6898
   1626.7716    -999.2500    -999.2500      52.6197      57.6389    -999.2500    1428.6481     854.3378    -999.2500       0.0459       2.6958
   1626.9240    -999.2500    -999.2500      52.1544      58.0224    -999.2500    1540.2963     902.4662    -999.2500       0.0421       2.7010
   1627.0764    -999.2500    -999.2500      51.6513      57.8406    -999.2500    1673.7405     960.0621    -999.2500       0.0377       2.7060
   1627.2288    -999.2500    -999.2500      50.6210      57.2421    -999.2500    2369.5398    1091.0459    -999.2500       0.0323       2.7142
   1627.3812    -999.2500    -999.2500      49.4612      56.5423    -999.2500    3202.8774    1239.6158    -999.2500       0.0273       2.7232
   1627.5336    -999.2500    -999.2500      49.2360      56.4070    -999.2500    3358.3977    1267.9880    -999.2500       0.0253       2.7165
   1627.6860    -999.2500    -999.2500      49.2360      56.4070    -999.2500    3350.5906    1267.9880    -999.2500       0.0259       2.7060
   1627.8384    -999.2500    -999.2500      50.0370      51.8056    -999.2500    3432.6946    1542.8762    -999.2500       0.0294       2.7125
   1627.9908    -999.2500    -999.2500      51.0282      46.1177    -999.2500    3536.0305    1881.6708    -999.2500       0.0334       2.7230
   1628.1432    -999.2500    -999.2500      50.3417      45.2116    -999.2500    3546.6450    1937.3516    -999.2500       0.0348       2.7238
   1628.2957    -999.2500    -999.2500      49.2630      45.4118    -999.2500    3535.6946    1928.5592    -999.2500       0.0348       2.7223
   1628.4480    -999.2500    -999.2500      49.4253      46.0944    -999.2500    3533.6541    1705.0573    -999.2500       0.0347       2.7220
   1628.6005    -999.2500    -999.2500      49.8718      46.8868    -999.2500    3533.6541    1433.4149    -999.2500       0.0343       2.7220
   1628.7528    -999.2500    -999.2500      49.5896      46.2426    -999.2500    3090.0896    1606.9167    -999.2500       0.0325       2.7600
   1628.9052    -999.2500    -999.2500      49.1431      45.2760    -999.2500    2547.0310    1878.6680    -999.2500       0.0300       2.8066
   1629.0576    -999.2500    -999.2500      49.1112      39.6956    -999.2500    2527.6577    1761.3601    -999.2500       0.0277       2.8125
   1629.2100    -999.2500    -999.2500      49.1713      33.1019    -999.2500    2623.9177    1559.9955    -999.2500       0.0256       2.8095
   1629.3624    -999.2500    -999.2500      49.1820      31.9300    -999.2500    3337.9363    1838.4949    -999.2500       0.0235       2.7995
   1629.5148    -999.2500    -999.2500      49.1820      31.9300    -999.2500    4186.2124    2219.0137    -999.2500       0.0222       2.7880
   1629.6672    -999.2500    -999.2500      48.6207      32.7097    -999.2500    3635.7729    1970.0173    -999.2500       0.0230       2.7955
   1629.8196    -999.2500    -999.2500      47.9394      33.6551    -999.2500    2787.8372    1589.3461    -999.2500       0.0244       2.8070
   1629.9720    -999.2500    -999.2500      47.8297      34.4971    -999.2500    2778.2617    1544.9381    -999.2500       0.0244       2.8020
   1630.1244    -999.2500    -999.2500      47.8402      35.3176    -999.2500    2944.1223    1569.3276    -999.2500       0.0240       2.7935
   1630.2769    -999.2500    -999.2500      48.0027      36.4908    -999.2500    3037.7947    1599.8499    -999.2500       0.0253       2.7638
