#------------------------------------------------------------------------------
#
#   Created by  : [OpenWorks] Log Export Utility (LEXP)
#   Created on  : 2016-05-23 11:51:58
#   Project     : CANT971
#   User        : R5K
#   Interpreter : PEP
#
#------------------------------------------------------------------------------
~VERSION INFORMATION
VERS. 2.0 : CWLS Log ASCII Standard - version 2.0
WRAP.  NO : One line per depth step
~WELL INFORMATION
#MNEMONIC   .UNIT                                           VALUE :DESCRIPTION
#------------------------------------------------------------------------------
STRT        .M                                           695.7060 :START DEPTH
STOP        .M                                          3054.7056 :STOP DEPTH
STEP        .M                                             0.1524 :STEP
NULL        .                                           -999.2500 :NULL VALUE
COMP        .                                   PEMEX EXPL & PROD :COMPANY
WELL        .                                                 17D :WELL
FLD         .                                           CANTARELL :FIELD
LOC         .                                             UNKNOWN :LOCATION
CNTY        .                                      CD. DEL CARMEN :COUNTY
STAT        .                                            CAMPECHE :STATE
CTRY        .                                              MEXICO :COUNTRY
SRVC        .                                             UNKNOWN :SERVICE COMPANY
DATE        .                                             UNKNOWN :LOG DATE
UWI         .                                          3060000460 :UNIQUE WELL ID
XCOORD      .                                       603362.626000 :SURFACE X
YCOORD      .                                      2145093.910000 :SURFACE Y
LAT         .                                           19.398550 :LATITUDE
LON         .                                          -92.015617 :LONGITUDE
ELEV        .M                                            27.1400 :SURFACE ELEV
ELEV_TYPE   .                                                  KB :ELEV TYPE
~CURVE INFORMATION
#MNEMONIC.UNIT        API CODE       : CURVE DESCRIPTION
#------------------------------------------------------------------------------
DEPTH    .M                          : Measured Depth
CALI     .in          UNKNOWN        : CALI:UNKNOWN:rC:NONE:v0 (auto-composite)
DT       .us/ft       UNKNOWN        : DT:DT:rC:NONE:v0 (auto-composite)
GR       .API         UNKNOWN        : GR:UNKNOWN:rC:NONE:v0 (auto-composite)
ILD      .ohmm        UNKNOWN        : ILD:UNKNOWN:rC:NONE:v0 (auto-composite)
LLD      .ohmm        UNKNOWN        : LLD:UNKNOWN:rC:NONE:v0 (auto-composite)
LLS      .ohmm        UNKNOWN        : LLS:UNKNOWN:rC:NONE:v0 (auto-composite)
MSFL     .ohmm        UNKNOWN        : MSFL:UNKNOWN:rC:NONE:v0 (auto-composite)
NPHI     .v/v_decimal UNKNOWN        : NPHI:UNKNOWN:rC:NONE:v0 (auto-composite)
PEF      .b/elec      UNKNOWN        : PEF:UNKNOWN:rC:NONE:v0 (auto-composite)
RHOB     .g/cm3       UNKNOWN        : RHOB:UNKNOWN:rC:NONE:v0 (auto-composite)
~A     DEPTH         CALI           DT           GR          ILD          LLD          LLS         MSFL         NPHI          PEF         RHOB
# ...
   2786.6340       6.1565      84.4887     114.3409    -999.2500      13.4571      13.5077       9.3598       0.2261       2.6555       2.2102
   2786.7864       6.1680      83.3738     123.9390    -999.2500       5.4480       5.2500       2.0000       0.2147       2.6560       2.3090
   2786.9387       6.1905      78.1210     123.9216    -999.2500       5.4495       5.2520       2.0010       0.1980       2.6844       2.3642
   2787.0913       6.2130      72.6458     123.9040    -999.2500       5.4510       5.2540       2.0020       0.1811       2.7130       2.4200
   2787.2437       6.2769      70.8735     121.6503    -999.2500       5.6489       5.4847       2.1483       0.1640       2.7983       2.4190
   2787.3960       6.3410      69.6756     119.3840    -999.2500       5.8480       5.7160       2.2950       0.1468       2.8840       2.4180
   2787.5483       6.4009      66.3506     108.5668    -999.2500       5.9555       5.9567       2.5542       0.1337       2.8486       2.3006
   2787.7007       6.4610      63.4213      97.7400    -999.2500       6.0630       6.1980       2.8140       0.1205       2.8130       2.1830
   2787.8533       6.4800      62.7115      97.8004    -999.2500       7.4012       7.5168       3.2424       0.1151       2.8135       2.1840
   2788.0056       6.4990      62.7326      97.8610    -999.2500       8.7450       8.8390       3.6720       0.1096       2.8140       2.1850
   2788.1580       6.4995      63.1678     102.2972    -999.2500       8.7360       8.8260       4.8004       0.1069       2.8404       2.2752
   2788.3103       6.5000      64.7975     106.7670    -999.2500       8.7270       8.8130       5.9320       0.1043       2.8670       2.3660
   2788.4629       6.5000      69.8539     112.5615    -999.2500       7.7924       7.5488       5.6354       0.1043       2.8890       2.4755
   2788.6152       6.5000      75.0958     118.4100    -999.2500       6.8490       6.2810       5.3380       0.1043       2.9110       2.5860
   2788.7676       6.5000      63.8564     118.3322    -999.2500       6.8585       6.2885       5.4159       0.1069       2.9384       2.6254
   2788.9199       6.5000      53.8653     118.2540    -999.2500       6.8680       6.2960       5.4940       0.1094       2.9660       2.6650
   2789.0725       6.5075      51.6349     113.7414    -999.2500       7.4605       6.7688       5.3223       0.1094       3.0837       2.6885
   2789.2249       6.5150      53.2055     109.2220    -999.2500       8.0540       7.2430       5.1500       0.1094       3.2020       2.7120
   2789.3772       6.5440      62.9563      95.4974    -999.2500      12.6184       9.1449       5.1884       0.1057       3.2010       2.7115
   2789.5295       6.5730      72.1414      81.7060    -999.2500      17.2050      11.0530       5.2270       0.1019       3.2000       2.7110
   2789.6819       6.6079      71.6395      81.8181    -999.2500      17.2015      13.5103      10.2505       0.1020       3.1431       2.6931
   2789.8345       6.6430      69.5233      81.9310    -999.2500      17.1980      15.9720      15.2830       0.1021       3.0860       2.6750
   2789.9868       6.6695      69.0734      86.9277    -999.2500      16.9939      15.9330      15.1856       0.1063       3.0790       2.6187
   2790.1392       6.6960      69.3803      91.9660    -999.2500      16.7880      15.8940      15.0880       0.1106       3.0720       2.5620
   2790.2915       6.8123      72.5898      97.2925    -999.2500      14.1863      13.5049      10.9452       0.1260       2.9163       2.3112
   2790.4441       6.9290      75.3546     102.6470    -999.2500      11.5710      11.1110       6.7940       0.1415       2.7600       2.0590
   2790.5964       7.0877      75.9262     103.7388    -999.2500      11.5770      11.1145       7.2016       0.1885       2.5509       1.6240
   2790.7488       7.2470      75.7480     104.8330    -999.2500      11.5830      11.1180       7.6100       0.2358       2.3410       1.1880
   2790.9011       7.2400      66.0818     105.6744    -999.2500      12.0401      11.3997       7.5980       0.2353       2.3435       1.1915
   2791.0537       7.2330      58.3908     106.5190    -999.2500      12.4990      11.6820       7.5860       0.2349       2.3460       1.1950
   2791.2061       6.9660      56.6522     115.6274    -999.2500      12.4531      11.6430       7.1330       0.2180       2.4313       1.3291
   2791.3584       6.6980      57.8249     124.7870    -999.2500      12.4070      11.6040       6.6790       0.2010       2.5170       1.4640
   2791.5107       6.4495      66.9625     124.7855    -999.2500       9.9137       9.6000       4.5147       0.1486       2.6527       1.9991
   2791.6631       6.2000      75.2581     124.7840    -999.2500       7.3980       7.5910       2.3450       0.0958       2.7890       2.5390
   2791.8157       6.1207      76.8738     124.5286    -999.2500       7.4164       7.6125       2.3755       0.0962       2.7875       2.5370
   2791.9680       6.0410      75.4850     124.2700    -999.2500       7.4350       7.6340       2.4060       0.0967       2.7860       2.5350
   2792.1204       6.0430      68.7367     114.3952    -999.2500       8.6110       8.7345       5.7668       0.1094       2.7860       2.5355
   2792.2727       6.0450      61.7444     104.4450    -999.2500       9.7960       9.8380       9.1370       0.1222       2.7860       2.5360
   2792.4253       6.1039      60.8174     104.5384    -999.2500       9.7880       9.8245       9.1250       0.1265       2.7905       2.5555
   2792.5776       6.1630      61.2346     104.6320    -999.2500       9.7800       9.8110       9.1130       0.1308       2.7950       2.5750
   2792.7300       6.2468      62.7871     107.5210    -999.2500       9.5258       9.4096       7.3522       0.1429       2.8414       2.6159
   2792.8823       6.3310      64.7008     110.4280    -999.2500       9.2700       9.0070       5.5860       0.1551       2.8880       2.6570
   2793.0349       6.3300      66.6760     114.4980    -999.2500       8.7326       8.4594       5.5955       0.1548       2.9743       2.7023
   2793.1873       6.3290      68.4494     118.6070    -999.2500       8.1900       7.9100       5.6050       0.1545       3.0610       2.7480
   2793.3396       6.3305      69.6247     119.6195    -999.2500       7.4743       7.2261       6.5574       0.1431       3.0585       2.7470
   2793.4919       6.3320      70.5406     120.6370    -999.2500       6.7550       6.5400       7.5130       0.1316       3.0560       2.7460
   2793.6443       6.3704      70.5705     120.5561    -999.2500       6.8095       6.5400       7.2802       0.1341       2.9866       2.7125
   2793.7969       6.4090      69.9432     120.4750    -999.2500       6.8640       6.5400       7.0470       0.1367       2.9170       2.6790
   2793.9492       6.5203      67.3577     116.5107    -999.2500       6.8590       6.5345       7.0500       0.1325       2.7498       2.6286
   2794.1016       6.6320      64.5547     112.5260    -999.2500       6.8540       6.5290       7.0530       0.1282       2.5820       2.5780
   2794.2539       6.6315      64.1983     112.6207    -999.2500       6.7269       6.3896       7.1419       0.1302       2.5825       2.5785
   2794.4065       6.6310      64.6702     112.7160    -999.2500       6.5990       6.2500       7.2310       0.1323       2.5830       2.5790
   2794.5588       6.6195      67.0335     114.9170    -999.2500       6.2430       5.8824       7.1895       0.1321       2.6010       2.5974
   2794.7112       6.6080      69.3419     117.1370    -999.2500       5.8840       5.5140       7.1480       0.1320       2.6190       2.6160
   2794.8635       6.6085      69.8161     116.2210    -999.2500       5.9005       5.5265       6.3284       0.1243       2.6978       2.6160
   2795.0161       6.6090      69.6144     115.3000    -999.2500       5.9170       5.5390       5.5070       0.1165       2.7770       2.6160
