#------------------------------------------------------------------------------
#
#   Created by  : [OpenWorks] Log Export Utility (LEXP)
#   Created on  : 2016-05-23 11:56:01
#   Project     : CANT971
#   User        : R5K
#   Interpreter : PEP
#
#------------------------------------------------------------------------------
~VERSION INFORMATION
VERS. 2.0 : CWLS Log ASCII Standard - version 2.0
WRAP.  NO : One line per depth step
~WELL INFORMATION
#MNEMONIC   .UNIT                                           VALUE :DESCRIPTION
#------------------------------------------------------------------------------
STRT        .M                                          1572.0055 :START DEPTH
STOP        .M                                          3732.1230 :STOP DEPTH
STEP        .M                                             0.1524 :STEP
NULL        .                                           -999.2500 :NULL VALUE
COMP        .                                             UNKNOWN :COMPANY
WELL        .                                               428-V :WELL
FLD         .                                             UNKNOWN :FIELD
LOC         .                                             UNKNOWN :LOCATION
CNTY        .                                             UNKNOWN :COUNTY
STAT        .                                             UNKNOWN :STATE
CTRY        .                                             UNKNOWN :COUNTRY
SRVC        .                                             UNKNOWN :SERVICE COMPANY
DATE        .                                             UNKNOWN :LOG DATE
UWI         .                                               428-V :UNIQUE WELL ID
XCOORD      .                                            0.000000 :SURFACE X
YCOORD      .                                            0.000000 :SURFACE Y
LAT         .                                            0.000000 :LATITUDE
LON         .                                            0.000000 :LONGITUDE
ELEV        .M                                             0.0000 :SURFACE ELEV
ELEV_TYPE   .                                                  KB :ELEV TYPE
~CURVE INFORMATION
#MNEMONIC .UNIT        API CODE       : CURVE DESCRIPTION
#------------------------------------------------------------------------------
DEPTH     .M                          : Measured Depth
CALIH-LWD .inches      UNKNOWN        : CALIH-LWD:PETROWORKS:rC:NONE:v5 
CALIV-LWD .inches      UNKNOWN        : CALIV-LWD:PETROWORKS:rC:NONE:v5 
CGR       .API         UNKNOWN        : CGR:Espectrometria:rC:NONE:v0 (auto-composite)
DRHO-LWD  .g/cm3       UNKNOWN        : DRHO-LWD:PETROWORKS:rC:NONE:v5 
DT        .us/ft       UNKNOWN        : DT:sonico:rC:NONE:v0 (auto-composite)
GR        .API         UNKNOWN        : GR:Espectrometria:rC:NONE:v0 (auto-composite)
GR-LWD    .API         UNKNOWN        : GR-LWD:PETROWORKS:rC:NONE:v3 
ILD-LWD   .ohm.m       UNKNOWN        : ILD-LWD:PETROWORKS:rC:NONE:v2 
ILM-LWD   .ohm.m       UNKNOWN        : ILM-LWD:PETROWORKS:rC:NONE:v2 
LLD-LWD   .ohm.m       UNKNOWN        : LLD-LWD:registros-LWD:rC:NONE:v0 (auto-composite)
LLS-LWD   .ohm.m       UNKNOWN        : LLS-LWD:registros-LWD:rC:NONE:v0 (auto-composite)
MSFL-LWD  .ohm.m       UNKNOWN        : MSFL-LWD:registros-LWD:rC:NONE:v0 (auto-composite)
NPHI-LWD  .v/v_decimal UNKNOWN        : NPHI-LWD:PETROWORKS:rC:NONE:v5 
PEF-LWD   .b/elec      UNKNOWN        : PEF-LWD:PETROWORKS:rC:NONE:v5 
POTA      .wtpercent   UNKNOWN        : POTA:Espectrometria:rC:NONE:v0 (auto-composite)
RHOB-LWD  .g/cm3       UNKNOWN        : RHOB-LWD:PETROWORKS:rC:NONE:v5 
THOR      .UNKNOWN     UNKNOWN        : THOR:Espectrometria:rC:NONE:v0 (auto-composite)
URAN      .UNKNOWN     UNKNOWN        : URAN:Espectrometria:rC:NONE:v0 (auto-composite)
~A     DEPTH    CALIH-LWD    CALIV-LWD          CGR     DRHO-LWD           DT           GR       GR-LWD      ILD-LWD      ILM-LWD      LLD-LWD      LLS-LWD     MSFL-LWD     NPHI-LWD      PEF-LWD         POTA     RHOB-LWD         THOR         URAN
# ...
   3020.4150       6.1928       6.2407       5.6237       0.1604      47.3639      20.0455      20.7736     275.7567     237.0996    -999.2500    -999.2500    -999.2500       0.0552       2.9092       0.0022       2.8387       0.7049       1.6056
   3020.5674       6.1903       6.2393       4.5840       0.1561      47.3636      20.1492      21.1487     271.2687     231.9121    -999.2500    -999.2500    -999.2500       0.0553       2.8776       0.0020       2.8294       0.5137       1.7329
   3020.7200       6.1895       6.2474       4.1694       0.1522      47.3293      20.3613      21.7700     278.0971     240.3280    -999.2500    -999.2500    -999.2500       0.0554       2.8499       0.0022       2.8289       0.3153       1.8027
   3020.8723       6.1943       6.2649       4.1393       0.1556      47.2546      20.2455      21.8903     259.9311     233.7548    -999.2500    -999.2500    -999.2500       0.0556       2.8374       0.0024       2.8344       0.2285       1.7932
   3021.0247       6.1989       6.2765       3.8860       0.1589      47.1377      19.8278      22.0929     267.6245     241.6031    -999.2500    -999.2500    -999.2500       0.0558       2.7846       0.0023       2.8368       0.1756       1.7749
   3021.1770       6.2133       6.2970       4.2002       0.1667      46.9923      19.0497      21.0901     253.9811     240.5014    -999.2500    -999.2500    -999.2500       0.0557       2.7219       0.0021       2.8431       0.3694       1.6532
   3021.3296       6.2389       6.3177       4.3776       0.1630      46.8592      18.6100      20.2191     251.1181     231.7059    -999.2500    -999.2500    -999.2500       0.0559       2.6699       0.0019       2.8414       0.4891       1.5846
   3021.4819       6.2479       6.3178       5.6857       0.1604      46.7709      18.3695      19.5052     259.9837     231.0088    -999.2500    -999.2500    -999.2500       0.0563       2.6960       0.0022       2.8420       0.7222       1.4121
   3021.6343       6.2441       6.3052       7.1234       0.1593      46.7452      18.3571      19.7198     255.5686     225.0792    -999.2500    -999.2500    -999.2500       0.0567       2.7970       0.0027       2.8427       0.9363       1.2507
   3021.7866       6.2443       6.2982       7.6540       0.1660      46.7805      18.3896      19.1236     243.4612     222.4405    -999.2500    -999.2500    -999.2500       0.0569       2.8942       0.0033       2.8494       0.8689       1.1952
   3021.9392       6.2410       6.3038       7.3932       0.1730      46.8677      18.5660      18.9321     231.0854     220.4135    -999.2500    -999.2500    -999.2500       0.0567       2.9136       0.0035       2.8529       0.7147       1.2439
   3022.0916       6.2324       6.2958       6.8704       0.1722      46.9537      19.3175      18.9724     249.9925     221.6011    -999.2500    -999.2500    -999.2500       0.0567       2.8719       0.0034       2.8488       0.5928       1.3858
   3022.2439       6.2134       6.2748       6.5516       0.1630      46.9581      20.1031      19.6568     239.0324     222.2808    -999.2500    -999.2500    -999.2500       0.0568       2.8210       0.0033       2.8459       0.5548       1.5087
   3022.3962       6.2080       6.2646       5.8029       0.1582      46.8797      21.4079      20.5289     237.7752     224.0000    -999.2500    -999.2500    -999.2500       0.0570       2.8066       0.0030       2.8419       0.4735       1.7374
   3022.5486       6.2170       6.2679       6.3355       0.1617      46.8085      21.8465      21.6540     247.7973     224.0046    -999.2500    -999.2500    -999.2500       0.0571       2.7915       0.0029       2.8453       0.6279       1.7269
   3022.7012       6.2194       6.2612       6.2516       0.1664      46.8463      21.7544      21.6591     255.0557     224.3094    -999.2500    -999.2500    -999.2500       0.0569       2.7515       0.0027       2.8457       0.6953       1.7260
   3022.8535       6.1967       6.2383       6.7927       0.1690      47.0233      20.7279      20.7524     258.3607     226.8396    -999.2500    -999.2500    -999.2500       0.0565       2.7584       0.0030       2.8472       0.7184       1.5515
   3023.0059       6.1839       6.2332       6.5808       0.1651      47.2373      19.8646      19.4572     265.5869     228.6316    -999.2500    -999.2500    -999.2500       0.0564       2.7890       0.0030       2.8454       0.6742       1.4789
   3023.1582       6.1842       6.2368       6.4477       0.1596      47.4279      18.9903      19.0268     281.4771     229.3909    -999.2500    -999.2500    -999.2500       0.0565       2.7995       0.0035       2.8393       0.4225       1.3964
   3023.3108       6.1863       6.2434       6.3228       0.1549      47.6044      18.8637      19.0647     286.6477     235.5270    -999.2500    -999.2500    -999.2500       0.0566       2.7966       0.0037       2.8323       0.3094       1.3963
   3023.4631       6.1792       6.2310       6.9982       0.1497      47.8138      19.2202      19.4171     299.0482     237.6053    -999.2500    -999.2500    -999.2500       0.0567       2.8126       0.0043       2.8201       0.2751       1.3607
   3023.6155       6.1793       6.2280       6.2975       0.1449      48.0964      19.5050      19.5131     314.5425     251.7678    -999.2500    -999.2500    -999.2500       0.0568       2.8364       0.0041       2.8155       0.1752       1.4704
   3023.7678       6.1840       6.2294       5.3351       0.1454      48.4536      20.0350      19.7728     333.5555     266.4029    -999.2500    -999.2500    -999.2500       0.0569       2.8128       0.0028       2.8177       0.4196       1.6366
   3023.9204       6.1624       6.2142       5.0362       0.1518      48.7945      20.0332      19.8275     351.3135     272.7484    -999.2500    -999.2500    -999.2500       0.0569       2.7796       0.0020       2.8227       0.6284       1.6697
   3024.0728       6.1470       6.2081       5.1628       0.1544      49.0358      19.8198      20.0162     361.2188     293.0098    -999.2500    -999.2500    -999.2500       0.0567       2.7912       0.0020       2.8270       0.6571       1.6318
   3024.2251       6.1550       6.2130       6.0966       0.1494      49.2071      19.6695      19.5703     436.7647     354.0899    -999.2500    -999.2500    -999.2500       0.0563       2.8249       0.0025       2.8258       0.7427       1.5111
   3024.3774       6.1878       6.2388       7.9372       0.1459      49.3905      19.8618      19.3928     473.1678     399.9344    -999.2500    -999.2500    -999.2500       0.0558       2.8258       0.0033       2.8263       0.9503       1.3276
   3024.5298       6.2072       6.2560       8.8111       0.1452      49.5655      20.1232      19.8577     737.5325     464.1480    -999.2500    -999.2500    -999.2500       0.0552       2.8171       0.0037       2.8293       1.0299       1.2594
   3024.6824       6.2231       6.2802       9.7549       0.1485      49.5994      21.0411      20.5135    1000.0000     653.4898    -999.2500    -999.2500    -999.2500       0.0545       2.8308       0.0044       2.8379       1.0388       1.2565
   3024.8347       6.2469       6.3135      10.1327       0.1516      49.3858      22.0377      20.9501    1000.0000     895.2719    -999.2500    -999.2500    -999.2500       0.0540       2.8730       0.0048       2.8460       0.9770       1.3254
   3024.9871       6.2601       6.3303      10.2364       0.1528      49.0274      23.6486      21.4629    1000.0000    1000.0000    -999.2500    -999.2500    -999.2500       0.0540       2.8975       0.0057       2.8501       0.6473       1.4932
   3025.1394       6.2515       6.3254      10.4966       0.1535      48.7625      24.4080      22.2677     998.2463    1000.0000    -999.2500    -999.2500    -999.2500       0.0546       2.9057       0.0061       2.8518       0.5735       1.5488
   3025.2920       6.2366       6.3144      10.7047       0.1557      48.7852      25.1231      22.5495     893.7465     998.1002    -999.2500    -999.2500    -999.2500       0.0554       2.9287       0.0061       2.8544       0.5975       1.6053
