#------------------------------------------------------------------------------
#
#   Created by  : [OpenWorks] Log Export Utility (LEXP)
#   Created on  : 2016-05-23 11:53:41
#   Project     : CANT971
#   User        : R5K
#   Interpreter : PEP
#
#------------------------------------------------------------------------------
~VERSION INFORMATION
VERS. 2.0 : CWLS Log ASCII Standard - version 2.0
WRAP.  NO : One line per depth step
~WELL INFORMATION
#MNEMONIC   .UNIT                                           VALUE :DESCRIPTION
#------------------------------------------------------------------------------
STRT        .M                                           901.1412 :START DEPTH
STOP        .M                                          2449.6777 :STOP DEPTH
STEP        .M                                             0.1524 :STEP
NULL        .                                           -999.2500 :NULL VALUE
COMP        .                                   PEMEX EXPL & PROD :COMPANY
WELL        .                                                  25 :WELL
FLD         .                                           CANTARELL :FIELD
LOC         .                                             UNKNOWN :LOCATION
CNTY        .                                      CD. DEL CARMEN :COUNTY
STAT        .                                            CAMPECHE :STATE
CTRY        .                                              MEXICO :COUNTRY
SRVC        .                                             UNKNOWN :SERVICE COMPANY
DATE        .                                             UNKNOWN :LOG DATE
UWI         .                                          3060000154 :UNIQUE WELL ID
XCOORD      .                                       603358.080000 :SURFACE X
YCOORD      .                                      2145091.420000 :SURFACE Y
LAT         .                                           19.398528 :LATITUDE
LON         .                                          -92.015660 :LONGITUDE
ELEV        .M                                            27.1400 :SURFACE ELEV
ELEV_TYPE   .                                                  KB :ELEV TYPE
~CURVE INFORMATION
#MNEMONIC.UNIT        API CODE       : CURVE DESCRIPTION
#------------------------------------------------------------------------------
DEPTH    .M                          : Measured Depth
CALI     .in          UNKNOWN        : CALI:registros:rC:NONE:v0 (auto-composite)
DRHO     .g/cm3       UNKNOWN        : DRHO:registros:rC:NONE:v0 (auto-composite)
DT       .us/ft       UNKNOWN        : DT:registros:rC:NONE:v0 (auto-composite)
GR       .api         UNKNOWN        : GR:registros:rC:NONE:v0 (auto-composite)
ILD      .ohmm        UNKNOWN        : ILD:registros:rC:NONE:v0 (auto-composite)
LLD      .ohmm        UNKNOWN        : LLD:registros:rC:NONE:v0 (auto-composite)
LLS      .ohmm        UNKNOWN        : LLS:registros:rC:NONE:v0 (auto-composite)
MSFL     .ohmm        UNKNOWN        : MSFL:registros:rC:NONE:v0 (auto-composite)
NPHI     .v/v_decimal UNKNOWN        : NPHI:registros:rC:NONE:v0 (auto-composite)
PEF      .b/elec      UNKNOWN        : PEF:registros:rC:NONE:v0 (auto-composite)
RHOB     .g/cm3       UNKNOWN        : RHOB:registros:rC:NONE:v0 (auto-composite)
~A     DEPTH         CALI         DRHO           DT           GR          ILD          LLD          LLS         MSFL         NPHI          PEF         RHOB
# ...
   1860.0420       6.5560       0.0125      68.2091      18.2238    -999.2500      52.1136      26.9083      35.8813       0.1939       2.9750       2.5584
   1860.1945       6.5560       0.0050      65.9470      18.9330    -999.2500      57.2510      27.9680      32.1730       0.1902       2.9500       2.5740
   1860.3468       6.5560       0.0005      64.0633      23.0596    -999.2500      56.0531      27.7925      34.0950       0.1779       2.9530       2.5899
   1860.4993       6.5560      -0.0040      62.1760      27.2010    -999.2500      54.8490      27.6160      36.0270       0.1655       2.9560       2.6060
   1860.6516       6.5560       0.0030      60.9028      35.0655    -999.2500      51.5338      26.8635      42.9736       0.1659       2.9780       2.6140
   1860.8041       6.5560       0.0100      59.6270      42.9590    -999.2500      48.2010      26.1070      49.9570       0.1663       3.0000       2.6220
   1860.9564       6.5560       0.0075      59.2872      42.8248    -999.2500      44.2836      24.5318      49.4050       0.1585       2.9695       2.6270
   1861.1089       6.5560       0.0050      58.9470      42.6900    -999.2500      40.3450      22.9480      48.8500       0.1507       2.9390       2.6320
   1861.2612       6.5480      -0.0030      59.1059      44.2340    -999.2500      36.8108      21.4706      36.9376       0.1520       2.8209       2.6295
   1861.4137       6.5400      -0.0110      59.2650      45.7840    -999.2500      33.2570      19.9850      24.9590       0.1534       2.7030       2.6270
   1861.5660       6.4920      -0.0085      59.0436      52.1580    -999.2500      29.5261      19.0531      28.3917       0.1575       2.7200       2.6195
   1861.7184       6.4440      -0.0060      58.8220      58.5580    -999.2500      25.7740      18.1160      31.8440       0.1616       2.7370       2.6120
   1861.8708       6.4440       0.0035      57.6686      57.4179    -999.2500      21.8978      16.4464      29.2386       0.1689       2.7765       2.5766
   1862.0232       6.4440       0.0130      56.5140      56.2730    -999.2500      17.9990      14.7670      26.6180       0.1762       2.8160       2.5410
   1862.1757       6.4440       0.0284      56.7928      53.1567    -999.2500      14.4515      13.2141      28.2796       0.1847       2.9065       2.5644
   1862.3280       6.4440       0.0440      57.0720      50.0270    -999.2500      10.8830      11.6520      29.9510       0.1932       2.9970       2.5880
   1862.4805       6.4490       0.0375      57.5897      52.6772    -999.2500      11.8973      10.4262      27.6351       0.1913       2.9535       2.5805
   1862.6328       6.4540       0.0310      58.1080      55.3370    -999.2500      12.9170       9.1940      25.3070       0.1893       2.9100       2.5730
   1862.7853       6.4805       0.0136      59.1178      66.5409    -999.2500      12.4990       9.2953      22.5787       0.1855       2.9780       2.5381
   1862.9376       6.5070      -0.0040      60.1290      77.7780    -999.2500      12.0790       9.3970      19.8380       0.1818       3.0460       2.5030
   1863.0901       6.5315       0.0060      60.0960      73.7737    -999.2500      11.2834       9.6369      20.9379       0.1824       3.0085       2.4482
   1863.2424       6.5560       0.0160      60.0630      69.7570    -999.2500      10.4840       9.8780      22.0430       0.1831       2.9710       2.3930
   1863.3948       6.5340       0.0130      60.3533      59.6463    -999.2500      10.5424      10.5763      21.8565       0.1938       3.0820       2.4179
   1863.5472       6.5120       0.0100      60.6440      49.5030    -999.2500      10.6010      11.2780      21.6690       0.2046       3.1930       2.4430
   1863.6996       6.4810       0.0025      61.9169      39.3191    -999.2500      11.5127      13.5045      49.5619       0.1405       3.5340       2.4729
   1863.8521       6.4500      -0.0050      63.1920      29.1010    -999.2500      12.4290      15.7420      77.5930       0.0762       3.8750       2.5030
   1864.0044       6.3915      -0.0005      62.3848      30.1846    -999.2500      15.9660      18.4980      61.4615       0.0763       3.8335       2.4945
   1864.1569       6.3330       0.0040      61.5760      31.2720    -999.2500      19.5210      21.2680      45.2480       0.0764       3.7920       2.4860
   1864.3092       6.3330       0.0130      58.7079      34.7957    -999.2500      23.7390      19.9026      49.9931       0.0823       3.8921       2.5109
   1864.4617       6.3330       0.0220      55.8340      38.3320    -999.2500      27.9790      18.5300      54.7630       0.0882       3.9920       2.5360
   1864.6140       6.3330       0.0195      56.8879      38.0914    -999.2500      26.4082      19.3633      63.2962       0.1024       4.1626       2.5136
   1864.7665       6.3330       0.0170      57.9440      37.8500    -999.2500      24.8290      20.2010      71.8750       0.1167       4.3330       2.4910
   1864.9188       6.3570       0.0085      57.1199      35.7321    -999.2500      21.7619      19.5248      52.8275       0.1471       4.1774       2.4486
   1865.0713       6.3810       0.0000      56.2940      33.6060    -999.2500      18.6780      18.8450      33.6760       0.1776       4.0220       2.4060
   1865.2236       6.4105       0.0045      61.5853      29.0341    -999.2500      17.1004      16.4317      38.5100       0.1624       4.0325       2.4389
   1865.3760       6.4400       0.0090      66.8850      24.4440    -999.2500      15.5140      14.0050      43.3710       0.1471       4.0430       2.4720
   1865.5284       6.4420       0.0065      65.6705      24.4440    -999.2500      17.2266      15.7505      84.6555       0.1234       4.2231       2.5198
   1865.6808       6.4440       0.0040      64.4550      24.4440    -999.2500      18.9490      17.5060     126.1760       0.0997       4.4030       2.5680
   1865.8333       6.4440       0.0055      61.3821      24.9040    -999.2500      25.5173      24.7424     125.7353       0.0900       4.3560       2.5834
   1865.9856       6.4440       0.0070      58.3060      25.3660    -999.2500      32.1240      32.0210     125.2920       0.0802       4.3090       2.5990
   1866.1381       6.4440       0.0110      56.0443      27.9070    -999.2500      38.8182      30.2127     122.0184       0.0768       4.1920       2.6095
   1866.2904       6.4440       0.0150      53.7800      30.4590    -999.2500      45.5470      28.3950     118.7280       0.0733       4.0750       2.6200
   1866.4429       6.4440       0.0185      54.0748      29.5497    -999.2500      44.3716      28.8041      99.5310       0.0741       3.9880       2.6150
   1866.5952       6.4440       0.0220      54.3700      28.6370    -999.2500      43.1910      29.2150      80.2480       0.0749       3.9010       2.6100
   1866.7477       6.4440       0.0200      55.0185      26.8092    -999.2500      46.0709      30.0850      88.2161       0.0760       4.1990       2.5926
   1866.9000       6.4440       0.0180      55.6680      24.9760    -999.2500      48.9640      30.9590      96.2210       0.0770       4.4970       2.5750
   1867.0525       6.4440       0.0095      56.1906      25.9824    -999.2500      48.3669      30.0711     107.1756       0.0779       4.4770       2.5949
   1867.2048       6.4440       0.0010      56.7140      26.9920    -999.2500      47.7670      29.1790     118.1820       0.0787       4.4570       2.6150
   1867.3572       6.4440       0.0035      56.0381      30.2477    -999.2500      42.7731      26.6636     100.6027       0.0804       4.3215       2.6150
   1867.5096       6.4440       0.0060      55.3610      33.5140    -999.2500      37.7550      24.1360      82.9380       0.0821       4.1860       2.6150
   1867.6620       6.4440       0.0175      55.7492      39.8743    -999.2500      30.9305      24.2732      63.7578       0.0874       4.2535       2.5931
   1867.8145       6.4440       0.0290      56.1380      46.2560    -999.2500      24.0720      24.4110      44.4820       0.0927       4.3210       2.5710
