#------------------------------------------------------------------------------
#
#   Created by  : [OpenWorks] Log Export Utility (LEXP)
#   Created on  : 2016-05-23 11:56:14
#   Project     : CANT971
#   User        : R5K
#   Interpreter : PEP
#
#------------------------------------------------------------------------------
~VERSION INFORMATION
VERS. 2.0 : CWLS Log ASCII Standard - version 2.0
WRAP.  NO : One line per depth step
~WELL INFORMATION
#MNEMONIC   .UNIT                                           VALUE :DESCRIPTION
#------------------------------------------------------------------------------
STRT        .M                                          2395.2905 :START DEPTH
STOP        .M                                          2859.1960 :STOP DEPTH
STEP        .M                                             0.1524 :STEP
NULL        .                                           -999.2500 :NULL VALUE
COMP        .                                             UNKNOWN :COMPANY
WELL        .                                               446-V :WELL
FLD         .                                             UNKNOWN :FIELD
LOC         .                                             UNKNOWN :LOCATION
CNTY        .                                             UNKNOWN :COUNTY
STAT        .                                             UNKNOWN :STATE
CTRY        .                                             UNKNOWN :COUNTRY
SRVC        .                                             UNKNOWN :SERVICE COMPANY
DATE        .                                             UNKNOWN :LOG DATE
UWI         .                                               446-V :UNIQUE WELL ID
XCOORD      .                                       596708.730000 :SURFACE X
YCOORD      .                                      2143311.960000 :SURFACE Y
LAT         .                                           19.382780 :LATITUDE
LON         .                                          -92.079070 :LONGITUDE
ELEV        .M                                             0.0000 :SURFACE ELEV
ELEV_TYPE   .                                                  NA :ELEV TYPE
~CURVE INFORMATION
#MNEMONIC.UNIT        API CODE       : CURVE DESCRIPTION
#------------------------------------------------------------------------------
DEPTH    .M                          : Measured Depth
CALI     .inches      UNKNOWN        : CALI:litodensidad:rC:NONE:v0 (auto-composite)
CGR      .API         UNKNOWN        : CGR:Espectrometria:rC:NONE:v0 (auto-composite)
DRHO     .g/cm3       UNKNOWN        : DRHO:litodensidad:rC:NONE:v0 (auto-composite)
DT       .us/ft       UNKNOWN        : DT:sonico:rC:NONE:v0 (auto-composite)
GR       .API         UNKNOWN        : GR:GR-Load:rC:NONE:v0 (auto-composite)
GR-LWD   .API         UNKNOWN        : GR-LWD:resistivos-LWD:rC:NONE:v0 (auto-composite)
ILD-LWD  .ohm.m       UNKNOWN        : ILD-LWD:resistivos-LWD:rC:NONE:v0 (auto-composite)
ILM-LWD  .UNKNOWN     UNKNOWN        : ILM-LWD:resistivos-LWD:rC:NONE:v0 (auto-composite)
LLD      .ohm.m       UNKNOWN        : LLD:resistivos:rC:NONE:v0 (auto-composite)
LLS      .ohm.m       UNKNOWN        : LLS:resistivos:rC:NONE:v0 (auto-composite)
MSFL     .ohm.m       UNKNOWN        : MSFL:resistivos:rC:NONE:v0 (auto-composite)
NPHI     .UNKNOWN     UNKNOWN        : NPHI:porosidad:rC:NONE:v0 (auto-composite)
PEF      .UNKNOWN     UNKNOWN        : PEF:litodensidad:rC:NONE:v0 (auto-composite)
POTA     .wtpercent   UNKNOWN        : POTA:Espectrometria:rC:NONE:v0 (auto-composite)
RHOB     .g/cm3       UNKNOWN        : RHOB:litodensidad:rC:NONE:v0 (auto-composite)
THOR     .ppm         UNKNOWN        : THOR:Espectrometria:rC:NONE:v0 (auto-composite)
URAN     .ppm         UNKNOWN        : URAN:Espectrometria:rC:NONE:v0 (auto-composite)
~A     DEPTH         CALI          CGR         DRHO           DT           GR       GR-LWD      ILD-LWD      ILM-LWD          LLD          LLS         MSFL         NPHI          PEF         POTA         RHOB         THOR         URAN
# ...
   2843.3464       8.2631      24.6409       0.1197      56.7699      39.6565      47.2223    -999.2500    -999.2500      72.8052      85.7022       2.0255       0.0426       5.1330       0.0105       2.7203       2.8159       1.6718
   2843.4990       8.3229      15.9964       0.1196      56.4529      25.3232      45.6000    -999.2500    -999.2500     142.8641     179.0952       1.5961       0.0352       5.3033       0.0064       2.7296       1.9990       1.0384
   2843.6514       8.3785      11.0968       0.0920      55.5934      19.6117      45.3451    -999.2500    -999.2500     244.3731     278.8410       1.5330       0.0336       5.2905       0.0046       2.7075       1.3244       0.9480
   2843.8037       8.4157       5.5306       0.0507      54.2741      15.9206      45.0359    -999.2500    -999.2500     352.6809     310.0755       1.6808       0.0364       5.1835       0.0036       2.6699       0.1584       1.1567
   2843.9561       8.4014       5.3917       0.0419      53.8506      16.6820      44.8158    -999.2500    -999.2500     290.9783     267.8902       1.7520       0.0363       5.1485       0.0035       2.6645       0.1360       1.2570
   2844.1086       8.3972       7.8559       0.0478      53.3649      19.7205      44.7874    -999.2500    -999.2500     188.6818     175.6108       2.0634       0.0341       5.1359       0.0042       2.6792       0.5539       1.3209
   2844.2610       8.3848      10.3789       0.0585      53.5303      22.4909      44.7043    -999.2500    -999.2500     155.8181     140.6758       2.5168       0.0333       5.1018       0.0050       2.6907       0.9648       1.3485
   2844.4133       8.3487      14.3164       0.0818      53.8304      28.8784      44.9983    -999.2500    -999.2500     118.1072     102.3922       2.7620       0.0305       5.0376       0.0063       2.7098       1.5738       1.6213
   2844.5657       8.3382      15.2228       0.0927      54.1955      32.0312      44.8713    -999.2500    -999.2500     109.6121      91.3537       2.4243       0.0305       5.0437       0.0064       2.7205       1.7889       1.8714
   2844.7180       8.3370      14.5873       0.0966      54.4018      34.7383      44.1293    -999.2500    -999.2500     104.0544      91.0697       1.8991       0.0371       5.0981       0.0065       2.7312       1.5649       2.2435
   2844.8706       8.3903      13.4827       0.0865      54.3945      36.6645      44.2329    -999.2500    -999.2500     101.3272      88.8292       1.8191       0.0425       5.1388       0.0075       2.7328       0.8471       2.5809
   2845.0229       8.4269      16.6293       0.0734      54.2607      37.3437      43.7098    -999.2500    -999.2500      97.8318      85.9776       1.8456       0.0431       5.0796       0.0089       2.7232       1.1680       2.3062
   2845.1753       8.4414      20.1476       0.0597      54.0577      38.1861      42.8620    -999.2500    -999.2500      90.0410      78.9785       1.8153       0.0434       4.9365       0.0097       2.7054       1.8653       2.0083
   2845.3276       8.4242      21.4230       0.0555      54.0320      37.7807      42.0216    -999.2500    -999.2500      83.9761      70.5739       1.7440       0.0418       4.8632       0.0091       2.6952       2.4607       1.8212
   2845.4802       8.3881      19.9954       0.0558      54.0909      35.8315      42.1357    -999.2500    -999.2500      79.4989      64.3268       1.8111       0.0407       4.8641       0.0076       2.6891       2.6695       1.7631
   2845.6326       8.3452      17.7207       0.0670      54.3330      33.2998      42.2628    -999.2500    -999.2500      88.5660      73.8495       1.9568       0.0402       4.9589       0.0062       2.6975       2.5473       1.7345
   2845.7849       8.3012      14.1965       0.0883      54.6173      29.8997      42.0319    -999.2500    -999.2500     108.2927      92.7258       1.5918       0.0412       5.1087       0.0056       2.7180       1.7948       1.7483
   2845.9373       8.3199      13.4334       0.1027      54.7623      27.4152      41.3585    -999.2500    -999.2500     137.1368     115.5504       1.3512       0.0399       5.2128       0.0059       2.7474       1.4780       1.5566
   2846.0898       8.3697      14.2738       0.1101      55.1175      24.7166      40.8898    -999.2500    -999.2500     167.8499     135.0185       1.1892       0.0393       5.2902       0.0062       2.7900       1.5906       1.1627
   2846.2422       8.4044      14.8971       0.1117      55.5467      23.2944      40.3512    -999.2500    -999.2500     179.8476     144.2186       1.3085       0.0398       5.3008       0.0061       2.8300       1.8160       0.9349
   2846.3945       8.4536      13.2412       0.1148      55.9578      23.4310      39.1667    -999.2500    -999.2500     192.7362     155.8835       1.4867       0.0418       5.2949       0.0057       2.8687       1.5140       1.1345
   2846.5469       8.4534      11.9222       0.1090      56.0455      25.4157    -999.2500    -999.2500    -999.2500     218.3553     182.8659       1.5667       0.0423       5.2746       0.0057       2.8507       1.1327       1.5023
   2846.6992       8.4084      13.5742       0.0776      56.0257      30.7637    -999.2500    -999.2500    -999.2500     214.2515     195.7567       1.7163       0.0387       5.2130       0.0072       2.7582       1.0122       1.9138
   2846.8518       8.3741      15.5211       0.0581      55.9265      34.8142    -999.2500    -999.2500    -999.2500     184.3014     170.6115       1.9820       0.0391       5.1657       0.0083       2.7126       1.1067       2.1480
   2847.0042       8.3385      20.0327       0.0429      55.9185      40.7899    -999.2500    -999.2500    -999.2500     133.1024     118.3324       2.1789       0.0419       5.0602       0.0099       2.6797       1.7496       2.3110
   2847.1565       8.3406      20.5655       0.0451      55.8693      43.8775    -999.2500    -999.2500    -999.2500     114.4436      94.2417       2.0274       0.0531       4.9901       0.0098       2.6817       1.9558       2.5954
   2847.3088       8.4010      20.6806       0.0507      55.8535      45.6382    -999.2500    -999.2500    -999.2500      93.7691      77.1693       1.7616       0.0606       4.8889       0.0094       2.6763       2.1461       2.7787
   2847.4614       8.4460      21.8353       0.0520      55.8752      45.1304    -999.2500    -999.2500    -999.2500      85.9900      71.2112       1.5398       0.0585       4.8686       0.0099       2.6689       2.2547       2.5936
   2847.6138       8.4605      23.7562       0.0511      55.9468      42.0751    -999.2500    -999.2500    -999.2500      79.9385      67.6533       1.0698       0.0663       4.8976       0.0109       2.6646       2.4308       2.0395
   2847.7661       8.4422      22.3167       0.0497      56.1131      39.6708    -999.2500    -999.2500    -999.2500      82.6590      75.0088       1.1060       0.0708       4.9420       0.0103       2.6679       2.2395       1.9321
   2847.9185       8.4220      17.6146       0.0460      56.2639      36.7877    -999.2500    -999.2500    -999.2500     103.4923     107.1280       1.8512       0.0717       4.9890       0.0086       2.6672       1.5956       2.1346
   2848.0710       8.4277      11.8256       0.0393      56.7236      34.4624    -999.2500    -999.2500    -999.2500     125.2002     140.0378       2.5107       0.0619       5.0270       0.0063       2.6552       0.8502       2.5203
   2848.2234       8.4363      10.7949       0.0370      57.0732      34.0916    -999.2500    -999.2500    -999.2500     161.9442     179.3955       2.7338       0.0506       5.0217       0.0058       2.6458       0.7469       2.5937
   2848.3757       8.4484      12.9414       0.0373      57.4169      34.4748    -999.2500    -999.2500    -999.2500     208.0619     215.2292       2.4629       0.0495       4.9982       0.0068       2.6393       0.9872       2.3974
   2848.5281       8.4360      15.8171       0.0419      57.4280      34.4300    -999.2500    -999.2500    -999.2500     208.3201     193.3609       2.0352       0.0504       4.9949       0.0090       2.6429       0.9289       2.0723
