#------------------------------------------------------------------------------
#
#   Created by  : [OpenWorks] Log Export Utility (LEXP)
#   Created on  : 2016-05-23 11:51:18
#   Project     : CANT971
#   User        : R5K
#   Interpreter : PEP
#
#------------------------------------------------------------------------------
~VERSION INFORMATION
VERS. 2.0 : CWLS Log ASCII Standard - version 2.0
WRAP.  NO : One line per depth step
~WELL INFORMATION
#MNEMONIC   .UNIT                                           VALUE :DESCRIPTION
#------------------------------------------------------------------------------
STRT        .M                                           690.7880 :START DEPTH
STOP        .M                                          2950.1179 :STOP DEPTH
STEP        .M                                             0.1524 :STEP
NULL        .                                           -999.2500 :NULL VALUE
COMP        .                                   PEMEX EXPL & PROD :COMPANY
WELL        .                                                1066 :WELL
FLD         .                                           CANTARELL :FIELD
LOC         .                                             UNKNOWN :LOCATION
CNTY        .                                      CD. DEL CARMEN :COUNTY
STAT        .                                            CAMPECHE :STATE
CTRY        .                                              MEXICO :COUNTRY
SRVC        .                                             UNKNOWN :SERVICE COMPANY
DATE        .                                             UNKNOWN :LOG DATE
UWI         .                                          3060000505 :UNIQUE WELL ID
XCOORD      .                                       596157.670000 :SURFACE X
YCOORD      .                                      2150605.920000 :SURFACE Y
LAT         .                                           19.448718 :LATITUDE
LON         .                                          -92.083948 :LONGITUDE
ELEV        .M                                            30.0000 :SURFACE ELEV
ELEV_TYPE   .                                                  KB :ELEV TYPE
~CURVE INFORMATION
#MNEMONIC.UNIT        API CODE       : CURVE DESCRIPTION
#------------------------------------------------------------------------------
DEPTH    .M                          : Measured Depth
CALI     .inches      UNKNOWN        : CALI:litodensidad:rC:NONE:v0 (auto-composite)
DRHO     .g/cm3       UNKNOWN        : DRHO:litodensidad:rC:NONE:v0 (auto-composite)
DT       .us/ft       UNKNOWN        : DT:DT:rC:NONE:v0 (auto-composite)
GR       .API         UNKNOWN        : GR:UNKNOWN:rC:NONE:v0 (auto-composite)
ILD      .ohmm        UNKNOWN        : ILD:UNKNOWN:rC:NONE:v0 (auto-composite)
ILM      .ohmm        UNKNOWN        : ILM:UNKNOWN:rC:NONE:v0 (auto-composite)
LLD      .ohmm        UNKNOWN        : LLD:UNKNOWN:rC:NONE:v0 (auto-composite)
LLS      .ohmm        UNKNOWN        : LLS:UNKNOWN:rC:NONE:v0 (auto-composite)
MSFL     .ohmm        UNKNOWN        : MSFL:UNKNOWN:rC:NONE:v0 (auto-composite)
NPHI     .v/v_decimal UNKNOWN        : NPHI:PETROWORKS:rC:NONE:v2 
PEF      .b/elec      UNKNOWN        : PEF:litodensidad:rC:NONE:v0 (auto-composite)
RHOB     .g/cm3       UNKNOWN        : RHOB:litodensidad:rC:NONE:v0 (auto-composite)
~A     DEPTH         CALI         DRHO           DT           GR          ILD          ILM          LLD          LLS         MSFL         NPHI          PEF         RHOB
# ...
    990.7112    -999.2500    -999.2500    -999.2500      28.0676       1.8000       1.8872       0.2000       0.2000       0.2000      -0.1500    -999.2500    -999.2500
    990.8636    -999.2500    -999.2500    -999.2500      28.5162       1.6997       1.7187       0.2000       0.2000       0.2000      -0.1500    -999.2500    -999.2500
    991.0161    -999.2500    -999.2500    -999.2500      28.3664       1.6144       1.6073       0.2000       0.2000       0.2000      -0.1500    -999.2500    -999.2500
    991.1684    -999.2500    -999.2500    -999.2500      27.8237       1.5390       1.5334       0.2000       0.2000       0.2000      -0.1500    -999.2500    -999.2500
    991.3208    -999.2500    -999.2500    -999.2500      27.1127       1.4870       1.4835       0.2000       0.2000       0.2000      -0.1500    -999.2500    -999.2500
    991.4732    -999.2500    -999.2500    -999.2500      26.2906       1.4504       1.4494       0.2000       0.2000       0.2000      -0.1500    -999.2500    -999.2500
    991.6256    -999.2500    -999.2500    -999.2500      25.8730       1.4399       1.4354       0.2000       0.2000       0.2000      -0.1500    -999.2500    -999.2500
    991.7780    -999.2500    -999.2500    -999.2500      25.7166       1.4464       1.4344       0.2000       0.2000       0.2000      -0.1500    -999.2500    -999.2500
    991.9304    -999.2500    -999.2500    -999.2500      25.6854       1.4526       1.4410       0.2000       0.2000       0.2000      -0.1500    -999.2500    -999.2500
    992.0828    -999.2500    -999.2500    -999.2500      25.7355       1.4587       1.4525       0.2000       0.2000       0.2000      -0.1500    -999.2500    -999.2500
    992.2352    -999.2500    -999.2500    -999.2500      25.5063       1.4582       1.4460       0.2000       0.2000       0.2000      -0.1500    -999.2500    -999.2500
    992.3876    -999.2500    -999.2500    -999.2500      25.0997       1.4537       1.4279       0.2000       0.2000       0.2000      -0.1500    -999.2500    -999.2500
    992.5400    -999.2500    -999.2500    -999.2500      25.6760       1.4545       1.4084       0.2000       0.2000       0.2000      -0.1500    -999.2500    -999.2500
    992.6924    -999.2500    -999.2500    -999.2500      26.8622       1.4585       1.3879       0.2000       0.2000       0.2000      -0.1500    -999.2500    -999.2500
    992.8448    -999.2500    -999.2500    -999.2500      28.0663       1.4560       1.3831       0.2000       0.2000       0.2000      -0.1500    -999.2500    -999.2500
    992.9973    -999.2500    -999.2500    -999.2500      29.2814       1.4495       1.3881       0.2000       0.2000       0.2000      -0.1500    -999.2500    -999.2500
    993.1496    -999.2500    -999.2500    -999.2500      30.0141       1.4392       1.3916       0.2000       0.2000       0.2000      -0.1500    -999.2500    -999.2500
    993.3020    -999.2500    -999.2500    -999.2500      30.4523       1.4268       1.3940       0.2000       0.2000       0.2000      -0.1500    -999.2500    -999.2500
    993.4544    -999.2500    -999.2500    -999.2500      30.2922       1.4245       1.3938       0.2000       0.2000       0.2000      -0.1500    -999.2500    -999.2500
    993.6068    -999.2500    -999.2500    -999.2500      29.7649       1.4285       1.3918       0.2000       0.2000       0.2000      -0.1500    -999.2500    -999.2500
    993.7592    -999.2500    -999.2500    -999.2500      29.4107       1.4331       1.3894       0.2000       0.2000       0.2000      -0.1500    -999.2500    -999.2500
    993.9116    -999.2500    -999.2500    -999.2500      29.1606       1.4381       1.3869       0.2000       0.2000       0.2000      -0.1500    -999.2500    -999.2500
    994.0640    -999.2500    -999.2500    -999.2500      29.0091       1.4369       1.3876       0.2000       0.2000       0.2000      -0.1500    -999.2500    -999.2500
    994.2164    -999.2500    -999.2500    -999.2500      28.9157       1.4319       1.3901       0.2000       0.2000       0.2000      -0.1500    -999.2500    -999.2500
    994.3688    -999.2500    -999.2500    -999.2500      28.4341       1.4265       1.3907       0.2000       0.2000       0.2000      -0.1500    -999.2500    -999.2500
    994.5212    -999.2500    -999.2500    -999.2500      27.7233       1.4210       1.3902       0.2000       0.2000       0.2000      -0.1500    -999.2500    -999.2500
    994.6736    -999.2500    -999.2500    -999.2500      27.1450       1.4301       1.3948       0.2000       0.2000       0.2000      -0.1500    -999.2500    -999.2500
    994.8260    -999.2500    -999.2500    -999.2500      26.6433       1.4476       1.4022       0.2000       0.2000       0.2000      -0.1500    -999.2500    -999.2500
    994.9785    -999.2500    -999.2500    -999.2500      25.9572       1.4718       1.4259       0.2000       0.2000       0.2000      -0.1500    -999.2500    -999.2500
    995.1308    -999.2500    -999.2500    -999.2500      25.1640       1.4998       1.4590       0.2000       0.2000       0.2000      -0.1500    -999.2500    -999.2500
    995.2832    -999.2500    -999.2500    -999.2500      24.9247       1.5206       1.4940       0.2000       0.2000       0.2000      -0.1500    -999.2500    -999.2500
    995.4356    -999.2500    -999.2500    -999.2500      24.9994       1.5371       1.5301       0.2000       0.2000       0.2000      -0.1500    -999.2500    -999.2500
    995.5880    -999.2500    -999.2500    -999.2500      25.3146       1.5440       1.5488       0.2000       0.2000       0.2000      -0.1500    -999.2500    -999.2500
    995.7404    -999.2500    -999.2500    -999.2500      25.7634       1.5455       1.5578       0.2000       0.2000       0.2000      -0.1500    -999.2500    -999.2500
    995.8928    -999.2500    -999.2500    -999.2500      26.1586       1.5415       1.5410       0.2000       0.2000       0.2000      -0.1500    -999.2500    -999.2500
    996.0452    -999.2500    -999.2500    -999.2500      26.5241       1.5345       1.5100       0.2000       0.2000       0.2000      -0.1500    -999.2500    -999.2500
    996.1976    -999.2500    -999.2500    -999.2500      27.2726       1.5365       1.4848       0.2000       0.2000       0.2000      -0.1500    -999.2500    -999.2500
    996.3500    -999.2500    -999.2500    -999.2500      28.2300       1.5435       1.4628       0.2000       0.2000       0.2000      -0.1500    -999.2500    -999.2500
    996.5024    -999.2500    -999.2500    -999.2500      28.8708       1.5428       1.4806       0.2000       0.2000       0.2000      -0.1500    -999.2500    -999.2500
    996.6548    -999.2500    -999.2500    -999.2500      29.3380       1.5377       1.5202       0.2000       0.2000       0.2000      -0.1500    -999.2500    -999.2500
    996.8073    -999.2500    -999.2500    -999.2500      28.6613       1.5252       1.5353       0.2000       0.2000       0.2000      -0.1500    -999.2500    -999.2500
    996.9596    -999.2500    -999.2500    -999.2500      27.3715       1.5087       1.5373       0.2000       0.2000       0.2000      -0.1500    -999.2500    -999.2500
    997.1120    -999.2500    -999.2500    -999.2500      28.0185       1.5417       1.5288       0.2000       0.2000       0.2000      -0.1500    -999.2500    -999.2500
    997.2644    -999.2500    -999.2500    -999.2500      29.6805       1.6007       1.5148       0.2000       0.2000       0.2000      -0.1500    -999.2500    -999.2500
    997.4168    -999.2500    -999.2500    -999.2500      30.3328       1.6657       1.5504       0.2000       0.2000       0.2000      -0.1500    -999.2500    -999.2500
    997.5692    -999.2500    -999.2500    -999.2500      30.4531       1.7338       1.6121       0.2000       0.2000       0.2000      -0.1500    -999.2500    -999.2500
    997.7216    -999.2500    -999.2500    -999.2500      29.5711       1.7379       1.6667       0.2000       0.2000       0.2000      -0.1500    -999.2500    -999.2500
    997.8740    -999.2500    -999.2500    -999.2500      28.1738       1.7089       1.7176       0.2000       0.2000       0.2000      -0.1500    -999.2500    -999.2500
