#------------------------------------------------------------------------------
#
#   Created by  : [OpenWorks] Log Export Utility (LEXP)
#   Created on  : 2016-05-23 11:56:46
#   Project     : CANT971
#   User        : R5K
#   Interpreter : PEP
#
#------------------------------------------------------------------------------
~VERSION INFORMATION
VERS. 2.0 : CWLS Log ASCII Standard - version 2.0
WRAP.  NO : One line per depth step
~WELL INFORMATION
#MNEMONIC   .UNIT                                           VALUE :DESCRIPTION
#------------------------------------------------------------------------------
STRT        .M                                           170.6880 :START DEPTH
STOP        .M                                          2221.8396 :STOP DEPTH
STEP        .M                                             0.1524 :STEP
NULL        .                                           -999.2500 :NULL VALUE
COMP        .                                   PEMEX EXPL & PROD :COMPANY
WELL        .                                                  51 :WELL
FLD         .                                           CANTARELL :FIELD
LOC         .                                             UNKNOWN :LOCATION
CNTY        .                                      CD. DEL CARMEN :COUNTY
STAT        .                                            CAMPECHE :STATE
CTRY        .                                              MEXICO :COUNTRY
SRVC        .                                             UNKNOWN :SERVICE COMPANY
DATE        .                                             UNKNOWN :LOG DATE
UWI         .                                          3060000165 :UNIQUE WELL ID
XCOORD      .                                       599727.990000 :SURFACE X
YCOORD      .                                      2147220.270000 :SURFACE Y
LAT         .                                           19.417949 :LATITUDE
LON         .                                          -92.050116 :LONGITUDE
ELEV        .M                                            27.8000 :SURFACE ELEV
ELEV_TYPE   .                                                  KB :ELEV TYPE
~CURVE INFORMATION
#MNEMONIC.UNIT        API CODE       : CURVE DESCRIPTION
#------------------------------------------------------------------------------
DEPTH    .M                          : Measured Depth
CAL      .inches      UNKNOWN        : CAL:CAL-Load:rC:NONE:v0 (auto-composite)
DRHO     .UNKNOWN     UNKNOWN        : DRHO:DRHO-Load:rC:NONE:v0 (auto-composite)
DT       .us/ft       UNKNOWN        : DT:DT:rC:NONE:v0 (auto-composite)
GR       .UNKNOWN     UNKNOWN        : GR:GR-Load:rC:NONE:v0 (auto-composite)
ILD      .UNKNOWN     UNKNOWN        : ILD:ILD-Load:rC:NONE:v0 (auto-composite)
NPHI     .v/v_decimal UNKNOWN        : NPHI:NPHI:rC:NONE:v0 (auto-composite)
RHOB     .UNKNOWN     UNKNOWN        : RHOB:RHOB-Load:rC:NONE:v0 (auto-composite)
SN       .UNKNOWN     UNKNOWN        : SN:SN-Load:rC:NONE:v0 (auto-composite)
~A     DEPTH          CAL         DRHO           DT           GR          ILD         NPHI         RHOB           SN
# ...
    559.7652      12.6901      -0.0430     167.8691      27.8300       1.5780      40.1055       2.4180       1.2945
    559.9176      12.7410      -0.0420     170.2670      27.7590       1.5650      39.8610       2.4050       1.2990
    560.0700      12.6519      -0.0405     160.7382      27.6154       1.5560      39.6015       2.4120       1.3040
    560.2224      12.5630      -0.0390     151.2090      27.4720       1.5470      39.3420       2.4190       1.3090
    560.3748      12.5129      -0.0345     137.7042      27.7491       1.5745      38.7046       2.4375       1.3180
    560.5272      12.4630      -0.0300     124.1970      28.0260       1.6020      38.0670       2.4560       1.3270
    560.6796      12.5221      -0.0380     120.5875      27.8064       1.6365      37.7411       2.4630       1.3245
    560.8320      12.5810      -0.0460     116.9770      27.5870       1.6710      37.4150       2.4700       1.3220
    560.9844      12.7288      -0.0565     114.3061      27.3209       1.6590      37.2810       2.4645       1.3230
    561.1368      12.8760      -0.0670     111.6340      27.0550       1.6470      37.1470       2.4590       1.3240
    561.2892      12.8540      -0.0730     114.9167      27.2060       1.6410      37.8776       2.4405       1.3165
    561.4416      12.8320      -0.0790     118.2000      27.3570       1.6350      38.6080       2.4220       1.3090
    561.5940      12.7569      -0.0785     124.0154      27.6141       1.6260      39.5381       2.4095       1.2985
    561.7464      12.6820      -0.0780     129.8300      27.8710       1.6170      40.4680       2.3970       1.2880
    561.8988      12.6520      -0.0760     134.6105      28.1111       1.5935      41.1110       2.3940       1.2840
    562.0512      12.6220      -0.0740     139.3910      28.3510       1.5700      41.7540       2.3910       1.2800
    562.2036      12.5990      -0.0780     135.2063      28.8002       1.5310      41.2800       2.3925       1.2680
    562.3560      12.5760      -0.0820     131.0210      29.2490       1.4920      40.8060       2.3940       1.2560
    562.5084      12.6056      -0.0750     131.6599      29.6421       1.4640      41.1820       2.3955       1.2370
    562.6608      12.6350      -0.0680     132.2990      30.0350       1.4360      41.5580       2.3970       1.2180
    562.8132      12.6886      -0.0370     130.3439      30.2740       1.4185      42.2740       2.4010       1.1970
    562.9656      12.7420      -0.0060     128.3880      30.5130       1.4010      42.9900       2.4050       1.1760
    563.1180      12.8261      -0.0070     126.6646      30.6596       1.3870      42.6790       2.4095       1.1595
    563.2704      12.9100      -0.0080     124.9410      30.8060       1.3730      42.3680       2.4140       1.1430
    563.4228      12.9095      -0.0200     123.8799      30.9336       1.3630      42.0195       2.4105       1.1505
    563.5752      12.9090      -0.0320     122.8190      31.0610       1.3530      41.6710       2.4070       1.1580
    563.7276      12.8389      -0.0270     121.4035      31.0965       1.3420      41.4110       2.4035       1.1530
    563.8800      12.7690      -0.0220     119.9880      31.1320       1.3310      41.1510       2.4000       1.1480
    564.0324      12.8211      -0.0135     120.8740      31.3101       1.3155      41.1945       2.3940       1.1295
    564.1848      12.8730      -0.0050     121.7600      31.4880       1.3000      41.2380       2.3880       1.1110
    564.3372      13.0183      -0.0080     122.6449      31.1214       1.2785      41.5845       2.3720       1.0885
    564.4896      13.1630      -0.0110     123.5300      30.7550       1.2570      41.9310       2.3560       1.0660
    564.6420      13.0814      -0.0050     125.9751      30.2409       1.2425      42.8390       2.3445       1.0530
    564.7944      13.0000       0.0010     128.4210      29.7270       1.2280      43.7470       2.3330       1.0400
    564.9468      12.9123      -0.0125     129.4200      29.8045       1.2290      43.6575       2.3220       1.0415
    565.0992      12.8250      -0.0260     130.4190      29.8820       1.2300      43.5680       2.3110       1.0430
    565.2516      12.8546      -0.0255     127.2672      30.2332       1.2350      43.5375       2.3150       1.0465
    565.4040      12.8840      -0.0250     124.1160      30.5840       1.2400      43.5070       2.3190       1.0500
    565.5564      12.9035      -0.0275     124.3740      30.3649       1.2440      44.3635       2.3105       1.0510
    565.7088      12.9230      -0.0300     124.6320      30.1460       1.2480      45.2200       2.3020       1.0520
    565.8612      12.8133      -0.0295     126.5385      29.4347       1.2435      44.8940       2.3065       1.0455
    566.0136      12.7040      -0.0290     128.4450      28.7240       1.2390      44.5680       2.3110       1.0390
    566.1660      12.7411      -0.0260     126.7706      28.9126       1.2300      45.0765       2.3125       1.0325
    566.3184      12.7780      -0.0230     125.0960      29.1010       1.2210      45.5850       2.3140       1.0260
    566.4708      12.8101      -0.0165     125.3170      29.3156       1.2105      46.2864       2.3135       1.0185
    566.6232      12.8420      -0.0100     125.5380      29.5300       1.2000      46.9880       2.3130       1.0110
    566.7756      12.8265      -0.0005     125.9554      29.7075       1.1860      46.7435       2.3090       1.0020
    566.9280      12.8110       0.0090     126.3730      29.8850       1.1720      46.4990       2.3050       0.9930
    567.0804      12.7614       0.0170     125.0426      29.8385       1.1545      45.8844       2.3030       0.9835
    567.2328      12.7120       0.0250     123.7120      29.7920       1.1370      45.2700       2.3010       0.9740
    567.3852      12.6299       0.0230     125.3341      29.9806       1.1140      45.5355       2.2980       0.9655
    567.5376      12.5480       0.0210     126.9560      30.1690       1.0910      45.8010       2.2950       0.9570
    567.6900      12.4734       0.0160     131.4845      30.5682       1.0730      46.4205       2.2885       0.9440
    567.8424      12.3990       0.0110     136.0130      30.9670       1.0550      47.0400       2.2820       0.9310
    567.9948      12.3319      -0.0015     135.7170      31.5097       1.0460      46.5515       2.2725       0.9190
    568.1472      12.2650      -0.0140     135.4210      32.0520       1.0370      46.0630       2.2630       0.9070
    568.2996      12.2946      -0.0125     132.5503      32.3281       1.0425      45.2111       2.2680       0.9070
    568.4520      12.3240      -0.0110     129.6790      32.6040       1.0480      44.3590       2.2730       0.9070
    568.6044      12.3480      -0.0030     128.5617      32.6700       1.0555      43.5385       2.2880       0.9115
    568.7568      12.3720       0.0050     127.4440      32.7360       1.0630      42.7180       2.3030       0.9160
    568.9092      12.4211       0.0020     131.9803      32.9686       1.0715      42.9385       2.3000       0.9210
    569.0616      12.4700      -0.0010     136.5170      33.2010       1.0800      43.1590       2.2970       0.9260
    569.2140      12.5256       0.0090     139.1017      33.4291       1.0885      43.8301       2.2900       0.9315
    569.3664      12.5810       0.0190     141.6860      33.6570       1.0970      44.5010       2.2830       0.9370
    569.5188      12.6571       0.0260     142.2455      33.3809       1.1025      44.9080       2.2885       0.9365
    569.6712      12.7330       0.0330     142.8050      33.1050       1.1080      45.3150       2.2940       0.9360
    569.8236      12.8031       0.0260     140.9246      32.5708       1.1055      45.2550       2.2825       0.9320
    569.9760      12.8730       0.0190     139.0440      32.0370       1.1030      45.1950       2.2710       0.9280
    570.1284      12.8429       0.0120     138.2296      31.7459       1.0970      45.4010       2.2805       0.9225
