#------------------------------------------------------------------------------
#
#   Created by  : [OpenWorks] Log Export Utility (LEXP)
#   Created on  : 2016-05-23 11:52:25
#   Project     : CANT971
#   User        : R5K
#   Interpreter : PEP
#
#------------------------------------------------------------------------------
~VERSION INFORMATION
VERS. 2.0 : CWLS Log ASCII Standard - version 2.0
WRAP.  NO : One line per depth step
~WELL INFORMATION
#MNEMONIC   .UNIT                                           VALUE :DESCRIPTION
#------------------------------------------------------------------------------
STRT        .M                                           940.1293 :START DEPTH
STOP        .M                                          2672.0029 :STOP DEPTH
STEP        .M                                             0.1524 :STEP
NULL        .                                           -999.2500 :NULL VALUE
COMP        .                                   PEMEX EXPL & PROD :COMPANY
WELL        .                                               2071D :WELL
FLD         .                                           CANTARELL :FIELD
LOC         .                                             UNKNOWN :LOCATION
CNTY        .                                      CD. DEL CARMEN :COUNTY
STAT        .                                            CAMPECHE :STATE
CTRY        .                                              MEXICO :COUNTRY
SRVC        .                                             UNKNOWN :SERVICE COMPANY
DATE        .                                             UNKNOWN :LOG DATE
UWI         .                                          3060000679 :UNIQUE WELL ID
XCOORD      .                                       601713.940000 :SURFACE X
YCOORD      .                                      2142372.000000 :SURFACE Y
LAT         .                                           19.374038 :LATITUDE
LON         .                                          -92.031462 :LONGITUDE
ELEV        .M                                            30.0000 :SURFACE ELEV
ELEV_TYPEF  .b/elec                                            KB :ELEV TYPE
~CURVE INFORMATION
#MNEMONIC.UNIT        API CODE       : CURVE DESCRIPTION
#------------------------------------------------------------------------------
DEPTH    .M                          : Measured Depth
CALI     .in          UNKNOWN        : CALI:UNKNOWN:rC:NONE:v0 (auto-composite)
DRHO     .g/cm3       UNKNOWN        : DRHO:UNKNOWN:rC:NONE:v0 (auto-composite)
DT       .us/ft       UNKNOWN        : DT:DT:rC:NONE:v0 (auto-composite)
GR       .API         UNKNOWN        : GR:UNKNOWN:rC:NONE:v0 (auto-composite)
ILD      .ohmm        UNKNOWN        : ILD:UNKNOWN:rC:NONE:v0 (auto-composite)
ILM      .ohmm        UNKNOWN        : ILM:UNKNOWN:rC:NONE:v0 (auto-composite)
LLD      .ohmm        UNKNOWN        : LLD:UNKNOWN:rC:NONE:v0 (auto-composite)
LLS      .ohmm        UNKNOWN        : LLS:UNKNOWN:rC:NONE:v0 (auto-composite)
MSFL     .ohmm        UNKNOWN        : MSFL:UNKNOWN:rC:NONE:v0 (auto-composite)
NPHI     .v/v_decimal UNKNOWN        : NPHI:UNKNOWN:rC:NONE:v0 (auto-composite)
PEF      .b/elec      UNKNOWN        : PEF:UNKNOWN:rC:NONE:v0 (auto-composite)
RHOB     .g/cm3       UNKNOWN        : RHOB:UNKNOWN:rC:NONE:v0 (auto-composite)
~A     DEPTH         CALI         DRHO           DT           GR          ILD          ILM          LLD          LLS         MSFL         NPHI          PEF         RHOB
# ...
   2417.7998      10.8024       0.0365      57.4446      23.9075    -999.2500    -999.2500    1164.5802     271.9716       0.3721       0.0506       3.2120       2.7410
   2417.9521      10.7390       0.0330      63.7860      23.6550    -999.2500    -999.2500    1364.0320     300.9210       0.4020       0.0511       3.2360       2.7280
   2418.1045      10.7560       0.0295      64.9193      23.8536    -999.2500    -999.2500    1532.8892     328.8906       0.4390       0.0427       3.2180       2.7210
   2418.2568      10.7730       0.0260      66.0520      24.0520    -999.2500    -999.2500    1701.6550     356.8450       0.4760       0.0343       3.2000       2.7140
   2418.4094      10.8000       0.0290      67.5358      23.3904    -999.2500    -999.2500    1765.2423     382.5077       0.4480       0.0280       3.1915       2.7460
   2418.5618      10.8270       0.0320      69.0190      22.7270    -999.2500    -999.2500    1829.0070     408.2420       0.4200       0.0216       3.1830       2.7780
   2418.7141      10.8070       0.0360      61.9160      21.8226    -999.2500    -999.2500    1705.4594     395.0625       0.4010       0.0233       3.2095       2.7900
   2418.8665      10.7870       0.0400      54.8150      20.9200    -999.2500    -999.2500    1582.1460     381.9080       0.3820       0.0250       3.2360       2.8020
   2419.0190      10.8246       0.0415      56.8467      19.4983    -999.2500    -999.2500    1346.7417     335.2101       0.3875       0.0282       3.2495       2.7970
   2419.1714      10.8620       0.0430      58.8780      18.0860    -999.2500    -999.2500    1112.8790     288.8180       0.3930       0.0315       3.2630       2.7920
   2419.3237      10.9116       0.0475      63.1856      17.2211    -999.2500    -999.2500     919.5955     241.3783       0.3970       0.0370       3.2840       2.7895
   2419.4761      10.9610       0.0520      67.4930      16.3590    -999.2500    -999.2500     726.9370     194.0920       0.4010       0.0426       3.3050       2.7870
   2419.6284      10.9030       0.0485      62.2732      16.8330    -999.2500    -999.2500     772.2341     212.3132       0.3890       0.0412       3.2860       2.7890
   2419.7810      10.8450       0.0450      57.0530      17.3070    -999.2500    -999.2500     817.5350     230.5360       0.3770       0.0398       3.2670       2.7910
   2419.9333      10.8200       0.0430      54.9442      19.4386    -999.2500    -999.2500    1085.7197     307.3898       0.4195       0.0370       3.2530       2.7835
   2420.0857      10.7950       0.0410      52.8350      21.5740    -999.2500    -999.2500    1354.3910     384.3830       0.4620       0.0343       3.2390       2.7760
   2420.2380      10.8306       0.0345      50.8593      28.1900    -999.2500    -999.2500    1412.3347     403.8364       0.4229       0.0380       3.2004       2.7695
   2420.3906      10.8660       0.0280      48.8860      34.7870    -999.2500    -999.2500    1470.1121     423.2340       0.3840       0.0417       3.1620       2.7630
   2420.5430      10.8424       0.0340      54.9064      38.0246    -999.2500    -999.2500    1157.4982     335.8132       0.3740       0.0470       3.1439       2.7660
   2420.6953      10.8190       0.0400      60.9200      41.2430    -999.2500    -999.2500     846.7350     248.9100       0.3640       0.0522       3.1260       2.7690
   2420.8477      10.8030       0.0375      58.7379      39.5698    -999.2500    -999.2500     900.3300     265.9342       0.4161       0.0562       3.1445       2.7535
   2421.0002      10.7870       0.0350      56.5580      37.9010    -999.2500    -999.2500     953.7850     282.9140       0.4680       0.0601       3.1630       2.7380
   2421.1526      10.8105       0.0410      55.6311      37.0701    -999.2500    -999.2500    1202.2852     353.3007       0.4420       0.0506       3.1970       2.7580
   2421.3049      10.8340       0.0470      54.7050      36.2400    -999.2500    -999.2500    1450.5649     423.6250       0.4160       0.0410       3.2310       2.7780
   2421.4573      10.7826       0.0440      58.3959      35.2852    -999.2500    -999.2500    1625.2089     474.4754       0.4200       0.0426       3.2140       2.7760
   2421.6096      10.7310       0.0410      62.0840      34.3280    -999.2500    -999.2500    1800.2791     525.4500       0.4240       0.0441       3.1970       2.7740
   2421.7622      10.7515       0.0380      59.4402      28.9613    -999.2500    -999.2500    1703.1055     503.2534       0.4090       0.0514       3.1710       2.7560
   2421.9146      10.7720       0.0350      56.7980      23.5980    -999.2500    -999.2500    1605.9940     481.0710       0.3940       0.0586       3.1450       2.7380
   2422.0669      10.7795       0.0385      57.9443      20.5860    -999.2500    -999.2500    1505.1627     452.7966       0.3980       0.0613       3.1646       2.7300
   2422.2192      10.7870       0.0420      59.0900      17.5900    -999.2500    -999.2500    1404.8660     424.6720       0.4020       0.0639       3.1840       2.7220
   2422.3718      10.7484       0.0430      56.6455      16.4920    -999.2500    -999.2500    1505.6931     452.0160       0.4160       0.0606       3.1900       2.7285
   2422.5242      10.7100       0.0440      54.2020      15.3980    -999.2500    -999.2500    1606.1591     479.2620       0.4300       0.0572       3.1960       2.7350
   2422.6765      10.6770       0.0485      56.1413      16.9237    -999.2500    -999.2500    1804.1527     519.5972       0.4530       0.0500       3.2160       2.7435
   2422.8289      10.6440       0.0530      58.0800      18.4490    -999.2500    -999.2500    2002.0950     559.9220       0.4760       0.0427       3.2360       2.7520
   2422.9814      10.6994       0.0525      60.5337      19.9512    -999.2500    -999.2500    2025.5549     565.1734       0.4411       0.0415       3.2620       2.7635
   2423.1338      10.7550       0.0520      62.9870      21.4580    -999.2500    -999.2500    2049.0869     570.4410       0.4060       0.0403       3.2880       2.7750
   2423.2861      10.7195       0.0560      57.5095      22.6339    -999.2500    -999.2500    1853.2725     535.2951       0.4285       0.0438       3.2700       2.7790
   2423.4385      10.6840       0.0600      52.0320      23.8080    -999.2500    -999.2500    1657.7740     500.2060       0.4510       0.0473       3.2520       2.7830
   2423.5908      10.7071       0.0530      53.2669      24.4525    -999.2500    -999.2500    1426.4224     438.5728       0.4244       0.0445       3.2400       2.7664
   2423.7434      10.7300       0.0460      54.5020      25.0930    -999.2500    -999.2500    1196.5210     377.3260       0.3980       0.0417       3.2280       2.7500
   2423.8958      10.7545       0.0420      57.1452      25.2773    -999.2500    -999.2500    1057.5703     335.9694       0.4165       0.0374       3.1909       2.7545
   2424.0481      10.7790       0.0380      59.7890      25.4610    -999.2500    -999.2500     919.0300     294.7350       0.4350       0.0332       3.1540       2.7590
   2424.2004      10.7790       0.0435      55.3313      25.3365    -999.2500    -999.2500     864.8885     275.9504       0.4985       0.0324       3.1860       2.7725
   2424.3530      10.7790       0.0490      50.8790      25.2120    -999.2500    -999.2500     810.7270     257.1590       0.5620       0.0316       3.2180       2.7860
   2424.5054      10.8105       0.0445      53.9032      24.2325    -999.2500    -999.2500     779.0577     241.1133       0.5755       0.0341       3.2150       2.7795
   2424.6577      10.8420       0.0400      56.9240      23.2510    -999.2500    -999.2500     747.3220     225.0340       0.5890       0.0365       3.2120       2.7730
   2424.8101      10.8620       0.0465      59.3197      22.3413    -999.2500    -999.2500     800.1764     236.5579       0.5505       0.0360       3.2616       2.7745
   2424.9626      10.8820       0.0530      61.7130      21.4340    -999.2500    -999.2500     852.8940     248.0520       0.5120       0.0355       3.3110       2.7760
