#------------------------------------------------------------------------------
#
#   Created by  : [OpenWorks] Log Export Utility (LEXP)
#   Created on  : 2016-05-23 11:55:49
#   Project     : CANT971
#   User        : R5K
#   Interpreter : PEP
#
#------------------------------------------------------------------------------
~VERSION INFORMATION
VERS. 2.0 : CWLS Log ASCII Standard - version 2.0
WRAP.  NO : One line per depth step
~WELL INFORMATION
#MNEMONIC   .UNIT                                           VALUE :DESCRIPTION
#------------------------------------------------------------------------------
STRT        .M                                           773.4315 :START DEPTH
STOP        .M                                          2865.1216 :STOP DEPTH
STEP        .M                                             0.1524 :STEP
NULL        .                                           -999.2500 :NULL VALUE
COMP        .                                             UNKNOWN :COMPANY
WELL        .                                                408D :WELL
FLD         .                                             UNKNOWN :FIELD
LOC         .                                             UNKNOWN :LOCATION
CNTY        .                                             UNKNOWN :COUNTY
STAT        .                                             UNKNOWN :STATE
CTRY        .                                             UNKNOWN :COUNTRY
SRVC        .                                             UNKNOWN :SERVICE COMPANY
DATE        .                                             UNKNOWN :LOG DATE
UWI         .                                                408D :UNIQUE WELL ID
XCOORD      .                                       597130.770000 :SURFACE X
YCOORD      .                                      2144867.260000 :SURFACE Y
LAT         .                                           19.396814 :LATITUDE
LON         .                                          -92.074972 :LONGITUDE
ELEV        .M                                             0.0000 :SURFACE ELEV
ELEV_TYPE   .                                                  KB :ELEV TYPE
~CURVE INFORMATION
#MNEMONIC.UNIT        API CODE       : CURVE DESCRIPTION
#------------------------------------------------------------------------------
DEPTH    .M                          : Measured Depth
CALI     .inches      UNKNOWN        : CALI:litodensidad:rC:NONE:v0 (auto-composite)
CGR      .API         UNKNOWN        : CGR:PETROWORKS:rC:NONE:v1 
DRHO     .g/cm3       UNKNOWN        : DRHO:litodensidad:rC:NONE:v0 (auto-composite)
DT       .us/ft       UNKNOWN        : DT:PETROWORKS:rC:NONE:v1 
GR       .API         UNKNOWN        : GR:PETROWORKS:rC:NONE:v3 
GR-LWD   .UNKNOWN     UNKNOWN        : GR-LWD:resistivos-LWD:rC:NONE:v0 (auto-composite)
LLD      .ohm.m       UNKNOWN        : LLD:PETROWORKS:rC:NONE:v1 
LLD-LWD  .UNKNOWN     UNKNOWN        : LLD-LWD:resistivos-LWD:rC:NONE:v0 (auto-composite)
LLS      .UNKNOWN     UNKNOWN        : LLS:PETROWORKS:rC:NONE:v1 
LLS-LWD  .UNKNOWN     UNKNOWN        : LLS-LWD:resistivos-LWD:rC:NONE:v0 (auto-composite)
MSFL     .UNKNOWN     UNKNOWN        : MSFL:PETROWORKS:rC:NONE:v1 
MSFL-LWD .UNKNOWN     UNKNOWN        : MSFL-LWD:resistivos-LWD:rC:NONE:v0 (auto-composite)
NPHI     .v/v_decimal UNKNOWN        : NPHI:PETROWORKS:rC:NONE:v3 
PEF      .UNKNOWN     UNKNOWN        : PEF:litodensidad:rC:NONE:v0 (auto-composite)
POTA     .wtpercent   UNKNOWN        : POTA:PETROWORKS:rC:NONE:v1 
RHOB     .g/cm3       UNKNOWN        : RHOB:litodensidad:rC:NONE:v0 (auto-composite)
THOR     .ppm         UNKNOWN        : THOR:PETROWORKS:rC:NONE:v1 
URAN     .ppm         UNKNOWN        : URAN:PETROWORKS:rC:NONE:v1 
~A     DEPTH         CALI          CGR         DRHO           DT           GR       GR-LWD          LLD      LLD-LWD          LLS      LLS-LWD         MSFL     MSFL-LWD         NPHI          PEF         POTA         RHOB         THOR         URAN
# ...
   2629.2063      20.4754     109.5984      -0.0057     155.5765     127.3396    -999.2500       3.8306    -999.2500       1.1892    -999.2500       1.4402    -999.2500       0.3623       2.5935       0.0445       2.1387       9.0899       2.2810
   2629.3586      19.2025     107.1280      -0.0062     153.9402     126.2024    -999.2500       3.8697    -999.2500       1.2457    -999.2500       2.1598    -999.2500       0.3831       2.6806       0.0430       2.1662       9.1291       2.3996
   2629.5112      19.7486     106.0229       0.0003     155.3628     126.9895    -999.2500       3.9185    -999.2500       1.2875    -999.2500       2.6299    -999.2500       0.3569       2.7611       0.0436       2.1951       8.4530       2.7142
   2629.6636      18.3629     105.7978       0.0029     158.7170     127.5049    -999.2500       4.0375    -999.2500       1.3674    -999.2500       2.0323    -999.2500       0.3281       2.8226       0.0440       2.2038       8.1619       2.9071
   2629.8159      18.2678     103.4500       0.0104     157.8240     125.3386    -999.2500       3.9964    -999.2500       1.3848    -999.2500       2.0221    -999.2500       0.3215       2.8598       0.0431       2.1991       7.8957       2.8547
   2629.9683      18.9634     101.2505       0.0147     155.9450     123.9748    -999.2500       3.9052    -999.2500       1.3929    -999.2500       1.9396    -999.2500       0.3505       2.8997       0.0442       2.1938       6.5725       2.9544
   2630.1206      20.2513      95.3953       0.0304     154.1447     122.3869    -999.2500       3.9566    -999.2500       1.4271    -999.2500       1.9320    -999.2500       0.3612       2.8752       0.0423       2.2176       5.8369       3.4936
   2630.2732      22.0242      91.4665       0.0139     155.1730     120.7159    -999.2500       3.8956    -999.2500       1.4425    -999.2500       1.8685    -999.2500       0.3657       2.9240       0.0404       2.2049       5.6729       3.8086
   2630.4255      23.1789      90.4602       0.0176     156.9077     119.3485    -999.2500       3.8138    -999.2500       1.4403    -999.2500       2.1918    -999.2500       0.3570       2.8596       0.0406       2.2166       5.2184       3.6909
   2630.5779      23.2618      95.5271       0.0090     158.4631     120.2922    -999.2500       3.9325    -999.2500       1.4994    -999.2500       2.0986    -999.2500       0.3626       2.9317       0.0416       2.2166       6.2775       3.2463
   2630.7302      23.8582      92.3987       0.0027     158.6950     120.0426    -999.2500       4.0248    -999.2500       1.5375    -999.2500       1.9470    -999.2500       0.3410       2.7659       0.0395       2.2115       6.5115       3.5804
   2630.8828      23.8378      93.0410      -0.0054     166.2101     118.8466    -999.2500       4.0360    -999.2500       1.5421    -999.2500       1.8554    -999.2500       0.3473       2.8659       0.0394       2.2042       6.7462       3.4783
   2631.0352      23.8514      84.3500      -0.0090     163.5704     113.2350    -999.2500       3.9008    -999.2500       1.5064    -999.2500       1.8826    -999.2500       0.3655       2.8430       0.0360       2.1925       5.9941       3.7722
   2631.1875      23.8487      83.7794      -0.0146     165.8426     114.6062    -999.2500       3.6683    -999.2500       1.4464    -999.2500       1.9602    -999.2500       0.3827       3.0176       0.0357       2.1859       6.0071       3.9115
   2631.3398      23.8582      82.2408      -0.0004     166.5824     115.6809    -999.2500       3.3189    -999.2500       1.4068    -999.2500       2.4747    -999.2500       0.3676       3.0125       0.0347       2.1835       6.0772       4.1882
   2631.4924      23.8718      84.5436       0.0071     166.9901     121.2592    -999.2500       3.1539    -999.2500       1.4699    -999.2500       2.5993    -999.2500       0.3339       3.1751       0.0358       2.1738       6.1450       4.7084
   2631.6448      23.8582      78.6730       0.0270     166.2195     120.1612    -999.2500       4.0856    -999.2500       2.0216    -999.2500       2.6893    -999.2500       0.3232       3.1820       0.0324       2.2123       6.2763       5.2726
   2631.7971      23.8704      69.6911       0.0497     166.5904     107.6481    -999.2500       5.8132    -999.2500       2.9661    -999.2500       4.8280    -999.2500       0.3235       3.1846       0.0284       2.3235       5.7493       4.9070
   2631.9495      20.5773      53.2009       0.0753     170.5053      86.0889    -999.2500       8.1512    -999.2500       4.2234    -999.2500      23.8118    -999.2500       0.2751       3.0660       0.0214       2.4944       4.5054       4.0336
   2632.1018      14.3891      38.7794       0.0590     172.0627      66.4125    -999.2500      12.1607    -999.2500       6.3785    -999.2500      24.3242    -999.2500       0.2096       3.1766       0.0150       2.6048       3.6412       3.3441
   2632.2544      12.3310      26.0367       0.0421     171.6123      54.2341    -999.2500      15.2678    -999.2500       8.4511    -999.2500      22.5843    -999.2500       0.1378       3.4092       0.0106       2.6354       2.1172       3.3618
   2632.4067      11.5620      21.7169       0.0132     172.5758      51.8884    -999.2500      17.0968    -999.2500      10.0239    -999.2500      21.2102    -999.2500       0.1286       3.1955       0.0091       2.5863       1.6558       3.7129
   2632.5591      11.2237      18.6673       0.0071     172.6000      52.1360    -999.2500      17.5737    -999.2500      11.0334    -999.2500      19.1040    -999.2500       0.1257       2.9594       0.0079       2.5734       1.3636       4.1645
   2632.7114      10.8841      18.2539       0.0083     172.0150      52.6473    -999.2500      17.7798    -999.2500      11.8652    -999.2500      20.6616    -999.2500       0.1255       2.9868       0.0074       2.5746       1.4894       4.2926
   2632.8640      10.6667      17.1751       0.0100     172.0975      51.3110    -999.2500      17.9465    -999.2500      12.2781    -999.2500      21.8751    -999.2500       0.1252       3.1861       0.0071       2.6030       1.3428       4.1940
   2633.0164      10.6817      17.2044       0.0085     171.9048      50.6051    -999.2500      17.9417    -999.2500      12.4294    -999.2500      18.7014    -999.2500       0.1323       3.3505       0.0071       2.6046       1.3801       4.1389
   2633.1687      10.7143      15.7813       0.0028     172.1928      48.2571    -999.2500      17.9499    -999.2500      12.5146    -999.2500      18.6664    -999.2500       0.1393       3.1235       0.0063       2.6072       1.3358       4.0499
   2633.3210      10.6599      15.6639       0.0008     172.0050      46.2196    -999.2500      17.7801    -999.2500      12.5770    -999.2500      20.3490    -999.2500       0.1421       3.0180       0.0063       2.6058       1.3222       3.7970
   2633.4736      10.3679      15.8276      -0.0047     172.3901      45.4552    -999.2500      18.0380    -999.2500      13.0118    -999.2500      20.8407    -999.2500       0.1437       3.2428       0.0060       2.6123       1.5677       3.6744
   2633.6260       9.9372      17.5251      -0.0040     173.8634      46.6065    -999.2500      18.6678    -999.2500      13.7249    -999.2500      20.9588    -999.2500       0.1440       3.3401       0.0067       2.6088       1.6709       3.7236
   2633.7783       9.6614      19.3125      -0.0055     172.1433      47.8102    -999.2500      19.3175    -999.2500      14.4708    -999.2500      22.6894    -999.2500       0.1493       3.4691       0.0072       2.6133       1.9718       3.6611
   2633.9307       9.4984      21.6799      -0.0099     172.3929      48.0340    -999.2500      19.8602    -999.2500      15.1394    -999.2500      27.1458    -999.2500       0.1427       3.3545       0.0077       2.6165       2.4551       3.3174
   2634.0830       9.4440      22.3651      -0.0128     171.6199      47.8625    -999.2500      19.7258    -999.2500      15.2848    -999.2500      27.0255    -999.2500       0.1383       3.3722       0.0080       2.6107       2.5114       3.2024
