#------------------------------------------------------------------------------
#
#   Created by  : [OpenWorks] Log Export Utility (LEXP)
#   Created on  : 2016-05-23 11:52:51
#   Project     : CANT971
#   User        : R5K
#   Interpreter : PEP
#
#------------------------------------------------------------------------------
~VERSION INFORMATION
VERS. 2.0 : CWLS Log ASCII Standard - version 2.0
WRAP.  NO : One line per depth step
~WELL INFORMATION
#MNEMONIC   .UNIT                                           VALUE :DESCRIPTION
#------------------------------------------------------------------------------
STRT        .M                                           691.4386 :START DEPTH
STOP        .M                                          2836.4685 :STOP DEPTH
STEP        .M                                             0.1524 :STEP
NULL        .                                           -999.2500 :NULL VALUE
COMP        .                                   PEMEX EXPL & PROD :COMPANY
WELL        .                                                2094 :WELL
FLD         .                                           CANTARELL :FIELD
LOC         .                                             UNKNOWN :LOCATION
CNTY        .                                      CD. DEL CARMEN :COUNTY
STAT        .                                            CAMPECHE :STATE
CTRY        .                                              MEXICO :COUNTRY
SRVC        .                                             UNKNOWN :SERVICE COMPANY
DATE        .                                             UNKNOWN :LOG DATE
UWI         .                                          3060000525 :UNIQUE WELL ID
XCOORD      .                                       601711.170000 :SURFACE X
YCOORD      .                                      2142342.970000 :SURFACE Y
LAT         .                                           19.373776 :LATITUDE
LON         .                                          -92.031490 :LONGITUDE
ELEV        .M                                            24.0000 :SURFACE ELEV
ELEV_TYPE   .                                                  KB :ELEV TYPE
~CURVE INFORMATION
#MNEMONIC.UNIT        API CODE       : CURVE DESCRIPTION
#------------------------------------------------------------------------------
DEPTH    .M                          : Measured Depth
CALI     .in          UNKNOWN        : CALI:registros:rC:NONE:v0 (auto-composite)
DRHO     .g/cm3       UNKNOWN        : DRHO:registros:rC:NONE:v0 (auto-composite)
DT       .us/ft       UNKNOWN        : DT:registros:rC:NONE:v0 (auto-composite)
GR       .API         UNKNOWN        : GR:registros:rC:NONE:v0 (auto-composite)
ILD      .ohm.m       UNKNOWN        : ILD:registros:rC:NONE:v0 (auto-composite)
ILM      .ohm.m       UNKNOWN        : ILM:registros:rC:NONE:v0 (auto-composite)
LLD      .ohm.m       UNKNOWN        : LLD:registros:rC:NONE:v0 (auto-composite)
LLS      .ohm.m       UNKNOWN        : LLS:registros:rC:NONE:v0 (auto-composite)
MSFL     .ohm.m       UNKNOWN        : MSFL:registros:rC:NONE:v0 (auto-composite)
NPHI     .v/v_decimal UNKNOWN        : NPHI:registros:rC:NONE:v0 (auto-composite)
PEF      .b/elec      UNKNOWN        : PEF:registros:rC:NONE:v0 (auto-composite)
RHOB     .g/cm3       UNKNOWN        : RHOB:registros:rC:NONE:v0 (auto-composite)
~A     DEPTH         CALI         DRHO           DT           GR          ILD          ILM          LLD          LLS         MSFL         NPHI          PEF         RHOB
# ...
   2330.0435       8.5700       0.0100      60.2554      26.6484    -999.2500    -999.2500    4355.1963    1757.0514     945.3159       0.0773       3.2451       2.6440
   2330.1958       8.5700       0.0157      65.0978      30.7050    -999.2500    -999.2500    3577.5281    1440.1570     469.7500       0.0801       3.1995       2.6498
   2330.3481       8.5700       0.0230      66.4496      35.8273    -999.2500    -999.2500    3127.5776    1301.0338    1237.2739       0.0868       3.1301       2.6410
   2330.5005       8.5700       0.0327      66.2360      40.9060    -999.2500    -999.2500    2681.4509    1163.0930    1999.5000       0.0933       3.0894       2.6308
   2330.6531       8.5700       0.0460      66.3002      40.5043    -999.2500    -999.2500    3311.1243    1221.9216    1999.7509       0.0934       3.1314       2.6325
   2330.8054       8.5700       0.0572      66.1339      40.1060    -999.2500    -999.2500    3935.5291    1280.2581    2000.0000       0.0932       3.1784       2.6411
   2330.9578       8.5700       0.0605      65.2224      38.7268    -999.2500    -999.2500    3817.4421    1165.7723    1556.5248       0.0933       3.1526       2.6520
   2331.1101       8.5700       0.0594      62.4334      37.3590    -999.2500    -999.2500    3700.3291    1052.2310    1116.0000       0.0935       3.1122       2.6606
   2331.2627       8.5700       0.0570      56.5664      36.9940    -999.2500    -999.2500    3247.9900     816.9053    1196.7638       0.0943       3.1150       2.6625
   2331.4150       8.5700       0.0509      51.0393      36.6320    -999.2500    -999.2500    2799.3230     583.4900    1277.0000       0.0952       3.1587       2.6566
   2331.5674       8.5700       0.0385      49.2691      34.9342    -999.2500    -999.2500    2250.6829     433.0964    1270.0958       0.0983       3.2428       2.6415
   2331.7197       8.5700       0.0255      49.5768      33.2500    -999.2500    -999.2500    1706.4320     283.9060    1263.2360       0.1018       3.3514       2.6223
   2331.8723       8.5700       0.0175      50.3700      31.5518    -999.2500    -999.2500    1479.6577     234.2511    1168.7271       0.1094       3.4693       2.6035
   2332.0247       8.5686       0.0127      51.5363      29.8670    -999.2500    -999.2500    1254.6680     184.9870    1074.8120       0.1167       3.5076       2.5897
   2332.1770       8.5645       0.0095      52.9758      30.8759    -999.2500    -999.2500    1864.6694     526.5075     549.6846       0.1135       3.3744       2.5855
   2332.3293       8.5616       0.0077      54.1543      31.8770    -999.2500    -999.2500    2469.9431     865.3810      27.7890       0.1095       3.1888       2.5906
   2332.4817       8.5640       0.0075      54.5275      34.4734    -999.2500    -999.2500    2779.3354    1169.3024     578.4308       0.1033       3.0696       2.6050
   2332.6343       8.5679       0.0076      54.3795      37.0500    -999.2500    -999.2500    3086.3701    1470.9080    1125.7500       0.0973       2.9980       2.6233
   2332.7866       8.5695       0.0070      53.9771      38.5351    -999.2500    -999.2500    1665.1481     801.7020     753.7177       0.0960       2.9565       2.6405
   2332.9390       8.5699       0.0062      53.6368      40.0090    -999.2500    -999.2500     254.5870     137.5160     384.4760       0.0950       2.9323       2.6551
   2333.0913       8.5700       0.0060      53.6751      41.6199    -999.2500    -999.2500     176.4547      95.6237     193.7386       0.0938       2.9125       2.6660
   2333.2439       8.5700       0.0066      53.7509      43.2190    -999.2500    -999.2500      99.0230      54.1070       4.4070       0.0925       2.9452       2.6713
   2333.3962       8.5700       0.0085      53.5246      40.0510    -999.2500    -999.2500     131.5401      68.1450       9.4021       0.0920       3.0798       2.6690
   2333.5486       8.5699       0.0110      54.8937      36.9060    -999.2500    -999.2500     163.7700      82.0590      14.3610       0.0910       3.2279       2.6685
   2333.7009       8.5695       0.0135      59.7845      41.1978    -999.2500    -999.2500     297.8027     181.0515      21.1432       0.0822       3.3014       2.6790
   2333.8535       8.5676       0.0154      63.7691      45.4590    -999.2500    -999.2500     430.6670     279.1810      27.8770       0.0727       3.3011       2.6910
   2334.0059       8.5630       0.0160      62.4361      47.5679    -999.2500    -999.2500     340.0630     243.0901      30.5182       0.0598       3.2262       2.6950
   2334.1582       8.5568       0.0158      59.2414      49.6620    -999.2500    -999.2500     250.2370     207.3090      33.1410       0.0472       3.1322       2.6949
   2334.3105       8.5500       0.0150      57.5899      49.6906    -999.2500    -999.2500     182.3782     147.9396      92.3444       0.0423       3.0751       2.6945
   2334.4629       8.5501       0.0141      56.9461      49.7190    -999.2500    -999.2500     115.0940      89.0730     151.1410       0.0396       3.0084       2.6800
   2334.6155       8.5645       0.0135      56.8001      49.1617    -999.2500    -999.2500     115.8813      85.9992     128.4559       0.0592       2.8857       2.6371
   2334.7678       8.5777       0.0130      56.5417      48.6090    -999.2500    -999.2500     116.6620      82.9510     105.9240       0.0794       2.7939       2.5926
   2334.9202       8.5740       0.0125      55.5610      42.6179    -999.2500    -999.2500     129.9958      84.6741      58.9098       0.0860       2.8209       2.5735
   2335.0725       8.5636       0.0125      54.4302      36.6760    -999.2500    -999.2500     143.2200      86.3830      12.2070       0.0910       2.9043       2.5781
   2335.2251       8.5565       0.0135      53.7169      33.4068    -999.2500    -999.2500     504.9442     264.9370      51.1802       0.0892       2.9823       2.6049
   2335.3774       8.5561       0.0130      53.1488      30.1640    -999.2500    -999.2500     863.7430     442.0470      89.9000       0.0870       3.0265       2.6288
   2335.5298       8.5660       0.0085      52.4575      32.2583    -999.2500    -999.2500    1186.8259     582.5539     949.1882       0.0860       3.0071       2.6240
   2335.6821       8.5881       0.0047      51.3111      34.3360    -999.2500    -999.2500    1507.3340     721.9410    1803.0000       0.0844       2.9803       2.6196
   2335.8347       8.6245       0.0065      49.3748      36.4106    -999.2500    -999.2500    1733.3503     736.3464    1189.6447       0.0754       3.0024       2.6445
   2335.9871       8.6449       0.0127      48.4843      38.4690    -999.2500    -999.2500    1957.5950     750.6390     580.1250       0.0664       3.0638       2.6739
   2336.1394       8.6191       0.0225      50.4778      38.3355    -999.2500    -999.2500    2052.2244     796.9216     857.8846       0.0662       3.1553       2.6830
   2336.2917       8.5822       0.0311      53.0432      38.2030    -999.2500    -999.2500    2146.1230     842.8470    1133.5000       0.0670       3.2380       2.6810
   2336.4441       8.5700       0.0340      53.8825      37.2489    -999.2500    -999.2500    2193.5022     869.5102    1047.7587       0.0707       3.2725       2.6770
   2336.5967       8.5705       0.0334      53.7801      36.3020    -999.2500    -999.2500    2240.5220     895.9710     962.6680       0.0745       3.3010       2.6729
   2336.7490       8.5720       0.0315      53.5072      35.8759    -999.2500    -999.2500    2412.9521     943.0524     658.3222       0.0765       3.3659       2.6705
   2336.9014       8.5740       0.0276      53.8699      35.4530    -999.2500    -999.2500    2584.0940     989.7820     356.2500       0.0784       3.4372       2.6674
   2337.0537       8.5760       0.0210      55.6771      36.3106    -999.2500    -999.2500    2481.1360     964.4619    1109.8909       0.0807       3.4849       2.6610
   2337.2063       8.5765       0.0148      56.6771      37.1620    -999.2500    -999.2500    2379.0979     939.3680    1858.0000       0.0823       3.5136       2.6570
