#------------------------------------------------------------------------------
#
#   Created by  : [OpenWorks] Log Export Utility (LEXP)
#   Created on  : 2016-05-23 11:56:16
#   Project     : CANT971
#   User        : R5K
#   Interpreter : PEP
#
#------------------------------------------------------------------------------
~VERSION INFORMATION
VERS. 2.0 : CWLS Log ASCII Standard - version 2.0
WRAP.  NO : One line per depth step
~WELL INFORMATION
#MNEMONIC   .UNIT                                           VALUE :DESCRIPTION
#------------------------------------------------------------------------------
STRT        .M                                           785.0543 :START DEPTH
STOP        .M                                          3464.0940 :STOP DEPTH
STEP        .M                                             0.1524 :STEP
NULL        .                                           -999.2500 :NULL VALUE
COMP        .                                   PEMEX EXPL & PROD :COMPANY
WELL        .                                                448D :WELL
FLD         .                                           CANTARELL :FIELD
LOC         .                                             UNKNOWN :LOCATION
CNTY        .                                      CD. DEL CARMEN :COUNTY
STAT        .                                            CAMPECHE :STATE
CTRY        .                                              MEXICO :COUNTRY
SRVC        .                                             UNKNOWN :SERVICE COMPANY
DATE        .                                             UNKNOWN :LOG DATE
UWI         .                                          3060000822 :UNIQUE WELL ID
XCOORD      .                                       598710.240000 :SURFACE X
YCOORD      .                                      2143307.000000 :SURFACE Y
LAT         .                                           19.382637 :LATITUDE
LON         .                                          -92.060012 :LONGITUDE
ELEV        .M                                            28.0000 :SURFACE ELEV
ELEV_TYPE   .                                                  KB :ELEV TYPE
~CURVE INFORMATION
#MNEMONIC.UNIT        API CODE       : CURVE DESCRIPTION
#------------------------------------------------------------------------------
DEPTH    .M                          : Measured Depth
CALI     .inches      UNKNOWN        : CALI:registros:rC:NONE:v0 (auto-composite)
DRHO     .g/cm3       UNKNOWN        : DRHO:registros:rC:NONE:v0 (auto-composite)
DT       .us/ft       UNKNOWN        : DT:registros:rC:NONE:v0 (auto-composite)
GR       .API         UNKNOWN        : GR:registros:rC:NONE:v0 (auto-composite)
LLD      .ohm.m       UNKNOWN        : LLD:registros:rC:NONE:v0 (auto-composite)
LLS      .ohm.m       UNKNOWN        : LLS:registros:rC:NONE:v0 (auto-composite)
MSFL     .ohm.m       UNKNOWN        : MSFL:registros:rC:NONE:v0 (auto-composite)
NPHI     .v/v_decimal UNKNOWN        : NPHI:registros:rC:NONE:v0 (auto-composite)
PEF      .b/elec      UNKNOWN        : PEF:registros:rC:NONE:v0 (auto-composite)
RHOB     .g/cm3       UNKNOWN        : RHOB:registros:rC:NONE:v0 (auto-composite)
~A     DEPTH         CALI         DRHO           DT           GR          LLD          LLS         MSFL         NPHI          PEF         RHOB
# ...
   3132.0144      15.3354       0.0066      48.6886      17.0447     297.3882     196.8720     336.3513       0.0169       3.5572       2.8394
   3132.1667      15.3460       0.0071      49.2743      17.8743     274.1285     186.0854     752.6252       0.0177       3.6388       2.8344
   3132.3191      15.3598       0.0073      49.4978      18.3571     255.6052     175.3919     410.2716       0.0193       3.6955       2.8367
   3132.4714      15.3712       0.0100      50.0586      17.5730     287.4536     190.7510     492.0834       0.0188       3.9159       2.8395
   3132.6240      15.3648       0.0178      50.3906      15.6128     306.0588     198.8084     699.6447       0.0172       4.0370       2.8525
   3132.7764      15.3555       0.0161      50.0160      13.9452     332.0947     208.2136    1138.6318       0.0142       4.1712       2.8496
   3132.9287      15.3233       0.0135      48.6998      12.9177     429.6809     245.2115    1591.6254       0.0129       4.0208       2.8431
   3133.0811      15.2521       0.0134      48.0108      12.6477     562.1885     291.6995     452.1927       0.0119       3.8903       2.8369
   3133.2336      15.2345       0.0143      48.2632      12.9841     656.8972     315.4765     289.8354       0.0115       3.6314       2.8298
   3133.3860      15.1887       0.0121      47.8061      13.7976     827.0728     356.2268     281.9947       0.0107       3.6271       2.8310
   3133.5383      15.1938       0.0134      47.5638      16.9113     880.7762     363.6692     223.0185       0.0091       3.6489       2.8401
   3133.6907      15.2436       0.0202      47.6155      20.9310     660.8259     310.4258     408.4626       0.0077       3.6471       2.8464
   3133.8430      15.2632       0.0250      47.5430      24.1356     557.1160     277.1909     879.5788       0.0082       3.6903       2.8460
   3133.9956      15.2763       0.0138      43.2082      25.1171     408.6696     226.8536    1501.2677       0.0102       3.6299       2.8272
   3134.1479      15.3354       0.0167      31.4057      24.0755     284.1166     177.4961    1168.7819       0.0110       3.6022       2.8377
   3134.3003      15.3477       0.0196      30.5904      21.7136     262.6854     168.4824    1646.3529       0.0109       3.5993       2.8465
   3134.4526      15.3022       0.0209      31.4713      18.6605     263.6927     168.9897     594.1970       0.0104       3.7352       2.8567
   3134.6052      15.2825       0.0189      39.7878      16.8635     270.8994     171.1598     347.0591       0.0110       3.6894       2.8612
   3134.7576      15.3110       0.0180      46.2366      15.5134     331.5970     196.6499     423.3802       0.0111       3.6021       2.8596
   3134.9099      15.3843       0.0135      50.1817      16.6585     368.0288     211.2188      69.4743       0.0123       3.5690       2.8519
   3135.0623      15.3274       0.0129      57.4902      21.3365     328.3994     195.9740      47.1163       0.0147       3.5729       2.8300
   3135.2146      15.3181       0.0104      46.8663      29.3582     200.7379     141.9738     121.0756       0.0167       3.5450       2.8024
   3135.3672      15.3079       0.0082      45.4623      37.8534     119.5078      96.1171     178.3943       0.0203       3.4235       2.7782
   3135.5195      15.2973       0.0112      52.6522      42.5923      59.8211      54.7497     155.0158       0.0278       3.5089       2.7731
   3135.6719      15.3225       0.0161      51.2525      41.7367      45.7677      43.7331     120.0374       0.0378       3.5557       2.7795
   3135.8242      15.3147       0.0139      51.3343      37.1783      45.6051      44.0974      91.4297       0.0390       3.7026       2.7843
   3135.9768      15.1707       0.0124      50.8337      32.1550      49.8206      48.0660     118.3483       0.0327       3.7052       2.8041
   3136.1292      15.2112       0.0122      50.0689      30.0180      72.3728      66.0828     184.2756       0.0236       3.6727       2.8268
   3136.2815      15.2075       0.0112      50.2101      28.6079     115.5231      98.8858     295.2621       0.0200       3.5671       2.8401
   3136.4338      15.1972       0.0050      49.6081      27.0228     136.7605     114.8046     229.5737       0.0189       3.4625       2.8376
   3136.5864      15.2101       0.0062      49.6662      25.0265     147.5346     121.6017     343.8865       0.0180       3.5807       2.8439
   3136.7388      15.1942       0.0103      49.8841      24.0454     155.8573     125.4741     842.3874       0.0161       3.6727       2.8599
   3136.8911      15.1395       0.0101      48.5871      22.1300     156.5184     123.6441     860.5215       0.0153       3.7434       2.8587
   3137.0435      15.1368       0.0100      48.9659      21.6829     160.1123     124.3825     332.6836       0.0157       3.7050       2.8522
   3137.1958      15.1219       0.0091      49.0910      19.0536     180.2753     135.0319     170.7419       0.0158       3.8365       2.8475
   3137.3484      15.1310       0.0034      49.0667      20.0807     205.2508     147.4826     322.3119       0.0133       3.7565       2.8412
   3137.5007      15.1418      -0.0026      49.0667      21.4057     248.4651     167.2220     698.6476       0.0111       3.6540       2.8295
   3137.6531      15.1530      -0.0033      48.9313      24.5259     294.8882     189.9716     287.2433       0.0114       3.6093       2.8282
   3137.8054      15.1877      -0.0052      48.7296      24.9303     269.7397     183.8358     207.4384       0.0135       3.7392       2.8237
   3137.9580      15.1352      -0.0050      48.9853      23.2524     241.4583     171.9928     108.1633       0.0142       3.8566       2.8236
   3138.1104      15.1701      -0.0018      48.7900      20.5124     171.9156     135.2405      99.4587       0.0128       3.7726       2.8176
   3138.2627      15.3297       0.0021      49.6508      21.0198     156.8286     127.3860     151.7148       0.0104       3.6840       2.8203
   3138.4150      15.4226       0.0043      50.1620      25.0074     182.8076     145.7197     137.0800       0.0094       3.6893       2.8265
   3138.5676      15.4130       0.0065      50.9824      31.9432     196.7433     155.5824     614.2198       0.0109       3.6595       2.8279
   3138.7200      15.2587       0.0062      51.3652      35.5422     202.7429     159.4656    1394.1191       0.0149       3.5785       2.8207
   3138.8723      15.1715       0.0045      51.4273      30.9221     174.8199     142.7680     390.2745       0.0181       3.4474       2.8177
   3139.0247      15.1008       0.0020      50.2840      24.0846     137.4376     118.0438     461.5924       0.0181       3.5053       2.8270
   3139.1770      15.0882      -0.0002      49.4478      19.2644     127.0186     110.4054     433.3733       0.0145       3.6122       2.8378
   3139.3296      15.1024      -0.0019      48.3305      20.1335     143.4944     121.2499     225.5463       0.0116       3.7414       2.8395
   3139.4819      15.0919      -0.0015      48.1639      19.6161     194.0461     151.8462     255.6812       0.0105       3.6944       2.8392
   3139.6343      15.1071      -0.0039      48.2745      20.0335     297.5821     208.2184     181.7699       0.0104       3.8014       2.8335
   3139.7866      15.1116      -0.0033      48.5460      18.4444     380.9711     248.6299     399.6826       0.0112       3.8438       2.8269
   3139.9392      15.0774      -0.0042      48.7781      16.2872     355.7817     236.6890     728.6611       0.0125       3.9285       2.8111
   3140.0916      15.0637      -0.0057      49.1313      13.3070     343.5250     230.0954     566.0414       0.0143       3.9799       2.8088
   3140.2439      15.0600      -0.0055      49.7513      13.3843     303.6156     209.0192     833.0641       0.0142       3.8324       2.8200
   3140.3962      15.0811      -0.0042      49.4246      15.5595     283.0340     198.0336    1023.0104       0.0129       3.7507       2.8302
