#------------------------------------------------------------------------------
#
#   Created by  : [OpenWorks] Log Export Utility (LEXP)
#   Created on  : 2016-05-23 11:57:02
#   Project     : CANT971
#   User        : R5K
#   Interpreter : PEP
#
#------------------------------------------------------------------------------
~VERSION INFORMATION
VERS. 2.0 : CWLS Log ASCII Standard - version 2.0
WRAP.  NO : One line per depth step
~WELL INFORMATION
#MNEMONIC   .UNIT                                           VALUE :DESCRIPTION
#------------------------------------------------------------------------------
STRT        .M                                           493.3184 :START DEPTH
STOP        .M                                          2467.0508 :STOP DEPTH
STEP        .M                                             0.1524 :STEP
NULL        .                                           -999.2500 :NULL VALUE
COMP        .                                   PEMEX EXPL & PROD :COMPANY
WELL        .                                                  63 :WELL
FLD         .                                           CANTARELL :FIELD
LOC         .                                             UNKNOWN :LOCATION
CNTY        .                                      CD. DEL CARMEN :COUNTY
STAT        .                                            CAMPECHE :STATE
CTRY        .                                              MEXICO :COUNTRY
SRVC        .                                             UNKNOWN :SERVICE COMPANY
DATE        .                                             UNKNOWN :LOG DATE
UWI         .                                          3060000615 :UNIQUE WELL ID
XCOORD      .                                       601716.240000 :SURFACE X
YCOORD      .                                      2142344.800000 :SURFACE Y
LAT         .                                           19.373792 :LATITUDE
LON         .                                          -92.031441 :LONGITUDE
ELEV        .M                                            24.0000 :SURFACE ELEV
ELEV_TYPE   .                                                  KB :ELEV TYPE
~CURVE INFORMATION
#MNEMONIC.UNIT        API CODE       : CURVE DESCRIPTION
#------------------------------------------------------------------------------
DEPTH    .M                          : Measured Depth
CALI     .inches      UNKNOWN        : CALI:Import:rC:NONE:v0 (auto-composite)
DRHO     .g/cm3       UNKNOWN        : DRHO:Import:rC:NONE:v0 (auto-composite)
DT       .us/ft       UNKNOWN        : DT:Import:rC:NONE:v0 (auto-composite)
GR       .API         UNKNOWN        : GR:Import:rC:NONE:v0 (auto-composite)
ILD      .ohm.m       UNKNOWN        : ILD:Import:rC:NONE:v0 (auto-composite)
ILM      .ohm.m       UNKNOWN        : ILM:Import:rC:NONE:v0 (auto-composite)
LLD      .ohm.m       UNKNOWN        : LLD:Import:rC:NONE:v0 (auto-composite)
LLS      .ohm.m       UNKNOWN        : LLS:Import:rC:NONE:v0 (auto-composite)
MSFL     .ohm.m       UNKNOWN        : MSFL:Import:rC:NONE:v0 (auto-composite)
NPHI     .v/v_decimal UNKNOWN        : NPHI:Import:rC:NONE:v0 (auto-composite)
PEF      .b/elec      UNKNOWN        : PEF:Import:rC:NONE:v0 (auto-composite)
RHOB     .g/cm3       UNKNOWN        : RHOB:Import:rC:NONE:v0 (auto-composite)
~A     DEPTH         CALI         DRHO           DT           GR          ILD          ILM          LLD          LLS         MSFL         NPHI          PEF         RHOB
# ...
   2139.2383       5.8440       0.0280      51.1239      26.5231    -999.2500    -999.2500     753.8928     340.1174     219.7481       0.0330       2.8741       2.7800
   2139.3909       5.8440       0.0200      52.3480      29.1680    -999.2500    -999.2500     747.6240     344.0070     220.7480       0.0355       2.7120       2.7440
   2139.5432       5.8440       0.0235      52.4240      31.1481    -999.2500    -999.2500     864.8547     422.3195     946.6599       0.0407       2.8374       2.7560
   2139.6956       5.8440       0.0270      52.5000      33.1320    -999.2500    -999.2500     982.3160     500.7860    1674.0000       0.0459       2.9630       2.7680
   2139.8479       5.8615       0.0335      51.9501      35.8007    -999.2500    -999.2500     944.2114     492.7879    1033.7023       0.0479       3.0414       2.7740
   2140.0002       5.8790       0.0400      51.4000      38.4750    -999.2500    -999.2500     906.0270     484.7730     392.0630       0.0498       3.1200       2.7800
   2140.1528       5.8615       0.0400      52.1068      50.4747    -999.2500    -999.2500     804.0299     432.4506     407.7457       0.0531       3.1975       2.7750
   2140.3052       5.8440       0.0400      52.8140      62.5010    -999.2500    -999.2500     701.9700     380.0960     423.4380       0.0565       3.2750       2.7700
   2140.4575       5.8440       0.0345      52.9964      74.0185    -999.2500    -999.2500     676.7484     362.0617     359.6042       0.0607       3.3400       2.7545
   2140.6099       5.8440       0.0290      53.1790      85.5630    -999.2500    -999.2500     651.5080     344.0140     295.7230       0.0645       3.4050       2.7390
   2140.7625       5.8460       0.0325      53.6143      68.6069    -999.2500    -999.2500     762.2755     418.5442     197.9039       0.0620       3.5639       2.7390
   2140.9148       5.8480       0.0360      54.0500      51.6090    -999.2500    -999.2500     873.1390     493.1390     100.0000       0.0590       3.7230       2.7390
   2141.0671       5.8460       0.0330      53.9491      51.6714    -999.2500    -999.2500     888.9597     504.7097     169.0282       0.0558       3.7170       2.7395
   2141.2195       5.8440       0.0300      53.8480      51.7340    -999.2500    -999.2500     904.7960     516.2920     238.1250       0.0526       3.7110       2.7400
   2141.3721       5.8440       0.0300      52.9560      51.4589    -999.2500    -999.2500     980.6136     571.4411     169.7728       0.0489       3.6580       2.7405
   2141.5244       5.8440       0.0300      52.0630      51.1830    -999.2500    -999.2500    1056.5160     626.6520     101.3440       0.0449       3.6050       2.7410
   2141.6768       5.8440       0.0315      50.7368      42.7525    -999.2500    -999.2500    1116.5356     676.4285     102.8251       0.0379       3.5440       2.7520
   2141.8291       5.8440       0.0330      49.4090      34.2980    -999.2500    -999.2500    1176.6300     726.2670     104.3080       0.0312       3.4830       2.7630
   2141.9814       5.8440       0.0355      48.6800      30.0343    -999.2500    -999.2500    1216.1339     770.9819     196.9030       0.0296       3.4540       2.7785
   2142.1340       5.8440       0.0380      47.9500      25.7580    -999.2500    -999.2500    1255.6920     815.7580     289.6250       0.0285       3.4250       2.7940
   2142.2864       5.8440       0.0405      47.8500      26.4025    -999.2500    -999.2500    1216.8840     791.6030     579.8455       0.0277       3.3106       2.8060
   2142.4387       5.8440       0.0430      47.7500      27.0490    -999.2500    -999.2500    1178.0179     767.4120     870.5000       0.0271       3.1960       2.8180
   2142.5911       5.8460       0.0305      47.9750      33.9818    -999.2500    -999.2500    1070.6786     696.1283     518.9102       0.0273       3.2759       2.8015
   2142.7437       5.8480       0.0180      48.2000      40.9370    -999.2500    -999.2500     963.1650     624.7290     166.7500       0.0275       3.3560       2.7850
   2142.8960       5.8460       0.0180      47.9000      37.6540    -999.2500    -999.2500    1631.5726     942.6208     406.1034       0.0269       3.3910       2.7870
   2143.0483       5.8440       0.0180      47.6000      34.3600    -999.2500    -999.2500    2301.1479    1261.0680     645.8750       0.0263       3.4260       2.7890
   2143.2007       5.8505       0.0275      47.8045      29.2982    -999.2500    -999.2500    2273.4194    1253.1779     641.1295       0.0263       3.4170       2.8025
   2143.3533       5.8570       0.0370      48.0090      24.2270    -999.2500    -999.2500    2245.6389    1245.2729     636.3750       0.0265       3.4080       2.8160
   2143.5056       5.8570       0.0370      48.5734      24.2760    -999.2500    -999.2500    2122.4556    1205.0048     626.6347       0.0269       3.3256       2.8155
   2143.6580       5.8570       0.0370      49.1380      24.3250    -999.2500    -999.2500    1999.0260    1164.6560     616.8750       0.0276       3.2430       2.8150
   2143.8103       5.8550       0.0360      49.8808      25.1471    -999.2500    -999.2500    1743.4027    1027.1807     617.9384       0.0301       3.2460       2.8075
   2143.9626       5.8530       0.0350      50.6240      25.9710    -999.2500    -999.2500    1487.2360     889.4130     619.0040       0.0333       3.2490       2.8000
   2144.1152       5.8485       0.0285      52.3614      27.6826    -999.2500    -999.2500    1173.3420     698.8951     635.9810       0.0413       3.2925       2.7870
   2144.2676       5.8440       0.0220      54.1000      29.3980    -999.2500    -999.2500     859.2450     508.2540     652.9690       0.0493       3.3360       2.7740
   2144.4199       5.8440       0.0175      54.1500      30.7873    -999.2500    -999.2500     894.9897     526.6134     655.6990       0.0535       3.0156       2.7500
   2144.5723       5.8440       0.0130      54.2000      32.1800    -999.2500    -999.2500     930.7620     544.9870     658.4310       0.0564       2.6950       2.7260
   2144.7249       5.8440       0.0165      53.1225      28.8442    -999.2500    -999.2500    1506.4285     772.7877     687.8673       0.0510       2.8874       2.7445
   2144.8772       5.8440       0.0200      52.0440      25.5000    -999.2500    -999.2500    2082.6121    1000.7930     717.3300       0.0450       3.0800       2.7630
   2145.0295       5.8440       0.0250      51.0725      29.0413    -999.2500    -999.2500    2321.6936    1070.1316     780.3203       0.0429       3.2219       2.7750
   2145.1819       5.8440       0.0300      50.1000      32.5920    -999.2500    -999.2500    2561.0200    1139.5410     843.3750       0.0413       3.3640       2.7870
   2145.3345       5.8440       0.0290      50.1250      40.4257    -999.2500    -999.2500    2732.2720    1152.3706     652.5482       0.0412       3.4914       2.7805
   2145.4868       5.8440       0.0280      50.1500      48.2810    -999.2500    -999.2500    2903.7209    1165.2150     461.5020       0.0411       3.6190       2.7740
   2145.6392       5.8440       0.0265      49.5234      41.7424    -999.2500    -999.2500    3153.5327    1199.5066     340.1194       0.0390       3.4681       2.7765
   2145.7915       5.8440       0.0250      48.8960      35.1850    -999.2500    -999.2500    3403.6631    1233.8420     218.5820       0.0363       3.3170       2.7790
   2145.9438       5.8460       0.0180      48.7231      29.6553    -999.2500    -999.2500    3472.3823    1203.4209     147.2785       0.0317       3.1331       2.7805
   2146.0964       5.8480       0.0110      48.5500      24.1090    -999.2500    -999.2500    3541.1980    1172.9570      75.8750       0.0273       2.9490       2.7820
   2146.2488       5.8475       0.0130      48.9855      24.9212    -999.2500    -999.2500    3352.0208    1096.8036     124.8376       0.0270       2.9590       2.7895
   2146.4011       5.8470       0.0150      49.4210      25.7360    -999.2500    -999.2500    3162.5549    1020.5340     173.8750       0.0273       2.9690       2.7970
