#------------------------------------------------------------------------------
#
#   Created by  : [OpenWorks] Log Export Utility (LEXP)
#   Created on  : 2016-05-23 11:52:02
#   Project     : CANT971
#   User        : R5K
#   Interpreter : PEP
#
#------------------------------------------------------------------------------
~VERSION INFORMATION
VERS. 2.0 : CWLS Log ASCII Standard - version 2.0
WRAP.  NO : One line per depth step
~WELL INFORMATION
#MNEMONIC   .UNIT                                           VALUE :DESCRIPTION
#------------------------------------------------------------------------------
STRT        .M                                           300.3808 :START DEPTH
STOP        .M                                          2575.7129 :STOP DEPTH
STEP        .M                                             0.1524 :STEP
NULL        .                                           -999.2500 :NULL VALUE
COMP        .                                   PEMEX EXPL & PROD :COMPANY
WELL        .                                                  19 :WELL
FLD         .                                           CANTARELL :FIELD
LOC         .                                             UNKNOWN :LOCATION
CNTY        .                                      CD. DEL CARMEN :COUNTY
STAT        .                                            CAMPECHE :STATE
CTRY        .                                              MEXICO :COUNTRY
SRVC        .                                             UNKNOWN :SERVICE COMPANY
DATE        .                                             UNKNOWN :LOG DATE
UWI         .                                          3060000151 :UNIQUE WELL ID
XCOORD      .                                       603362.598000 :SURFACE X
YCOORD      .                                      2145096.350000 :SURFACE Y
LAT         .                                           19.398572 :LATITUDE
LON         .                                          -92.015617 :LONGITUDE
ELEV        .M                                            27.1400 :SURFACE ELEV
ELEV_TYPE   .                                                  KB :ELEV TYPE
~CURVE INFORMATION
#MNEMONIC.UNIT        API CODE       : CURVE DESCRIPTION
#------------------------------------------------------------------------------
DEPTH    .M                          : Measured Depth
CALI     .inches      UNKNOWN        : CALI:Import:rC:NONE:v0 (auto-composite)
DRHO     .g/cm3       UNKNOWN        : DRHO:Import:rC:NONE:v0 (auto-composite)
DT       .us/ft       UNKNOWN        : DT:Import:rC:NONE:v0 (auto-composite)
GR       .API         UNKNOWN        : GR:Import:rC:NONE:v0 (auto-composite)
ILD      .ohm.m       UNKNOWN        : ILD:Import:rC:NONE:v0 (auto-composite)
LLD      .ohm.m       UNKNOWN        : LLD:Import:rC:NONE:v0 (auto-composite)
LLS      .ohm.m       UNKNOWN        : LLS:Import:rC:NONE:v0 (auto-composite)
NPHI     .v/v_decimal UNKNOWN        : NPHI:Import:rC:NONE:v0 (auto-composite)
RHOB     .g/cm3       UNKNOWN        : RHOB:RHOB-Load:rC:NONE:v0 (auto-composite)
~A     DEPTH         CALI         DRHO           DT           GR          ILD          LLD          LLS         NPHI         RHOB
# ...
   2152.3457       9.8611       0.0265      74.1652      65.8372       0.0010       6.0505       4.2660       0.1806       2.4325
   2152.4980       7.6670       0.0150      74.5110      65.6590       0.0010       6.0260       4.0940       0.2180       2.4380
   2152.6504       7.6670       0.0030      78.1611      64.2324       0.0010       5.8296       4.0940       0.2452       2.4715
   2152.8027       7.6670      -0.0090      81.7980      62.8110       0.0010       5.6340       4.0940       0.2714       2.5050
   2152.9551       7.6670      -0.0070      81.5751      60.4685       0.0010       5.0400       4.0940       0.2783       2.5190
   2153.1077       7.6670      -0.0050      81.3530      58.1380       0.0010       4.4480       4.0940       0.2841       2.5330
   2153.2600       7.6635       0.0110      79.6852      56.4378       0.0010       4.4670       4.1005       0.2769       2.5310
   2153.4124       7.6600       0.0270      78.0230      54.7460       0.0010       4.4860       4.1070       0.2692       2.5290
   2153.5647       7.5091       0.0600      75.7022      54.9049       0.0010       4.6713       4.1903       0.2633       2.5145
   2153.7173       7.3590       0.0930      73.3890      55.0630       0.0010       4.8560       4.2730       0.2574       2.5000
   2153.8696       7.3645       0.0925      73.6855      56.6272       0.0010       5.4239       4.5910       0.2502       2.4590
   2154.0220       7.3700       0.0920      73.9810      58.1840       0.0010       5.9900       4.9070       0.2434       2.4180
   2154.1743       7.5148       0.0865      77.4801      57.2388       0.0010       6.5939       5.2325       0.2538       2.4190
   2154.3269       7.6590       0.0810      80.9630      56.2980       0.0010       7.1960       5.5560       0.2645       2.4200
   2154.4792       7.6520       0.0655      80.8207      56.3626       0.0010       7.2696       5.8770       0.2760       2.4265
   2154.6316       7.6450       0.0500      80.6790      56.4270       0.0010       7.3430       6.1960       0.2873       2.4330
   2154.7839       7.5909       0.0300      79.5555      57.5630       0.0010       7.7415       6.5902       0.2923       2.4485
   2154.9363       7.5370       0.0100      78.4370      58.6940       0.0010       8.1390       6.9820       0.2968       2.4640
   2155.0889       7.4348       0.0115      76.4864      58.6494       0.0010       8.8304       7.3130       0.2910       2.4895
   2155.2412       7.3330       0.0130      74.5440      58.6050       0.0010       9.5200       7.6420       0.2848       2.5150
   2155.3936       7.3330       0.0235      73.6096      57.1059       0.0010       9.7563       7.9012       0.2697       2.5861
   2155.5459       7.3330       0.0340      72.6790      55.6130       0.0010       9.9920       8.1590       0.2548       2.6570
   2155.6985       7.3330       0.0560      71.8509      55.7813       0.0010      10.5702       8.6519       0.2513       2.6560
   2155.8508       7.3330       0.0780      71.0260      55.9490       0.0010      11.1470       9.1420       0.2482       2.6550
   2156.0032       7.3300       0.0985      70.1954      55.5838       0.0010      11.0092       9.0623       0.2552       2.6445
   2156.1555       7.3270       0.1190      69.3680      55.2200       0.0010      10.8720       8.9830       0.2621       2.6340
   2156.3081       7.2949       0.1370      69.4396      55.2581       0.0010       9.4584       8.3062       0.2555       2.5835
   2156.4604       7.2630       0.1550      69.5110      55.2960       0.0010       8.0500       7.6330       0.2487       2.5330
   2156.6128       7.1547       0.1480      70.0289      55.6261       0.0010       8.1036       7.7554       0.2347       2.5350
   2156.7651       7.0470       0.1410      70.5450      55.9550       0.0010       8.1570       7.8770       0.2210       2.5370
   2156.9175       6.9212       0.1000      71.3790      56.7164       0.0010       8.6063       8.9591       0.2175       2.5365
   2157.0701       6.7960       0.0590      72.2100      57.4740       0.0010       9.0540      10.0340       0.2141       2.5360
   2157.2224       6.8592       0.0440      72.8726      57.9507       0.0010      10.0447       9.9021       0.2218       2.5320
   2157.3748       6.9220       0.0290      73.5330      58.4250       0.0010      11.0320       9.7710       0.2295       2.5280
   2157.5271       6.9210       0.0265      73.4499      60.1041       0.0010      11.5028       9.8086       0.2300       2.5210
   2157.6797       6.9200       0.0240      73.3670      61.7750       0.0010      11.9720       9.8460       0.2304       2.5140
   2157.8320       6.7611       0.0165      72.7626      61.6457       0.0010      12.2454      10.1986       0.2282       2.5165
   2157.9844       6.6030       0.0090      72.1600      61.5170       0.0010      12.5180      10.5490       0.2260       2.5190
   2158.1367       6.6090       0.0095      70.6977      60.0421       0.0010      12.6442      11.8575       0.2284       2.5435
   2158.2893       6.6150       0.0100      69.2420      58.5740       0.0010      12.7700      13.1580       0.2307       2.5680
   2158.4417       6.6491       0.0115      69.2610      58.9238       0.0010      12.6528      13.0226       0.2345       2.5680
   2158.5940       6.6830       0.0130      69.2800      59.2720       0.0010      12.5360      12.8880       0.2383       2.5680
   2158.7463       6.7106       0.0250      69.9595      62.3161       0.0010      11.6703      12.0029       0.2367       2.5620
   2158.8987       6.7380       0.0370      70.6360      65.3470       0.0010      10.8070      11.1230       0.2351       2.5560
   2159.0513       6.7580       0.0370      70.5308      65.2533       0.0010       9.3982       9.0349       0.2294       2.5565
   2159.2036       6.7780       0.0370      70.4260      65.1600       0.0010       7.9930       6.9590       0.2237       2.5570
   2159.3560       6.7780       0.0345      69.7977      65.3253       0.0010       8.2143       7.0538       0.2244       2.5625
   2159.5083       6.7780       0.0320      69.1720      65.4900       0.0010       8.4350       7.1480       0.2251       2.5680
   2159.6609       6.7725       0.0240      68.3368      66.5421       0.0010       9.7846       7.8404       0.2236       2.5625
   2159.8132       6.7670       0.0160      67.5050      67.5900       0.0010      11.1310       8.5290       0.2220       2.5570
   2159.9656       6.7369       0.0115      67.6868      67.4793       0.0010      12.0387       9.7298       0.2205       2.5580
   2160.1179       6.7070       0.0070      67.8680      67.3690       0.0010      12.9430      10.9240       0.2191       2.5590
   2160.2705       6.6539       0.0075      68.9064      66.4608       0.0010      12.8754      11.5612       0.2235       2.5695
   2160.4229       6.6010       0.0080      69.9410      65.5560       0.0010      12.8080      12.1950       0.2278       2.5800
   2160.5752       6.5213       0.0120      70.9764      65.6186       0.0010      11.5337      12.0174       0.2341       2.5790
   2160.7275       6.4420       0.0160      72.0080      65.6810       0.0010      10.2640      11.8410       0.2403       2.5780
   2160.8799       6.3874       0.0195      71.7456      66.2986       0.0010      10.3371      10.3706       0.2462       2.5720
   2161.0325       6.3330       0.0230      71.4840      66.9130       0.0010      10.4100       8.9100       0.2521       2.5660
   2161.1848       6.3330       0.0290      69.4186      66.8809       0.0010      11.9921       9.0294       0.2500       2.5580
   2161.3372       6.3330       0.0350      67.3600      66.8490       0.0010      13.5690       9.1480       0.2480       2.5500
   2161.4895       6.3330       0.0345      67.4627      66.6285       0.0010      13.4999      10.7426       0.2383       2.5485
   2161.6421       6.3330       0.0340      67.5650      66.4090       0.0010      13.4310      12.3270       0.2287       2.5470
