#------------------------------------------------------------------------------
#
#   Created by  : [OpenWorks] Log Export Utility (LEXP)
#   Created on  : 2016-05-23 11:52:48
#   Project     : CANT971
#   User        : R5K
#   Interpreter : PEP
#
#------------------------------------------------------------------------------
~VERSION INFORMATION
VERS. 2.0 : CWLS Log ASCII Standard - version 2.0
WRAP.  NO : One line per depth step
~WELL INFORMATION
#MNEMONIC   .UNIT                                           VALUE :DESCRIPTION
#------------------------------------------------------------------------------
STRT        .M                                           688.5826 :START DEPTH
STOP        .M                                          3180.0178 :STOP DEPTH
STEP        .M                                             0.1524 :STEP
NULL        .                                           -999.2500 :NULL VALUE
COMP        .                                   PEMEX EXPL & PROD :COMPANY
WELL        .                                               2092D :WELL
FLD         .                                           CANTARELL :FIELD
LOC         .                                             UNKNOWN :LOCATION
CNTY        .                                      CD. DEL CARMEN :COUNTY
STAT        .                                            CAMPECHE :STATE
CTRY        .                                              MEXICO :COUNTRY
SRVC        .                                             UNKNOWN :SERVICE COMPANY
DATE        .                                             UNKNOWN :LOG DATE
UWI         .                                          3060000657 :UNIQUE WELL ID
XCOORD      .                                       601715.500000 :SURFACE X
YCOORD      .                                      2142373.650000 :SURFACE Y
LAT         .                                           19.374053 :LATITUDE
LON         .                                          -92.031447 :LONGITUDE
ELEV        .M                                            30.0000 :SURFACE ELEV
ELEV_TYPEF  .b/elec                                            KB :ELEV TYPE
~CURVE INFORMATION
#MNEMONIC.UNIT        API CODE       : CURVE DESCRIPTION
#------------------------------------------------------------------------------
DEPTH    .M                          : Measured Depth
CALI     .in          UNKNOWN        : CALI:UNKNOWN:rC:NONE:v0 (auto-composite)
CGR      .API         UNKNOWN        : CGR:UNKNOWN:rC:NONE:v0 (auto-composite)
DRHO     .g/cm3       UNKNOWN        : DRHO:UNKNOWN:rC:NONE:v0 (auto-composite)
DT       .us/ft       UNKNOWN        : DT:DT:rC:NONE:v0 (auto-composite)
GR       .API         UNKNOWN        : GR:UNKNOWN:rC:NONE:v0 (auto-composite)
ILD      .ohmm        UNKNOWN        : ILD:UNKNOWN:rC:NONE:v0 (auto-composite)
ILM      .ohmm        UNKNOWN        : ILM:UNKNOWN:rC:NONE:v0 (auto-composite)
LLD      .ohmm        UNKNOWN        : LLD:UNKNOWN:rC:NONE:v0 (auto-composite)
LLS      .ohmm        UNKNOWN        : LLS:UNKNOWN:rC:NONE:v0 (auto-composite)
MSFL     .ohmm        UNKNOWN        : MSFL:UNKNOWN:rC:NONE:v0 (auto-composite)
NPHI     .v/v_decimal UNKNOWN        : NPHI:PETROWORKS:rC:NONE:v1 
PEF      .b/elec      UNKNOWN        : PEF:UNKNOWN:rC:NONE:v0 (auto-composite)
POTA     .wtpercent   UNKNOWN        : POTA:UNKNOWN:rC:NONE:v0 (auto-composite)
RHOB     .g/cm3       UNKNOWN        : RHOB:UNKNOWN:rC:NONE:v0 (auto-composite)
SFLU     .ohmm       UNKNOWN        : SFLU:induccion:rC:NONE:v0 (auto-composite)
THOR     .ppm         UNKNOWN        : THOR:UNKNOWN:rC:NONE:v0 (auto-composite)
URAN     .ppm         UNKNOWN        : URAN:UNKNOWN:rC:NONE:v0 (auto-composite)
~A     DEPTH         CALI          CGR         DRHO           DT           GR          ILD          ILM          LLD          LLS         MSFL         NPHI          PEF         POTA         RHOB         SFLU         THOR         URAN
# ...
   1995.4126      10.9853      24.5553      -0.6869    -999.2500      31.8582       3.4886       4.1345    -999.2500    -999.2500    -999.2500       0.2819     -34.4269       0.0099       2.6262     992.6511       2.7169       0.7962
   1995.5649      10.9588      23.7692      -0.6770    -999.2500      31.9507       3.0303       3.4053    -999.2500    -999.2500    -999.2500       0.2666     -31.1258       0.0095       2.6577    1730.9536       2.8529       0.8887
   1995.7174      10.9934      22.2318      -0.6705    -999.2500      31.8512       2.8802       3.0964    -999.2500    -999.2500    -999.2500       0.2574     -27.4159       0.0090       2.6741    1473.6378       2.5602       1.0609
   1995.8698      11.0536      20.3797      -0.6655    -999.2500      31.6712       2.8591       2.9635    -999.2500    -999.2500    -999.2500       0.2519     -23.5346       0.0086       2.6841     664.4322       2.0879       1.2664
   1996.0222      11.0313      19.3587      -0.6690    -999.2500      31.8674       2.9069       3.0375    -999.2500    -999.2500    -999.2500       0.2784     -23.2729       0.0083       2.6558     481.8094       1.8793       1.3948
   1996.1746      10.9753      18.6767      -0.6760    -999.2500      32.2171       2.9829       3.1958    -999.2500    -999.2500    -999.2500       0.3139     -24.4879       0.0081       2.6118     697.1772       1.7784       1.4918
   1996.3270      10.9880      17.8543      -0.6787    -999.2500      32.0903       3.0850       3.3769    -999.2500    -999.2500    -999.2500       0.3223     -24.1772       0.0077       2.5909    1295.5568       1.6963       1.5625
   1996.4794      11.0290      16.9740      -0.6797    -999.2500      31.7676       3.1979       3.5672    -999.2500    -999.2500    -999.2500       0.3122     -23.2390       0.0073       2.5794    1579.0608       1.6218       1.6224
   1996.6318      11.0276      19.6597      -0.6765    -999.2500      31.2815       3.2596       3.5834    -999.2500    -999.2500    -999.2500       0.2917     -21.8864       0.0087       2.5855    1001.6409       1.7307       1.3372
   1996.7842      11.0086      23.8239      -0.6715    -999.2500      30.7278       3.3001       3.5275    -999.2500    -999.2500    -999.2500       0.2694     -20.3621       0.0109       2.5990     569.1025       1.9156       0.9089
   1996.9365      10.9794      28.3065      -0.6672    -999.2500      32.0465       3.2273       3.4726    -999.2500    -999.2500    -999.2500       0.2635     -19.7207       0.0128       2.6206     559.3735       2.3460       0.5227
   1997.0890      10.9459      32.9217      -0.6632    -999.2500      34.1447       3.1074       3.4181    -999.2500    -999.2500    -999.2500       0.2692     -19.4469       0.0145       2.6456     968.9522       2.8786       0.1540
   1997.2413      10.9466      33.1036      -0.6599    -999.2500      34.1741       3.0279       3.3794    -999.2500    -999.2500    -999.2500       0.2723     -18.1515       0.0145       2.6643    1578.2772       2.9541       0.1135
   1997.3938      10.9616      31.4249      -0.6569    -999.2500      33.3353       2.9652       3.3473    -999.2500    -999.2500    -999.2500       0.2747     -16.4272       0.0138       2.6803    1210.7051       2.8377       0.2108
   1997.5461      10.9554      27.5456      -0.6613    -999.2500      32.1358       3.2112       3.3877    -999.2500    -999.2500    -999.2500       0.2797     -19.5013       0.0113       2.6673     615.9977       2.9069       0.5089
   1997.6986      10.9404      22.7671      -0.6688    -999.2500      30.7889       3.5834       3.4576    -999.2500    -999.2500    -999.2500       0.2864     -24.5361       0.0082       2.6423     509.3788       3.0517       0.8891
   1997.8510      10.9420      23.1294      -0.6770    -999.2500      30.7277       3.8785       3.8391    -999.2500    -999.2500    -999.2500       0.2923     -25.4755       0.0080       2.6205     651.0668       3.3329       0.8315
   1998.0034      10.9505      25.6094      -0.6855    -999.2500      31.1960       4.1419       4.3488    -999.2500    -999.2500    -999.2500       0.2975     -24.7278       0.0089       2.6000    1139.1907       3.6703       0.5936
   1998.1558      10.9788      23.5000      -0.6841    -999.2500      29.4377       4.4081       5.0638    -999.2500    -999.2500    -999.2500       0.2788     -27.6009       0.0076       2.6149    1639.0806       3.6096       0.6668
   1998.3082      11.0153      19.4923      -0.6786    -999.2500      26.7584       4.6753       5.8636    -999.2500    -999.2500    -999.2500       0.2490     -31.9718       0.0053       2.6443    1405.4410       3.3843       0.8686
   1998.4606      11.0077      16.7540      -0.6657    -999.2500      24.7126       4.6097       5.6384    -999.2500    -999.2500    -999.2500       0.2156     -29.2367       0.0050       2.7003     685.2224       2.7420       0.8804
   1998.6130      10.9817      14.5450      -0.6497    -999.2500      22.9308       4.4053       4.9856    -999.2500    -999.2500    -999.2500       0.1798     -23.5387       0.0057       2.7672     555.2431       1.9259       0.8129
   1998.7654      10.9581      15.2570      -0.6489    -999.2500      23.8096       4.0239       4.4599    -999.2500    -999.2500    -999.2500       0.1867     -22.9783       0.0061       2.7743     656.1358       1.9107       0.8531
   1998.9177      10.9355      17.1921      -0.6544    -999.2500      25.8023       3.5683       3.9872    -999.2500    -999.2500    -999.2500       0.2120     -24.5691       0.0064       2.7562     981.6709       2.2310       0.9383
   1999.0702      10.9474      19.2205      -0.6617    -999.2500      28.3121       3.3871       3.7933    -999.2500    -999.2500    -999.2500       0.2404     -24.3462       0.0074       2.7159    1230.8873       2.0786       1.1513
   1999.2225      10.9734      21.2871      -0.6697    -999.2500      31.0334       3.3181       3.7133    -999.2500    -999.2500    -999.2500       0.2710     -23.3811       0.0087       2.6664     664.4020       1.7327       1.4167
   1999.3750      10.9810      24.8477      -0.6745      66.8146      32.8188       3.3490       3.8872    -999.2500    -999.2500    -999.2500       0.2951     -22.9729       0.0110       2.6389     452.6435       1.8632       1.1339
   1999.5273    -999.2500      29.0222      -0.6780      70.5361      34.2197       3.4209       4.1655    -999.2500    -999.2500    -999.2500       0.3135     -22.7935       0.0136       2.6204     458.0582       2.1894       0.6258
   1999.6798    -999.2500      27.6674      -0.6737      72.8171      33.2673       3.6031       4.2318    -999.2500    -999.2500     200.0000       0.3102     -20.2620       0.0129       2.6320     697.3412       2.1970       0.5922
   1999.8322    -999.2500      24.0220      -0.6662      74.1395      31.3402       3.8310       4.2103    -999.2500    -999.2500     200.0000       0.2926     -16.7560       0.0108       2.6560    1210.8750       2.0726       0.7551
   1999.9846    -999.2500      23.7537      -0.6573      72.4531      30.4067       3.8408       4.1853    -999.2500    -999.2500     200.0000       0.2743     -16.2404       0.0102       2.6895    1210.8046       2.2823       0.7000
   2000.1370    -999.2500      24.8902      -0.6478      69.5475      29.8867       3.7599       4.1588    -999.2500    -999.2500     200.0000       0.2565     -16.9688       0.0103       2.7269     606.4240       2.6310       0.5541
   2000.2894    -999.2500      22.2230      -0.6439      66.8697      28.7266       3.8137       4.1828    -999.2500    -999.2500     200.0000       0.2492     -16.1419       0.0091       2.7433     460.9170       2.4390       0.7060
   2000.4418    -999.2500      17.9607      -0.6424      64.4972      27.2981       3.9240       4.2279    -999.2500    -999.2500     200.0000       0.2484     -14.6628       0.0074       2.7508     531.8819       2.0204       0.9828
   2000.5942    -999.2500      17.2461      -0.6534      64.3267      27.1082       3.9109       4.3137    -999.2500    -999.2500     200.0000       0.2564     -19.4247       0.0067       2.7101     840.8401       2.1973       1.0850
