#------------------------------------------------------------------------------
#
#   Created by  : [OpenWorks] Log Export Utility (LEXP)
#   Created on  : 2016-05-23 11:56:31
#   Project     : CANT971
#   User        : R5K
#   Interpreter : PEP
#
#------------------------------------------------------------------------------
~VERSION INFORMATION
VERS. 2.0 : CWLS Log ASCII Standard - version 2.0
WRAP.  NO : One line per depth step
~WELL INFORMATION
#MNEMONIC   .UNIT                                           VALUE :DESCRIPTION
#------------------------------------------------------------------------------
STRT        .M                                          1639.8856 :START DEPTH
STOP        .M                                          2789.8960 :STOP DEPTH
STEP        .M                                             0.1524 :STEP
NULL        .                                           -999.2500 :NULL VALUE
COMP        .                                             UNKNOWN :COMPANY
WELL        .                                                 477 :WELL
FLD         .                                             UNKNOWN :FIELD
LOC         .                                             UNKNOWN :LOCATION
CNTY        .                                             UNKNOWN :COUNTY
STAT        .                                             UNKNOWN :STATE
CTRY        .                                             UNKNOWN :COUNTRY
SRVC        .                                             UNKNOWN :SERVICE COMPANY
DATE        .                                             UNKNOWN :LOG DATE
UWI         .                                                 477 :UNIQUE WELL ID
XCOORD      .                                       598704.070000 :SURFACE X
YCOORD      .                                      2143268.860000 :SURFACE Y
LAT         .                                           19.382293 :LATITUDE
LON         .                                          -92.060073 :LONGITUDE
ELEV        .M                                             0.0000 :SURFACE ELEV
ELEV_TYPE   .                                                  KB :ELEV TYPE
~CURVE INFORMATION
#MNEMONIC.UNIT        API CODE       : CURVE DESCRIPTION
#------------------------------------------------------------------------------
DEPTH    .M                          : Measured Depth
CALI     .inches      UNKNOWN        : CALI:litodensidad:rC:NONE:v0 (auto-composite)
CGR      .API         UNKNOWN        : CGR:Espectrometria:rC:NONE:v0 (auto-composite)
DRHO     .g/cm3       UNKNOWN        : DRHO:litodensidad:rC:NONE:v0 (auto-composite)
DT       .us/ft       UNKNOWN        : DT:Sonico:rC:NONE:v0 (auto-composite)
GR       .API         UNKNOWN        : GR:Espectrometria:rC:NONE:v0 (auto-composite)
GR-LWD   .API         UNKNOWN        : GR-LWD:resistivos-LWD:rC:NONE:v0 (auto-composite)
LLD      .ohm.m       UNKNOWN        : LLD:resistivos:rC:NONE:v0 (auto-composite)
LLD-LWD  .ohm.m       UNKNOWN        : LLD-LWD:resistivos-LWD:rC:NONE:v0 (auto-composite)
LLS      .ohm.m       UNKNOWN        : LLS:resistivos:rC:NONE:v0 (auto-composite)
LLS-LWD  .ohm.m       UNKNOWN        : LLS-LWD:resistivos-LWD:rC:NONE:v0 (auto-composite)
MSFL     .ohm.m       UNKNOWN        : MSFL:resistivos:rC:NONE:v0 (auto-composite)
MSFL-LWD .ohm.m       UNKNOWN        : MSFL-LWD:resistivos-LWD:rC:NONE:v0 (auto-composite)
NPHI     .UNKNOWN     UNKNOWN        : NPHI:porosidad:rC:NONE:v0 (auto-composite)
PEF      .UNKNOWN     UNKNOWN        : PEF:litodensidad:rC:NONE:v0 (auto-composite)
POTA     .wtpercent   UNKNOWN        : POTA:PETROWORKS:rC:NONE:v1 
RHOB     .g/cm3       UNKNOWN        : RHOB:litodensidad:rC:NONE:v0 (auto-composite)
THOR     .ppm         UNKNOWN        : THOR:Espectrometria:rC:NONE:v0 (auto-composite)
URAN     .ppm         UNKNOWN        : URAN:Espectrometria:rC:NONE:v0 (auto-composite)
~A     DEPTH         CALI          CGR         DRHO           DT           GR       GR-LWD          LLD      LLD-LWD          LLS      LLS-LWD         MSFL     MSFL-LWD         NPHI          PEF         POTA         RHOB         THOR         URAN
# ...
   2484.7913       8.7133       9.4111       0.0155    -999.2500      29.0339    -999.2500     420.2804    -999.2500      82.7534    -999.2500     339.4497    -999.2500       0.0304       3.2415       0.0065       2.7748       0.0904       2.1847
   2484.9436       8.9070      10.4177       0.0031    -999.2500      29.4249    -999.2500     420.4487    -999.2500      89.9803    -999.2500     109.1607    -999.2500       0.0289       3.3538       0.0070       2.7526       0.1616       2.1162
   2485.0959       8.9487      11.9454      -0.0090    -999.2500      29.9313    -999.2500     413.7584    -999.2500      92.4652    -999.2500      69.4757    -999.2500       0.0276       3.3753       0.0074       2.7269       0.4421       2.0024
   2485.2485       8.8293      11.0917      -0.0107    -999.2500      29.3724    -999.2500     407.5605    -999.2500      92.6517    -999.2500      38.6444    -999.2500       0.0272       3.3742       0.0065       2.7103       0.5748       2.0353
   2485.4009       8.7133       9.8696      -0.0039    -999.2500      27.9202    -999.2500     409.4365    -999.2500      91.7469    -999.2500      14.1731    -999.2500       0.0276       3.3709       0.0049       2.7077       0.8357       2.0096
   2485.5532       8.6884       7.7670       0.0025    -999.2500      26.6264    -999.2500     423.3044    -999.2500      95.4432    -999.2500      12.2624    -999.2500       0.0271       3.3500       0.0037       2.7199       0.7268       2.0997
   2485.7056       8.7137       8.7302       0.0014    -999.2500      26.4399    -999.2500     418.5027    -999.2500     103.8442    -999.2500      19.6093    -999.2500       0.0257       3.3177       0.0033       2.7382       1.1589       1.9717
   2485.8579       8.8412      11.5443      -0.0045    -999.2500      26.9314    -999.2500     373.2473    -999.2500     106.0077    -999.2500      50.7295    -999.2500       0.0244       3.3243       0.0034       2.7618       1.9378       1.7131
   2486.0105       8.8845      12.7199      -0.0062    -999.2500      27.4530    -999.2500     317.5310    -999.2500      99.7752    -999.2500     116.5766    -999.2500       0.0250       3.3691       0.0041       2.7797       1.9902       1.6403
   2486.1628       8.8653      11.8886      -0.0006    -999.2500      28.4732    -999.2500     268.5476    -999.2500      86.5730    -999.2500     120.8405    -999.2500       0.0279       3.3951       0.0052       2.7856       1.3225       1.8464
   2486.3152       8.7044      11.9491       0.0107    -999.2500      30.5360    -999.2500     223.7918    -999.2500      73.8521    -999.2500     148.0214    -999.2500       0.0324       3.3688       0.0064       2.7847       0.8421       2.0693
   2486.4675       8.6999      11.3929       0.0249    -999.2500      32.9210    -999.2500     167.6293    -999.2500      61.4166    -999.2500     161.7511    -999.2500       0.0377       3.3175       0.0068       2.7869       0.5408       2.3968
   2486.6201       8.7165      10.4489       0.0293    -999.2500      34.6848    -999.2500     121.4208    -999.2500      46.4230    -999.2500      63.1703    -999.2500       0.0396       3.2967       0.0056       2.7889       0.7556       2.6983
   2486.7725       8.8446       8.6382       0.0161    -999.2500      34.4855    -999.2500      95.1497    -999.2500      33.2421    -999.2500      43.9764    -999.2500       0.0361       3.3205       0.0037       2.7834       0.9890       2.8777
   2486.9248       8.8871       6.8377      -0.0034    -999.2500      32.9461    -999.2500      84.3245    -999.2500      25.0507    -999.2500      49.0595    -999.2500       0.0321       3.3514       0.0025       2.7756       0.9350       2.9068
   2487.0771       8.8772       6.5190      -0.0101    -999.2500      30.5953    -999.2500      84.2409    -999.2500      22.7712    -999.2500      43.6728    -999.2500       0.0309       3.3668       0.0022       2.7802       0.9642       2.6805
   2487.2297       8.7470       7.0656      -0.0012    -999.2500      28.6288    -999.2500      90.2244    -999.2500      23.6661    -999.2500      48.1629    -999.2500       0.0315       3.3904       0.0027       2.7955       0.9338       2.4007
   2487.3821       8.7030       8.2572       0.0089    -999.2500      27.3600    -999.2500     105.1420    -999.2500      26.9022    -999.2500      74.9538    -999.2500       0.0331       3.4376       0.0036       2.8009       0.9067       2.1268
   2487.5344       8.7586       9.5929       0.0077    -999.2500      27.1813    -999.2500     124.0059    -999.2500      35.6265    -999.2500      66.1097    -999.2500       0.0352       3.4660       0.0048       2.7833       0.8096       1.9582
   2487.6868       8.8178      11.7062      -0.0006    -999.2500      27.8261    -999.2500     133.2942    -999.2500      37.7024    -999.2500      57.1701    -999.2500       0.0376       3.4492       0.0057       2.7559       1.0519       1.7947
   2487.8391       8.8473      13.9306      -0.0044    -999.2500      28.3753    -999.2500     152.4137    -999.2500      41.6277    -999.2500      46.5251    -999.2500       0.0408       3.4190       0.0064       2.7459       1.4150       1.6082
   2487.9917       8.8263      15.3304       0.0006    -999.2500      28.2443    -999.2500     162.5513    -999.2500      43.9057    -999.2500      37.6175    -999.2500       0.0435       3.4090       0.0068       2.7565       1.6622       1.4377
   2488.1440       8.7078      13.8052       0.0098    -999.2500      27.2462    -999.2500     178.7202    -999.2500      48.3048    -999.2500      48.7844    -999.2500       0.0446       3.4070       0.0062       2.7701       1.4534       1.4965
   2488.2964       8.6903      10.4794       0.0255    -999.2500      26.0777    -999.2500     203.0409    -999.2500      58.0355    -999.2500      88.7764    -999.2500       0.0446       3.4153       0.0050       2.7614       0.9732       1.7366
   2488.4487       8.7467       7.5739       0.0584    -999.2500      25.5074    -999.2500     228.3250    -999.2500      66.2514    -999.2500     105.3573    -999.2500       0.0433       3.4714       0.0038       2.7279       0.6415       1.9966
   2488.6013       8.8296       6.2504       0.0906    -999.2500      25.2789    -999.2500     221.0721    -999.2500      66.2381    -999.2500      71.5870    -999.2500       0.0418       3.5403       0.0035       2.6860       0.3826       2.1185
   2488.7537       8.8540       7.0259       0.0854    -999.2500      25.1698    -999.2500     187.2743    -999.2500      57.2933    -999.2500      60.2598    -999.2500       0.0397       3.5231       0.0045       2.6717       0.1904       2.0200
   2488.9060       8.8583       8.3828       0.0465    -999.2500      25.2663    -999.2500     152.6917    -999.2500      44.5109    -999.2500      49.7032    -999.2500       0.0352       3.4440       0.0059       2.6905       0.0503       1.8797
   2489.0583       8.8282      10.9073       0.0109    -999.2500      26.8660    -999.2500     130.1309    -999.2500      35.3425    -999.2500      88.2885    -999.2500       0.0318       3.3870       0.0071       2.7378       0.2825       1.7767
   2489.2109       8.7227      14.3681      -0.0012    -999.2500      30.1250    -999.2500     119.5322    -999.2500      31.4799    -999.2500     143.4255    -999.2500       0.0339       3.3692       0.0084       2.7706       0.7477       1.7543
   2489.3633       8.6963      17.3459       0.0070    -999.2500      33.9802    -999.2500     102.9457    -999.2500      27.8692    -999.2500     107.2208    -999.2500       0.0411       3.3708       0.0100       2.7678       0.9702       1.8520
   2489.5156       8.7160      17.0414       0.0197    -999.2500      36.2629    -999.2500      84.8274    -999.2500      23.7165    -999.2500      44.3699    -999.2500       0.0513       3.3673       0.0103       2.7437       0.7461       2.1400
   2489.6680       8.7246      14.8699       0.0275    -999.2500      35.6309    -999.2500      70.0668    -999.2500      19.5965    -999.2500      19.7359    -999.2500       0.0633       3.3668       0.0092       2.7101       0.5802       2.3114
