#------------------------------------------------------------------------------
#
#   Created by  : [OpenWorks] Log Export Utility (LEXP)
#   Created on  : 2016-05-12 17:01:20
#   Project     : CANT971
#   User        : R5K
#   Interpreter : PEP
#
#------------------------------------------------------------------------------
~VERSION INFORMATION
VERS. 2.0 : CWLS Log ASCII Standard - version 2.0
WRAP.  NO : One line per depth step
~WELL INFORMATION
#MNEMONIC   .UNIT                                           VALUE :DESCRIPTION
#------------------------------------------------------------------------------
STRT        .M                                           993.9530 :START DEPTH
STOP        .M                                          2371.9539 :STOP DEPTH
STEP        .M                                             0.1524 :STEP
NULL        .                                           -999.2500 :NULL VALUE
COMP        .                                   PEMEX EXPL & PROD :COMPANY
WELL        .                                                  55 :WELL
FLD         .                                           CANTARELL :FIELD
LOC         .                                             UNKNOWN :LOCATION
CNTY        .                                      CD. DEL CARMEN :COUNTY
STAT        .                                            CAMPECHE :STATE
CTRY        .                                              MEXICO :COUNTRY
SRVC        .                                             UNKNOWN :SERVICE COMPANY
DATE        .                                             UNKNOWN :LOG DATE
UWI         .                                          3060000168 :UNIQUE WELL ID
XCOORD      .                                       602149.520000 :SURFACE X
YCOORD      .                                      2147170.290000 :SURFACE Y
LAT         .                                           19.417375 :LATITUDE
LON         .                                          -92.027057 :LONGITUDE
ELEV        .M                                            28.1700 :SURFACE ELEV
ELEV_TYPE   .                                                  KB :ELEV TYPE
~CURVE INFORMATION
#MNEMONIC.UNIT        API CODE       : CURVE DESCRIPTION
#------------------------------------------------------------------------------
DEPTH    .M                          : Measured Depth
CALI     .inches      UNKNOWN        : CALI:CALI-Load:rC:NONE:v0 (auto-composite)
DRHO     .UNKNOWN     UNKNOWN        : DRHO:DRHO-Load:rC:NONE:v0 (auto-composite)
DT       .us/ft       UNKNOWN        : DT:DT:rC:NONE:v0 (auto-composite)
GR       .UNKNOWN     UNKNOWN        : GR:GR-Load:rC:NONE:v0 (auto-composite)
ILD      .UNKNOWN     UNKNOWN        : ILD:ILD-Load:rC:NONE:v0 (auto-composite)
LLD      .UNKNOWN     UNKNOWN        : LLD:LLD-Load:rC:NONE:v0 (auto-composite)
LLS      .UNKNOWN     UNKNOWN        : LLS:LLS-Load:rC:NONE:v0 (auto-composite)
MSFL     .UNKNOWN     UNKNOWN        : MSFL:MSFL-Load:rC:NONE:v0 (auto-composite)
NPHI     .v/v_decimal UNKNOWN        : NPHI:NPHI:rC:NONE:v0 (auto-composite)
RHOB     .UNKNOWN     UNKNOWN        : RHOB:RHOB-Load:rC:NONE:v0 (auto-composite)
SP       .UNKNOWN     UNKNOWN        : SP:SP-Load:rC:NONE:v0 (auto-composite)
~A     DEPTH         CALI         DRHO           DT           GR          ILD          LLD          LLS         MSFL         NPHI         RHOB           SP
# ...
   1049.4266    -999.2500       0.0110    -999.2500      47.8900       1.0390    -999.2500    -999.2500    -999.2500      38.9150       2.1800     103.9140
   1049.5790    -999.2500       0.0070    -999.2500      48.6648       1.0320    -999.2500    -999.2500    -999.2500      39.0615       2.1800     104.0070
   1049.7314    -999.2500       0.0030    -999.2500      49.4400       1.0250    -999.2500    -999.2500    -999.2500      39.2080       2.1800     104.1000
   1049.8838    -999.2500       0.0035    -999.2500      49.1901       1.0105    -999.2500    -999.2500    -999.2500      39.2440       2.1800     104.1000
   1050.0363    -999.2500       0.0040    -999.2500      48.9400       0.9960    -999.2500    -999.2500    -999.2500      39.2800       2.1800     104.1000
   1050.1886    -999.2500       0.0055    -999.2500      48.9900       0.9960    -999.2500    -999.2500    -999.2500      39.4785       2.1855     104.1325
   1050.3409    -999.2500       0.0070    -999.2500      49.0400       0.9960    -999.2500    -999.2500    -999.2500      39.6770       2.1910     104.1650
   1050.4934    -999.2500       0.0065    -999.2500      48.8121       0.9985    -999.2500    -999.2500    -999.2500      40.1687       2.2055     104.3124
   1050.6458    -999.2500       0.0060    -999.2500      48.5840       1.0010    -999.2500    -999.2500    -999.2500      40.6600       2.2200     104.4600
   1050.7982    -999.2500      -0.0005    -999.2500      47.5871       1.0100    -999.2500    -999.2500    -999.2500      40.6575       2.2145     104.4280
   1050.9506    -999.2500      -0.0070    -999.2500      46.5900       1.0190    -999.2500    -999.2500    -999.2500      40.6550       2.2090     104.3960
   1051.1030    -999.2500      -0.0010    -999.2500      46.7275       1.0270    -999.2500    -999.2500    -999.2500      40.6115       2.1895     104.2480
   1051.2554    -999.2500       0.0050    -999.2500      46.8650       1.0350    -999.2500    -999.2500    -999.2500      40.5680       2.1700     104.1000
   1051.4078    -999.2500      -0.0000    -999.2500      47.4416       1.0460    -999.2500    -999.2500    -999.2500      40.3440       2.1715     104.1000
   1051.5602    -999.2500      -0.0050    -999.2500      48.0180       1.0570    -999.2500    -999.2500    -999.2500      40.1200       2.1730     104.1000
   1051.7126    -999.2500      -0.0050    -999.2500      48.6726       1.0645    -999.2500    -999.2500    -999.2500      40.8551       2.1790     104.1000
   1051.8650    -999.2500      -0.0050    -999.2500      49.3270       1.0720    -999.2500    -999.2500    -999.2500      41.5900       2.1850     104.1000
   1052.0175    -999.2500      -0.0025    -999.2500      49.5335       1.0720    -999.2500    -999.2500    -999.2500      41.5075       2.1975     104.1000
   1052.1698    -999.2500       0.0000    -999.2500      49.7400       1.0720    -999.2500    -999.2500    -999.2500      41.4250       2.2100     104.1000
   1052.3221    -999.2500      -0.0005    -999.2500      49.3305       1.0705    -999.2500    -999.2500    -999.2500      40.2925       2.2000     104.0825
   1052.4746    -999.2500      -0.0010    -999.2500      48.9210       1.0690    -999.2500    -999.2500    -999.2500      39.1600       2.1900     104.0650
   1052.6270    -999.2500      -0.0030    -999.2500      47.5806       1.0605    -999.2500    -999.2500    -999.2500      39.1930       2.1915     103.9700
   1052.7794    -999.2500      -0.0050    -999.2500      46.2400       1.0520    -999.2500    -999.2500    -999.2500      39.2260       2.1930     103.8750
   1052.9318    -999.2500       0.0025    -999.2500      46.5400       1.0520    -999.2500    -999.2500    -999.2500      39.3940       2.1965     103.7260
   1053.0842    -999.2500       0.0100    -999.2500      46.8400       1.0520    -999.2500    -999.2500    -999.2500      39.5620       2.2000     103.5770
   1053.2366    -999.2500       0.0095    -999.2500      46.4401       1.0520    -999.2500    -999.2500    -999.2500      39.9264       2.1985     103.5175
   1053.3890    -999.2500       0.0090    -999.2500      46.0400       1.0520    -999.2500    -999.2500    -999.2500      40.2910       2.1970     103.4580
   1053.5414    -999.2500       0.0080    -999.2500      46.1345       1.0520    -999.2500    -999.2500    -999.2500      40.7404       2.1920     103.3980
   1053.6938    -999.2500       0.0070    -999.2500      46.2290       1.0520    -999.2500    -999.2500    -999.2500      41.1900       2.1870     103.3380
   1053.8462    -999.2500       0.0060    -999.2500      46.7268       1.0520    -999.2500    -999.2500    -999.2500      40.6452       2.1785     103.2785
   1053.9987    -999.2500       0.0050    -999.2500      47.2250       1.0520    -999.2500    -999.2500    -999.2500      40.1000       2.1700     103.2190
   1054.1510    -999.2500       0.0070    -999.2500      48.0822       1.0520    -999.2500    -999.2500    -999.2500      40.8650       2.1740     103.1420
   1054.3033    -999.2500       0.0090    -999.2500      48.9400       1.0520    -999.2500    -999.2500    -999.2500      41.6300       2.1780     103.0650
   1054.4558    -999.2500       0.0180    -999.2500      47.0409       1.0520    -999.2500    -999.2500    -999.2500      41.2419       2.1890     102.9621
   1054.6082    -999.2500       0.0270    -999.2500      45.1400       1.0520    -999.2500    -999.2500    -999.2500      40.8540       2.2000     102.8590
   1054.7606    -999.2500       0.0255    -999.2500      45.2335       1.0475    -999.2500    -999.2500    -999.2500      39.1715       2.1975     102.7810
   1054.9130    -999.2500       0.0240    -999.2500      45.3270       1.0430    -999.2500    -999.2500    -999.2500      37.4900       2.1950     102.7030
   1055.0654    -999.2500       0.0175    -999.2500      45.8236       1.0430    -999.2500    -999.2500    -999.2500      37.7196       2.1775     102.5515
   1055.2178    -999.2500       0.0110    -999.2500      46.3200       1.0430    -999.2500    -999.2500    -999.2500      37.9490       2.1600     102.4000
   1055.3702    -999.2500       0.0040    -999.2500      47.7302       1.0430    -999.2500    -999.2500    -999.2500      38.7846       2.1600     102.4000
   1055.5226    -999.2500      -0.0030    -999.2500      49.1400       1.0430    -999.2500    -999.2500    -999.2500      39.6200       2.1600     102.4000
   1055.6750    -999.2500      -0.0025    -999.2500      49.0305       1.0410    -999.2500    -999.2500    -999.2500      39.2500       2.1585     102.4475
   1055.8274    -999.2500      -0.0020    -999.2500      48.9210       1.0390    -999.2500    -999.2500    -999.2500      38.8800       2.1570     102.4950
   1055.9799    -999.2500       0.0010    -999.2500      48.1555       1.0320    -999.2500    -999.2500    -999.2500      39.0300       2.1520     102.6960
   1056.1322    -999.2500       0.0040    -999.2500      47.3900       1.0250    -999.2500    -999.2500    -999.2500      39.1800       2.1470     102.8970
   1056.2845    -999.2500       0.0025    -999.2500      47.4605       1.0185    -999.2500    -999.2500    -999.2500      38.9450       2.1420     103.0890
   1056.4370    -999.2500       0.0010    -999.2500      47.5310       1.0120    -999.2500    -999.2500    -999.2500      38.7100       2.1370     103.2810
   1056.5894    -999.2500       0.0025    -999.2500      48.3104       1.0075    -999.2500    -999.2500    -999.2500      38.8355       2.1285     103.3890
   1056.7418    -999.2500       0.0040    -999.2500      49.0900       1.0030    -999.2500    -999.2500    -999.2500      38.9610       2.1200     103.4970
   1056.8942    -999.2500       0.0035    -999.2500      48.3151       0.9905    -999.2500    -999.2500    -999.2500      39.7319       2.1215     103.7210
   1057.0466    -999.2500       0.0030    -999.2500      47.5400       0.9780    -999.2500    -999.2500    -999.2500      40.5030       2.1230     103.9450
   1057.1990    -999.2500       0.0005    -999.2500      47.8289       0.9780    -999.2500    -999.2500    -999.2500      42.0912       2.1280     104.1615
