#------------------------------------------------------------------------------
#
#   Created by  : [OpenWorks] Log Export Utility (LEXP)
#   Created on  : 2016-05-23 11:52:56
#   Project     : CANT971
#   User        : R5K
#   Interpreter : PEP
#
#------------------------------------------------------------------------------
~VERSION INFORMATION
VERS. 2.0 : CWLS Log ASCII Standard - version 2.0
WRAP.  NO : One line per depth step
~WELL INFORMATION
#MNEMONIC   .UNIT                                           VALUE :DESCRIPTION
#------------------------------------------------------------------------------
STRT        .M                                           340.6189 :START DEPTH
STOP        .M                                          3243.0769 :STOP DEPTH
STEP        .M                                             0.1524 :STEP
NULL        .                                           -999.2500 :NULL VALUE
COMP        .                                   PEMEX EXPL & PROD :COMPANY
WELL        .                                                2098 :WELL
FLD         .                                           CANTARELL :FIELD
LOC         .                                             UNKNOWN :LOCATION
CNTY        .                                      CD. DEL CARMEN :COUNTY
STAT        .                                            CAMPECHE :STATE
CTRY        .                                              MEXICO :COUNTRY
SRVC        .                                             UNKNOWN :SERVICE COMPANY
DATE        .                                             UNKNOWN :LOG DATE
UWI         .                                          3060000229 :UNIQUE WELL ID
XCOORD      .                                       599692.800000 :SURFACE X
YCOORD      .                                      2143031.510000 :SURFACE Y
LAT         .                                           19.380099 :LATITUDE
LON         .                                          -92.050671 :LONGITUDE
ELEV        .M                                            26.7400 :SURFACE ELEV
ELEV_TYPE   .                                                  KB :ELEV TYPE
~CURVE INFORMATION
#MNEMONIC.UNIT        API CODE       : CURVE DESCRIPTION
#------------------------------------------------------------------------------
DEPTH    .M                          : Measured Depth
CALI     .inches      UNKNOWN        : CALI:litodensidad:rC:NONE:v0 (auto-composite)
CGR      .API         UNKNOWN        : CGR:Espectrometria:rC:NONE:v0 (auto-composite)
DRHO     .g/cm3       UNKNOWN        : DRHO:litodensidad:rC:NONE:v0 (auto-composite)
DT       .us/ft       UNKNOWN        : DT:DT-Load:rC:NONE:v0 (auto-composite)
GR       .API         UNKNOWN        : GR:GR-load:rC:NONE:v0 (auto-composite)
ILD      .UNKNOWN     UNKNOWN        : ILD:resistivos:rC:NONE:v0 (auto-composite)
LLD      .ohm.m       UNKNOWN        : LLD:resistivos:rC:NONE:v0 (auto-composite)
LLS      .UNKNOWN     UNKNOWN        : LLS:resistivos:rC:NONE:v0 (auto-composite)
MSFL     .UNKNOWN     UNKNOWN        : MSFL:resistivos:rC:NONE:v0 (auto-composite)
NPHI     .v/v_decimal UNKNOWN        : NPHI:porosidad:rC:NONE:v0 (auto-composite)
PEF      .UNKNOWN     UNKNOWN        : PEF:litodensidad:rC:NONE:v0 (auto-composite)
POTA     .UNKNOWN     UNKNOWN        : POTA:Espectrometria:rC:NONE:v0 (auto-composite)
RHOB     .UNKNOWN     UNKNOWN        : RHOB:litodensidad:rC:NONE:v0 (auto-composite)
THOR     .ppm         UNKNOWN        : THOR:Espectrometria:rC:NONE:v0 (auto-composite)
URAN     .ppm         UNKNOWN        : URAN:Espectrometria:rC:NONE:v0 (auto-composite)
~A     DEPTH         CALI          CGR         DRHO           DT           GR          ILD          LLD          LLS         MSFL         NPHI          PEF         POTA         RHOB         THOR         URAN
# ...
   3145.9980       5.9245      17.8136       0.0143      56.9978      34.4498    -999.2500      98.8598      86.5213      47.9114       0.0372       4.6500       0.0082       2.6446       0.7610       1.8848
   3146.1504       5.9504      16.8106       0.0256      53.6723      32.7599    -999.2500      75.2106      65.1152     115.9001       0.0390       4.2867       0.0079       2.6383       0.6832       1.8070
   3146.3030       5.9442      27.0490       0.0357      56.4340      43.7628    -999.2500      57.7403      49.3664      26.2207       0.0473       4.1594       0.0110       2.6324       1.7823       1.8936
   3146.4553       5.9296      25.7872       0.0529      55.1574      41.7259    -999.2500      34.9268      30.3830       3.3660       0.0608       4.2794       0.0105       2.6122       1.7036       1.8058
   3146.6077       5.9680      36.3036       0.0672      57.1866      49.5668    -999.2500      24.4760      21.4854      41.7306       0.0741       4.6218       0.0145       2.6267       2.4750       1.5027
   3146.7600       5.9558      42.0532       0.0743      58.1016      57.1380    -999.2500      18.9335      16.8704      72.5175       0.0802       4.6069       0.0148       2.5904       3.6995       1.7091
   3146.9124       5.9837      42.3906       0.0664      61.2466      57.2378    -999.2500      15.5931      14.1441       9.5111       0.0933       4.4485       0.0150       2.5689       3.7126       1.6821
   3147.0649       5.9864      43.5752       0.0534      61.1772      59.1301    -999.2500      14.1209      13.0588       6.4777       0.1007       4.3590       0.0152       2.5295       3.9171       1.7623
   3147.2173       5.9857      42.2784       0.0325      61.4318      57.4789    -999.2500      14.1375      13.1479       2.1493       0.1018       3.8614       0.0150       2.5222       3.6723       1.7222
   3147.3696       5.9849      43.9663       0.0150      62.0858      63.2368    -999.2500      14.5768      13.6618      53.1023       0.0928       3.9295       0.0143       2.5092       4.3797       2.1833
   3147.5220       5.9775      42.4782       0.0007      62.5116      61.8706    -999.2500      13.0799      12.1540      57.7703       0.0936       3.8700       0.0133       2.4422       4.4168       2.1971
   3147.6746       5.9824      43.4566      -0.0056      64.7074      64.1563    -999.2500       8.4890       7.8425       9.1267       0.1333       4.2733       0.0132       2.4655       4.6851       2.3452
   3147.8269       6.0868      45.6328      -0.0077      64.0347      67.8413    -999.2500       6.1757       5.7891      19.0737       0.1984       4.0677       0.0136       2.4984       5.0494       2.5162
   3147.9792       6.0915      45.1519       0.0036      65.0759      67.2815    -999.2500       5.2437       4.9360       2.8652       0.2078       4.0504       0.0136       2.6221       4.9337       2.5072
   3148.1316       6.1178      35.2926       0.0055      65.7914      56.3673    -999.2500       5.2709       4.9673       0.4480       0.1631       4.0053       0.0111       2.6285       3.6692       2.3877
   3148.2842       5.9160      34.5250       0.0027      64.5463      55.1330    -999.2500       6.5594       6.0815       8.7529       0.0879       4.1113       0.0111       2.6235       3.4709       2.3348
   3148.4365       5.9115      30.3419       0.0085      63.4384      49.0342    -999.2500      14.2026      12.5352      29.5037       0.0576       4.1146       0.0102       2.6276       2.8756       2.1178
   3148.5889       5.9233      29.7183       0.0143      60.9499      48.0133    -999.2500      43.5976      37.8861      45.2710       0.0487       4.2959       0.0103       2.6327       2.7011       2.0728
   3148.7412       5.8963      27.6546       0.0250      54.9568      42.6743    -999.2500      73.4132      64.3910      88.0423       0.0439       4.1859       0.0101       2.6460       2.2682       1.7017
   3148.8936       5.8710      27.7205       0.0230      55.4423      42.2065    -999.2500      83.4165      72.7711      57.5905       0.0469       4.0317       0.0103       2.6441       2.2361       1.6412
   3149.0461       5.8752      25.3764       0.0130      57.0302      38.6070    -999.2500      30.0370      25.8892      35.6155       0.0632       3.8874       0.0096       2.5937       1.9625       1.4990
   3149.1985       5.9113      32.8105       0.0084      59.0139      48.6966    -999.2500      17.7856      15.2271      73.1312       0.0803       4.0385       0.0113       2.5859       3.0010       1.7999
   3149.3508       5.9760      32.8714       0.0022      58.8260      49.0953    -999.2500      16.4341      14.5662      48.9145       0.0867       4.0648       0.0112       2.5709       3.0555       1.8381
   3149.5032       5.9921      30.6851       0.0036      59.5612      45.9284    -999.2500      21.9938      20.1916       1.0442       0.0697       4.1447       0.0104       2.6094       2.8593       1.7270
   3149.6558       5.9420      27.4452       0.0042      59.4528      41.1855    -999.2500      19.0783      14.9796       7.3952       0.0522       4.0909       0.0089       2.6151       2.7514       1.5567
   3149.8081       5.8826      25.6725       0.0058      59.2153      38.3477    -999.2500      32.5836      25.0681      57.6586       0.0425       4.3646       0.0082       2.6274       2.5943       1.4361
   3149.9604       5.8962      26.4581       0.0127      54.9588      32.4836    -999.2500      59.8010      46.2126      38.6086       0.0399       4.3819       0.0104       2.6371       1.8815       0.6827
   3150.1128       5.9156      26.3752       0.0291      54.1772      32.7250    -999.2500      81.1941      64.7681      71.3415       0.0387       4.4440       0.0102       2.6433       1.9603       0.7194
   3150.2654       5.8888      22.5700       0.0362      52.7784      26.8001    -999.2500      80.7606      65.5566      75.7988       0.0371       4.2068       0.0092       2.6486       1.4730       0.4793
   3150.4177       5.8643      24.7746       0.0369      53.5245      30.9168    -999.2500      78.3618      63.7002      93.2617       0.0400       4.2676       0.0091       2.6462       2.0229       0.6959
   3150.5701       5.8807      25.0965       0.0389      52.1662      31.9919    -999.2500      79.1444      64.0397      59.5021       0.0423       4.2560       0.0088       2.6613       2.2315       0.7812
   3150.7224       5.8982      23.0547       0.0311      53.1726      29.5105    -999.2500      82.0058      65.9546      51.4923       0.0458       3.5078       0.0078       2.6547       2.1607       0.7314
   3150.8748       5.9010      23.4442       0.0200      53.3714      30.2239    -999.2500      47.5292      41.7386      11.9070       0.0489       3.2298       0.0077       2.6488       2.3140       0.7681
   3151.0273       5.9078      26.2387      -0.0131      57.1872      35.1864    -999.2500      19.4141      17.8677      96.3362       0.0539       3.2583       0.0083       2.3397       2.6960       1.0138
   3151.1797       5.8895      27.8691      -0.0136      53.5409      37.5380    -999.2500       6.3604       6.0362     147.0373       0.0527       3.6658       0.0088       2.3225       2.8689       1.0955
   3151.3320       6.2841      28.6422      -0.0052      61.5703      38.6820    -999.2500       4.3139       4.1098       0.7862       0.0810       4.2497       0.0090       2.3270       2.9623       1.1375
   3151.4844       6.3345      34.1790       0.0490      62.5754      47.9418    -999.2500       3.9801       3.7561       0.1879       0.0976       4.1256       0.0110       2.6335       3.4257       1.5593
   3151.6370       6.3346      36.5216       0.0582      65.3551      51.4442    -999.2500       4.1885       3.8688       0.4447       0.1198       4.0884       0.0118       2.6681       3.6579       1.6907
   3151.7893       6.3380      40.7748       0.0528      72.3357      59.6077    -999.2500       6.6800       5.9000      16.5058       0.1036       4.0520       0.0128       2.6538       4.2230       2.1337
