#------------------------------------------------------------------------------
#
#   Created by  : [OpenWorks] Log Export Utility (LEXP)
#   Created on  : 2015-10-01 09:49:56
#   Project     : CANT971
#   User        : R5K
#   Interpreter : PEP
#
#------------------------------------------------------------------------------
~VERSION INFORMATION
VERS. 2.0 : CWLS Log ASCII Standard - version 2.0
WRAP.  NO : One line per depth step
~WELL INFORMATION
#MNEMONIC   .UNIT                                           VALUE :DESCRIPTION
#------------------------------------------------------------------------------
STRT        .M                                           799.8710 :START DEPTH
STOP        .M                                          1367.5610 :STOP DEPTH
STEP        .M                                             0.1524 :STEP
NULL        .                                           -999.2500 :NULL VALUE
COMP        .                                   PEMEX EXPL & PROD :COMPANY
WELL        .                                        CANTARELL-1A :WELL
FLD         .                                           CANTARELL :FIELD
LOC         .                                             UNKNOWN :LOCATION
CNTY        .                                      CD. DEL CARMEN :COUNTY
STAT        .                                            CAMPECHE :STATE
CTRY        .                                              MEXICO :COUNTRY
SRVC        .                                             UNKNOWN :SERVICE COMPANY
DATE        .                                             UNKNOWN :LOG DATE
UWI         .                                          3060000138 :UNIQUE WELL ID
XCOORD      .                                       600823.080000 :SURFACE X
YCOORD      .                                      2145118.550000 :SURFACE Y
LAT         .                                           19.398902 :LATITUDE
LON         .                                          -92.039798 :LONGITUDE
ELEV        .M                                            27.7000 :SURFACE ELEV
ELEV_TYPE   .                                                  KB :ELEV TYPE
~CURVE INFORMATION
#MNEMONIC.UNIT        API CODE       : CURVE DESCRIPTION
#------------------------------------------------------------------------------
DEPTH    .M                          : Measured Depth
CALI     .inches      UNKNOWN        : CALI:UNKNOWN:rC:NONE:v0 (auto-composite)
DRHO     .g/cm3       UNKNOWN        : DRHO:UNKNOWN:rC:NONE:v0 (auto-composite)
DT       .us/ft       UNKNOWN        : DT:DT:rC:NONE:v0 (auto-composite)
ILD      .ohm.m       UNKNOWN        : ILD:UNKNOWN:rC:NONE:v0 (auto-composite)
LLD      .ohm.m       UNKNOWN        : LLD:UNKNOWN:rC:NONE:v0 (auto-composite)
LLS      .ohm.m       UNKNOWN        : LLS:UNKNOWN:rC:NONE:v0 (auto-composite)
MSFL     .ohm.m       UNKNOWN        : MSFL:UNKNOWN:rC:NONE:v0 (auto-composite)
NPHI     .v/v_decimal UNKNOWN        : NPHI:NPHI:rC:NONE:v0 (auto-composite)
GR       .API         UNKNOWN        : RG:UNKNOWN:rC:NONE:v0 (auto-composite)
RHOB     .g/cm3       UNKNOWN        : RHOB:UNKNOWN:rC:NONE:v0 (auto-composite)
~A     DEPTH         CALI         DRHO           DT          ILD          LLD          LLS         MSFL         NPHI           GR         RHOB
# ...
   1175.3846      14.9561       0.0325    -999.2500       1.4495       0.2000       0.2000       0.2000      49.8188      39.0641       2.4224
   1175.5370      14.9566       0.0360    -999.2500       1.4530       0.2000       0.2000       0.2000      49.7523      38.9794       2.4104
   1175.6895      14.9571       0.0384    -999.2500       1.4538       0.2000       0.2000       0.2000      49.4132      38.8816       2.3985
   1175.8418      14.9576       0.0339    -999.2500       1.4372       0.2000       0.2000       0.2000      48.8002      38.6991       2.3869
   1175.9943      14.9595       0.0297    -999.2500       1.4217       0.2000       0.2000       0.2000      48.5152      38.5991       2.3774
   1176.1466      14.9706       0.0271    -999.2500       1.4127       0.2000       0.2000       0.2000      48.5597      39.0096       2.3804
   1176.2991      14.9786       0.0245    -999.2500       1.4034       0.2000       0.2000       0.2000      48.4526      39.4919       2.3826
   1176.4514      14.9691       0.0210    -999.2500       1.3924       0.2000       0.2000       0.2000      48.1931      40.4014       2.3796
   1176.6039      14.9612       0.0173    -999.2500       1.3786       0.2000       0.2000       0.2000      47.7538      41.1177       2.3788
   1176.7562      14.9622       0.0128    -999.2500       1.3490       0.2000       0.2000       0.2000      47.1338      40.7347       2.3908
   1176.9087      14.9646       0.0093    -999.2500       1.3221       0.2000       0.2000       0.2000      46.8332      40.3064       2.4006
   1177.0610      14.9752       0.0113    -999.2500       1.3095       0.2000       0.2000       0.2000      46.8537      39.6313       2.3981
   1177.2134      14.9826       0.0134    -999.2500       1.2960       0.2000       0.2000       0.2000      46.3084      39.0823       2.3972
   1177.3658      14.9735       0.0159    -999.2500       1.2769       0.2000       0.2000       0.2000      45.1939      39.1966       2.4047
   1177.5182      14.9662       0.0194    -999.2500       1.2564       0.2000       0.2000       0.2000      45.0388      39.2775       2.4109
   1177.6707      14.9672       0.0279    -999.2500       1.2289       0.2000       0.2000       0.2000      45.8488      39.1898       2.4104
   1177.8230      14.9682       0.0360    -999.2500       1.2016       0.2000       0.2000       0.2000      46.9099      39.0351       2.4102
   1177.9755      14.9692       0.0420    -999.2500       1.1761       0.2000       0.2000       0.2000      48.2239      38.5554       2.4112
   1178.1278      14.9667       0.0449    -999.2500       1.1513       0.2000       0.2000       0.2000      49.4085      38.0574       2.4060
   1178.2803      14.9476       0.0329    -999.2500       1.1302       0.2000       0.2000       0.2000      50.4630      37.4727       2.3719
   1178.4326      14.9303       0.0223    -999.2500       1.1135       0.2000       0.2000       0.2000      51.5306      37.0687       2.3445
   1178.5851      14.9207       0.0183    -999.2500       1.1160       0.2000       0.2000       0.2000      52.6115      37.4814       2.3470
   1178.7374      14.9206       0.0163    -999.2500       1.1258       0.2000       0.2000       0.2000      53.3895      37.9124       2.3531
   1178.8899      14.9612       0.0233    -999.2500       1.1674       0.2000       0.2000       0.2000      53.8635      38.4236       2.3752
   1179.0422      14.9960       0.0294    -999.2500       1.2093       0.2000       0.2000       0.2000      54.0274      38.9160       2.3973
   1179.1946      15.0065       0.0314    -999.2500       1.2530       0.2000       0.2000       0.2000      53.8799      39.3286       2.4199
   1179.3470      15.0112       0.0322    -999.2500       1.2951       0.2000       0.2000       0.2000      53.8654      39.6629       2.4373
   1179.4994      14.9922       0.0282    -999.2500       1.3312       0.2000       0.2000       0.2000      53.9844      39.6774       2.4338
   1179.6519      14.9772       0.0256    -999.2500       1.3599       0.2000       0.2000       0.2000      54.2972      39.6312       2.4312
   1179.8042      14.9782       0.0286    -999.2500       1.3594       0.2000       0.2000       0.2000      54.8046      39.3444       2.4322
   1179.9567      14.9791       0.0305    -999.2500       1.3562       0.2000       0.2000       0.2000      55.0580      38.8529       2.4327
   1180.1090      14.9796       0.0280    -999.2500       1.3427       0.2000       0.2000       0.2000      55.0560      37.5783       2.4312
   1180.2615      14.9801       0.0270    -999.2500       1.3331       0.2000       0.2000       0.2000      54.9844      36.6409       2.4297
   1180.4138      14.9806       0.0315    -999.2500       1.3381       0.2000       0.2000       0.2000      54.8429      36.9506       2.4282
   1180.5663      14.9812       0.0348    -999.2500       1.3463       0.2000       0.2000       0.2000      54.5803      37.1962       2.4263
   1180.7186      14.9822       0.0338    -999.2500       1.3658       0.2000       0.2000       0.2000      54.1958      37.2107       2.4233
   1180.8711      14.9831       0.0312    -999.2500       1.3883       0.2000       0.2000       0.2000      53.3264      36.9814       2.4197
   1181.0234      14.9836       0.0232    -999.2500       1.4209       0.2000       0.2000       0.2000      51.9694      35.9029       2.4136
   1181.1758      14.9796       0.0185    -999.2500       1.4494       0.2000       0.2000       0.2000      49.9973      34.9374       2.4121
   1181.3282      14.9606       0.0250    -999.2500       1.4645       0.2000       0.2000       0.2000      47.4064      34.3530       2.4256
   1181.4806      14.9461       0.0305    -999.2500       1.4760       0.2000       0.2000       0.2000      45.3032      33.8156       2.4367
   1181.6331      14.9466       0.0325    -999.2500       1.4760       0.2000       0.2000       0.2000      43.6908      33.4325       2.4397
   1181.7854      14.9471       0.0335    -999.2500       1.4774       0.2000       0.2000       0.2000      43.1529      33.1682       2.4420
   1181.9379      14.9476       0.0315    -999.2500       1.4835       0.2000       0.2000       0.2000      43.6964      33.2819       2.4420
   1182.0902      14.9482       0.0283    -999.2500       1.4890       0.2000       0.2000       0.2000      44.7986      33.2747       2.4393
   1182.2427      14.9492       0.0213    -999.2500       1.4930       0.2000       0.2000       0.2000      46.4632      32.8916       2.4283
   1182.3950      14.9550       0.0139    -999.2500       1.4946       0.2000       0.2000       0.2000      48.3339      32.4343       2.4184
   1182.5475      14.9751       0.0054    -999.2500       1.4891       0.2000       0.2000       0.2000      50.4113      31.7534       2.4119
   1182.6998      14.9651      -0.0002    -999.2500       1.4853       0.2000       0.2000       0.2000      50.8766      31.3249       2.4080
   1182.8522      14.8674       0.0028    -999.2500       1.4863       0.2000       0.2000       0.2000      49.7237      31.6346       2.4120
   1183.0046      14.8284       0.0057    -999.2500       1.4908       0.2000       0.2000       0.2000      48.6623      31.9460       2.4181
   1183.1570      14.9573       0.0082    -999.2500       1.5053       0.2000       0.2000       0.2000      47.6928      32.2618       2.4302
   1183.3094      15.0652       0.0129    -999.2500       1.5256       0.2000       0.2000       0.2000      47.2646      32.5235       2.4374
   1183.4618      15.1148       0.0240    -999.2500       1.5617       0.2000       0.2000       0.2000      47.3801      32.6348       2.4314
   1183.6143      15.1087       0.0302    -999.2500       1.6013       0.2000       0.2000       0.2000      47.6243      32.5586       2.4247
   1183.7666      14.9523       0.0237    -999.2500       1.6504       0.2000       0.2000       0.2000      47.9978      31.9767       2.4162
