#------------------------------------------------------------------------------
#
#   Created by  : [OpenWorks] Log Export Utility (LEXP)
#   Created on  : 2016-05-23 11:55:49
#   Project     : CANT971
#   User        : R5K
#   Interpreter : PEP
#
#------------------------------------------------------------------------------
~VERSION INFORMATION
VERS. 2.0 : CWLS Log ASCII Standard - version 2.0
WRAP.  NO : One line per depth step
~WELL INFORMATION
#MNEMONIC   .UNIT                                           VALUE :DESCRIPTION
#------------------------------------------------------------------------------
STRT        .M                                           773.4315 :START DEPTH
STOP        .M                                          2865.1216 :STOP DEPTH
STEP        .M                                             0.1524 :STEP
NULL        .                                           -999.2500 :NULL VALUE
COMP        .                                             UNKNOWN :COMPANY
WELL        .                                                408D :WELL
FLD         .                                             UNKNOWN :FIELD
LOC         .                                             UNKNOWN :LOCATION
CNTY        .                                             UNKNOWN :COUNTY
STAT        .                                             UNKNOWN :STATE
CTRY        .                                             UNKNOWN :COUNTRY
SRVC        .                                             UNKNOWN :SERVICE COMPANY
DATE        .                                             UNKNOWN :LOG DATE
UWI         .                                                408D :UNIQUE WELL ID
XCOORD      .                                       597130.770000 :SURFACE X
YCOORD      .                                      2144867.260000 :SURFACE Y
LAT         .                                           19.396814 :LATITUDE
LON         .                                          -92.074972 :LONGITUDE
ELEV        .M                                             0.0000 :SURFACE ELEV
ELEV_TYPE   .                                                  KB :ELEV TYPE
~CURVE INFORMATION
#MNEMONIC.UNIT        API CODE       : CURVE DESCRIPTION
#------------------------------------------------------------------------------
DEPTH    .M                          : Measured Depth
CALI     .inches      UNKNOWN        : CALI:litodensidad:rC:NONE:v0 (auto-composite)
CGR      .API         UNKNOWN        : CGR:PETROWORKS:rC:NONE:v1 
DRHO     .g/cm3       UNKNOWN        : DRHO:litodensidad:rC:NONE:v0 (auto-composite)
DT       .us/ft       UNKNOWN        : DT:PETROWORKS:rC:NONE:v1 
GR       .API         UNKNOWN        : GR:PETROWORKS:rC:NONE:v3 
GR-LWD   .UNKNOWN     UNKNOWN        : GR-LWD:resistivos-LWD:rC:NONE:v0 (auto-composite)
LLD      .ohm.m       UNKNOWN        : LLD:PETROWORKS:rC:NONE:v1 
LLD-LWD  .UNKNOWN     UNKNOWN        : LLD-LWD:resistivos-LWD:rC:NONE:v0 (auto-composite)
LLS      .UNKNOWN     UNKNOWN        : LLS:PETROWORKS:rC:NONE:v1 
LLS-LWD  .UNKNOWN     UNKNOWN        : LLS-LWD:resistivos-LWD:rC:NONE:v0 (auto-composite)
MSFL     .UNKNOWN     UNKNOWN        : MSFL:PETROWORKS:rC:NONE:v1 
MSFL-LWD .UNKNOWN     UNKNOWN        : MSFL-LWD:resistivos-LWD:rC:NONE:v0 (auto-composite)
NPHI     .v/v_decimal UNKNOWN        : NPHI:PETROWORKS:rC:NONE:v3 
PEF      .UNKNOWN     UNKNOWN        : PEF:litodensidad:rC:NONE:v0 (auto-composite)
POTA     .wtpercent   UNKNOWN        : POTA:PETROWORKS:rC:NONE:v1 
RHOB     .g/cm3       UNKNOWN        : RHOB:litodensidad:rC:NONE:v0 (auto-composite)
THOR     .ppm         UNKNOWN        : THOR:PETROWORKS:rC:NONE:v1 
URAN     .ppm         UNKNOWN        : URAN:PETROWORKS:rC:NONE:v1 
~A     DEPTH         CALI          CGR         DRHO           DT           GR       GR-LWD          LLD      LLD-LWD          LLS      LLS-LWD         MSFL     MSFL-LWD         NPHI          PEF         POTA         RHOB         THOR         URAN
# ...
   2669.4399       9.2471      12.5167      -0.0101    -999.2500      39.6452    -999.2500      30.6280    -999.2500      25.6055    -999.2500      25.2947    -999.2500       0.1329       3.3702       0.0045       2.6619       1.3588       3.3823
   2669.5923       9.2199      12.7841      -0.0142    -999.2500      38.3383    -999.2500      29.3446    -999.2500      24.2256    -999.2500      18.8466    -999.2500       0.1345       3.4830       0.0046       2.6591       1.4110       3.1092
   2669.7446       9.1438      12.8131      -0.0155    -999.2500      39.0445    -999.2500      28.7062    -999.2500      23.1679    -999.2500      21.9125    -999.2500       0.1312       3.4469       0.0045       2.6709       1.4859       3.2744
   2669.8972       9.2063      13.1514      -0.0155    -999.2500      40.4090    -999.2500      29.7951    -999.2500      23.3943    -999.2500      27.1412    -999.2500       0.1240       3.6470       0.0047       2.6806       1.4520       3.4135
   2670.0496       9.3829      13.1021      -0.0186    -999.2500      40.9854    -999.2500      29.3931    -999.2500      22.9959    -999.2500      25.9080    -999.2500       0.1204       3.5633       0.0045       2.6788       1.5343       3.5403
   2670.2019       9.3829      13.1896      -0.0214    -999.2500      39.8374    -999.2500      28.9858    -999.2500      22.7115    -999.2500      26.4324    -999.2500       0.1174       3.4966       0.0044       2.6690       1.6712       3.3442
   2670.3542       9.4169      12.5389      -0.0188    -999.2500      38.3802    -999.2500      28.7214    -999.2500      22.4358    -999.2500      29.0217    -999.2500       0.1202       3.2791       0.0040       2.6879       1.6579       3.2161
   2670.5068       9.2810      12.7413      -0.0210    -999.2500      38.8141    -999.2500      28.3815    -999.2500      22.0612    -999.2500      23.3187    -999.2500       0.1251       3.1452       0.0042       2.6959       1.6366       3.2718
   2670.6592       9.2403      13.2281      -0.0181    -999.2500      40.2662    -999.2500      29.7423    -999.2500      22.7042    -999.2500      21.8757    -999.2500       0.1282       3.2468       0.0042       2.7112       1.7642       3.4191
   2670.8115       9.3761      12.6592      -0.0174    -999.2500      41.3978    -999.2500      30.3399    -999.2500      22.9152    -999.2500      17.9899    -999.2500       0.1211       3.2752       0.0044       2.7088       1.4829       3.7497
   2670.9639       9.3883      13.4077      -0.0162    -999.2500      41.4215    -999.2500      30.2634    -999.2500      22.7352    -999.2500      19.2128    -999.2500       0.1147       3.4257       0.0045       2.7085       1.6887       3.6551
   2671.1162       9.4033      12.4557      -0.0140    -999.2500      39.8374    -999.2500      30.5444    -999.2500      22.7953    -999.2500      24.7687    -999.2500       0.1109       3.3380       0.0041       2.7164       1.6120       3.5657
   2671.2688       9.3625      12.2749      -0.0113    -999.2500      38.6787    -999.2500      31.2760    -999.2500      23.0892    -999.2500      29.2685    -999.2500       0.1100       3.1974       0.0040       2.7270       1.5700       3.4281
   2671.4211       9.3354      11.8871      -0.0080    -999.2500      37.3126    -999.2500      31.1895    -999.2500      22.8960    -999.2500      28.1386    -999.2500       0.1095       3.2704       0.0039       2.7261       1.5108       3.2746
   2671.5735       9.3082      10.4813      -0.0081    -999.2500      35.2885    -999.2500      28.8833    -999.2500      21.2716    -999.2500      30.0270    -999.2500       0.1161       3.1189       0.0036       2.6217       1.2232       3.2491
   2671.7258       9.7701      10.6226      -0.0119    -999.2500      33.4598    -999.2500      27.5500    -999.2500      20.3215    -999.2500      24.8703    -999.2500       0.1388       3.0212       0.0038       2.5843       1.1869       2.9413
   2671.8784       9.7497       9.8150      -0.0122    -999.2500      33.4151    -999.2500      27.9490    -999.2500      20.5527    -999.2500      18.4475    -999.2500       0.1604       2.7024       0.0035       2.5641       1.0857       3.0408
   2672.0308       9.7633      10.2871       0.0004    -999.2500      35.0314    -999.2500      29.2016    -999.2500      21.1486    -999.2500      34.8030    -999.2500       0.1639       2.8618       0.0037       2.6591       1.1011       3.2423
   2672.1831       9.6139      10.7687      -0.0023    -999.2500      39.6028    -999.2500      33.5584    -999.2500      23.0537    -999.2500      37.8882    -999.2500       0.1467       2.9895       0.0042       2.6860       0.9718       3.7916
   2672.3354       9.5188      10.4891      -0.0042    -999.2500      43.0683    -999.2500      37.5546    -999.2500      26.0643    -999.2500      38.1394    -999.2500       0.1309       3.2594       0.0046       2.7152       0.6662       4.3169
   2672.4880       9.3693      11.4139       0.0014    -999.2500      43.3332    -999.2500      39.8811    -999.2500      28.3461    -999.2500      46.9681    -999.2500       0.1215       3.2284       0.0043       2.7261       1.1571       4.3134
   2672.6404       9.3829       9.2812       0.0008    -999.2500      39.7303    -999.2500      43.8748    -999.2500      30.7031    -999.2500      47.0473    -999.2500       0.1144       3.3618       0.0034       2.7096       0.9954       4.0270
   2672.7927       9.4373       7.8269      -0.0027    -999.2500      34.4199    -999.2500      47.3413    -999.2500      32.7178    -999.2500      31.0029    -999.2500       0.1100       3.4394       0.0028       2.7079       0.8750       3.3671
   2672.9451       9.4508       6.6571      -0.0024    -999.2500      31.0320    -999.2500      48.9462    -999.2500      33.5957    -999.2500      31.4525    -999.2500       0.1108       3.5332       0.0024       2.6857       0.7259       3.1506
   2673.0974       9.6342       6.4558      -0.0028    -999.2500      29.6655    -999.2500      52.5943    -999.2500      35.9710    -999.2500      35.8324    -999.2500       0.1135       3.5307       0.0023       2.6716       0.7189       2.9544
   2673.2500       9.3150       7.9613      -0.0122    -999.2500      30.0127    -999.2500      62.3427    -999.2500      42.0359    -999.2500      56.6339    -999.2500       0.1233       3.5840       0.0026       2.6280       1.0223       2.7354
   2673.4023       9.2471       8.5135      -0.0138    -999.2500      32.6708    -999.2500      73.9606    -999.2500      48.9281    -999.2500      56.3620    -999.2500       0.1304       3.4753       0.0029       2.6104       1.0263       3.0046
   2673.5547       9.3082       9.5918      -0.0092    -999.2500      35.6843    -999.2500      77.3186    -999.2500      50.2555    -999.2500     109.3092    -999.2500       0.1313       3.4196       0.0033       2.6067       1.1291       3.2690
   2673.7070       9.4576      10.1833       0.0014    -999.2500      36.1476    -999.2500      65.3007    -999.2500      42.1518    -999.2500      64.1784    -999.2500       0.1277       3.3244       0.0034       2.5794       1.2532       3.2052
   2673.8596       9.5324       9.8133       0.0045    -999.2500      33.7134    -999.2500      51.6069    -999.2500      33.0435    -999.2500      63.5136    -999.2500       0.1332       3.5738       0.0033       2.5439       1.2059       2.9297
   2674.0120       9.5799       8.5368       0.0168    -999.2500      29.3859    -999.2500      42.3431    -999.2500      26.5196    -999.2500      19.7445    -999.2500       0.1544       3.5788       0.0029       2.4643       1.0393       2.3847
   2674.1643       9.9535       7.1239       0.0888    -999.2500      27.0018    -999.2500      35.9089    -999.2500      21.8111    -999.2500      19.4366    -999.2500       0.1804       3.6392       0.0026       2.4235       0.7606       2.2519
   2674.3167      11.0335       6.8346       0.1184    -999.2500      25.1458    -999.2500      34.6514    -999.2500      20.2177    -999.2500      20.8694    -999.2500       0.2107       3.3542       0.0027       2.3580       0.6230       2.0354
