#------------------------------------------------------------------------------
#
#   Created by  : [OpenWorks] Log Export Utility (LEXP)
#   Created on  : 2016-05-23 11:56:24
#   Project     : CANT971
#   User        : R5K
#   Interpreter : PEP
#
#------------------------------------------------------------------------------
~VERSION INFORMATION
VERS. 2.0 : CWLS Log ASCII Standard - version 2.0
WRAP.  NO : One line per depth step
~WELL INFORMATION
#MNEMONIC   .UNIT                                           VALUE :DESCRIPTION
#------------------------------------------------------------------------------
STRT        .M                                           741.4294 :START DEPTH
STOP        .M                                          2768.5020 :STOP DEPTH
STEP        .M                                             0.1524 :STEP
NULL        .                                           -999.2500 :NULL VALUE
COMP        .                                             UNKNOWN :COMPANY
WELL        .                                                 470 :WELL
FLD         .                                             UNKNOWN :FIELD
LOC         .                                             UNKNOWN :LOCATION
CNTY        .                                             UNKNOWN :COUNTY
STAT        .                                             UNKNOWN :STATE
CTRY        .                                             UNKNOWN :COUNTRY
SRVC        .                                             UNKNOWN :SERVICE COMPANY
DATE        .                                             UNKNOWN :LOG DATE
UWI         .                                                 470 :UNIQUE WELL ID
XCOORD      .                                       598706.890000 :SURFACE X
YCOORD      .                                      2143306.000000 :SURFACE Y
LAT         .                                           19.382628 :LATITUDE
LON         .                                          -92.060044 :LONGITUDE
ELEV        .M                                             0.0000 :SURFACE ELEV
ELEV_TYPE   .                                                  NA :ELEV TYPE
~CURVE INFORMATION
#MNEMONIC.UNIT        API CODE       : CURVE DESCRIPTION
#------------------------------------------------------------------------------
DEPTH    .M                          : Measured Depth
CALI     .inches      UNKNOWN        : CALI:litodensidad:rC:NONE:v0 (auto-composite)
CGR      .API         UNKNOWN        : CGR:PETROWORKS:rC:NONE:v1 
DRHO     .g/cm3       UNKNOWN        : DRHO:litodensidad:rC:NONE:v0 (auto-composite)
DT       .us/ft       UNKNOWN        : DT:PETROWORKS:rC:NONE:v1 
GR       .API         UNKNOWN        : GR:PETROWORKS:rC:NONE:v8 
ILD      .ohm.m       UNKNOWN        : ILD:PETROWORKS:rC:NONE:v1 
ILM      .ohm.m       UNKNOWN        : ILM:PETROWORKS:rC:NONE:v1 
LLD      .ohm.m       UNKNOWN        : LLD:resistivos:rC:NONE:v0 (auto-composite)
LLS      .ohm.m       UNKNOWN        : LLS:resistivos:rC:NONE:v0 (auto-composite)
MSFL     .ohm.m       UNKNOWN        : MSFL:resistivos:rC:NONE:v0 (auto-composite)
NPHI     .v/v_decimal UNKNOWN        : NPHI:PETROWORKS:rC:NONE:v1 
PEF      .UNKNOWN     UNKNOWN        : PEF:litodensidad:rC:NONE:v0 (auto-composite)
POTA     .wtpercent   UNKNOWN        : POTA:PETROWORKS:rC:NONE:v1 
RHOB     .g/cm3       UNKNOWN        : RHOB:litodensidad:rC:NONE:v0 (auto-composite)
THOR     .ppm         UNKNOWN        : THOR:PETROWORKS:rC:NONE:v1 
URAN     .ppm         UNKNOWN        : URAN:PETROWORKS:rC:NONE:v1 
~A     DEPTH         CALI          CGR         DRHO           DT           GR          ILD          ILM          LLD          LLS         MSFL         NPHI          PEF         POTA         RHOB         THOR         URAN
# ...
   1880.4670    -999.2500      11.6405    -999.2500     108.3000      18.9409       1.0534       0.9122    -999.2500    -999.2500    -999.2500       0.4304    -999.2500       0.0027    -999.2500       1.7786       0.7526
   1880.6194    -999.2500      10.8550    -999.2500     105.5000      16.1242       1.0531       0.9447    -999.2500    -999.2500    -999.2500       0.4603    -999.2500       0.0029    -999.2500       1.4763       0.7388
   1880.7719    -999.2500      11.2067    -999.2500     105.7000      15.4256       1.0991       1.0023    -999.2500    -999.2500    -999.2500       0.4664    -999.2500       0.0034    -999.2500       1.3733       0.8038
   1880.9242    -999.2500      12.0399    -999.2500     106.8000      15.3188       1.0896       1.0720    -999.2500    -999.2500    -999.2500       0.4893    -999.2500       0.0039    -999.2500       1.3571       0.8784
   1881.0767    -999.2500      10.4288    -999.2500     106.2000      13.8997       1.1076       1.0574    -999.2500    -999.2500    -999.2500       0.4026    -999.2500       0.0033    -999.2500       1.2190       0.7924
   1881.2290    -999.2500      13.7810    -999.2500     105.3000      16.5398       1.0394       1.0819    -999.2500    -999.2500    -999.2500       0.3403    -999.2500       0.0042    -999.2500       1.6614       0.8883
   1881.3815    -999.2500      14.9804    -999.2500     103.0000      18.5579       0.9583       0.9835    -999.2500    -999.2500    -999.2500       0.2583    -999.2500       0.0048    -999.2500       1.7194       0.9075
   1881.5338    -999.2500      15.7536    -999.2500     101.8000      19.5084       1.0519       0.7106    -999.2500    -999.2500    -999.2500       0.2672    -999.2500       0.0051    -999.2500       1.7765       0.8884
   1881.6863    -999.2500      14.7583    -999.2500     102.0000      18.2709       1.0421       0.7336    -999.2500    -999.2500    -999.2500       0.2897    -999.2500       0.0046    -999.2500       1.7558       0.7640
   1881.8386    -999.2500      13.4584    -999.2500     105.4000      17.4938       0.9718       0.9035    -999.2500    -999.2500    -999.2500       0.3200    -999.2500       0.0036    -999.2500       1.8240       0.5247
   1881.9911    -999.2500      12.0266    -999.2500     105.3000      17.3605       1.2345       0.8624    -999.2500    -999.2500    -999.2500       0.3289    -999.2500       0.0031    -999.2500       1.6872       0.3878
   1882.1434    -999.2500      12.8688    -999.2500     105.9000      17.8618       1.2316       1.1611    -999.2500    -999.2500    -999.2500       0.3122    -999.2500       0.0033    -999.2500       1.8210       0.3158
   1882.2959    -999.2500      12.8814    -999.2500     106.3000      17.9575       1.2056       1.3387    -999.2500    -999.2500    -999.2500       0.2866    -999.2500       0.0031    -999.2500       1.8970       0.2806
   1882.4482    -999.2500      12.1496    -999.2500     101.2000      17.8468       1.2630       1.3816    -999.2500    -999.2500    -999.2500       0.2780    -999.2500       0.0026    -999.2500       1.9533       0.1300
   1882.6006    -999.2500      13.8129    -999.2500     100.8000      15.6387       1.2877       1.3428    -999.2500    -999.2500    -999.2500       0.3121    -999.2500       0.0045    -999.2500       1.5654       0.5246
   1882.7531    -999.2500      14.0685    -999.2500      98.8000      15.6638       1.2490       1.2771    -999.2500    -999.2500    -999.2500       0.3219    -999.2500       0.0042    -999.2500       1.7570       0.5594
   1882.9054    -999.2500      14.3414    -999.2500      96.5000      16.2967       1.2566       1.1209    -999.2500    -999.2500    -999.2500       0.3007    -999.2500       0.0041    -999.2500       1.8412       0.6647
   1883.0579    -999.2500      12.1571    -999.2500      96.8000      17.6419       1.2063       1.0570    -999.2500    -999.2500    -999.2500       0.2657    -999.2500       0.0035    -999.2500       1.5732       0.6349
   1883.2102    -999.2500      11.9180    -999.2500      99.5000      19.9653       1.2169       0.9591    -999.2500    -999.2500    -999.2500       0.2558    -999.2500       0.0033    -999.2500       1.5924       0.6697
   1883.3627    -999.2500      11.0692    -999.2500     101.2000      20.2692       1.2894       0.9969    -999.2500    -999.2500    -999.2500       0.2607    -999.2500       0.0023    -999.2500       1.7764       0.7443
   1883.5150    -999.2500      11.2003    -999.2500     102.7000      18.1624       1.2604       1.1839    -999.2500    -999.2500    -999.2500       0.2543    -999.2500       0.0017    -999.2500       2.0845       0.8322
   1883.6675    -999.2500      10.6907    -999.2500     103.8000      16.7371       1.3037       1.2116    -999.2500    -999.2500    -999.2500       0.2505    -999.2500       0.0017    -999.2500       1.9480       0.8586
   1883.8198    -999.2500      10.3310    -999.2500     101.5000      17.5297       1.3249       1.2492    -999.2500    -999.2500    -999.2500       0.2721    -999.2500       0.0021    -999.2500       1.6933       0.8990
   1883.9723    -999.2500       7.5689    -999.2500     100.4000      16.3678       1.3206       1.2564    -999.2500    -999.2500    -999.2500       0.3025    -999.2500       0.0019    -999.2500       1.0713       0.8344
   1884.1246    -999.2500       8.1383    -999.2500      97.5000      17.6494       1.3432       1.2433    -999.2500    -999.2500    -999.2500       0.3218    -999.2500       0.0019    -999.2500       1.2393       0.9686
   1884.2771    -999.2500       7.9903    -999.2500      97.1000      20.3619       1.3679       1.2355    -999.2500    -999.2500    -999.2500       0.2893    -999.2500       0.0020    -999.2500       1.1659       0.9987
   1884.4294    -999.2500       9.1408    -999.2500      97.9000      19.5425       1.3914       1.2556    -999.2500    -999.2500    -999.2500       0.2578    -999.2500       0.0025    -999.2500       1.2101       1.0965
   1884.5818    -999.2500      10.7044    -999.2500      98.5000      19.4589       1.3949       1.2858    -999.2500    -999.2500    -999.2500       0.2345    -999.2500       0.0032    -999.2500       1.3121       1.2088
   1884.7343    -999.2500       9.3397    -999.2500      98.2000      20.9371       1.4404       1.2698    -999.2500    -999.2500    -999.2500       0.2536    -999.2500       0.0027    -999.2500       1.1768       1.1814
   1884.8866    -999.2500       7.4964    -999.2500      98.5000      19.4680       1.4660       1.2987    -999.2500    -999.2500    -999.2500       0.2516    -999.2500       0.0022    -999.2500       0.9384       1.0265
   1885.0391    -999.2500       8.8346    -999.2500      97.9000      18.7233       1.4650       1.3731    -999.2500    -999.2500    -999.2500       0.2501    -999.2500       0.0030    -999.2500       0.9609       1.1064
   1885.1914    -999.2500       7.7362    -999.2500      97.2000      17.7219       1.4697       1.4583    -999.2500    -999.2500    -999.2500       0.2384    -999.2500       0.0027    -999.2500       0.7978       1.0418
   1885.3439    -999.2500       7.4251    -999.2500      96.2000      15.9701       1.4696       1.5059    -999.2500    -999.2500    -999.2500       0.2498    -999.2500       0.0025    -999.2500       0.8006       1.0541
   1885.4962    -999.2500      10.1667    -999.2500      95.0000      16.7024       1.4540       1.5462    -999.2500    -999.2500    -999.2500       0.2486    -999.2500       0.0036    -999.2500       1.0176       1.2362
   1885.6487    -999.2500       9.4929    -999.2500      94.0000      19.4756       1.4069       1.5265    -999.2500    -999.2500    -999.2500       0.2304    -999.2500       0.0036    -999.2500       0.8487       1.2704
   1885.8010    -999.2500       7.9238    -999.2500      92.8000      16.8413       1.3161       1.4583    -999.2500    -999.2500    -999.2500       0.2173    -999.2500       0.0031    -999.2500       0.6660       1.2568
   1885.9535    -999.2500       9.3429    -999.2500      94.0000      18.3547       1.2402       1.3239    -999.2500    -999.2500    -999.2500       0.2192    -999.2500       0.0037    -999.2500       0.7567       1.4603
