#------------------------------------------------------------------------------
#
#   Created by  : [OpenWorks] Log Export Utility (LEXP)
#   Created on  : 2016-05-23 11:56:43
#   Project     : CANT971
#   User        : R5K
#   Interpreter : PEP
#
#------------------------------------------------------------------------------
~VERSION INFORMATION
VERS. 2.0 : CWLS Log ASCII Standard - version 2.0
WRAP.  NO : One line per depth step
~WELL INFORMATION
#MNEMONIC   .UNIT                                           VALUE :DESCRIPTION
#------------------------------------------------------------------------------
STRT        .M                                           650.2150 :START DEPTH
STOP        .M                                          2618.6135 :STOP DEPTH
STEP        .M                                             0.1524 :STEP
NULL        .                                           -999.2500 :NULL VALUE
COMP        .                                   PEMEX EXPL & PROD :COMPANY
WELL        .                                                  4D :WELL
FLD         .                                           CANTARELL :FIELD
LOC         .                                             UNKNOWN :LOCATION
CNTY        .                                      CD. DEL CARMEN :COUNTY
STAT        .                                            CAMPECHE :STATE
CTRY        .                                              MEXICO :COUNTRY
SRVC        .                                             UNKNOWN :SERVICE COMPANY
DATE        .                                             UNKNOWN :LOG DATE
UWI         .                                          3060000662 :UNIQUE WELL ID
XCOORD      .                                       598468.500000 :SURFACE X
YCOORD      .                                      2145023.700000 :SURFACE Y
LAT         .                                           19.398162 :LATITUDE
LON         .                                          -92.062225 :LONGITUDE
ELEV        .M                                            26.5400 :SURFACE ELEV
ELEV_TYPE   .                                                  KB :ELEV TYPE
~CURVE INFORMATION
#MNEMONIC.UNIT        API CODE       : CURVE DESCRIPTION
#------------------------------------------------------------------------------
DEPTH    .M                          : Measured Depth
CAL      .inches      UNKNOWN        : CAL:UNKNOWN:rC:NONE:v0 (auto-composite)
CGR      .UNKNOWN     UNKNOWN        : CGR:UNKNOWN:rC:NONE:v0 (auto-composite)
DRHO     .UNKNOWN     UNKNOWN        : DRHO:UNKNOWN:rC:NONE:v0 (auto-composite)
DT       .us/ft       UNKNOWN        : DT:DT:rC:NONE:v0 (auto-composite)
GR       .API         UNKNOWN        : GR:UNKNOWN:rC:NONE:v0 (auto-composite)
ILD      .UNKNOWN     UNKNOWN        : ILD:UNKNOWN:rC:NONE:v0 (auto-composite)
ILM      .UNKNOWN     UNKNOWN        : ILM:UNKNOWN:rC:NONE:v0 (auto-composite)
LLD      .UNKNOWN     UNKNOWN        : LLD:UNKNOWN:rC:NONE:v0 (auto-composite)
LLS      .UNKNOWN     UNKNOWN        : LLS:UNKNOWN:rC:NONE:v0 (auto-composite)
MSFL     .UNKNOWN     UNKNOWN        : MSFL:UNKNOWN:rC:NONE:v0 (auto-composite)
NPHI     .v/v_decimal UNKNOWN        : NPHI:PETROWORKS:rC:NONE:v1 
PEF      .UNKNOWN     UNKNOWN        : PEF:UNKNOWN:rC:NONE:v0 (auto-composite)
POTA     .UNKNOWN     UNKNOWN        : POTA:UNKNOWN:rC:NONE:v0 (auto-composite)
RHOB     .UNKNOWN     UNKNOWN        : RHOB:UNKNOWN:rC:NONE:v0 (auto-composite)
THOR     .UNKNOWN     UNKNOWN        : THOR:UNKNOWN:rC:NONE:v0 (auto-composite)
URAN     .UNKNOWN     UNKNOWN        : URAN:UNKNOWN:rC:NONE:v0 (auto-composite)
~A     DEPTH          CAL          CGR         DRHO           DT           GR          ILD          ILM          LLD          LLS         MSFL         NPHI          PEF         POTA         RHOB         THOR         URAN
# ...
   2567.4070       6.7123       9.7669       0.0731      61.9712      22.9114    -999.2500    -999.2500      82.5017      55.1097      43.6143       0.1166       3.4241       0.0030       2.7426       1.1695       1.5622
   2567.5593       6.7510      11.5506       0.0540      63.0961      25.0761    -999.2500    -999.2500      76.6695      50.6513      61.2661       0.1198       3.5772       0.0033       2.7338       1.3342       1.6237
   2567.7119       6.9256      14.7807       0.0365      61.8876      27.7194    -999.2500    -999.2500      69.6565      46.9104      34.3708       0.1161       3.5437       0.0048       2.7213       1.6695       1.6512
   2567.8643       7.0424      17.3459       0.0253      60.5949      29.7302    -999.2500    -999.2500      62.2394      42.8351      13.5579       0.1099       3.5038       0.0059       2.7130       1.9332       1.6509
   2568.0166       6.8824      16.6557       0.0443      58.8986      28.7130    -999.2500    -999.2500      52.8434      37.1591      22.5252       0.0997       3.4334       0.0054       2.7245       1.8462       1.5149
   2568.1689       6.7744      16.5393       0.0631      57.8464      28.7818    -999.2500    -999.2500      44.2254      31.7488      27.6279       0.0928       3.3527       0.0053       2.7312       1.7885       1.4563
   2568.3215       6.9165      19.2182       0.0811      59.8956      34.1405    -999.2500    -999.2500      39.3965      27.6182      13.9078       0.0957       3.2232       0.0073       2.7152       1.8734       1.7752
   2568.4739       7.0135      21.5623       0.0925      61.9001      39.2658    -999.2500    -999.2500      36.1983      24.8076       3.7318       0.1039       3.1549       0.0091       2.7020       1.8920       2.1059
   2568.6262       6.8950      22.2660       0.0725      63.6904      43.2473    -999.2500    -999.2500      40.9911      28.3200      10.9235       0.1217       3.3800       0.0096       2.7020       1.5854       2.4945
   2568.7786       6.8029      21.7035       0.0565      64.7796      45.1471    -999.2500    -999.2500      47.1604      32.6131      22.5106       0.1351       3.5692       0.0096       2.7118       1.2299       2.7930
   2568.9309       6.8369      14.9680       0.0595      62.4903      37.2345    -999.2500    -999.2500      60.0401      40.6686      55.5248       0.1210       3.5877       0.0071       2.7683       0.6356       2.6519
   2569.0835       6.8766      10.5481       0.0610      61.2220      30.1645    -999.2500    -999.2500      71.2324      47.7927      76.3207       0.1035       3.5873       0.0053       2.8090       0.3016       2.3946
   2569.2358       6.9436      17.3577       0.0550      64.8499      27.0898    -999.2500    -999.2500      74.2416      50.4511      37.8648       0.0803       3.4963       0.0073       2.7739       1.2292       1.5735
   2569.3882       6.9801      23.1779       0.0543      68.7665      25.8724    -999.2500    -999.2500      74.3084      50.9904       9.5413       0.0624       3.4291       0.0091       2.7482       2.0155       0.9683
   2569.5405       6.8712      24.1707       0.0793      74.0607      33.6150    -999.2500    -999.2500      60.0186      41.3068      30.6551       0.0764       3.4761       0.0096       2.7667       2.1125       1.4170
   2569.6931       6.7793      25.0957       0.0991      78.0503      40.5111    -999.2500    -999.2500      47.8926      33.1505      45.1825       0.0862       3.5204       0.0099       2.7801       2.2416       1.8333
   2569.8455       6.7693      25.6909       0.0935      75.7784      43.2984    -999.2500    -999.2500      46.2688      32.3244      27.7410       0.0880       3.5519       0.0094       2.7691       2.5260       2.0927
   2569.9978       6.7669      26.5472       0.0897      72.1798      46.4264    -999.2500    -999.2500      45.5056      32.1280      14.5830       0.0910       3.5646       0.0091       2.7612       2.8094       2.3605
   2570.1501       6.8009      28.6785       0.0937      62.2461      51.1459    -999.2500    -999.2500      48.9448      34.9720      22.3434       0.1068       3.4871       0.0096       2.7682       3.0880       2.6691
   2570.3027       6.8180      29.7229       0.0948      53.8658      53.9567    -999.2500    -999.2500      50.2575      35.8186      26.5213       0.1175       3.4027       0.0098       2.7654       3.2173       2.8859
   2570.4551       6.7539      25.4867       0.0823      52.9480      47.8018    -999.2500    -999.2500      41.2389      27.0704      13.2955       0.1159       3.2846       0.0088       2.7154       2.6216       2.6570
   2570.6074       6.7116      21.0798       0.0728      52.9969      41.5278    -999.2500    -999.2500      32.2968      19.0534       2.1378       0.1155       3.1936       0.0077       2.6790       2.0118       2.4345
   2570.7598       6.7725      15.8384       0.0773      57.6653      34.6842    -999.2500    -999.2500      23.7286      14.5308       1.0884       0.1236       3.2316       0.0062       2.7080       1.3336       2.2435
   2570.9121       6.9371      10.9911       0.0830      61.7941      28.2862    -999.2500    -999.2500      16.5343      10.7293       0.2583       0.1282       3.2341       0.0048       2.7283       0.7117       2.0581
   2571.0647       7.5999       8.0603       0.0945      63.3282      24.0300    -999.2500    -999.2500      16.0200      10.3942       0.4947       0.1187       3.0666       0.0038       2.7068       0.3638       1.9001
   2571.2170       8.1291       5.5548       0.1065      64.5358      20.3278    -999.2500    -999.2500      16.6542      10.9027       0.6656       0.1131       2.9393       0.0029       2.6699       0.0936       1.7569
   2571.3694       8.0196       5.1297       0.1210      64.1820      19.3050    -999.2500    -999.2500      22.9070      15.4462       0.5161       0.1176       3.0048       0.0024       2.5594       0.2031       1.6859
   2571.5217       7.8611       4.8403       0.1350      63.3292      18.5414    -999.2500    -999.2500      28.9284      19.6625       1.7913       0.1317       3.0421       0.0020       2.4722       0.3223       1.6311
   2571.6743       7.4665       5.2116       0.1465      60.0755      19.0534    -999.2500    -999.2500      33.8238      22.3040      10.0002       0.1834       2.9441       0.0020       2.4967       0.4882       1.6551
   2571.8267       7.1456       5.4216       0.1504      58.4272      19.3206    -999.2500    -999.2500      38.1025      24.8847      21.1879       0.2194       2.8939       0.0019       2.5263       0.6360       1.6675
   2571.9790       7.1781       4.8414       0.1179      64.4646      18.4295    -999.2500    -999.2500      39.3615      27.1747      46.9615       0.2260       3.0728       0.0014       2.5803       0.6950       1.6229
   2572.1313       7.1899       4.7410       0.0842      70.0160      18.3370    -999.2500    -999.2500      41.9148      29.6917      65.3532       0.2205       3.2561       0.0013       2.6321       0.7161       1.6159
   2572.2839       7.1018       6.9781       0.0447      73.2267      22.0484    -999.2500    -999.2500      50.7730      33.3021      47.7883       0.1890       3.4602       0.0028       2.6737       0.5521       1.7913
   2572.4363       7.0415       9.0128       0.0154      76.2053      25.4349    -999.2500    -999.2500      58.3521      35.9339      30.4715       0.1573       3.5970       0.0041       2.7081       0.4223       1.9532
   2572.5886       7.1140      10.0562       0.0349      78.0720      27.2647    -999.2500    -999.2500      59.6626      33.8773      14.3711       0.1249       3.4120       0.0046       2.7086       0.4593       2.0487
   2572.7410       7.2089      11.3264       0.0507      79.7428      29.5533    -999.2500    -999.2500      59.6119      31.7324       1.6045       0.1027       3.2251       0.0052       2.6872       0.5153       2.1712
   2572.8933       7.4103      13.7023       0.0492      80.4690      34.0788    -999.2500    -999.2500      52.9255      29.1619       5.0912       0.1161       3.0297       0.0062       2.5618       0.6638       2.4248
