#------------------------------------------------------------------------------
#
#   Created by  : [OpenWorks] Log Export Utility (LEXP)
#   Created on  : 2016-05-23 11:57:01
#   Project     : CANT971
#   User        : R5K
#   Interpreter : PEP
#
#------------------------------------------------------------------------------
~VERSION INFORMATION
VERS. 2.0 : CWLS Log ASCII Standard - version 2.0
WRAP.  NO : One line per depth step
~WELL INFORMATION
#MNEMONIC   .UNIT                                           VALUE :DESCRIPTION
#------------------------------------------------------------------------------
STRT        .M                                           485.8514 :START DEPTH
STOP        .M                                          3526.5361 :STOP DEPTH
STEP        .M                                             0.1524 :STEP
NULL        .                                           -999.2500 :NULL VALUE
COMP        .                                   PEMEX EXPL & PROD :COMPANY
WELL        .                                                  62 :WELL
FLD         .                                           CANTARELL :FIELD
LOC         .                                             UNKNOWN :LOCATION
CNTY        .                                      CD. DEL CARMEN :COUNTY
STAT        .                                            CAMPECHE :STATE
CTRY        .                                              MEXICO :COUNTRY
SRVC        .                                             UNKNOWN :SERVICE COMPANY
DATE        .                                             UNKNOWN :LOG DATE
UWI         .                                          3060000468 :UNIQUE WELL ID
XCOORD      .                                       601711.280000 :SURFACE X
YCOORD      .                                      2142346.320000 :SURFACE Y
LAT         .                                           19.373806 :LATITUDE
LON         .                                          -92.031488 :LONGITUDE
ELEV        .M                                            24.0000 :SURFACE ELEV
ELEV_TYPE   .                                                  KB :ELEV TYPE
~CURVE INFORMATION
#MNEMONIC.UNIT        API CODE       : CURVE DESCRIPTION
#------------------------------------------------------------------------------
DEPTH    .M                          : Measured Depth
CALI     .inches      UNKNOWN        : CALI:editado:rC:NONE:v0 (auto-composite)
DRHO     .g/cm3       UNKNOWN        : DRHO:editado:rC:NONE:v0 (auto-composite)
DT       .us/ft       UNKNOWN        : DT:editado:rC:NONE:v0 (auto-composite)
GR       .API         UNKNOWN        : GR:editado:rC:NONE:v0 (auto-composite)
ILD      .ohm.m       UNKNOWN        : ILD:editado:rC:NONE:v0 (auto-composite)
ILM      .ohm.m       UNKNOWN        : ILM:editado:rC:NONE:v0 (auto-composite)
LLD      .ohm.m       UNKNOWN        : LLD:editado:rC:NONE:v0 (auto-composite)
LLS      .ohm.m       UNKNOWN        : LLS:editado:rC:NONE:v0 (auto-composite)
MSFL     .ohm.m       UNKNOWN        : MSFL:editado:rC:NONE:v0 (auto-composite)
NPHI     .v/v_decimal UNKNOWN        : NPHI:editado:rC:NONE:v0 (auto-composite)
PEF      .b/elec      UNKNOWN        : PEF:editado:rC:NONE:v0 (auto-composite)
RHOB     .g/cm3       UNKNOWN        : RHOB:editado:rC:NONE:v0 (auto-composite)
~A     DEPTH         CALI         DRHO           DT           GR          ILD          ILM          LLD          LLS         MSFL         NPHI          PEF         RHOB
# ...
   3287.5730       9.5980       0.1300      74.0630     101.0630    -999.2500    -999.2500       4.5400       3.9410       0.3040       0.1858       4.4050       2.4410
   3287.7253       9.1678       0.1039      73.8432     103.9314    -999.2500    -999.2500       4.3216       3.9415       0.3075       0.1857       4.4311       2.4075
   3287.8779       8.7400       0.0780      73.6250     106.7880    -999.2500    -999.2500       4.1040       3.9420       0.3110       0.1868       4.4570       2.3740
   3288.0303       8.6879       0.0805      74.0325     107.5520    -999.2500    -999.2500       4.7282       4.1160       0.4985       0.2002       4.7541       2.2645
   3288.1826       8.6360       0.0830      74.4370     108.3130    -999.2500    -999.2500       5.3490       4.2890       0.6850       0.2127       5.0500       2.1550
   3288.3350       8.5894       0.0915      73.9513     107.6232    -999.2500    -999.2500       4.5889       4.0178       0.5331       0.2021       5.1362       2.0970
   3288.4873       8.5430       0.1000      73.4690     106.9360    -999.2500    -999.2500       3.8330       3.7480       0.3820       0.1916       5.2220       2.0390
   3288.6399       8.1750       0.0935      74.0249     106.5753    -999.2500    -999.2500       3.7954       3.7660       0.4116       0.2060       4.7787       2.0845
   3288.7922       7.8090       0.0870      74.5770     106.2160    -999.2500    -999.2500       3.7580       3.7840       0.4410       0.2215       4.3370       2.1300
   3288.9446       7.6541       0.0775      75.6827     105.1842    -999.2500    -999.2500       3.9520       3.8752       0.5859       0.2321       4.0810       2.1705
   3289.0969       7.5000       0.0680      76.7810     104.1560    -999.2500    -999.2500       4.1450       3.9660       0.7300       0.2413       3.8260       2.2110
   3289.2495       7.5000       0.0816      75.6498     104.6382    -999.2500    -999.2500       4.6413       4.1705       1.3681       0.2354       4.1012       2.2841
   3289.4019       7.5000       0.0950      74.5280     105.1180    -999.2500    -999.2500       5.1350       4.3740       2.0030       0.2284       4.3750       2.3570
   3289.5542       7.4599       0.1076      73.7453     106.0272    -999.2500    -999.2500       4.8353       4.3279       2.6827       0.2201       4.5214       2.4546
   3289.7065       7.4200       0.1200      72.9690     106.9320    -999.2500    -999.2500       4.5370       4.2820       3.3590       0.2129       4.6670       2.5520
   3289.8591       7.4285       0.1084      73.3621     110.4835    -999.2500    -999.2500       4.4508       4.2284       3.4477       0.2232       4.3352       2.5275
   3290.0115       7.4370       0.0970      73.7520     114.0180    -999.2500    -999.2500       4.3650       4.1750       3.5360       0.2342       4.0050       2.5030
   3290.1638       7.4270       0.0714      74.1907     114.4164    -999.2500    -999.2500       4.1144       4.1114       3.8081       0.2405       3.8451       2.5756
   3290.3162       7.4170       0.0460      74.6260     114.8130    -999.2500    -999.2500       3.8650       4.0480       4.0790       0.2451       3.6860       2.6480
   3290.4685       7.4080       0.0304      75.2323     112.5107    -999.2500    -999.2500       3.7407       3.9498       3.9773       0.2302       3.5647       2.6435
   3290.6211       7.3990       0.0150      75.8340     110.2190    -999.2500    -999.2500       3.6170       3.8520       3.8760       0.2149       3.4440       2.6390
   3290.7734       7.3694       0.0130      76.1427     111.7484    -999.2500    -999.2500       3.5764       3.8024       3.4566       0.2124       3.4841       2.6380
   3290.9258       7.3400       0.0110      76.4490     113.2710    -999.2500    -999.2500       3.5360       3.7530       3.0390       0.2108       3.5240       2.6370
   3291.0781       7.3114       0.0241      76.8666     113.3386    -999.2500    -999.2500       3.6262       3.8582       3.3126       0.2089       3.5400       2.6480
   3291.2307       7.2830       0.0370      77.2810     113.4060    -999.2500    -999.2500       3.7160       3.9630       3.5850       0.2066       3.5560       2.6590
   3291.3831       7.2604       0.0380      76.8093     111.6523    -999.2500    -999.2500       4.0597       4.1163       4.1221       0.1990       3.5465       2.6625
   3291.5354       7.2380       0.0390      76.3410     109.9060    -999.2500    -999.2500       4.4020       4.2690       4.6560       0.1916       3.5370       2.6660
   3291.6877       7.1924       0.0269      75.6836     110.7126    -999.2500    -999.2500       4.5247       4.3266       4.4324       0.1920       3.5130       2.6625
   3291.8401       7.1470       0.0150      75.0310     111.5160    -999.2500    -999.2500       4.6470       4.3840       4.2100       0.1939       3.4890       2.6590
   3291.9927       7.1249       0.0130      75.1534     114.8010    -999.2500    -999.2500       4.7147       4.4151       4.4201       0.2069       3.4885       2.6540
   3292.1450       7.1030       0.0110      75.2750     118.0730    -999.2500    -999.2500       4.7820       4.4460       4.6290       0.2204       3.4880       2.6490
   3292.2974       7.0794       0.0266      75.5449     120.4360    -999.2500    -999.2500       4.8306       4.4505       4.6897       0.2306       3.5125       2.6420
   3292.4497       7.0560       0.0420      75.8130     122.7900    -999.2500    -999.2500       4.8790       4.4550       4.7500       0.2392       3.5370       2.6350
   3292.6023       7.0460       0.0490      75.6749     123.0520    -999.2500    -999.2500       5.0169       4.4876       4.5906       0.2333       3.4914       2.6435
   3292.7546       7.0360       0.0560      75.5380     123.3130    -999.2500    -999.2500       5.1540       4.5200       4.4320       0.2260       3.4460       2.6520
   3292.9070       7.0164       0.0540      75.1514     119.7321    -999.2500    -999.2500       4.8357       4.3701       4.5338       0.2177       3.4305       2.6715
   3293.0593       6.9970       0.0520      74.7680     116.1640    -999.2500    -999.2500       4.5190       4.2210       4.6350       0.2099       3.4150       2.6910
   3293.2119       6.9574       0.0414      74.4823     114.3274    -999.2500    -999.2500       4.8433       4.3052       3.6300       0.2098       3.4010       2.6765
   3293.3643       6.9180       0.0310      74.1990     112.5000    -999.2500    -999.2500       5.1660       4.3890       2.6300       0.2098       3.3870       2.6620
   3293.5166       6.8538       0.0250      74.0700     114.6458    -999.2500    -999.2500       5.5088       4.5073       3.4891       0.2045       3.3765       2.6550
   3293.6689       6.7900       0.0190      73.9420     116.7810    -999.2500    -999.2500       5.8500       4.6250       4.3440       0.1993       3.3660       2.6480
   3293.8213       6.7569       0.0180      73.5007     114.9361    -999.2500    -999.2500       5.9588       4.6611       4.0483       0.2007       3.4006       2.6390
   3293.9739       6.7240       0.0170      73.0630     113.1000    -999.2500    -999.2500       6.0670       4.6970       3.7540       0.2023       3.4350       2.6300
   3294.1262       6.7004       0.0140      73.2668     105.8902    -999.2500    -999.2500       5.0917       4.2695       3.4789       0.1989       3.3914       2.6230
   3294.2786       6.6770       0.0110      73.4690      98.7140    -999.2500    -999.2500       4.1210       3.8440       3.2050       0.1959       3.3480       2.6160
   3294.4309       6.6504       0.0110      72.8200      97.3730    -999.2500    -999.2500       4.6241       4.0224       2.9985       0.2009       3.3766       2.6155
   3294.5835       6.6240       0.0110      72.1760      96.0380    -999.2500    -999.2500       5.1250       4.2000       2.7930       0.2059       3.4050       2.6150
   3294.7358       6.6070       0.0170      71.1305      93.1692    -999.2500    -999.2500       5.1405       4.1990       3.3628       0.2029       3.3689       2.6370
