#------------------------------------------------------------------------------
#
#   Created by  : [OpenWorks] Log Export Utility (LEXP)
#   Created on  : 2016-05-23 11:50:37
#   Project     : CANT971
#   User        : R5K
#   Interpreter : PEP
#
#------------------------------------------------------------------------------
~VERSION INFORMATION
VERS. 2.0 : CWLS Log ASCII Standard - version 2.0
WRAP.  NO : One line per depth step
~WELL INFORMATION
#MNEMONIC   .UNIT                                           VALUE :DESCRIPTION
#------------------------------------------------------------------------------
STRT        .M                                           690.6770 :START DEPTH
STOP        .M                                          3400.6538 :STOP DEPTH
STEP        .M                                             0.1524 :STEP
NULL        .                                           -999.2500 :NULL VALUE
COMP        .                                   PEMEX EXPL & PROD :COMPANY
WELL        .                                                1024 :WELL
FLD         .                                           CANTARELL :FIELD
LOC         .                                             UNKNOWN :LOCATION
CNTY        .                                      CD. DEL CARMEN :COUNTY
STAT        .                                            CAMPECHE :STATE
CTRY        .                                              MEXICO :COUNTRY
SRVC        .                                             UNKNOWN :SERVICE COMPANY
DATE        .                                             UNKNOWN :LOG DATE
UWI         .                                          3060000490 :UNIQUE WELL ID
XCOORD      .                                       596162.640000 :SURFACE X
YCOORD      .                                      2150611.280000 :SURFACE Y
LAT         .                                           19.448767 :LATITUDE
LON         .                                          -92.083900 :LONGITUDE
ELEV        .M                                            30.0000 :SURFACE ELEV
ELEV_TYPE   .                                                  KB :ELEV TYPE
~CURVE INFORMATION
#MNEMONIC.UNIT        API CODE       : CURVE DESCRIPTION
#------------------------------------------------------------------------------
DEPTH    .M                          : Measured Depth
CALI     .inches      UNKNOWN        : CALI:registros:rC:NONE:v0 (auto-composite)
DRHO     .g/cm3       UNKNOWN        : DRHO:registros:rC:NONE:v0 (auto-composite)
DT       .us/ft       UNKNOWN        : DT:registros:rC:NONE:v0 (auto-composite)
GR       .API         UNKNOWN        : GR:registros:rC:NONE:v0 (auto-composite)
ILD      .ohm.m       UNKNOWN        : ILD:registros:rC:NONE:v0 (auto-composite)
ILM      .ohm.m       UNKNOWN        : ILM:registros:rC:NONE:v0 (auto-composite)
LLD      .ohm.m       UNKNOWN        : LLD:registros:rC:NONE:v0 (auto-composite)
LLS      .ohm.m       UNKNOWN        : LLS:registros:rC:NONE:v0 (auto-composite)
MSFL     .ohm.m       UNKNOWN        : MSFL:registros:rC:NONE:v0 (auto-composite)
NPHI     .v/v_decimal UNKNOWN        : NPHI:registros:rC:NONE:v0 (auto-composite)
PEF      .b/elec      UNKNOWN        : PEF:registros:rC:NONE:v0 (auto-composite)
RHOB     .g/cm3       UNKNOWN        : RHOB:registros:rC:NONE:v0 (auto-composite)
~A     DEPTH         CALI         DRHO           DT           GR          ILD          ILM          LLD          LLS         MSFL         NPHI          PEF         RHOB
# ...
   3214.4209       8.6840       0.0060      57.4580      59.7400    -999.2500    -999.2500      35.7970      43.0820      52.3150       0.1222       3.2740       2.6460
   3214.5735       8.6730       0.0065      57.7137      59.6813    -999.2500    -999.2500      36.7936      44.3719      50.5020       0.1236       3.2620       2.6435
   3214.7258       8.6620       0.0070      57.9700      59.6230    -999.2500    -999.2500      37.7930      45.6590      48.6870       0.1251       3.2500       2.6410
   3214.8782       8.6635       0.0075      57.8137      59.4479    -999.2500    -999.2500      39.3822      47.6349      50.3180       0.1270       3.2825       2.6375
   3215.0305       8.6650       0.0080      57.6570      59.2740    -999.2500    -999.2500      40.9760      49.6070      51.9510       0.1285       3.3150       2.6340
   3215.1831       8.6705       0.0070      57.2826      60.9531    -999.2500    -999.2500      41.5487      50.4443      52.7944       0.1274       3.4129       2.6320
   3215.3354       8.6760       0.0060      56.9070      62.6210    -999.2500    -999.2500      42.1230      51.2800      53.6390       0.1255       3.5110       2.6300
   3215.4878       8.6670       0.0055      56.3913      66.7484    -999.2500    -999.2500      42.7256      52.0912      54.9111       0.1208       3.4695       2.6345
   3215.6401       8.6580       0.0050      55.8740      70.8490    -999.2500    -999.2500      43.3300      52.9010      56.1850       0.1158       3.4280       2.6390
   3215.7925       8.6445       0.0065      55.3799      74.6010    -999.2500    -999.2500      46.3561      56.5279      60.1658       0.1114       3.3401       2.6550
   3215.9451       8.6310       0.0080      54.8850      78.3290    -999.2500    -999.2500      49.3870      60.1490      64.1530       0.1074       3.2520       2.6710
   3216.0974       8.6315       0.0100      54.7346      79.8964    -999.2500    -999.2500      53.2297      64.8880      69.4421       0.1054       3.1965       2.6850
   3216.2498       8.6320       0.0120      54.5840      81.4540    -999.2500    -999.2500      57.0790      69.6200      74.7320       0.1039       3.1410       2.6990
   3216.4021       8.6340       0.0115      54.6050      80.8396    -999.2500    -999.2500      59.5737      72.9287      78.2595       0.1032       3.1480       2.7030
   3216.5547       8.6360       0.0110      54.6260      80.2290    -999.2500    -999.2500      62.0730      76.2330      81.7880       0.1025       3.1550       2.7070
   3216.7070       8.6275       0.0105      54.6035      78.8669    -999.2500    -999.2500      63.7259      78.5177      83.7856       0.1013       3.2000       2.7050
   3216.8594       8.6190       0.0100      54.5810      77.5130    -999.2500    -999.2500      65.3820      80.7960      85.7840       0.1000       3.2450       2.7030
   3217.0117       8.6055       0.0095      54.8492      76.3802    -999.2500    -999.2500      66.7301      82.6144      86.3384       0.0989       3.3169       2.7020
   3217.1643       8.5920       0.0090      55.1180      75.2540    -999.2500    -999.2500      68.0810      84.4280      86.8930       0.0979       3.3890       2.7010
   3217.3167       8.5955       0.0080      55.6924      75.6170    -999.2500    -999.2500      69.1618      85.9414      88.5480       0.0974       3.4344       2.6980
   3217.4690       8.5990       0.0070      56.2680      75.9780    -999.2500    -999.2500      70.2450      87.4510      90.2040       0.0969       3.4800       2.6950
   3217.6213       8.5975       0.0070      55.9873      77.4506    -999.2500    -999.2500      72.7356      90.5858      92.3697       0.0959       3.4730       2.6920
   3217.7737       8.5960       0.0070      55.7060      78.9150    -999.2500    -999.2500      75.2320      93.7130      94.5370       0.0949       3.4660       2.6890
   3217.9263       8.5780       0.0070      55.0473      78.2497    -999.2500    -999.2500      81.1067     100.8613      99.8127       0.0935       3.4810       2.6945
   3218.0786       8.5600       0.0070      54.3870      77.5880    -999.2500    -999.2500      86.9960     107.9930     105.0930       0.0921       3.4960       2.7000
   3218.2310       8.5475       0.0065      54.0135      74.4260    -999.2500    -999.2500      95.8554     118.7352     111.5457       0.0907       3.4810       2.7040
   3218.3833       8.5350       0.0060      53.6390      71.2860    -999.2500    -999.2500     104.7380     129.4540     118.0050       0.0895       3.4660       2.7080
   3218.5359       8.5350       0.0065      53.3829      66.9165    -999.2500    -999.2500     116.0630     143.1256     125.8405       0.0889       3.4090       2.7055
   3218.6882       8.5350       0.0070      53.1260      62.5770    -999.2500    -999.2500     127.4190     156.7690     133.6850       0.0887       3.3520       2.7030
   3218.8406       8.5295       0.0080      53.2618      60.0535    -999.2500    -999.2500     136.7701     167.9954     145.3876       0.0900       3.3165       2.7020
   3218.9929       8.5240       0.0090      53.3980      57.5470    -999.2500    -999.2500     146.1480     179.2000     157.1050       0.0917       3.2810       2.7010
   3219.1455       8.5205       0.0100      53.5218      56.7037    -999.2500    -999.2500     149.3322     182.7948     166.2871       0.0936       3.2740       2.6970
   3219.2979       8.5170       0.0110      53.6460      55.8660    -999.2500    -999.2500     152.5260     186.3830     175.4820       0.0953       3.2670       2.6930
   3219.4502       8.5165       0.0115      53.4758      54.8607    -999.2500    -999.2500     150.1257     182.9631     166.9734       0.0954       3.2950       2.6880
   3219.6025       8.5160       0.0120      53.3050      53.8620    -999.2500    -999.2500     147.7180     179.5490     158.4520       0.0951       3.3230       2.6830
   3219.7549       8.5170       0.0115      53.0417      52.5493    -999.2500    -999.2500     150.0121     181.7242     153.0060       0.0940       3.3710       2.6860
   3219.9075       8.5180       0.0110      52.7780      51.2450    -999.2500    -999.2500     152.3100     183.8960     147.5510       0.0927       3.4190       2.6890
   3220.0598       8.5205       0.0100      52.6266      50.3081    -999.2500    -999.2500     156.7516     188.6599     157.6817       0.0911       3.4490       2.6935
   3220.2122       8.5230       0.0090      52.4750      49.3770    -999.2500    -999.2500     161.2010     193.4170     167.8140       0.0895       3.4790       2.6980
   3220.3645       8.5225       0.0085      52.5020      47.9662    -999.2500    -999.2500     159.0376     190.8618     180.2352       0.0885       3.4780       2.6970
   3220.5171       8.5220       0.0080      52.5290      46.5640    -999.2500    -999.2500     156.8700     188.3100     192.6600       0.0878       3.4770       2.6960
   3220.6694       8.5215       0.0085      52.8687      44.8569    -999.2500    -999.2500     153.1468     183.9344     186.1734       0.0889       3.4470       2.6960
   3220.8218       8.5210       0.0090      53.2090      43.1600    -999.2500    -999.2500     149.4160     179.5710     179.6840       0.0905       3.4170       2.6960
   3220.9741       8.5275       0.0100      53.7040      42.5327    -999.2500    -999.2500     147.8252     177.7741     163.1730       0.0935       3.4340       2.6915
   3221.1267       8.5340       0.0110      54.2000      41.9090    -999.2500    -999.2500     146.2310     175.9820     146.6530       0.0966       3.4510       2.6870
   3221.2791       8.5340       0.0120      54.5326      41.6949    -999.2500    -999.2500     145.6666     175.3862     134.8324       0.0992       3.4355       2.6775
   3221.4314       8.5340       0.0130      54.8660      41.4820    -999.2500    -999.2500     145.1010     174.7920     123.0040       0.1016       3.4200       2.6680
   3221.5837       8.5360       0.0125      54.9524      40.5198    -999.2500    -999.2500     142.2344     171.1281     126.0983       0.1033       3.4015       2.6620
