#------------------------------------------------------------------------------
#
#   Created by  : [OpenWorks] Log Export Utility (LEXP)
#   Created on  : 2016-05-23 11:57:21
#   Project     : CANT971
#   User        : R5K
#   Interpreter : PEP
#
#------------------------------------------------------------------------------
~VERSION INFORMATION
VERS. 2.0 : CWLS Log ASCII Standard - version 2.0
WRAP.  NO : One line per depth step
~WELL INFORMATION
#MNEMONIC   .UNIT                                           VALUE :DESCRIPTION
#------------------------------------------------------------------------------
STRT        .M                                           117.7290 :START DEPTH
STOP        .M                                          2309.5459 :STOP DEPTH
STEP        .M                                             0.1524 :STEP
NULL        .                                           -999.2500 :NULL VALUE
COMP        .                                   PEMEX EXPL & PROD :COMPANY
WELL        .                                                  7A :WELL
FLD         .                                           CANTARELL :FIELD
LOC         .                                             UNKNOWN :LOCATION
CNTY        .                                      CD. DEL CARMEN :COUNTY
STAT        .                                            CAMPECHE :STATE
CTRY        .                                              MEXICO :COUNTRY
SRVC        .                                             UNKNOWN :SERVICE COMPANY
DATE        .                                             UNKNOWN :LOG DATE
UWI         .                                          3060000143 :UNIQUE WELL ID
XCOORD      .                                       603360.310000 :SURFACE X
YCOORD      .                                      2145096.320000 :SURFACE Y
LAT         .                                           19.398572 :LATITUDE
LON         .                                          -92.015639 :LONGITUDE
ELEV        .M                                            27.1400 :SURFACE ELEV
ELEV_TYPE   .                                                  KB :ELEV TYPE
~CURVE INFORMATION
#MNEMONIC.UNIT        API CODE       : CURVE DESCRIPTION
#------------------------------------------------------------------------------
DEPTH    .M                          : Measured Depth
CALI     .in          UNKNOWN        : CALI:resistivos:rC:NONE:v0 (auto-composite)
DRHO     .g/cm3       UNKNOWN        : DRHO:PETROWORKS:rC:NONE:v2 
DT       .us/ft       UNKNOWN        : DT:DT:rC:NONE:v0 (auto-composite)
GR       .API         UNKNOWN        : GR:UNKNOWN:rC:NONE:v0 (auto-composite)
ILD      .ohmm        UNKNOWN        : ILD:resistivos:rC:NONE:v0 (auto-composite)
LLD      .ohm.m       UNKNOWN        : LLD:UNKNOWN:rC:NONE:v0 (auto-composite)
LLS      .ohm.m       UNKNOWN        : LLS:UNKNOWN:rC:NONE:v0 (auto-composite)
MSFL     .ohm.m       UNKNOWN        : MSFL:UNKNOWN:rC:NONE:v0 (auto-composite)
NPHI     .v/v_decimal     UNKNOWN        : NPHI:PETROWORKS:rC:NONE:v1 
RHOB     .g/cm3       UNKNOWN        : RHOB:UNKNOWN:rC:NONE:v0 (auto-composite)
SN       .ohm.m       UNKNOWN        : SN:UNKNOWN:rC:NONE:v0 (auto-composite)
~A     DEPTH         CALI         DRHO           DT           GR          ILD          LLD          LLS         MSFL         NPHI         RHOB           SN
# ...
   1702.6890       6.9835       0.0595      80.3139      19.3678    -999.2500     306.1604     242.5687      35.1221       0.0779       2.7080    -999.2500
   1702.8414       6.9265       0.0588      74.3381      16.7554    -999.2500     424.6198     309.5893      45.6446       0.0748       2.7100    -999.2500
   1702.9938       6.9197       0.0580      70.5971      15.1947    -999.2500     562.8169     334.0540      86.0243       0.0711       2.7182    -999.2500
   1703.1462       6.9632       0.0572      69.0836      14.6956    -999.2500     720.9418     315.5534     156.5486       0.0675       2.7327    -999.2500
   1703.2986       6.9708       0.0568      70.5275      14.4440    -999.2500     727.4376     273.5889     162.7101       0.0647       2.7398    -999.2500
   1703.4510       6.9423       0.0564      74.9198      14.4440    -999.2500     579.8223     207.7765     103.4554       0.0628       2.7392    -999.2500
   1703.6034       6.9549       0.0564      76.4877      14.4440    -999.2500     440.3465     168.7242      66.9274       0.0653       2.7320    -999.2500
   1703.7559       7.0089       0.0564      75.2387      14.4440    -999.2500     308.9619     156.2736      52.9915       0.0685       2.7180    -999.2500
   1703.9082       7.0699       0.0568      71.8971      14.2259    -999.2500     220.5460     139.4306      46.4054       0.0756       2.7048    -999.2500
   1704.0605       7.1380       0.0573      66.4748      13.7896    -999.2500     175.1296     118.1923      47.1746       0.0829       2.6923    -999.2500
   1704.2130       7.2122       0.0574      65.2607      13.7465    -999.2500     136.5433      94.4481      40.6908       0.0911       2.6695    -999.2500
   1704.3654       7.2927       0.0574      68.2321      14.0982    -999.2500     104.8157      68.1874      26.9238       0.0995       2.6366    -999.2500
   1704.5178       7.3058       0.0574      72.4803      14.3662    -999.2500      77.4643      50.8342      21.0682       0.1084       2.5805    -999.2500
   1704.6702       7.2513       0.0574      77.9986      14.5496    -999.2500      54.5367      42.4853      23.2103       0.1167       2.5010    -999.2500
   1704.8226       7.1835       0.0574      78.2286      14.9261    -999.2500      47.2281      44.6223      31.5401       0.1221       2.4928    -999.2500
   1704.9750       7.1025       0.0574      73.1963      15.4985    -999.2500      55.7634      57.3961      46.1468       0.1260       2.5570    -999.2500
   1705.1274       7.0647       0.0573      71.1202      16.2712    -999.2500      70.2127      71.0479      64.2749       0.1214       2.6163    -999.2500
   1705.2798       7.0702       0.0570      71.9867      17.2433    -999.2500      90.5484      85.5736      85.9081       0.1161       2.6708    -999.2500
   1705.4323       7.0610       0.0566      72.8930      18.2614    -999.2500     115.1114      87.4742     105.1147       0.1066       2.7030    -999.2500
   1705.5846       7.0370       0.0562      73.8390      19.3255    -999.2500     143.8964      76.7651     121.8977       0.0973       2.7130    -999.2500
   1705.7371       6.9968       0.0557      72.0291      19.3965    -999.2500     150.2310      74.4080     138.4102       0.0887       2.7180    -999.2500
   1705.8894       6.9403       0.0553      67.4747      18.4689    -999.2500     133.9931      80.4484     154.6507       0.0811       2.7180    -999.2500
   1706.0417       6.8993       0.0552      65.9988      17.4798    -999.2500     120.8994      90.3678     142.1609       0.0789       2.7197    -999.2500
   1706.1942       6.8738       0.0552      67.5892      16.4286    -999.2500     110.9782     104.2008     100.6844       0.0772       2.7232    -999.2500
   1706.3466       6.8548       0.0558      69.9053      16.2920    -999.2500     109.4383     115.2032      73.9288       0.0787       2.7200    -999.2500
   1706.4990       6.8423       0.0564      72.9442      17.0842    -999.2500     116.4111     123.3307      62.1245       0.0799       2.7100    -999.2500
   1706.6514       6.8467       0.0566      75.7056      17.8324    -999.2500     139.8336     131.9022      59.4051       0.0786       2.7063    -999.2500
   1706.8038       6.8682       0.0567      78.1905      18.5368    -999.2500     179.5970     140.9147      65.7103       0.0768       2.7088    -999.2500
   1706.9562       6.8815       0.0564      78.2341      18.4524    -999.2500     229.5968     154.2563      77.5669       0.0725       2.7222    -999.2500
   1707.1086       6.8865       0.0561      75.8442      17.5791    -999.2500     289.8332     171.9271      94.9749       0.0683       2.7467    -999.2500
   1707.2610       6.9117       0.0559      74.1528      16.7594    -999.2500     352.2817     186.8555     134.6964       0.0649       2.7540    -999.2500
   1707.4135       6.9572       0.0557      73.1578      15.9938    -999.2500     416.9573     199.0233     196.8810       0.0616       2.7440    -999.2500
   1707.5658       6.9940       0.0560      74.1894      15.3195    -999.2500     436.2862     196.6670     219.3588       0.0591       2.7335    -999.2500
   1707.7183       7.0220       0.0564      77.2420      14.7375    -999.2500     409.8062     179.6387     201.7250       0.0569       2.7225    -999.2500
   1707.8706       7.0517       0.0566      78.0523      14.5837    -999.2500     387.6902     168.1288     160.7889       0.0567       2.7225    -999.2500
   1708.0229       7.0832       0.0568      76.6328      14.8655    -999.2500     370.0122     162.2310      96.1557       0.0569       2.7335    -999.2500
   1708.1754       7.1020       0.0568      75.6686      15.1247    -999.2500     386.5590     170.4747      58.3544       0.0596       2.7458    -999.2500
   1708.3278       7.1080       0.0568      75.1571      15.3615    -999.2500     437.1469     192.7841      47.2412       0.0624       2.7593    -999.2500
   1708.4802       7.0870       0.0570      76.5509      15.7277    -999.2500     451.2001     196.3334      40.3245       0.0662       2.7710    -999.2500
   1708.6326       7.0390       0.0572      79.8403      16.2235    -999.2500     428.6718     181.0985      37.6096       0.0697       2.7810    -999.2500
   1708.7850       6.9820       0.0581      77.6846      16.5816    -999.2500     414.5949     180.9587      29.1844       0.0714       2.7730    -999.2500
   1708.9374       6.9160       0.0592      70.1104      16.8015    -999.2500     409.0096     195.9857      15.0217       0.0729       2.7471    -999.2500
   1709.0898       6.8568       0.0605      67.2210      17.0924    -999.2500     413.6190     209.9912      12.5724       0.0731       2.7248    -999.2500
   1709.2422       6.8043       0.0620      68.9950      17.4552    -999.2500     428.5401     222.9636      21.9709       0.0733       2.7063    -999.2500
   1709.3947       6.7942       0.0633      70.6860      17.8668    -999.2500     445.5574     241.6106      41.9740       0.0733       2.7065    -999.2500
   1709.5470       6.8267       0.0647      72.2944      18.3279    -999.2500     464.7023     266.0170      72.7405       0.0729       2.7255    -999.2500
   1709.6995       6.8742       0.0653      70.4236      18.3850    -999.2500     520.2485     292.7647     100.7641       0.0694       2.7465    -999.2500
   1709.8518       6.9367       0.0659      65.0878      18.0396    -999.2500     612.0464     321.8441     126.0562       0.0660       2.7695    -999.2500
   1710.0042       6.9760       0.0657      67.0182      18.0794    -999.2500     711.0662     347.0502     128.8487       0.0635       2.7798    -999.2500
   1710.1566       6.9920       0.0654      76.1869      18.5040    -999.2500     817.3033     368.3854     109.1566       0.0615       2.7773    -999.2500
   1710.3090       6.9918       0.0649      80.6112      18.7599    -999.2500     894.5264     357.8460     109.0419       0.0629       2.7670    -999.2500
   1710.4614       6.9753       0.0644      80.3082      18.8458    -999.2500     942.5612     315.2404     128.6225       0.0643       2.7490    -999.2500
