#------------------------------------------------------------------------------
#
#   Created by  : [OpenWorks] Log Export Utility (LEXP)
#   Created on  : 2016-05-23 11:51:57
#   Project     : CANT971
#   User        : R5K
#   Interpreter : PEP
#
#------------------------------------------------------------------------------
~VERSION INFORMATION
VERS. 2.0 : CWLS Log ASCII Standard - version 2.0
WRAP. YES : Mulitple lines per depth step
~WELL INFORMATION
#MNEMONIC   .UNIT                                           VALUE :DESCRIPTION
#------------------------------------------------------------------------------
STRT        .M                                           782.8787 :START DEPTH
STOP        .M                                          2966.0088 :STOP DEPTH
STEP        .M                                             0.1524 :STEP
NULL        .                                           -999.2500 :NULL VALUE
COMP        .                                   PEMEX EXPL & PROD :COMPANY
WELL        .                                                 178 :WELL
FLD         .                                           CANTARELL :FIELD
LOC         .                                             UNKNOWN :LOCATION
CNTY        .                                      CD. DEL CARMEN :COUNTY
STAT        .                                            CAMPECHE :STATE
CTRY        .                                              MEXICO :COUNTRY
SRVC        .                                             UNKNOWN :SERVICE COMPANY
DATE        .                                             UNKNOWN :LOG DATE
UWI         .                                          3060000702 :UNIQUE WELL ID
XCOORD      .                                       602144.590000 :SURFACE X
YCOORD      .                                      2147185.340000 :SURFACE Y
LAT         .                                           19.417512 :LATITUDE
LON         .                                          -92.027103 :LONGITUDE
ELEV        .M                                            28.1700 :SURFACE ELEV
ELEV_TYPE   .                                                  KB :ELEV TYPE
~CURVE INFORMATION
#MNEMONIC.UNIT        API CODE       : CURVE DESCRIPTION
#------------------------------------------------------------------------------
DEPTH    .M                          : Measured Depth
CALI     .inches      UNKNOWN        : CALI:registros:rC:NONE:v0 (auto-composite)
CGR      .API         UNKNOWN        : CGR:registros:rC:NONE:v0 (auto-composite)
DRHO     .g/cm3       UNKNOWN        : DRHO:registros:rC:NONE:v0 (auto-composite)
DT       .UNKNOWN     UNKNOWN        : DT:registros:rC:NONE:v0 (auto-composite)
GR       .API         UNKNOWN        : GR:registros:rC:NONE:v0 (auto-composite)
GR-LWD   .UNKNOWN     UNKNOWN        : GR-LWD:registros:rC:NONE:v0 (auto-composite)
ILD      .ohm.m       UNKNOWN        : ILD:registros:rC:NONE:v0 (auto-composite)
ILM      .ohm.m       UNKNOWN        : ILM:registros:rC:NONE:v0 (auto-composite)
LLD      .ohm.m       UNKNOWN        : LLD:registros:rC:NONE:v0 (auto-composite)
LLD-LWD  .UNKNOWN     UNKNOWN        : LLD-LWD:registros:rC:NONE:v0 (auto-composite)
LLS      .ohm.m       UNKNOWN        : LLS:registros:rC:NONE:v0 (auto-composite)
LLS-LWD  .UNKNOWN     UNKNOWN        : LLS-LWD:registros:rC:NONE:v0 (auto-composite)
MSFL     .ohm.m       UNKNOWN        : MSFL:registros:rC:NONE:v0 (auto-composite)
MSFL-LWD .UNKNOWN     UNKNOWN        : MSFL-LWD:registros:rC:NONE:v0 (auto-composite)
NPHI     .v/v_decimal UNKNOWN        : NPHI:registros:rC:NONE:v0 (auto-composite)
PEF      .b/elec      UNKNOWN        : PEF:registros:rC:NONE:v0 (auto-composite)
POTA     .wtpercent   UNKNOWN        : POTA:registros:rC:NONE:v0 (auto-composite)
RHOB     .g/cm3       UNKNOWN        : RHOB:registros:rC:NONE:v0 (auto-composite)
THOR     .ppm         UNKNOWN        : THOR:registros:rC:NONE:v0 (auto-composite)
URAN     .ppm         UNKNOWN        : URAN:registros:rC:NONE:v0 (auto-composite)
~A
# ...
   2188.3115
      12.0813       5.2064       0.0910      84.1716      43.8572    -999.2500
    -999.2500    -999.2500     176.4509    -999.2500      28.5616    -999.2500
    -999.2500    -999.2500       0.0583       2.6239       0.0020       2.7435
       0.6111       5.2911
   2188.4639
      12.3098       5.0800       0.0747      85.6081      36.9877    -999.2500
    -999.2500    -999.2500     160.8802    -999.2500      28.0084    -999.2500
    -999.2500    -999.2500       0.0550       2.4350       0.0020       2.7460
       0.6074       4.3727
   2188.6162
      12.5462       6.0099       0.0837      85.9912      35.1106    -999.2500
    -999.2500    -999.2500     138.8672    -999.2500      27.2342    -999.2500
    -999.2500    -999.2500       0.0580       2.4095       0.0022       2.7085
       0.8515       4.0168
   2188.7688
      12.7542       6.9260       0.0934      86.3017      33.3507    -999.2500
    -999.2500    -999.2500     117.8772    -999.2500      26.4913    -999.2500
    -999.2500    -999.2500       0.0613       2.3999       0.0024       2.6713
       1.0910       3.6733
   2188.9211
      12.6317       7.6357       0.1104      85.7878      33.0285    -999.2500
    -999.2500    -999.2500     109.3528    -999.2500      26.1337    -999.2500
    -999.2500    -999.2500       0.0678       2.5733       0.0025       2.6373
       1.2658       3.4896
   2189.0735
      12.5005       8.2725       0.1280      85.2726      32.7696    -999.2500
    -999.2500    -999.2500     101.3128    -999.2500      25.8454    -999.2500
    -999.2500    -999.2500       0.0741       2.7462       0.0025       2.6052
       1.4291       3.3259
   2189.2258
      12.2681       8.0399       0.1525      84.7245      33.2789    -999.2500
    -999.2500    -999.2500      99.0443    -999.2500      26.3658    -999.2500
    -999.2500    -999.2500       0.0784       2.9094       0.0024       2.5957
       1.4550       3.3981
   2189.3784
      12.0510       7.7686       0.1724      84.1757      33.7791    -999.2500
    -999.2500    -999.2500      97.9904    -999.2500      26.9708    -999.2500
    -999.2500    -999.2500       0.0826       3.0644       0.0023       2.5890
       1.4637       3.4789
   2189.5308
      12.0129       7.0648       0.1405      83.6108      34.1621    -999.2500
    -999.2500    -999.2500     110.9508    -999.2500      28.5274    -999.2500
    -999.2500    -999.2500       0.0860       3.1199       0.0021       2.6140
       1.2731       3.6526
   2189.6831
      11.9775       6.4078       0.1094      83.2165      34.5458    -999.2500
    -999.2500    -999.2500     123.3128    -999.2500      30.0391    -999.2500
    -999.2500    -999.2500       0.0888       3.1561       0.0021       2.6362
       1.0872       3.8183
   2189.8354
      11.9715       6.3191       0.0894      84.7425      34.9549    -999.2500
    -999.2500    -999.2500     128.4530    -999.2500      30.9990    -999.2500
    -999.2500    -999.2500       0.0854       2.9720       0.0022       2.6262
       0.9665       3.8842
   2189.9880
      11.9600       6.2678       0.0751      86.3438      35.4050    -999.2500
    -999.2500    -999.2500     132.1524    -999.2500      31.8565    -999.2500
    -999.2500    -999.2500       0.0821       2.8114       0.0025       2.6137
       0.8480       3.9461
   2190.1404
      11.8855       6.6520       0.1266      88.8258      36.3358    -999.2500
    -999.2500    -999.2500     119.0924    -999.2500      31.5005    -999.2500
    -999.2500    -999.2500       0.0808       2.9283       0.0027       2.5727
       0.7601       3.9596
   2190.2927
      11.8114       7.0171       0.1730      91.1296      37.2193    -999.2500
    -999.2500    -999.2500     107.8110    -999.2500      31.3473    -999.2500
    -999.2500    -999.2500       0.0800       3.0329       0.0029       2.5362
       0.6739       3.9699
   2190.4451
      11.7409       7.1428       0.1605      91.4716      37.5133    -999.2500
    -999.2500    -999.2500     117.2919    -999.2500      33.5167    -999.2500
    -999.2500    -999.2500       0.0843       2.9939       0.0031       2.5507
       0.6105       3.9446
   2190.5974
      11.6789       7.3063       0.1466      91.7199      37.6130    -999.2500
    -999.2500    -999.2500     126.5489    -999.2500      35.6747    -999.2500
    -999.2500    -999.2500       0.0875       2.9415       0.0033       2.5677
       0.5563       3.8977
   2190.7500
      11.7149       7.8980       0.1167      90.9058      35.4045    -999.2500
    -999.2500    -999.2500     132.6655    -999.2500      37.5721    -999.2500
    -999.2500    -999.2500       0.0780       2.7352       0.0036       2.6142
       0.6097       3.6066
   2190.9023
      11.7536       8.4253       0.0909      90.1422      33.2439    -999.2500
    -999.2500    -999.2500     138.1394    -999.2500      39.3435    -999.2500
    -999.2500    -999.2500       0.0688       2.5589       0.0038       2.6581
       0.6663       3.3303
   2191.0547
      11.8236       8.1929       0.1149      89.9340      31.6617    -999.2500
    -999.2500    -999.2500     136.0245    -999.2500      39.5978    -999.2500
    -999.2500    -999.2500       0.0642       2.7313       0.0037       2.6716
       0.7566       3.2344
   2191.2070
      11.8862       7.9251       0.1360      89.7109      30.2666    -999.2500
    -999.2500    -999.2500     134.3869    -999.2500      39.9434    -999.2500
    -999.2500    -999.2500       0.0597       2.8957       0.0034       2.6857
       0.8435       3.1605
   2191.3596
      11.8632       7.2626       0.1240      89.3092      31.0670    -999.2500
    -999.2500    -999.2500     138.3816    -999.2500      41.3268    -999.2500
    -999.2500    -999.2500       0.0559       2.9671       0.0030       2.7072
       0.8874       3.3422
   2191.5120
      11.8405       6.5657       0.1112      88.9105      32.0726    -999.2500
    -999.2500    -999.2500     141.8379    -999.2500      42.6547    -999.2500
    -999.2500    -999.2500       0.0524       3.0093       0.0025       2.7266
       0.9203       3.5564
   2191.6643
      11.8215       5.5070       0.0882      88.5323      35.4637    -999.2500
    -999.2500    -999.2500     139.0310    -999.2500      43.3086    -999.2500
    -999.2500    -999.2500       0.0503       2.7145       0.0020       2.7221
       0.8244       4.1325
   2191.8167
      11.8070       4.5868       0.0684      88.1509      38.7760    -999.2500
    -999.2500    -999.2500     136.8724    -999.2500      44.0718    -999.2500
    -999.2500    -999.2500       0.0482       2.4375       0.0018       2.7169
       0.7303       4.6692
   2191.9692
      11.8450       5.2991       0.0859      87.7101      40.9925    -999.2500
    -999.2500    -999.2500     142.3360    -999.2500      46.0645    -999.2500
    -999.2500    -999.2500       0.0470       2.3680       0.0020       2.7034
       0.6590       4.7351
   2192.1216
      11.8849       6.0120       0.1026      87.3819      42.7811    -999.2500
    -999.2500    -999.2500     148.0347    -999.2500      48.0342    -999.2500
    -999.2500    -999.2500       0.0473       2.3235       0.0025       2.6920
       0.5883       4.7708
   2192.2739
      11.9458       6.6958       0.1096      88.3245      39.4197    -999.2500
    -999.2500    -999.2500     156.2488    -999.2500      49.6774    -999.2500
    -999.2500    -999.2500       0.0647       2.5662       0.0031       2.7045
       0.5299       4.4573
   2192.4263
      12.0086       7.2826       0.1143      89.3351      36.3834    -999.2500
    -999.2500    -999.2500     160.7811    -999.2500      50.2882    -999.2500
    -999.2500    -999.2500       0.0817       2.7764       0.0035       2.7091
       0.4791       4.1765
   2192.5786
      12.0915       6.7240       0.0929      91.1464      37.2473    -999.2500
    -999.2500    -999.2500     122.5879    -999.2500      38.9287    -999.2500
    -999.2500    -999.2500       0.0957       2.6051       0.0033       2.6247
       0.5175       4.2827
