#------------------------------------------------------------------------------
#
#   Created by  : [OpenWorks] Log Export Utility (LEXP)
#   Created on  : 2016-05-12 17:01:16
#   Project     : CANT971
#   User        : R5K
#   Interpreter : PEP
#
#------------------------------------------------------------------------------
~VERSION INFORMATION
VERS. 2.0 : CWLS Log ASCII Standard - version 2.0
WRAP.  NO : One line per depth step
~WELL INFORMATION
#MNEMONIC   .UNIT                                           VALUE :DESCRIPTION
#------------------------------------------------------------------------------
STRT        .M                                          4907.2798 :START DEPTH
STOP        .M                                          5813.7549 :STOP DEPTH
STEP        .M                                             0.1524 :STEP
NULL        .                                           -999.2500 :NULL VALUE
COMP        .                                   PEMEX EXPL & PROD :COMPANY
WELL        .                                            3026D_ST :WELL
FLD         .                                           CANTARELL :FIELD
LOC         .                                             UNKNOWN :LOCATION
CNTY        .                                      CD. DEL CARMEN :COUNTY
STAT        .                                            CAMPECHE :STATE
CTRY        .                                              MEXICO :COUNTRY
SRVC        .                                             UNKNOWN :SERVICE COMPANY
DATE        .                                             UNKNOWN :LOG DATE
UWI         .                                      3060000820D_ST :UNIQUE WELL ID
XCOORD      .                                       601717.200000 :SURFACE X
YCOORD      .                                      2148573.570000 :SURFACE Y
LAT         .                                           19.430078 :LATITUDE
LON         .                                          -92.031099 :LONGITUDE
ELEV        .M                                            30.0000 :SURFACE ELEV
ELEV_TYPE   .                                                  KB :ELEV TYPE
~CURVE INFORMATION
#MNEMONIC.UNIT        API CODE       : CURVE DESCRIPTION
#------------------------------------------------------------------------------
DEPTH    .M                          : Measured Depth
CALI     .inches      UNKNOWN        : CALI:registros:rC:NONE:v0 (auto-composite)
CGR      .API         UNKNOWN        : CGR:registros:rC:NONE:v0 (auto-composite)
DRHO     .g/cm3       UNKNOWN        : DRHO:registros:rC:NONE:v0 (auto-composite)
DT       .us/ft       UNKNOWN        : DT:registros:rC:NONE:v0 (auto-composite)
GR       .API         UNKNOWN        : GR:registros:rC:NONE:v0 (auto-composite)
ILD      .ohm.m       UNKNOWN        : ILD:registros:rC:NONE:v0 (auto-composite)
ILM      .ohm.m       UNKNOWN        : ILM:registros:rC:NONE:v0 (auto-composite)
NPHI     .UNKNOWN     UNKNOWN        : NPHI:registros:rC:NONE:v0 (auto-composite)
PEF      .b/elec      UNKNOWN        : PEF:registros:rC:NONE:v0 (auto-composite)
POTA     .UNKNOWN     UNKNOWN        : POTA:registros:rC:NONE:v0 (auto-composite)
RHOB     .g/cm3       UNKNOWN        : RHOB:registros:rC:NONE:v0 (auto-composite)
THOR     .ppm         UNKNOWN        : THOR:registros:rC:NONE:v0 (auto-composite)
URAN     .ppm         UNKNOWN        : URAN:registros:rC:NONE:v0 (auto-composite)
~A     DEPTH         CALI          CGR         DRHO           DT           GR          ILD          ILM         NPHI          PEF         POTA         RHOB         THOR         URAN
# ...
   5530.9004       7.6740    -999.2500       0.0100      67.2128     112.5855       3.4820       3.4597       0.2319      13.9435    -999.2500       2.6389    -999.2500    -999.2500
   5531.0532       7.7301    -999.2500       0.0028      68.1035     113.0102       3.3525       3.3344       0.2313      20.1750    -999.2500       2.6344    -999.2500    -999.2500
   5531.2056       7.8362    -999.2500       0.0097      69.7209     108.3394       3.2798       3.2617       0.2385      77.7192    -999.2500       2.6572    -999.2500    -999.2500
   5531.3579       8.2442    -999.2500       0.0035      71.3383     101.8371       3.2678       3.2486       0.2413      51.2155    -999.2500       2.6586    -999.2500    -999.2500
   5531.5103       8.3826    -999.2500      -0.0002      77.1103      97.8740       3.0017       2.9847       0.2556      55.3317    -999.2500       2.6544    -999.2500    -999.2500
   5531.6626       8.4188    -999.2500      -0.0099      81.4595      98.5817       2.7113       2.6970       0.2606      67.7736    -999.2500       2.6280    -999.2500    -999.2500
   5531.8149       8.3377    -999.2500      -0.0053      84.6740     102.2617       2.5396       2.5256       0.2776      80.5434    -999.2500       2.6282    -999.2500    -999.2500
   5531.9673       8.2438    -999.2500      -0.0100      82.2804     109.2679       2.4602       2.4494       0.2824      60.1859    -999.2500       2.6262    -999.2500    -999.2500
   5532.1196       8.1432    -999.2500      -0.0113      75.6964     112.8318       2.6159       2.5988       0.2750      61.9634    -999.2500       2.6303    -999.2500    -999.2500
   5532.2720       7.9986    -999.2500      -0.0165      75.8282     111.9826       2.7050       2.6835       0.2455      50.7598    -999.2500       2.6246    -999.2500    -999.2500
   5532.4248       8.0042    -999.2500      -0.0080      73.3965     109.2226       2.7758       2.7478       0.2186      66.0690    -999.2500       2.6432    -999.2500    -999.2500
   5532.5771       8.0905    -999.2500      -0.0061      72.2833     102.8279       2.9056       2.8695       0.2033      77.1575    -999.2500       2.6566    -999.2500    -999.2500
   5532.7295       8.2278    -999.2500       0.0086      75.6278      98.5817       3.1886       3.1406       0.2039      84.9375    -999.2500       2.6776    -999.2500    -999.2500
   5532.8818       8.3024    -999.2500       0.0122      73.5991      96.1887       3.1023       3.0530       0.2079      57.1592    -999.2500       2.6734    -999.2500    -999.2500
   5533.0342       8.1405    -999.2500       0.0204      75.3377     100.0102       2.7620       2.7161       0.2189      50.9037    -999.2500       2.6727    -999.2500    -999.2500
   5533.1865       8.2228    -999.2500       0.0140      71.9970     103.5487       2.5836       2.5431       0.2280      54.7732    -999.2500       2.6653    -999.2500    -999.2500
   5533.3389       8.2249    -999.2500       0.0069      74.3104     103.7479       2.4877       2.4485       0.2348      56.0384    -999.2500       2.6571    -999.2500    -999.2500
   5533.4912       8.2304    -999.2500      -0.0016      79.4938     104.8802       2.4519       2.4138       0.2462      52.8420    -999.2500       2.6491    -999.2500    -999.2500
   5533.6436       8.4619    -999.2500      -0.0099      79.6733     106.8617       2.4471       2.4114       0.2498       0.3381    -999.2500       2.6375    -999.2500    -999.2500
   5533.7964       8.8682    -999.2500      -0.0186      80.3410     106.9351       2.7608       2.7115       0.2445      23.3193    -999.2500       2.6340    -999.2500    -999.2500
   5533.9487       8.8946    -999.2500      -0.0259      77.9046     104.5788       3.1303       3.0756       0.2345      66.9347    -999.2500       2.6295    -999.2500    -999.2500
   5534.1011       8.8958    -999.2500      -0.0275      75.5830     102.5315       3.5129       3.4513       0.2130      50.6932    -999.2500       2.6351    -999.2500    -999.2500
   5534.2534       8.8971    -999.2500      -0.0401      72.8900     103.2568       3.8521       3.7857       0.2043      61.9584    -999.2500       2.6180    -999.2500    -999.2500
   5534.4058       8.8977    -999.2500      -0.0396      72.2284     105.0470       3.7623       3.7273       0.1882      50.6820    -999.2500       2.6181    -999.2500    -999.2500
   5534.5581       8.8134    -999.2500      -0.0397      73.9308     104.2609       3.3071       3.2800       0.1906      54.8764    -999.2500       2.6196    -999.2500    -999.2500
   5534.7104       8.7290    -999.2500      -0.0457      74.2540     104.7360       3.1067       3.0674       0.1931      50.7628    -999.2500       2.6223    -999.2500    -999.2500
   5534.8628       8.7407    -999.2500      -0.0585      74.6792     104.5945       2.8208       2.7879       0.2022      57.0268    -999.2500       2.5971    -999.2500    -999.2500
   5535.0156       8.5369    -999.2500      -0.0695      75.6519     107.1160       2.6696       2.6294       0.2164      52.1435    -999.2500       2.5753    -999.2500    -999.2500
   5535.1680       8.5576    -999.2500      -0.0786      73.9222     104.5683       2.8130       2.7864       0.2238      57.6123    -999.2500       2.5497    -999.2500    -999.2500
   5535.3203       8.8100    -999.2500      -0.0814      72.4725     102.7283       2.8827       2.8510       0.2346      58.5395    -999.2500       2.5506    -999.2500    -999.2500
   5535.4727       8.8691    -999.2500      -0.0774      76.7529     104.7046       2.8177       2.7904       0.2405      72.0860    -999.2500       2.5525    -999.2500    -999.2500
   5535.6250       8.7927    -999.2500      -0.0675      73.6522     103.6430       2.8271       2.8017       0.2430      58.6559    -999.2500       2.5644    -999.2500    -999.2500
   5535.7773       8.9434    -999.2500      -0.0464      73.5424     104.1751       3.0351       3.0081       0.2437      64.0548    -999.2500       2.5855    -999.2500    -999.2500
   5535.9297       8.9958    -999.2500      -0.0290      74.4362      99.5384       3.1924       3.1674       0.2444      68.7261    -999.2500       2.6059    -999.2500    -999.2500
   5536.0820       9.0929    -999.2500      -0.0265      75.3299     101.4702       3.4043       3.3742       0.2507      65.3744    -999.2500       2.5955    -999.2500    -999.2500
   5536.2344       8.9708    -999.2500      -0.0356      74.0902      99.5620       3.7129       3.6724       0.2506      64.5194    -999.2500       2.5820    -999.2500    -999.2500
   5536.3872       8.8876    -999.2500      -0.0544      73.1855      98.4061       3.9981       3.9461       0.2453      51.3295    -999.2500       2.5642    -999.2500    -999.2500
   5536.5396       8.7600    -999.2500      -0.0722      70.5370      97.1113       4.0823       4.0228       0.2256      51.5569    -999.2500       2.5618    -999.2500    -999.2500
   5536.6919       8.6985    -999.2500      -0.0759      71.2529     100.7913       4.0604       3.9961       0.2070      50.9521    -999.2500       2.5687    -999.2500    -999.2500
   5536.8442       8.6215    -999.2500      -0.0765      70.4238     102.7540       3.8578       3.7932       0.1950      55.0647    -999.2500       2.5697    -999.2500    -999.2500
   5536.9966       8.5573    -999.2500      -0.0827      70.9670     103.8580       3.7784       3.7133       0.2023      59.3299    -999.2500       2.5566    -999.2500    -999.2500
   5537.1489       8.7616    -999.2500      -0.0958      74.5185     102.6841       3.7480       3.6800       0.2081      70.0043    -999.2500       2.5157    -999.2500    -999.2500
   5537.3013       8.7941    -999.2500      -0.1038      72.9507      99.8850       3.5930       3.5214       0.2198      66.5176    -999.2500       2.4801    -999.2500    -999.2500
   5537.4536       8.6415    -999.2500      -0.1142      64.4870      96.1935       3.4536       3.3975       0.2371      77.6777    -999.2500       2.4549    -999.2500    -999.2500
