#------------------------------------------------------------------------------
#
#   Created by  : [OpenWorks] Log Export Utility (LEXP)
#   Created on  : 2016-05-23 11:50:15
#   Project     : CANT971
#   User        : R5K
#   Interpreter : PEP
#
#------------------------------------------------------------------------------
~VERSION INFORMATION
VERS. 2.0 : CWLS Log ASCII Standard - version 2.0
WRAP.  NO : One line per depth step
~WELL INFORMATION
#MNEMONIC   .UNIT                                           VALUE :DESCRIPTION
#------------------------------------------------------------------------------
STRT        .M                                          2144.1199 :START DEPTH
STOP        .M                                          3100.2776 :STOP DEPTH
STEP        .M                                             0.1524 :STEP
NULL        .                                           -999.2500 :NULL VALUE
COMP        .                                   PEMEX EXPL & PROD :COMPANY
WELL        .                                               1004D :WELL
FLD         .                                           CANTARELL :FIELD
LOC         .                                             UNKNOWN :LOCATION
CNTY        .                                      CD. DEL CARMEN :COUNTY
STAT        .                                            CAMPECHE :STATE
CTRY        .                                              MEXICO :COUNTRY
SRVC        .                                             UNKNOWN :SERVICE COMPANY
DATE        .                                             UNKNOWN :LOG DATE
UWI         .                                               1004D :UNIQUE WELL ID
XCOORD      .                                       594534.600000 :SURFACE X
YCOORD      .                                      2142053.350000 :SURFACE Y
LAT         .                                           19.371510 :LATITUDE
LON         .                                          -92.099834 :LONGITUDE
ELEV        .M                                            30.0000 :SURFACE ELEV
ELEV_TYPE   .                                                  KB :ELEV TYPE
~CURVE INFORMATION
#MNEMONIC.UNIT        API CODE       : CURVE DESCRIPTION
#------------------------------------------------------------------------------
DEPTH    .M                          : Measured Depth
CALI     .in          UNKNOWN        : CALI:litodensidad:rC:NONE:v0 (auto-composite)
DRHO     .g/cm3       UNKNOWN        : DRHO:litodensidad:rC:NONE:v0 (auto-composite)
DT       .us/ft       UNKNOWN        : DT:DT-Load:rC:NONE:v0 (auto-composite)
GR       .API         UNKNOWN        : GR:TMDL:rC:NONE:v0 (auto-composite)
GR-LWD   .API         UNKNOWN        : GR-LWD:PETROWORKS:rC:NONE:v1 
ILD-LWD  .ohm.m       UNKNOWN        : ILD-LWD:resistivos-LWD:rC:NONE:v0 (auto-composite)
ILM-LWD  .ohm.m       UNKNOWN        : ILM-LWD:resistivos-LWD:rC:NONE:v0 (auto-composite)
LLD-LWD  .ohm.m       UNKNOWN        : LLD-LWD:resistivos-LWD:rC:NONE:v0 (auto-composite)
LLS      .ohm.m       UNKNOWN        : LLS:resistivos:rC:NONE:v0 (auto-composite)
LLS-LWD  .ohm.m       UNKNOWN        : LLS-LWD:resistivos-LWD:rC:NONE:v0 (auto-composite)
MSFL     .ohm.m       UNKNOWN        : MSFL:resistivos:rC:NONE:v0 (auto-composite)
MSFL-LWD .ohm.m       UNKNOWN        : MSFL-LWD:resistivos-LWD:rC:NONE:v0 (auto-composite)
NPHI     .v/v_decimal UNKNOWN        : NPHI:PETROWORKS:rC:NONE:v2 
PEF      .b/elec      UNKNOWN        : PEF:litodensidad:rC:NONE:v0 (auto-composite)
RHOB     .g/cm3       UNKNOWN        : RHOB:litodensidad:rC:NONE:v0 (auto-composite)
~A     DEPTH         CALI         DRHO           DT           GR       GR-LWD      ILD-LWD      ILM-LWD      LLD-LWD          LLS      LLS-LWD         MSFL     MSFL-LWD         NPHI          PEF         RHOB
# ...
   2791.9722      20.9569       0.2274      82.4206      55.5891    -999.2500    -999.2500    -999.2500    -999.2500      23.2794    -999.2500       2.9156    -999.2500       0.2027       2.7503       2.1075
   2792.1248      18.2165       0.2097      81.7071      58.2578    -999.2500    -999.2500    -999.2500    -999.2500      23.1432    -999.2500       3.2618    -999.2500       0.2007       2.8513       2.1950
   2792.2771      17.2092       0.2160      80.2274      59.3129    -999.2500    -999.2500    -999.2500    -999.2500      23.3445    -999.2500       3.9661    -999.2500       0.1896       2.9686       2.3202
   2792.4294      15.1313       0.2485      84.9120      61.4634    -999.2500    -999.2500    -999.2500    -999.2500      24.3843    -999.2500       5.0957    -999.2500       0.1778       2.9709       2.3154
   2792.5818      12.7516       0.2822      87.9542      58.1131    -999.2500    -999.2500    -999.2500    -999.2500      25.0298    -999.2500       5.9423    -999.2500       0.2249       2.8597       2.2009
   2792.7344      12.3482       0.3127      86.0553      56.5572    -999.2500    -999.2500    -999.2500    -999.2500      23.4478    -999.2500       5.5721    -999.2500       0.2943       2.9044       2.1442
   2792.8867      12.1430       0.2972      83.3756      54.6970    -999.2500    -999.2500    -999.2500    -999.2500      17.6104    -999.2500       4.4332    -999.2500       0.3099       3.1293       2.2171
   2793.0391      11.8211       0.2549      77.8234      54.8940    -999.2500    -999.2500    -999.2500    -999.2500      25.7856    -999.2500       5.9053    -999.2500       0.2211       3.3457       2.4240
   2793.1914      11.7919       0.1746      75.8378      50.5929    -999.2500    -999.2500    -999.2500    -999.2500     110.3986    -999.2500       8.4437    -999.2500       0.0981       3.4256       2.6440
   2793.3440      11.6948       0.0948      77.8880      48.1400    -999.2500    -999.2500    -999.2500    -999.2500     128.1723    -999.2500     125.8987    -999.2500       0.0209       3.3587       2.7747
   2793.4963      11.6180       0.0364      77.4216      54.4374    -999.2500    -999.2500    -999.2500    -999.2500     141.7202    -999.2500     383.2114    -999.2500       0.0131       3.2883       2.7973
   2793.6487      11.5412       0.0047      77.5191      55.8933    -999.2500    -999.2500    -999.2500    -999.2500     143.3082    -999.2500     810.3062    -999.2500       0.0133       3.2572       2.7519
   2793.8010      11.5559      -0.0009      76.0174      53.9991    -999.2500    -999.2500    -999.2500    -999.2500     143.2192    -999.2500     587.0560    -999.2500       0.0153       3.2429       2.7315
   2793.9534      11.6363      -0.0029      74.1398      52.3159    -999.2500    -999.2500    -999.2500    -999.2500     134.7044    -999.2500     278.9915    -999.2500       0.0163       3.2483       2.7213
   2794.1060      11.6515      -0.0046      64.2368      50.4900    -999.2500    -999.2500    -999.2500    -999.2500     140.4734    -999.2500     214.1232    -999.2500       0.0160       3.2516       2.7170
   2794.2583      11.7075      -0.0047      56.7143      55.6808    -999.2500    -999.2500    -999.2500    -999.2500     203.0119    -999.2500     161.9521    -999.2500       0.0149       3.2914       2.7139
   2794.4106      11.7002      -0.0035      56.7891      56.9321    -999.2500    -999.2500    -999.2500    -999.2500     228.4536    -999.2500     286.6188    -999.2500       0.0133       3.3378       2.7139
   2794.5630      11.6030      -0.0007      55.7191      54.0688    -999.2500    -999.2500    -999.2500    -999.2500     186.4622    -999.2500     300.4132    -999.2500       0.0145       3.3257       2.7285
   2794.7156      11.5654      -0.0018      57.3974      50.3181    -999.2500    -999.2500    -999.2500    -999.2500     271.9633    -999.2500     437.4009    -999.2500       0.0113       3.3136       2.7422
   2794.8679      11.4869      -0.0008      58.2573      46.8533    -999.2500    -999.2500    -999.2500    -999.2500     399.1226    -999.2500     375.0944    -999.2500       0.0093       3.2470       2.7766
   2795.0203      11.4716      -0.0005      60.1516      45.5102    -999.2500    -999.2500    -999.2500    -999.2500     489.0796    -999.2500     391.3239    -999.2500       0.0034       3.2111       2.8073
   2795.1726      11.5836       0.0014      59.2419      49.2739    -999.2500    -999.2500    -999.2500    -999.2500     513.1815    -999.2500     760.7474    -999.2500       0.0027       3.1814       2.8341
   2795.3250      11.5692      -0.0004      57.1947      52.3692    -999.2500    -999.2500    -999.2500    -999.2500     525.6337    -999.2500    1293.0278    -999.2500       0.0022       3.2578       2.8294
   2795.4775      11.5522      -0.0034      55.3564      50.4404    -999.2500    -999.2500    -999.2500    -999.2500     384.6793    -999.2500     832.7744    -999.2500       0.0038       3.3636       2.8104
   2795.6299      11.5036      -0.0038      53.3391      50.4544    -999.2500    -999.2500    -999.2500    -999.2500     506.3767    -999.2500     311.6255    -999.2500       0.0048       3.4290       2.7952
   2795.7822      11.4194      -0.0054      54.4632      50.4865    -999.2500    -999.2500    -999.2500    -999.2500    1187.9960    -999.2500     256.2891    -999.2500       0.0074       3.4555       2.7723
   2795.9346      11.4416      -0.0036      53.3269      50.3616    -999.2500    -999.2500    -999.2500    -999.2500    1452.1859    -999.2500     270.4018    -999.2500       0.0101       3.4081       2.7610
   2796.0872      11.4865      -0.0029      50.0637      44.7799    -999.2500    -999.2500    -999.2500    -999.2500    1047.3936    -999.2500     626.9315    -999.2500       0.0113       3.3360       2.7555
   2796.2395      11.5128      -0.0005      51.3029      45.8460    -999.2500    -999.2500    -999.2500    -999.2500     866.3759    -999.2500    1171.7197    -999.2500       0.0099       3.2504       2.7710
   2796.3918      11.4699      -0.0019      53.6729      47.1644    -999.2500    -999.2500    -999.2500    -999.2500    1033.8790    -999.2500    1047.9619    -999.2500       0.0078       3.2214       2.7810
   2796.5442      11.4137      -0.0018      49.0457      47.0745    -999.2500    -999.2500    -999.2500    -999.2500    1382.3884    -999.2500    1178.1859    -999.2500       0.0071       3.1697       2.7943
   2796.6968      11.4229      -0.0004      49.2643      46.5494    -999.2500    -999.2500    -999.2500    -999.2500    1935.1392    -999.2500    1129.5671    -999.2500       0.0083       3.1172       2.7972
   2796.8491      11.4547       0.0035      47.5474      45.0660    -999.2500    -999.2500    -999.2500    -999.2500    1747.7419    -999.2500    1547.5448    -999.2500       0.0095       3.0632       2.7937
   2797.0015      11.4511       0.0054      45.1077      54.8588    -999.2500    -999.2500    -999.2500    -999.2500    1156.6506    -999.2500    1691.8442    -999.2500       0.0101       3.0811       2.7747
   2797.1538      11.5052       0.0046      46.3993      52.3503    -999.2500    -999.2500    -999.2500    -999.2500    1792.1438    -999.2500     701.4389    -999.2500       0.0105       3.1155       2.7475
   2797.3062      11.4419       0.0031      49.4065      51.2388    -999.2500    -999.2500    -999.2500    -999.2500     730.1572    -999.2500     653.9404    -999.2500       0.0108       3.1558       2.7208
   2797.4587      11.3894       0.0141      49.9390      44.9815    -999.2500    -999.2500    -999.2500    -999.2500    1105.6329    -999.2500     284.0785    -999.2500       0.0077       3.2239       2.7234
   2797.6111      11.3631       0.0217      45.4586      46.0944    -999.2500    -999.2500    -999.2500    -999.2500    1678.0226    -999.2500      64.2841    -999.2500       0.0045       3.2844       2.7520
   2797.7634      11.3312       0.0205      50.6899      48.8188    -999.2500    -999.2500    -999.2500    -999.2500    1702.8695    -999.2500      64.4030    -999.2500       0.0020       3.3215       2.7996
