#------------------------------------------------------------------------------
#
#   Created by  : [OpenWorks] Log Export Utility (LEXP)
#   Created on  : 2016-05-23 11:56:12
#   Project     : CANT971
#   User        : R5K
#   Interpreter : PEP
#
#------------------------------------------------------------------------------
~VERSION INFORMATION
VERS. 2.0 : CWLS Log ASCII Standard - version 2.0
WRAP.  NO : One line per depth step
~WELL INFORMATION
#MNEMONIC   .UNIT                                           VALUE :DESCRIPTION
#------------------------------------------------------------------------------
STRT        .M                                           365.7604 :START DEPTH
STOP        .M                                          2883.8655 :STOP DEPTH
STEP        .M                                             0.1524 :STEP
NULL        .                                           -999.2500 :NULL VALUE
COMP        .                                   PEMEX EXPL & PROD :COMPANY
WELL        .                                                  44 :WELL
FLD         .                                           CANTARELL :FIELD
LOC         .                                             UNKNOWN :LOCATION
CNTY        .                                      CD. DEL CARMEN :COUNTY
STAT        .                                            CAMPECHE :STATE
CTRY        .                                              MEXICO :COUNTRY
SRVC        .                                             UNKNOWN :SERVICE COMPANY
DATE        .                                             UNKNOWN :LOG DATE
UWI         .                                          3060000162 :UNIQUE WELL ID
XCOORD      .                                       599695.380000 :SURFACE X
YCOORD      .                                      2143038.730000 :SURFACE Y
LAT         .                                           19.380164 :LATITUDE
LON         .                                          -92.050646 :LONGITUDE
ELEV        .M                                            26.7400 :SURFACE ELEV
ELEV_TYPE   .                                                  KB :ELEV TYPE
~CURVE INFORMATION
#MNEMONIC.UNIT        API CODE       : CURVE DESCRIPTION
#------------------------------------------------------------------------------
DEPTH    .M                          : Measured Depth
CALI     .inches      UNKNOWN        : CALI:registros:rC:NONE:v0 (auto-composite)
CGR      .API         UNKNOWN        : CGR:registros:rC:NONE:v0 (auto-composite)
DRHO     .g/cm3       UNKNOWN        : DRHO:registros:rC:NONE:v0 (auto-composite)
DT       .UNKNOWN     UNKNOWN        : DT:registros:rC:NONE:v0 (auto-composite)
GR       .API         UNKNOWN        : GR:registros:rC:NONE:v0 (auto-composite)
ILD      .ohm.m       UNKNOWN        : ILD:registros:rC:NONE:v0 (auto-composite)
LLD      .ohm.m       UNKNOWN        : LLD:registros:rC:NONE:v0 (auto-composite)
LLS      .ohm.m       UNKNOWN        : LLS:registros:rC:NONE:v0 (auto-composite)
MSFL     .ohm.m       UNKNOWN        : MSFL:registros:rC:NONE:v0 (auto-composite)
NPHI     .UNKNOWN     UNKNOWN        : NPHI:registros:rC:NONE:v0 (auto-composite)
PEF      .b/elec      UNKNOWN        : PEF:registros:rC:NONE:v0 (auto-composite)
POTA     .wtpercent   UNKNOWN        : POTA:registros:rC:NONE:v0 (auto-composite)
RHOB     .g/cm3       UNKNOWN        : RHOB:registros:rC:NONE:v0 (auto-composite)
THOR     .ppm         UNKNOWN        : THOR:registros:rC:NONE:v0 (auto-composite)
URAN     .ppm         UNKNOWN        : URAN:registros:rC:NONE:v0 (auto-composite)
~A     DEPTH         CALI          CGR         DRHO           DT           GR          ILD          LLD          LLS         MSFL         NPHI          PEF         POTA         RHOB         THOR         URAN
# ...
   1845.7168      15.8232    -999.2500      -0.0465      88.0683      39.7281    -999.2500       3.3467       4.1759       3.5716       0.3748    -999.2500    -999.2500       2.0032    -999.2500    -999.2500
   1845.8691      13.4560    -999.2500      -0.0400      78.7300      34.2970    -999.2500       4.4560       5.3970       6.6270       0.2758    -999.2500    -999.2500       2.2100    -999.2500    -999.2500
   1846.0216      12.5874    -999.2500      -0.0199      70.9765      34.5028    -999.2500       7.8428       9.2286      12.3029       0.1812    -999.2500    -999.2500       2.4097    -999.2500    -999.2500
   1846.1740      11.7290    -999.2500       0.0000      63.2840      34.7070    -999.2500      11.2030      13.0300      17.9340       0.1104    -999.2500    -999.2500       2.6070    -999.2500    -999.2500
   1846.3264      11.7049    -999.2500       0.0075      64.5886      35.7747    -999.2500      10.8706      12.6282      18.5607       0.0894    -999.2500    -999.2500       2.6005    -999.2500    -999.2500
   1846.4788      11.6810    -999.2500       0.0150      65.8780      36.8300    -999.2500      10.5420      12.2310      19.1800       0.0905    -999.2500    -999.2500       2.5940    -999.2500    -999.2500
   1846.6312      11.6775    -999.2500       0.0075      66.9786      37.7377    -999.2500      10.0718      11.5197      17.7449       0.0922    -999.2500    -999.2500       2.5764    -999.2500    -999.2500
   1846.7836      11.6740    -999.2500       0.0000      68.0690      38.6370    -999.2500       9.6060      10.8150      16.3230       0.0938    -999.2500    -999.2500       2.5590    -999.2500    -999.2500
   1846.9360      11.6614    -999.2500       0.0025      67.8879      39.0153    -999.2500       9.9271      11.0453      16.6611       0.0948    -999.2500    -999.2500       2.5726    -999.2500    -999.2500
   1847.0884      11.6490    -999.2500       0.0050      67.7080      39.3910    -999.2500      10.2460      11.2740      16.9970       0.0953    -999.2500    -999.2500       2.5860    -999.2500    -999.2500
   1847.2407      11.6314    -999.2500       0.0110      67.4530      38.2792    -999.2500      10.5852      11.5997      17.5602       0.0953    -999.2500    -999.2500       2.5996    -999.2500    -999.2500
   1847.3932      11.6140    -999.2500       0.0170      67.1990      37.1720    -999.2500      10.9230      11.9240      18.1210       0.0956    -999.2500    -999.2500       2.6130    -999.2500    -999.2500
   1847.5455      11.6054    -999.2500       0.0089      66.8842      37.9933    -999.2500      11.1313      12.2784      18.6813       0.0969    -999.2500    -999.2500       2.5979    -999.2500    -999.2500
   1847.6980      11.5970    -999.2500       0.0010      66.5720      38.8080    -999.2500      11.3380      12.6300      19.2370       0.0986    -999.2500    -999.2500       2.5830    -999.2500    -999.2500
   1847.8503      11.5889    -999.2500       0.0040      66.7687      39.4830    -999.2500      11.0704      12.4414      19.5825       0.1003    -999.2500    -999.2500       2.5875    -999.2500    -999.2500
   1848.0028      11.5810    -999.2500       0.0070      66.9630      40.1500    -999.2500      10.8060      12.2550      19.9240       0.1021    -999.2500    -999.2500       2.5920    -999.2500    -999.2500
   1848.1552      11.5584    -999.2500       0.0095      67.3553      38.8976    -999.2500      10.4845      12.0626      19.4136       0.1045    -999.2500    -999.2500       2.5940    -999.2500    -999.2500
   1848.3076      11.5360    -999.2500       0.0120      67.7440      37.6570    -999.2500      10.1660      11.8720      18.9080       0.1069    -999.2500    -999.2500       2.5960    -999.2500    -999.2500
   1848.4600      11.5134    -999.2500       0.0135      68.0966      37.0446    -999.2500       9.7066      11.7050      17.9912       0.1087    -999.2500    -999.2500       2.5869    -999.2500    -999.2500
   1848.6124      11.4910    -999.2500       0.0150      68.4470      36.4360    -999.2500       9.2500      11.5390      17.0800       0.1109    -999.2500    -999.2500       2.5780    -999.2500    -999.2500
   1848.7648      11.4850    -999.2500       0.0225      68.7946      37.9963    -999.2500       8.7641      11.2430      16.7048       0.1143    -999.2500    -999.2500       2.5835    -999.2500    -999.2500
   1848.9172      11.4790    -999.2500       0.0300      69.1410      39.5510    -999.2500       8.2800      10.9480      16.3310       0.1185    -999.2500    -999.2500       2.5890    -999.2500    -999.2500
   1849.0696      11.4850    -999.2500       0.0250      69.1069      40.7690    -999.2500       8.3382      11.0836      16.4881       0.1231    -999.2500    -999.2500       2.5850    -999.2500    -999.2500
   1849.2219      11.4910    -999.2500       0.0200      69.0730      41.9770    -999.2500       8.3960      11.2180      16.6440       0.1265    -999.2500    -999.2500       2.5810    -999.2500    -999.2500
   1849.3744      11.4830    -999.2500       0.0125      68.8195      41.7682    -999.2500       8.4493      11.3292      17.0419       0.1267    -999.2500    -999.2500       2.5724    -999.2500    -999.2500
   1849.5267      11.4750    -999.2500       0.0050      68.5690      41.5620    -999.2500       8.5020      11.4390      17.4350       0.1254    -999.2500    -999.2500       2.5640    -999.2500    -999.2500
   1849.6792      11.4604    -999.2500       0.0110      68.6714      40.8429    -999.2500       8.3177      11.3903      16.6998       0.1237    -999.2500    -999.2500       2.5705    -999.2500    -999.2500
   1849.8315      11.4460    -999.2500       0.0170      68.7730      40.1300    -999.2500       8.1350      11.3420      15.9710       0.1220    -999.2500    -999.2500       2.5770    -999.2500    -999.2500
   1849.9840      11.4264    -999.2500       0.0140      68.7003      41.7656    -999.2500       8.1541      11.4543      16.8939       0.1205    -999.2500    -999.2500       2.5765    -999.2500    -999.2500
   1850.1364      11.4070    -999.2500       0.0110      68.6280      43.3910    -999.2500       8.1730      11.5660      17.8110       0.1188    -999.2500    -999.2500       2.5760    -999.2500    -999.2500
   1850.2888      11.3773    -999.2500       0.0120      68.1686      43.2032    -999.2500       8.6834      12.1110      18.2238       0.1161    -999.2500    -999.2500       2.5760    -999.2500    -999.2500
   1850.4412      11.3480    -999.2500       0.0130      67.7110      43.0160    -999.2500       9.1920      12.6540      18.6350       0.1142    -999.2500    -999.2500       2.5760    -999.2500    -999.2500
   1850.5936      11.3198    -999.2500       0.0155      67.2768      41.5258    -999.2500       9.5599      12.9782      19.6584       0.1150    -999.2500    -999.2500       2.5755    -999.2500    -999.2500
   1850.7460      11.2920    -999.2500       0.0180      66.8460      40.0470    -999.2500       9.9250      13.3000      20.6740       0.1172    -999.2500    -999.2500       2.5750    -999.2500    -999.2500
   1850.8983      11.2683    -999.2500       0.0120      66.8671      40.3588    -999.2500      10.4108      13.7923      20.2616       0.1201    -999.2500    -999.2500       2.5639    -999.2500    -999.2500
   1851.0508      11.2450    -999.2500       0.0060      66.8880      40.6670    -999.2500      10.8910      14.2790      19.8540       0.1228    -999.2500    -999.2500       2.5530    -999.2500    -999.2500
   1851.2031      11.2198    -999.2500       0.0065      66.8790      42.0778    -999.2500      11.2114      14.6707      20.8690       0.1245    -999.2500    -999.2500       2.5540    -999.2500    -999.2500
   1851.3556      11.1950    -999.2500       0.0070      66.8700      43.4760    -999.2500      11.5290      15.0590      21.8750       0.1250    -999.2500    -999.2500       2.5550    -999.2500    -999.2500
   1851.5079      11.1643    -999.2500       0.0085      66.8163      44.0523    -999.2500      11.7111      15.3660      22.7643       0.1237    -999.2500    -999.2500       2.5565    -999.2500    -999.2500
