#------------------------------------------------------------------------------
#
#   Created by  : [OpenWorks] Log Export Utility (LEXP)
#   Created on  : 2016-05-23 11:55:56
#   Project     : CANT971
#   User        : R5K
#   Interpreter : PEP
#
#------------------------------------------------------------------------------
~VERSION INFORMATION
VERS. 2.0 : CWLS Log ASCII Standard - version 2.0
WRAP.  NO : One line per depth step
~WELL INFORMATION
#MNEMONIC   .UNIT                                           VALUE :DESCRIPTION
#------------------------------------------------------------------------------
STRT        .M                                          3767.4790 :START DEPTH
STOP        .M                                          5548.2729 :STOP DEPTH
STEP        .M                                             0.1524 :STEP
NULL        .                                           -999.2500 :NULL VALUE
COMP        .                                             UNKNOWN :COMPANY
WELL        .                                            418D-ST2 :WELL
FLD         .                                             UNKNOWN :FIELD
LOC         .                                             UNKNOWN :LOCATION
CNTY        .                                             UNKNOWN :COUNTY
STAT        .                                             UNKNOWN :STATE
CTRY        .                                             UNKNOWN :COUNTRY
SRVC        .                                             UNKNOWN :SERVICE COMPANY
DATE        .                                             UNKNOWN :LOG DATE
UWI         .                                            418D-ST2 :UNIQUE WELL ID
XCOORD      .                                       597130.010000 :SURFACE X
YCOORD      .                                      2144879.410000 :SURFACE Y
LAT         .                                           19.396924 :LATITUDE
LON         .                                          -92.074978 :LONGITUDE
ELEV        .M                                             0.0000 :SURFACE ELEV
ELEV_TYPE   .                                                  NA :ELEV TYPE
~CURVE INFORMATION
#MNEMONIC.UNIT        API CODE       : CURVE DESCRIPTION
#------------------------------------------------------------------------------
DEPTH    .M                          : Measured Depth
CALI     .inches      UNKNOWN        : CALI:PETROWORKS:rC:NONE:v1 
CGR      .API         UNKNOWN        : CGR:PETROWORKS:rC:NONE:v2 
DRHO     .g/cm3       UNKNOWN        : DRHO:PETROWORKS:rC:NONE:v1 
DT       .us/ft       UNKNOWN        : DT:PETROWORKS:rC:NONE:v2 
GR       .API         UNKNOWN        : GR:PETROWORKS:rC:NONE:v2 
ILD      .ohm.m       UNKNOWN        : ILD:PETROWORKS:rC:NONE:v2 
ILM      .ohm.m       UNKNOWN        : ILM:PETROWORKS:rC:NONE:v2 
NPHI     .v/v_decimal UNKNOWN        : NPHI:PETROWORKS:rC:NONE:v3 
PEF      .b/elec      UNKNOWN        : PEF:PETROWORKS:rC:NONE:v1 
POTA     .wtpercent   UNKNOWN        : POTA:PETROWORKS:rC:NONE:v2 
RHOB     .UNKNOWN     UNKNOWN        : RHOB:PETROWORKS:rC:NONE:v1 
THOR     .ppm         UNKNOWN        : THOR:PETROWORKS:rC:NONE:v2 
URAN     .ppm         UNKNOWN        : URAN:PETROWORKS:rC:NONE:v2 
~A     DEPTH         CALI          CGR         DRHO           DT           GR          ILD          ILM         NPHI          PEF         POTA         RHOB         THOR         URAN
# ...
   5544.4629       5.3409      15.8924       0.1187      49.7109      25.4035       2.3822      65.0795       0.0553       6.9638       0.0046       2.7239       2.7351       1.2958
   5544.6152       5.3593      16.0644       0.1116      49.7109      26.1808       2.0070      31.7421       0.0551       6.9314       0.0048       2.7232       2.7168       1.3782
   5544.7676       5.3698      16.2351       0.1090      49.7109      26.9565       1.7608      12.2831       0.0550       6.9095       0.0049       2.7326       2.6982       1.4607
   5544.9204       5.3697      16.4420       0.1099      49.7109      27.9077       1.5343       5.8885       0.0550       6.9040       0.0051       2.7446       2.6744       1.5620
   5545.0728       5.3693      16.6466       0.1112      49.7109      28.8530       1.3763       3.3329       0.0550       6.9142       0.0053       2.7499       2.6501       1.6630
   5545.2251       5.1873      16.8957       0.1191      49.7109      30.0162       1.2242       2.2192       0.0550       7.0229       0.0055       2.7401       2.6192       1.7875
   5545.3774       4.9864      17.1427       0.1359      49.7109      31.1754       1.1304       1.6713       0.0566       7.2418       0.0057       2.7265       2.5877       1.9118
   5545.5298       4.9400      17.4435       0.1774      49.7109      32.5991       1.4870       1.9360       0.0584       7.8019       0.0060       2.7180       2.5476       2.0648
   5545.6821       4.9391      17.8690       0.2327      49.7109      34.6253       2.6380       3.5757       0.0588       8.5640       0.0064       2.7251       2.4890       2.2829
   5545.8345       4.9391      18.2094       0.2622      49.7109      36.2541       3.2543       4.4365       0.0588       8.9897       0.0067       2.7378       2.4408       2.4584
   5545.9868       4.9391      18.6222       0.2661      49.7109      38.2387    -999.2500    -999.2500       0.0588       9.1159       0.0071       2.7428       2.3803       2.6725
   5546.1392       4.9391      19.0337       0.2638      49.7109      40.2201    -999.2500    -999.2500       0.0588       9.1413       0.0075       2.7441       2.3190       2.8864
   5546.2920       4.9391      19.5361       0.2628      49.7109      42.6423    -999.2500    -999.2500       0.0588       9.1112       0.0080       2.7447       2.2423       3.1479
   5546.4443       4.9391      20.0408       0.2647      49.7109      45.0743    -999.2500    -999.2500       0.0588       9.0917       0.0085       2.7458       2.1644       3.4105
   5546.5967       4.9391      20.6599       0.2703      49.7109      48.0479    -999.2500    -999.2500       0.0588       9.1021       0.0091       2.7501       2.0672       3.7313
   5546.7490       4.9391      21.2810       0.2743      49.7109      51.0231    -999.2500    -999.2500       0.0588       9.1163       0.0097       2.7542       1.9692       4.0521
   5546.9014       4.9391      22.0474       0.2720      49.7109      54.6649    -999.2500    -999.2500       0.0588       9.1114       0.0105       2.7524       1.8474       4.4438
   5547.0537       4.9391      22.8175       0.2683      49.7109      58.3050    -999.2500    -999.2500       0.0588       9.0993       0.0112       2.7476       1.7248       4.8348
   5547.2061       4.9432      23.7738       0.2730      49.7109      62.7661    -999.2500    -999.2500       0.0588       9.0526       0.0122       2.7512       1.5732       5.3123
   5547.3584       4.9466      24.7367       0.2810      49.7109      67.2209    -999.2500    -999.2500       0.0587       8.9623       0.0131       2.7618       1.4211       5.7880
   5547.5112       4.9467      25.9404       0.2821      49.8557      72.6874    -999.2500    -999.2500       0.0587       8.7647       0.0143       2.7703       1.2335       6.3688
   5547.6636       4.9467      27.1507       0.2756    -999.2500      78.1235    -999.2500    -999.2500       0.0587       8.5774       0.0155       2.7700       1.0466       6.9445
   5547.8159       4.9467      28.6780       0.2645    -999.2500      84.8191    -999.2500    -999.2500       0.0587       8.4701       0.0170       2.7608       0.8161       7.6487
   5547.9683       4.9467      30.2225       0.2579    -999.2500      91.4967    -999.2500    -999.2500       0.0587       8.4215       0.0185       2.7547       0.5862       8.3480
   5548.1206       4.9618      32.3091       0.2573    -999.2500      99.8367    -999.2500    -999.2500       0.0587       8.4176       0.0190       2.7541       0.3464       9.1999
   5548.2729    -999.2500      33.5887       0.2573    -999.2500     104.8351    -999.2500    -999.2500       0.0587       8.4175    -999.2500       2.7691       0.2278       9.7217
