#------------------------------------------------------------------------------
#
#   Created by  : [OpenWorks] Log Export Utility (LEXP)
#   Created on  : 2016-05-12 17:01:14
#   Project     : CANT971
#   User        : R5K
#   Interpreter : PEP
#
#------------------------------------------------------------------------------
~VERSION INFORMATION
VERS. 2.0 : CWLS Log ASCII Standard - version 2.0
WRAP.  NO : One line per depth step
~WELL INFORMATION
#MNEMONIC   .UNIT                                           VALUE :DESCRIPTION
#------------------------------------------------------------------------------
STRT        .M                                          1708.0991 :START DEPTH
STOP        .M                                          2834.0303 :STOP DEPTH
STEP        .M                                             0.1524 :STEP
NULL        .                                           -999.2500 :NULL VALUE
COMP        .                                             UNKNOWN :COMPANY
WELL        .                                                3016 :WELL
FLD         .                                           CANTARELL :FIELD
LOC         .                                             UNKNOWN :LOCATION
CNTY        .                                             UNKNOWN :COUNTY
STAT        .                                            CAMPECHE :STATE
CTRY        .                                              MEXICO :COUNTRY
SRVC        .                                             UNKNOWN :SERVICE COMPANY
DATE        .                                             UNKNOWN :LOG DATE
UWI         .                                                3016 :UNIQUE WELL ID
XCOORD      .                                       192548.498000 :SURFACE X
YCOORD      .                                        92151.948000 :SURFACE Y
LAT         .                                            0.832805 :LATITUDE
LON         .                                          -95.762171 :LONGITUDE
ELEV        .M                                            46.0000 :SURFACE ELEV
ELEV_TYPE   .                                                  KB :ELEV TYPE
~CURVE INFORMATION
#MNEMONIC.UNIT        API CODE       : CURVE DESCRIPTION
#------------------------------------------------------------------------------
DEPTH    .M                          : Measured Depth
CALI     .inches      UNKNOWN        : CALI:litodensidad:rC:NONE:v0 (auto-composite)
CGR      .API         UNKNOWN        : CGR:Espectrometria:rC:NONE:v0 (auto-composite)
DRHO     .g/cm3       UNKNOWN        : DRHO:litodensidad:rC:NONE:v0 (auto-composite)
DT       .us/ft       UNKNOWN        : DT:DT-Load:rC:NONE:v0 (auto-composite)
GR       .API         UNKNOWN        : GR:PETROWORKS:rC:NONE:v1 
GR-LWD   .API         UNKNOWN        : GR-LWD:PETROWORKS:rC:NONE:v1 
ILD-LWD  .ohm.m       UNKNOWN        : ILD-LWD:PETROWORKS:rC:NONE:v1 
ILM-LWD  .ohm.m       UNKNOWN        : ILM-LWD:PETROWORKS:rC:NONE:v1 
LLD      .ohm.m       UNKNOWN        : LLD:Resistivos:rC:NONE:v0 (auto-composite)
LLS      .ohm.m       UNKNOWN        : LLS:Resistivos:rC:NONE:v0 (auto-composite)
MSFL     .ohm.m       UNKNOWN        : MSFL:Resistivos:rC:NONE:v0 (auto-composite)
NPHI     .v/v_decimal UNKNOWN        : NPHI:Porosidad:rC:NONE:v0 (auto-composite)
PEF      .UNKNOWN     UNKNOWN        : PEF:litodensidad:rC:NONE:v0 (auto-composite)
POTA     .wtpercent   UNKNOWN        : POTA:Espectrometria:rC:NONE:v0 (auto-composite)
RHOB     .g/cm3       UNKNOWN        : RHOB:litodensidad:rC:NONE:v0 (auto-composite)
SP       .mV          UNKNOWN        : SP:SP-Load:rC:NONE:v0 (auto-composite)
THOR     .ppm         UNKNOWN        : THOR:Espectrometria:rC:NONE:v0 (auto-composite)
URAN     .ppm         UNKNOWN        : URAN:Espectrometria:rC:NONE:v0 (auto-composite)
~A     DEPTH         CALI          CGR         DRHO           DT           GR       GR-LWD      ILD-LWD      ILM-LWD          LLD          LLS         MSFL         NPHI          PEF         POTA         RHOB           SP         THOR         URAN
# ...
   2070.2014    -999.2500      14.3693    -999.2500    -999.2500      42.8081      42.8081       1.6345      11.3253    -999.2500    -999.2500    -999.2500       0.4405    -999.2500       0.0036    -999.2500    -254.3750       2.5336       1.3843
   2070.3540    -999.2500      16.6308    -999.2500    -999.2500      45.5489      45.5489       1.5603      11.4760    -999.2500    -999.2500    -999.2500       0.4378    -999.2500       0.0041    -999.2500    -253.6875       2.9281       1.3893
   2070.5063    -999.2500      18.3359    -999.2500    -999.2500      45.5035      45.5035       1.5718       7.2282    -999.2500    -999.2500    -999.2500       0.4249    -999.2500       0.0046    -999.2500    -253.3125       3.2266       1.4706
   2070.6587    -999.2500      20.1868    -999.2500    -999.2500      47.8576      47.8576       1.4913       4.7121    -999.2500    -999.2500    -999.2500       0.4774    -999.2500       0.0052    -999.2500    -253.3125       3.4830       1.2383
   2070.8110    -999.2500      20.4303    -999.2500    -999.2500      48.1270      48.1270       1.4022       2.0929    -999.2500    -999.2500    -999.2500       0.4916    -999.2500       0.0054    -999.2500    -252.9375       3.3985       1.0051
   2070.9636    -999.2500      19.3839    -999.2500    -999.2500      48.6311      48.6311       1.4604       1.4265    -999.2500    -999.2500    -999.2500       0.4902    -999.2500       0.0054    -999.2500    -251.2500       3.0767       1.0180
   2071.1160    -999.2500      18.2752    -999.2500    -999.2500      48.6429      48.6429       1.3443       1.4269    -999.2500    -999.2500    -999.2500       0.4943    -999.2500       0.0052    -999.2500    -250.8125       2.8411       1.2089
   2071.2683    -999.2500      19.5146    -999.2500    -999.2500      49.1606      49.1606       1.2927       1.2251    -999.2500    -999.2500    -999.2500       0.4998    -999.2500       0.0058    -999.2500    -252.0625       2.8818       1.1792
   2071.4207    -999.2500      19.8064    -999.2500    -999.2500      52.0410      52.0410       1.4292       1.0946    -999.2500    -999.2500    -999.2500       0.4747    -999.2500       0.0059    -999.2500    -252.8125       2.9371       1.3274
   2071.5732    -999.2500      19.7055    -999.2500    -999.2500      53.6812      53.6812       1.4192       1.0763    -999.2500    -999.2500    -999.2500       0.4301    -999.2500       0.0064    -999.2500    -251.3750       2.5950       1.1354
   2071.7256    -999.2500      19.4683    -999.2500    -999.2500      53.3455      53.3455       1.3200       1.0531    -999.2500    -999.2500    -999.2500       0.4056    -999.2500       0.0063    -999.2500    -249.6875       2.6011       1.1020
   2071.8779    -999.2500      18.6536    -999.2500    -999.2500      49.7011      49.7011       1.2321       1.0352    -999.2500    -999.2500    -999.2500       0.4300    -999.2500       0.0062    -999.2500    -248.3125       2.3515       1.0751
   2072.0303    -999.2500      19.8178    -999.2500    -999.2500      44.4879      44.4879       1.2274       0.9914    -999.2500    -999.2500    -999.2500       0.4095    -999.2500       0.0068    -999.2500    -246.1250       2.3774       1.0932
   2072.1826    -999.2500      18.0290    -999.2500    -999.2500      41.8134      41.8134       1.1852       1.0173    -999.2500    -999.2500    -999.2500       0.4392    -999.2500       0.0061    -999.2500    -244.5625       2.2161       1.0272
   2072.3352    -999.2500      16.7338    -999.2500    -999.2500      42.2276      42.2276       1.1420       1.0355    -999.2500    -999.2500    -999.2500       0.4160    -999.2500       0.0056    -999.2500    -244.6875       2.1178       1.2349
   2072.4875    -999.2500      16.2601    -999.2500    -999.2500      44.5501      44.5501       1.0941       1.0399    -999.2500    -999.2500    -999.2500       0.4345    -999.2500       0.0054    -999.2500    -245.0625       2.0597       1.1918
   2072.6399    -999.2500      16.4204    -999.2500    -999.2500      46.0685      46.0685       1.0800       1.0343    -999.2500    -999.2500    -999.2500       0.4239    -999.2500       0.0051    -999.2500    -244.7500       2.3295       1.2804
   2072.7922    -999.2500      17.8937    -999.2500    -999.2500      46.6153      46.6153       1.0650       1.0304    -999.2500    -999.2500    -999.2500       0.4363    -999.2500       0.0055    -999.2500    -245.1250       2.5588       1.2948
   2072.9448    -999.2500      20.8119    -999.2500    -999.2500      47.4458      47.4458       1.0571       1.0241    -999.2500    -999.2500    -999.2500       0.4712    -999.2500       0.0054    -999.2500    -244.6875       3.5697       1.0888
   2073.0972    -999.2500      22.3426    -999.2500    -999.2500      49.9641      49.9641       1.0269       1.0137    -999.2500    -999.2500    -999.2500       0.4492    -999.2500       0.0055    -999.2500    -243.5625       3.9662       1.0645
   2073.2495    -999.2500      23.9764    -999.2500    -999.2500      52.3341      52.3341       1.0395       0.9859    -999.2500    -999.2500    -999.2500       0.4554    -999.2500       0.0056    -999.2500    -243.5625       4.4304       0.9837
   2073.4019    -999.2500      22.1911    -999.2500    -999.2500      52.4533      52.4533       1.0770       0.9806    -999.2500    -999.2500    -999.2500       0.4261    -999.2500       0.0052    -999.2500    -243.5625       4.0768       1.0089
   2073.5542    -999.2500      21.7001    -999.2500    -999.2500      50.3440      50.3440       1.0922       1.0116    -999.2500    -999.2500    -999.2500       0.4327    -999.2500       0.0051    -999.2500    -243.8125       4.0056       1.0773
   2073.7068    -999.2500      19.9972    -999.2500    -999.2500      49.1023      49.1023       1.0826       1.0468    -999.2500    -999.2500    -999.2500       0.4276    -999.2500       0.0046    -999.2500    -244.9375       3.7731       1.0656
   2073.8591    -999.2500      19.2344    -999.2500    -999.2500      49.7822      49.7822       1.0289       1.1264    -999.2500    -999.2500    -999.2500       0.4203    -999.2500       0.0044    -999.2500    -246.0625       3.6042       1.0968
   2074.0115    -999.2500      19.2296    -999.2500    -999.2500      51.3857      51.3857       1.0492       1.1188    -999.2500    -999.2500    -999.2500       0.4408    -999.2500       0.0044    -999.2500    -246.6875       3.5972       1.0395
   2074.1638    -999.2500      20.3338    -999.2500    -999.2500      50.4980      50.4980       1.0316       1.1066    -999.2500    -999.2500    -999.2500       0.4339    -999.2500       0.0044    -999.2500    -246.0625       3.9654       0.9664
   2074.3164    -999.2500      20.8684    -999.2500    -999.2500      50.0511      50.0511       1.0819       1.0478    -999.2500    -999.2500    -999.2500       0.4616    -999.2500       0.0046    -999.2500    -244.8750       4.0262       1.0125
   2074.4688    -999.2500      20.6653    -999.2500    -999.2500      49.6439      49.6439       1.1011       1.0062    -999.2500    -999.2500    -999.2500       0.4411    -999.2500       0.0047    -999.2500    -243.9375       3.9253       1.0497
   2074.6211    -999.2500      18.7525    -999.2500    -999.2500      50.1396      50.1396       1.1307       1.0024    -999.2500    -999.2500    -999.2500       0.4538    -999.2500       0.0049    -999.2500    -243.8750       3.1886       1.3250
   2074.7734    -999.2500      17.9935    -999.2500    -999.2500      48.4321      48.4321       1.1338       1.0151    -999.2500    -999.2500    -999.2500       0.4473    -999.2500       0.0050    -999.2500    -244.6250       2.8923       1.4509
   2074.9260    -999.2500      16.3118    -999.2500    -999.2500      49.2906      49.2906       1.1584       1.0454    -999.2500    -999.2500    -999.2500       0.4628    -999.2500       0.0047    -999.2500    -245.7500       2.4778       1.4994
   2075.0784    -999.2500      17.2841    -999.2500    -999.2500      48.3490      48.3490       1.1765       1.0692    -999.2500    -999.2500    -999.2500       0.4538    -999.2500       0.0050    -999.2500    -246.8125       2.6278       1.3349
