#------------------------------------------------------------------------------
#
#   Created by  : [OpenWorks] Log Export Utility (LEXP)
#   Created on  : 2016-05-23 11:55:37
#   Project     : CANT971
#   User        : R5K
#   Interpreter : PEP
#
#------------------------------------------------------------------------------
~VERSION INFORMATION
VERS. 2.0 : CWLS Log ASCII Standard - version 2.0
WRAP.  NO : One line per depth step
~WELL INFORMATION
#MNEMONIC   .UNIT                                           VALUE :DESCRIPTION
#------------------------------------------------------------------------------
STRT        .M                                           299.0628 :START DEPTH
STOP        .M                                          2570.8896 :STOP DEPTH
STEP        .M                                             0.1524 :STEP
NULL        .                                           -999.2500 :NULL VALUE
COMP        .                                   PEMEX EXPL & PROD :COMPANY
WELL        .                                                  31 :WELL
FLD         .                                           CANTARELL :FIELD
LOC         .                                             UNKNOWN :LOCATION
CNTY        .                                      CD. DEL CARMEN :COUNTY
STAT        .                                            CAMPECHE :STATE
CTRY        .                                              MEXICO :COUNTRY
SRVC        .                                             UNKNOWN :SERVICE COMPANY
DATE        .                                             UNKNOWN :LOG DATE
UWI         .                                          3060000157 :UNIQUE WELL ID
XCOORD      .                                       599727.810000 :SURFACE X
YCOORD      .                                      2147216.930000 :SURFACE Y
LAT         .                                           19.417919 :LATITUDE
LON         .                                          -92.050118 :LONGITUDE
ELEV        .M                                            27.8000 :SURFACE ELEV
ELEV_TYPE   .                                                  KB :ELEV TYPE
~CURVE INFORMATION
#MNEMONIC.UNIT        API CODE       : CURVE DESCRIPTION
#------------------------------------------------------------------------------
DEPTH    .M                          : Measured Depth
CALI     .inches      UNKNOWN        : CALI:Import:rC:NONE:v0 (auto-composite)
DRHO     .g/cm3       UNKNOWN        : DRHO:Import:rC:NONE:v0 (auto-composite)
DT       .us/ft       UNKNOWN        : DT:Import:rC:NONE:v0 (auto-composite)
GR       .API         UNKNOWN        : GR:Import:rC:NONE:v0 (auto-composite)
ILD      .ohm.m       UNKNOWN        : ILD:Import:rC:NONE:v0 (auto-composite)
LLD      .ohm.m       UNKNOWN        : LLD:Import:rC:NONE:v0 (auto-composite)
LLS      .ohm.m       UNKNOWN        : LLS:Import:rC:NONE:v0 (auto-composite)
MSFL     .ohm.m       UNKNOWN        : MSFL:Import:rC:NONE:v0 (auto-composite)
NPHI     .v/v_decimal UNKNOWN        : NPHI:Import:rC:NONE:v0 (auto-composite)
RHOB     .g/cm3       UNKNOWN        : RHOB:Import:rC:NONE:v0 (auto-composite)
~A     DEPTH         CALI         DRHO           DT           GR          ILD          LLD          LLS         MSFL         NPHI         RHOB
# ...
   1075.6932    -999.2500    -999.2500     150.8433      55.5000       0.5140    -999.2500    -999.2500    -999.2500       0.4398       2.0780
   1075.8456    -999.2500    -999.2500     147.0078      55.4887       0.5140    -999.2500    -999.2500    -999.2500       0.4382       2.0970
   1075.9980    -999.2500    -999.2500     151.2793      55.2643       0.5145    -999.2500    -999.2500    -999.2500       0.4330       2.0759
   1076.1504    -999.2500    -999.2500     155.3141      54.9956       0.5156    -999.2500    -999.2500    -999.2500       0.4297       2.0569
   1076.3029    -999.2500    -999.2500     155.1664      53.9434       0.5271    -999.2500    -999.2500    -999.2500       0.4337       2.0739
   1076.4552    -999.2500    -999.2500     155.0270      52.9934       0.5380    -999.2500    -999.2500    -999.2500       0.4390       2.0900
   1076.6077    -999.2500    -999.2500     155.0270      53.7696       0.5380    -999.2500    -999.2500    -999.2500       0.4403       2.0900
   1076.7600    -999.2500    -999.2500     154.9459      54.4542       0.5379    -999.2500    -999.2500    -999.2500       0.4362       2.0906
   1076.9124    -999.2500    -999.2500     153.5728      53.6783       0.5364    -999.2500    -999.2500    -999.2500       0.4240       2.1016
   1077.0648    -999.2500    -999.2500     152.2905      52.9362       0.5348    -999.2500    -999.2500    -999.2500       0.4128       2.1115
   1077.2172    -999.2500    -999.2500     152.3972      52.7109       0.5323    -999.2500    -999.2500    -999.2500       0.4115       2.1030
   1077.3696    -999.2500    -999.2500     152.6092      52.5351       0.5300    -999.2500    -999.2500    -999.2500       0.4192       2.0952
   1077.5220    -999.2500    -999.2500     154.3694      53.0860       0.5300    -999.2500    -999.2500    -999.2500       0.4373       2.0977
   1077.6744    -999.2500    -999.2500     155.8943      53.5632       0.5296    -999.2500    -999.2500    -999.2500       0.4484       2.0998
   1077.8268    -999.2500    -999.2500     154.1348      53.0125       0.5241    -999.2500    -999.2500    -999.2500       0.4354       2.0973
   1077.9792    -999.2500    -999.2500     152.5628      52.4844       0.5186    -999.2500    -999.2500    -999.2500       0.4190       2.0941
   1078.1316    -999.2500    -999.2500     153.5139      52.2586       0.5131    -999.2500    -999.2500    -999.2500       0.4161       2.0806
   1078.2841    -999.2500    -999.2500     154.1950      51.9021       0.5076    -999.2500    -999.2500    -999.2500       0.4158       2.0685
   1078.4364    -999.2500    -999.2500     151.3721      49.8494       0.5026    -999.2500    -999.2500    -999.2500       0.4093       2.0760
   1078.5887    -999.2500    -999.2500     148.7692      47.9626       0.4977    -999.2500    -999.2500    -999.2500       0.4027       2.0829
   1078.7412    -999.2500    -999.2500     148.8923      48.1308       0.4942    -999.2500    -999.2500    -999.2500       0.4015       2.0819
   1078.8936    -999.2500    -999.2500     149.0526      48.3411       0.4907    -999.2500    -999.2500    -999.2500       0.4030       2.0794
   1079.0460    -999.2500    -999.2500     149.6570      49.0564       0.4861    -999.2500    -999.2500    -999.2500       0.4059       2.0578
   1079.1984    -999.2500    -999.2500     150.3124      49.8000       0.4814    -999.2500    -999.2500    -999.2500       0.4113       2.0380
   1079.3508    -999.2500    -999.2500     151.5518      50.8712       0.4739    -999.2500    -999.2500    -999.2500       0.4203       2.0380
   1079.5032    -999.2500    -999.2500     152.9724      51.9203       0.4663    -999.2500    -999.2500    -999.2500       0.4270       2.0385
   1079.6556    -999.2500    -999.2500     156.4069      52.7243       0.4578    -999.2500    -999.2500    -999.2500       0.4258       2.0445
   1079.8080    -999.2500    -999.2500     159.5500      53.6528       0.4500    -999.2500    -999.2500    -999.2500       0.4226       2.0499
   1079.9604    -999.2500    -999.2500     159.5500      55.9255       0.4500    -999.2500    -999.2500    -999.2500       0.4218       2.0489
   1080.1128    -999.2500    -999.2500     159.2823      57.8018       0.4491    -999.2500    -999.2500    -999.2500       0.4230       2.0483
   1080.2653    -999.2500    -999.2500     156.2403      55.5282       0.4391    -999.2500    -999.2500    -999.2500       0.4264       2.0513
   1080.4176    -999.2500    -999.2500     153.4801      53.5058       0.4297    -999.2500    -999.2500    -999.2500       0.4294       2.0539
   1080.5699    -999.2500    -999.2500     153.5582      54.0124       0.4267    -999.2500    -999.2500    -999.2500       0.4300       2.0529
   1080.7224    -999.2500    -999.2500     153.6290      54.4720       0.4234    -999.2500    -999.2500    -999.2500       0.4298       2.0499
   1080.8748    -999.2500    -999.2500     153.6290      54.4720       0.4174    -999.2500    -999.2500    -999.2500       0.4296       2.0269
   1081.0272    -999.2500    -999.2500     153.9509      54.7517       0.4126    -999.2500    -999.2500    -999.2500       0.4273       2.0082
   1081.1796    -999.2500    -999.2500     157.3103      57.6953       0.4186    -999.2500    -999.2500    -999.2500       0.4210       2.0312
   1081.3320    -999.2500    -999.2500     160.3114      60.3399       0.4235    -999.2500    -999.2500    -999.2500       0.4155       2.0501
   1081.4844    -999.2500    -999.2500     160.0195      60.2368       0.4180    -999.2500    -999.2500    -999.2500       0.4148       2.0306
   1081.6368    -999.2500    -999.2500     159.7570      60.1440       0.4130    -999.2500    -999.2500    -999.2500       0.4191       2.0158
   1081.7892    -999.2500    -999.2500     159.7570      60.1440       0.4130    -999.2500    -999.2500    -999.2500       0.4286       2.0438
   1081.9417    -999.2500    -999.2500     159.4242      59.9489       0.4146    -999.2500    -999.2500    -999.2500       0.4340       2.0661
   1082.0940    -999.2500    -999.2500     156.2130      58.0667       0.4301    -999.2500    -999.2500    -999.2500       0.4273       2.0381
   1082.2465    -999.2500    -999.2500     153.2050      56.2567       0.4457    -999.2500    -999.2500    -999.2500       0.4217       2.0161
   1082.3988    -999.2500    -999.2500     151.9125      55.0553       0.4623    -999.2500    -999.2500    -999.2500       0.4281       2.0451
   1082.5511    -999.2500    -999.2500     150.6577      53.9126       0.4789    -999.2500    -999.2500    -999.2500       0.4356       2.0723
   1082.7036    -999.2500    -999.2500     149.7138      53.2530       0.4964    -999.2500    -999.2500    -999.2500       0.4350       2.0843
   1082.8560    -999.2500    -999.2500     148.3555      52.6009       0.5163    -999.2500    -999.2500    -999.2500       0.4278       2.0997
   1083.0084    -999.2500    -999.2500     143.6940      52.0083       0.5554    -999.2500    -999.2500    -999.2500       0.4142       2.1422
   1083.1608    -999.2500    -999.2500     139.5688      51.3942       0.5898    -999.2500    -999.2500    -999.2500       0.4026       2.1781
   1083.3132    -999.2500    -999.2500     139.6193      50.6138       0.5883    -999.2500    -999.2500    -999.2500       0.4001       2.1611
   1083.4656    -999.2500    -999.2500     139.9890      49.7161       0.5870    -999.2500    -999.2500    -999.2500       0.4023       2.1467
   1083.6180    -999.2500    -999.2500     142.7874      47.9263       0.5870    -999.2500    -999.2500    -999.2500       0.4070       2.1527
   1083.7704    -999.2500    -999.2500     145.2500      46.5172       0.5871    -999.2500    -999.2500    -999.2500       0.4186       2.1569
   1083.9229    -999.2500    -999.2500     145.2330      47.9188       0.5881    -999.2500    -999.2500    -999.2500       0.4406       2.1479
   1084.0752    -999.2500    -999.2500     145.2180      49.0709       0.5895    -999.2500    -999.2500    -999.2500       0.4598       2.1400
