#------------------------------------------------------------------------------
#
#   Created by  : [OpenWorks] Log Export Utility (LEXP)
#   Created on  : 2016-05-12 17:18:19
#   Project     : CANT971
#   User        : R5K
#   Interpreter : PEP
#
#------------------------------------------------------------------------------
~VERSION INFORMATION
VERS. 2.0 : CWLS Log ASCII Standard - version 2.0
WRAP.  NO : One line per depth step
~WELL INFORMATION
#MNEMONIC   .UNIT                                           VALUE :DESCRIPTION
#------------------------------------------------------------------------------
STRT        .M                                           134.7982 :START DEPTH
STOP        .M                                          2692.2227 :STOP DEPTH
STEP        .M                                             0.1524 :STEP
NULL        .                                           -999.2500 :NULL VALUE
COMP        .                                   PEMEX EXPL & PROD :COMPANY
WELL        .                                                 57A :WELL
FLD         .                                           CANTARELL :FIELD
LOC         .                                             UNKNOWN :LOCATION
CNTY        .                                      CD. DEL CARMEN :COUNTY
STAT        .                                            CAMPECHE :STATE
CTRY        .                                              MEXICO :COUNTRY
SRVC        .                                             UNKNOWN :SERVICE COMPANY
DATE        .                                             UNKNOWN :LOG DATE
UWI         .                                          3060000169 :UNIQUE WELL ID
XCOORD      .                                       602151.210000 :SURFACE X
YCOORD      .                                      2147168.830000 :SURFACE Y
LAT         .                                           19.417362 :LATITUDE
LON         .                                          -92.027041 :LONGITUDE
ELEV        .M                                            28.1700 :SURFACE ELEV
ELEV_TYPE   .                                                  KB :ELEV TYPE
~CURVE INFORMATION
#MNEMONIC.UNIT        API CODE       : CURVE DESCRIPTION
#------------------------------------------------------------------------------
DEPTH    .M                          : Measured Depth
CALI     .inches      UNKNOWN        : CALI:UNKNOWN:r1:MAIN:v1 
DRHO     .UNKNOWN     UNKNOWN        : DRHO:UNKNOWN:r1:MAIN:v1 
DT       .us/ft       UNKNOWN        : DT:UNKNOWN:r1:MAIN:v1 
GR       .API         UNKNOWN        : GR:GR:r1:MAIN:v1 
ILD      .UNKNOWN     UNKNOWN        : ILD:UNKNOWN:r1:MAIN:v1 
LLD      .UNKNOWN     UNKNOWN        : LLD:UNKNOWN:r1:MAIN:v1 
LLS      .UNKNOWN     UNKNOWN        : LLS:UNKNOWN:r1:MAIN:v1 
MSFL     .UNKNOWN     UNKNOWN        : MSFL:UNKNOWN:r1:MAIN:v1 
NORM     .UNKNOWN     UNKNOWN        : NORM:NORM-Load:r1:MAIN:v1 
NPHI     .v/v_decimal UNKNOWN        : NPHI:UNKNOWN:r1:MAIN:v1 
RHOB     .UNKNOWN     UNKNOWN        : RHOB:UNKNOWN:r1:MAIN:v1 
SP       .mV          UNKNOWN        : SP:PETROWORKS:rC:NONE:v1 
~A     DEPTH         CALI         DRHO           DT           GR          ILD          LLD          LLS         MSFL         NORM         NPHI         RHOB           SP
# ...
   1751.4574       9.7720       0.0879      81.5703      61.3700       4.2882       3.7968       4.7196       3.6152    -999.2500       0.1980       2.4180      58.2490
   1751.6099       9.8407       0.0809      83.1936      61.5695       4.2205       3.6460       4.5738       3.2794    -999.2500       0.2064       2.4114      58.3437
   1751.7622       9.9775       0.0743      84.5733      61.9440       4.1662       3.5095       4.4138       3.1512    -999.2500       0.2151       2.4086      58.6143
   1751.9147      10.4594       0.0703      84.7202      63.2040       4.1792       3.4458       4.1821       4.0733    -999.2500       0.2248       2.4241      59.1263
   1752.0670      10.7953       0.0670      84.1615      64.3988       4.2125       3.4063       4.0064       4.6303    -999.2500       0.2339       2.4450      59.3880
   1752.2194      10.4217       0.0670      80.1729      65.2767       4.3444       3.4846       4.1027       3.4129    -999.2500       0.2398       2.4916      59.3136
   1752.3718      10.1487       0.0678      76.6441      65.8266       4.4870       3.5912       4.3200       2.4809    -999.2500       0.2462       2.5369      59.1752
   1752.5242      10.3457       0.0723      75.2653      64.8423       4.6799       3.8308       5.1034       2.8834    -999.2500       0.2549       2.5760      58.9526
   1752.6766      10.4359       0.0765      73.5391      64.0631       4.8712       4.1415       5.8478       3.2253    -999.2500       0.2608       2.6087      58.6968
   1752.8290      10.0428       0.0790      70.2394      64.2130       5.0547       4.7742       6.4158       3.2935    -999.2500       0.2541       2.6127      58.3984
   1752.9814       9.7285       0.0825      68.0045      64.3077       5.2478       5.3489       6.9317       3.5078    -999.2500       0.2427       2.6070      58.1296
   1753.1338       9.7581       0.0905      70.4152      64.1614       5.4829       5.6702       7.2199       4.3593    -999.2500       0.2109       2.5589      57.8982
   1753.2863       9.7744       0.0974      72.3272      63.6706       5.6917       5.9559       7.4404       5.0992    -999.2500       0.1819       2.5165      57.6729
   1753.4386       9.7348       0.0994      72.1297      61.7227       5.7895       6.0913       7.3748       5.3669    -999.2500       0.1647       2.4979      57.4549
   1753.5911       9.6953       0.1023      71.8449      59.7433       5.8536       6.0984       7.2589       5.5528    -999.2500       0.1540       2.4937      57.3995
   1753.7434       9.6562       0.1088      71.2042      57.6355       5.7804       5.5820       6.9380       5.4044    -999.2500       0.1696       2.5478      57.5403
   1753.8959       9.5912       0.1131      70.4340      55.7922       5.6986       5.1650       6.6694       5.3059    -999.2500       0.1849       2.5993      57.7863
   1754.0482       9.4243       0.1086      69.1534      54.9923       5.5828       5.1405       6.6073       5.4041    -999.2500       0.1989       2.6404      58.1565
   1754.2006       9.2960       0.1044      68.2397      54.2538       5.4881       5.1304       6.5640       5.4677    -999.2500       0.2102       2.6758      58.5659
   1754.3530       9.3156       0.1014      68.7311      53.7504       5.4741       5.1761       6.5931       5.3985    -999.2500       0.2112       2.6893      59.0206
   1754.5054       9.3666       0.0971      69.0028      53.1682       5.4726       5.2067       6.6485       5.2323    -999.2500       0.2106       2.6987      59.3977
   1754.6578       9.5341       0.0881      68.4608      52.2943       5.5177       5.1816       6.8014       4.7068    -999.2500       0.2040       2.6927      59.6868
   1754.8102       9.5749       0.0776      68.6272      51.4742       5.5702       5.1669       6.9777       4.6562    -999.2500       0.1983       2.6885      59.7712
   1754.9626       9.1619       0.0621      71.3331      50.8473       5.6488       5.1895       7.2379       6.3076    -999.2500       0.1963       2.6911      59.6287
   1755.1150       8.8389       0.0497      73.2164      50.2587       5.7636       5.2390       7.4948       7.6747    -999.2500       0.1929       2.6932      59.5853
   1755.2675       8.8294       0.0482      72.2312      49.8039       6.0043       5.3824       7.7404       8.0502    -999.2500       0.1851       2.6942      59.6497
   1755.4198       8.8961       0.0440      70.9535      49.4563       6.3122       5.5461       8.0526       8.4353    -999.2500       0.1784       2.6909      59.7820
   1755.5723       9.2205       0.0310      68.6877      49.4709       6.8472       5.7788       8.5896       8.8524    -999.2500       0.1751       2.6728      59.9867
   1755.7246       9.5012       0.0228      66.6870      49.7736       7.3945       6.2255       9.2130       9.3442    -999.2500       0.1719       2.6541      60.5738
   1755.8771       9.6391       0.0303      65.5543      51.0201       7.9824       7.3732      10.1191      10.0805    -999.2500       0.1687       2.6330      61.5587
   1756.0294       9.7369       0.0374      64.1395      53.8777       8.4618       9.1796      12.2548      12.0968    -999.2500       0.1657       2.6153      61.9843
   1756.1818       9.7074       0.0435      61.8245      61.8744       8.5952      13.0870      18.3121      18.1963    -999.2500       0.1631       2.6083      61.8394
   1756.3342       9.6635       0.0471      59.8224      70.7316       8.7057      16.7102      23.7670      22.6774    -999.2500       0.1590       2.6050      61.8242
   1756.4866       9.5752       0.0436      58.7879      82.2519       8.7453      19.4542      27.3581      22.1506    -999.2500       0.1501       2.6130      61.9385
   1756.6390       9.5824       0.0371      58.9425      91.9459       8.7896      20.1084      28.0538      19.9599    -999.2500       0.1456       2.6158      62.1345
   1756.7914       9.8772       0.0216      62.6839      96.1305       8.8483      14.4587      20.0160      12.7499    -999.2500       0.1541       2.6027      62.4102
   1756.9438      10.2247       0.0146      65.5605      99.2755       8.7852       9.9184      13.4129       7.3573    -999.2500       0.1638       2.5862      62.6753
   1757.0962      10.7266       0.0326      65.9045      99.3758       8.3655       8.6273      11.0117       7.2876    -999.2500       0.1770       2.5597      62.9302
   1757.2487      11.1031       0.0480      65.6595      99.0240       8.0072       8.0886       9.6053       7.6704    -999.2500       0.1859       2.5423      63.1301
   1757.4010      11.1226       0.0555      63.7390      97.3862       7.8232       9.6904      11.0292       9.3409    -999.2500       0.1826       2.5514      63.2784
   1757.5535      11.0303       0.0613      62.3659      95.7970       7.8124      10.4446      11.9880       9.7985    -999.2500       0.1807       2.5681      88.7582
   1757.7058      10.6271       0.0623      62.5128      94.3429       8.2822       8.8457      11.6556       6.8890    -999.2500       0.1831       2.6062     137.5164
   1757.8583      10.2719       0.0572      62.7264      92.8889       8.7170       7.5927      11.0542       4.8229    -999.2500       0.1835       2.6347     160.9399
   1758.0106      10.0457       0.0356      63.1200      91.4349       9.0575       7.2733       9.7270       5.0335    -999.2500       0.1783       2.6372     161.5942
   1758.1630       9.9174       0.0168      62.8208      89.6715       9.2010       7.1391       8.7957       5.4737    -999.2500       0.1726       2.6357     162.2409
   1758.3154      10.0457       0.0053      60.7033      87.0964       8.8276       7.4909       8.9035       6.5167    -999.2500       0.1653       2.6237     162.8810
   1758.4678      10.1131       0.0031      58.9311      84.9329       8.2804       8.2539       9.2742       7.4758    -999.2500       0.1600       2.6133     163.3692
   1758.6202      10.0243       0.0246      58.0441      83.8243       7.2876      10.0710      10.3191       8.2199    -999.2500       0.1600       2.6073     163.7264
