#------------------------------------------------------------------------------
#
#   Created by  : [OpenWorks] Log Export Utility (LEXP)
#   Created on  : 2016-05-12 17:01:28
#   Project     : CANT971
#   User        : R5K
#   Interpreter : PEP
#
#------------------------------------------------------------------------------
~VERSION INFORMATION
VERS. 2.0 : CWLS Log ASCII Standard - version 2.0
WRAP.  NO : One line per depth step
~WELL INFORMATION
#MNEMONIC   .UNIT                                           VALUE :DESCRIPTION
#------------------------------------------------------------------------------
STRT        .M                                           350.5962 :START DEPTH
STOP        .M                                          2218.5630 :STOP DEPTH
STEP        .M                                             0.1524 :STEP
NULL        .                                           -999.2500 :NULL VALUE
COMP        .                                   PEMEX EXPL & PROD :COMPANY
WELL        .                                                  79 :WELL
FLD         .                                           CANTARELL :FIELD
LOC         .                                             UNKNOWN :LOCATION
CNTY        .                                      CD. DEL CARMEN :COUNTY
STAT        .                                            CAMPECHE :STATE
CTRY        .                                              MEXICO :COUNTRY
SRVC        .                                             UNKNOWN :SERVICE COMPANY
DATE        .                                             UNKNOWN :LOG DATE
UWI         .                                          3060000183 :UNIQUE WELL ID
XCOORD      .                                       602154.470000 :SURFACE X
YCOORD      .                                      2147172.410000 :SURFACE Y
LAT         .                                           19.417394 :LATITUDE
LON         .                                          -92.027010 :LONGITUDE
ELEV        .M                                            28.1700 :SURFACE ELEV
ELEV_TYPE   .                                                  KB :ELEV TYPE
~CURVE INFORMATION
#MNEMONIC.UNIT        API CODE       : CURVE DESCRIPTION
#------------------------------------------------------------------------------
DEPTH    .M                          : Measured Depth
CALI     .inches      UNKNOWN        : CALI:CALI-Load:rC:NONE:v0 (auto-composite)
DT       .us/ft       UNKNOWN        : DT:DT:rC:NONE:v0 (auto-composite)
GR       .UNKNOWN     UNKNOWN        : GR:GR-Load:rC:NONE:v0 (auto-composite)
ILD      .UNKNOWN     UNKNOWN        : ILD:ILD-Load:rC:NONE:v0 (auto-composite)
LLD      .UNKNOWN     UNKNOWN        : LLD:LLD-Load:rC:NONE:v0 (auto-composite)
LLS      .UNKNOWN     UNKNOWN        : LLS:LLS-Load:rC:NONE:v0 (auto-composite)
MSFL     .UNKNOWN     UNKNOWN        : MSFL:MSFL-Load:rC:NONE:v0 (auto-composite)
NPHI     .v/v_decimal UNKNOWN        : NPHI:NPHI:rC:NONE:v0 (auto-composite)
RG       .API         UNKNOWN        : RG:UNKNOWN:rC:NONE:v0 (auto-composite)
RHOB     .UNKNOWN     UNKNOWN        : RHOB:RHOB-Load:rC:NONE:v0 (auto-composite)
SP       .UNKNOWN     UNKNOWN        : SP:SP-Load:rC:NONE:v0 (auto-composite)
~A     DEPTH         CALI           DT           GR          ILD          LLD          LLS         MSFL         NPHI           RG         RHOB           SP
# ...
    699.2874      21.8720    -999.2500      43.1012       1.4697    -999.2500    -999.2500    -999.2500       0.3719    -999.2500       2.1912       9.5253
    699.4398      21.8560    -999.2500      44.7595       1.4712    -999.2500    -999.2500    -999.2500       0.3726    -999.2500       2.1877       9.7578
    699.5922      21.8480    -999.2500      45.8344       1.4645    -999.2500    -999.2500    -999.2500       0.3754    -999.2500       2.1888       9.9516
    699.7446      21.8480    -999.2500      46.3269       1.4495    -999.2500    -999.2500    -999.2500       0.3802    -999.2500       2.1943      10.1066
    699.8970      21.8608    -999.2500      46.3383       1.4298    -999.2500    -999.2500    -999.2500       0.3893    -999.2500       2.2028      10.2691
    700.0494      21.8863    -999.2500      45.8694       1.4053    -999.2500    -999.2500    -999.2500       0.4028    -999.2500       2.2143      10.4390
    700.2018      21.8927    -999.2500      45.4912       1.3840    -999.2500    -999.2500    -999.2500       0.3998    -999.2500       2.2195      10.5783
    700.3542      21.8802    -999.2500      45.2037       1.3660    -999.2500    -999.2500    -999.2500       0.3804    -999.2500       2.2185      10.6868
    700.5066      21.8740    -999.2500      44.5250       1.3528    -999.2500    -999.2500    -999.2500       0.3659    -999.2500       2.2167      10.7100
    700.6590      21.8740    -999.2500      43.4556       1.3443    -999.2500    -999.2500    -999.2500       0.3563    -999.2500       2.2142      10.6480
    700.8114      21.8740    -999.2500      43.0713       1.3345    -999.2500    -999.2500    -999.2500       0.3496    -999.2500       2.2100      10.6635
    700.9638      21.8740    -999.2500      43.3718       1.3235    -999.2500    -999.2500    -999.2500       0.3460    -999.2500       2.2040      10.7565
    701.1162      21.8788    -999.2500      43.9941       1.3053    -999.2500    -999.2500    -999.2500       0.3447    -999.2500       2.1967      10.9813
    701.2686      21.8883    -999.2500      44.9380       1.2798    -999.2500    -999.2500    -999.2500       0.3456    -999.2500       2.1882      11.3378
    701.4210      21.8945    -999.2500      45.7383       1.2518    -999.2500    -999.2500    -999.2500       0.3485    -999.2500       2.1865      11.6400
    701.5734      21.8975    -999.2500      46.3949       1.2213    -999.2500    -999.2500    -999.2500       0.3532    -999.2500       2.1915      11.8881
    701.7258      21.8755    -999.2500      46.4886       1.1883    -999.2500    -999.2500    -999.2500       0.3565    -999.2500       2.1935      12.0971
    701.8782      21.8285    -999.2500      46.0201       1.1528    -999.2500    -999.2500    -999.2500       0.3582    -999.2500       2.1925      12.2671
    702.0306      21.7447    -999.2500      45.4633       1.1205    -999.2500    -999.2500    -999.2500       0.3615    -999.2500       2.1895      12.2592
    702.1830      21.6242    -999.2500      44.8183       1.0915    -999.2500    -999.2500    -999.2500       0.3663    -999.2500       2.1845      12.0737
    702.3354      21.5037    -999.2500      43.3725       1.0882    -999.2500    -999.2500    -999.2500       0.3832    -999.2500       2.1833      11.9810
    702.4878      21.3832    -999.2500      41.1266       1.1107    -999.2500    -999.2500    -999.2500       0.4123    -999.2500       2.1858      11.9810
    702.6402      21.1504    -999.2500      39.3573       1.1527    -999.2500    -999.2500    -999.2500       0.4178    -999.2500       2.1965      12.0505
    702.7926      20.8055    -999.2500      38.0643       1.2142    -999.2500    -999.2500    -999.2500       0.3996    -999.2500       2.2155      12.1895
    702.9450      20.6520    -999.2500      39.2461       1.2600    -999.2500    -999.2500    -999.2500       0.3610    -999.2500       2.2515      12.2823
    703.0974      20.6900    -999.2500      42.9015       1.2900    -999.2500    -999.2500    -999.2500       0.3021    -999.2500       2.3045      12.3288
    703.2498      20.5255    -999.2500      46.8038       1.3097    -999.2500    -999.2500    -999.2500       0.2991    -999.2500       2.3057      12.2592
    703.4022      20.1584    -999.2500      50.9530       1.3192    -999.2500    -999.2500    -999.2500       0.3521    -999.2500       2.2552      12.0737
    703.5546      20.0748    -999.2500      52.9509       1.3198    -999.2500    -999.2500    -999.2500       0.3769    -999.2500       2.2117      12.0741
    703.7070      20.2743    -999.2500      52.8009       1.3113    -999.2500    -999.2500    -999.2500       0.3736    -999.2500       2.1752      12.2601
    703.8594      20.4928    -999.2500      52.2970       1.2715    -999.2500    -999.2500    -999.2500       0.3698    -999.2500       2.1573      12.4536
    704.0118      20.7303    -999.2500      51.4395       1.2005    -999.2500    -999.2500    -999.2500       0.3654    -999.2500       2.1578      12.6546
    704.1642      20.9581    -999.2500      50.5265       1.1338    -999.2500    -999.2500    -999.2500       0.3677    -999.2500       2.1552      12.8248
    704.3166      21.1760    -999.2500      49.5580       1.0713    -999.2500    -999.2500    -999.2500       0.3768    -999.2500       2.1497      12.9643
    704.4690      21.3213    -999.2500      49.2868       1.0313    -999.2500    -999.2500    -999.2500       0.3836    -999.2500       2.1485      13.0495
    704.6214      21.3938    -999.2500      49.7123       1.0138    -999.2500    -999.2500    -999.2500       0.3883    -999.2500       2.1515      13.0805
    704.7738      21.4808    -999.2500      49.8217       1.0075    -999.2500    -999.2500    -999.2500       0.3919    -999.2500       2.1545      13.0340
    704.9262      21.5823    -999.2500      49.6152       1.0125    -999.2500    -999.2500    -999.2500       0.3945    -999.2500       2.1575      12.9100
    705.0786      21.6823    -999.2500      49.0146       1.0160    -999.2500    -999.2500    -999.2500       0.3914    -999.2500       2.1620      12.8480
    705.2310      21.7808    -999.2500      48.0199       1.0180    -999.2500    -999.2500    -999.2500       0.3825    -999.2500       2.1680      12.8480
    705.3834      21.8458    -999.2500      48.1865       1.0190    -999.2500    -999.2500    -999.2500       0.3813    -999.2500       2.1720      12.8945
    705.5358      21.8773    -999.2500      49.5125       1.0190    -999.2500    -999.2500    -999.2500       0.3876    -999.2500       2.1740      12.9875
    705.6882      21.8945    -999.2500      49.8871       1.0190    -999.2500    -999.2500    -999.2500       0.3931    -999.2500       2.1725      13.0495
    705.8406      21.8975    -999.2500      49.3116       1.0190    -999.2500    -999.2500    -999.2500       0.3980    -999.2500       2.1675      13.0805
    705.9930      21.8990    -999.2500      49.1928       1.0165    -999.2500    -999.2500    -999.2500       0.3953    -999.2500       2.1673      13.0650
    706.1454      21.8990    -999.2500      49.5303       1.0115    -999.2500    -999.2500    -999.2500       0.3850    -999.2500       2.1718      13.0030
    706.2978      21.8990    -999.2500      49.8118       1.0090    -999.2500    -999.2500    -999.2500       0.3801    -999.2500       2.1707      12.9953
    706.4502      21.8990    -999.2500      50.0373       1.0090    -999.2500    -999.2500    -999.2500       0.3806    -999.2500       2.1642      13.0418
    706.6026      21.8927    -999.2500      50.8692       1.0090    -999.2500    -999.2500    -999.2500       0.3792    -999.2500       2.1638      13.1193
    706.7550      21.8802    -999.2500      52.3072       1.0090    -999.2500    -999.2500    -999.2500       0.3758    -999.2500       2.1693      13.2278
    706.9074      21.8803    -999.2500      52.7537       1.0090    -999.2500    -999.2500    -999.2500       0.3743    -999.2500       2.1765      13.3285
    707.0598      21.8928    -999.2500      52.2092       1.0090    -999.2500    -999.2500    -999.2500       0.3746    -999.2500       2.1855      13.4215
