#------------------------------------------------------------------------------
#
#   Created by  : [OpenWorks] Log Export Utility (LEXP)
#   Created on  : 2016-05-12 17:01:20
#   Project     : CANT971
#   User        : R5K
#   Interpreter : PEP
#
#------------------------------------------------------------------------------
~VERSION INFORMATION
VERS. 2.0 : CWLS Log ASCII Standard - version 2.0
WRAP.  NO : One line per depth step
~WELL INFORMATION
#MNEMONIC   .UNIT                                           VALUE :DESCRIPTION
#------------------------------------------------------------------------------
STRT        .M                                           993.9530 :START DEPTH
STOP        .M                                          2371.9539 :STOP DEPTH
STEP        .M                                             0.1524 :STEP
NULL        .                                           -999.2500 :NULL VALUE
COMP        .                                   PEMEX EXPL & PROD :COMPANY
WELL        .                                                  55 :WELL
FLD         .                                           CANTARELL :FIELD
LOC         .                                             UNKNOWN :LOCATION
CNTY        .                                      CD. DEL CARMEN :COUNTY
STAT        .                                            CAMPECHE :STATE
CTRY        .                                              MEXICO :COUNTRY
SRVC        .                                             UNKNOWN :SERVICE COMPANY
DATE        .                                             UNKNOWN :LOG DATE
UWI         .                                          3060000168 :UNIQUE WELL ID
XCOORD      .                                       602149.520000 :SURFACE X
YCOORD      .                                      2147170.290000 :SURFACE Y
LAT         .                                           19.417375 :LATITUDE
LON         .                                          -92.027057 :LONGITUDE
ELEV        .M                                            28.1700 :SURFACE ELEV
ELEV_TYPE   .                                                  KB :ELEV TYPE
~CURVE INFORMATION
#MNEMONIC.UNIT        API CODE       : CURVE DESCRIPTION
#------------------------------------------------------------------------------
DEPTH    .M                          : Measured Depth
CALI     .inches      UNKNOWN        : CALI:CALI-Load:rC:NONE:v0 (auto-composite)
DRHO     .UNKNOWN     UNKNOWN        : DRHO:DRHO-Load:rC:NONE:v0 (auto-composite)
DT       .us/ft       UNKNOWN        : DT:DT:rC:NONE:v0 (auto-composite)
GR       .UNKNOWN     UNKNOWN        : GR:GR-Load:rC:NONE:v0 (auto-composite)
ILD      .UNKNOWN     UNKNOWN        : ILD:ILD-Load:rC:NONE:v0 (auto-composite)
LLD      .UNKNOWN     UNKNOWN        : LLD:LLD-Load:rC:NONE:v0 (auto-composite)
LLS      .UNKNOWN     UNKNOWN        : LLS:LLS-Load:rC:NONE:v0 (auto-composite)
MSFL     .UNKNOWN     UNKNOWN        : MSFL:MSFL-Load:rC:NONE:v0 (auto-composite)
NPHI     .v/v_decimal UNKNOWN        : NPHI:NPHI:rC:NONE:v0 (auto-composite)
RHOB     .UNKNOWN     UNKNOWN        : RHOB:RHOB-Load:rC:NONE:v0 (auto-composite)
SP       .UNKNOWN     UNKNOWN        : SP:SP-Load:rC:NONE:v0 (auto-composite)
~A     DEPTH         CALI         DRHO           DT           GR          ILD          LLD          LLS         MSFL         NPHI         RHOB           SP
# ...
   1881.5306       5.8540      -0.2720      53.0960      25.1250    -999.2500      46.0480      43.4780       4.7680      12.4200       2.6470     -67.4530
   1881.6830       5.8370      -0.2770      52.5666      25.0471    -999.2500      71.3103      67.3641       5.0246      12.4160       2.6919     -61.9424
   1881.8354       5.8200      -0.2820      52.0370      24.9690    -999.2500      96.5460      91.2250       5.2810      12.4120       2.7370     -56.4200
   1881.9878       5.8200      -0.2715      51.7436      24.0201    -999.2500      89.2391      87.9530       5.2575      12.2419       2.7560     -48.5669
   1882.1403       5.8200      -0.2610      51.4500      23.0690    -999.2500      81.9390      84.6840       5.2340      12.0720       2.7750     -40.6960
   1882.2926       5.7700      -0.2770      51.7949      21.0255    -999.2500     128.8179     129.2875      11.5630      11.5608       2.7376     -32.7720
   1882.4449       5.7200      -0.2930      52.1400      18.9770    -999.2500     175.6590     173.8550      17.8870      11.0500       2.7000     -24.8290
   1882.5974       5.7565      -0.1947      53.3195      19.0674    -999.2500     174.4991     171.8338      17.6864      11.5302       2.7005     -18.2069
   1882.7498       5.7930      -0.0960      54.5000      19.1580    -999.2500     173.3400     169.8140      17.4860      12.0100       2.7010     -11.5680
   1882.9022       6.3301      -0.0037      54.4180      20.4273    -999.2500     157.5106     145.3547      15.0828      11.2088       2.7150      -7.5194
   1883.0546       6.8670       0.0890      54.3360      21.7000    -999.2500     141.6900     120.9090      12.6810      10.4080       2.7290      -3.4600
   1883.2070       7.3086       0.1124      53.0587      21.8613    -999.2500     124.8719     109.3175      11.9733      10.0839       2.7993       2.9371
   1883.3594       7.7500       0.1360      51.7800      22.0230    -999.2500     108.0610      97.7310      11.2660       9.7600       2.8700       9.3520
   1883.5118       7.5900       0.1051      51.4397      24.2443    -999.2500     100.6454      91.7126      11.1090       9.3004       2.8316      12.0426
   1883.6642       7.4300       0.0740      51.0990      26.4720    -999.2500      93.2320      85.6960      10.9520       8.8410       2.7930      14.7410
   1883.8167       7.4510       0.0436      50.7561      32.7735    -999.2500      87.7535      80.2770      10.7650       8.4435       2.7715      18.4294
   1883.9690       7.4720       0.0130      50.4130      39.0940    -999.2500      82.2760      74.8590      10.5780       8.0460       2.7500      22.1290
   1884.1215       7.5050       0.0135      50.3215      34.3125    -999.2500      72.7828      67.3933       8.4424       7.7035       2.7540      25.5811
   1884.2738       7.5380       0.0140      50.2300      29.5160    -999.2500      63.2900      59.9280       6.3070       7.3610       2.7580      29.0440
   1884.4261       7.6540       0.0175      50.6900      33.2728    -999.2500      56.0888      51.0163       6.5740       7.0735       2.7740      32.4638
   1884.5786       7.7700       0.0210      51.1500      37.0390    -999.2500      48.8870      42.1040       6.8410       6.7860       2.7900      35.8920
   1884.7310       7.5135       0.0230      49.8401      45.5039    -999.2500      49.7219      43.5234       9.7132       6.5080       2.7835      38.1030
   1884.8834       7.2570       0.0250      48.5300      53.9840    -999.2500      50.5570      44.9430      12.5860       6.2300       2.7770      40.3180
   1885.0358       7.1585       0.0245      48.6530      53.0059    -999.2500      56.1516      48.1835      12.0766       6.2940       2.7655      42.0968
   1885.1882       7.0600       0.0240      48.7760      52.0260    -999.2500      61.7480      51.4250      11.5670       6.3580       2.7540      43.8790
   1885.3406       7.0625       0.0190      49.6938      44.8359    -999.2500      65.7367      53.4208       8.8870       6.8478       2.7321      45.7311
   1885.4930       7.0650       0.0140      50.6120      37.6310    -999.2500      69.7240      55.4160       6.2080       7.3370       2.7100      47.5870
   1885.6454       7.2325       0.0100      51.6307      37.3393    -999.2500      79.7221      59.4941       5.8888       8.5341       2.7000      51.3439
   1885.7979       7.4000       0.0060      52.6500      37.0470    -999.2500      89.7100      63.5680       5.5700       9.7300       2.6900      55.1090
   1885.9502       7.3325       0.0060      53.6946      42.0567    -999.2500      87.6821      61.6882       5.4890       9.8426       2.6945      56.0789
   1886.1027       7.2650       0.0060      54.7400      47.0780    -999.2500      85.6560      59.8100       5.4080       9.9550       2.6990      57.0510
   1886.2550       7.0724       0.0240      56.3398      43.2846    -999.2500      73.9059      51.6133       5.8672      10.2016       2.6995      58.6685
   1886.4073       6.8800       0.0420      57.9410      39.4820    -999.2500      62.1650      43.4230       6.3260      10.4480       2.7000      60.2900
   1886.5598       6.9770       0.0555      60.4193      32.5174    -999.2500      49.7675      35.8836       5.5698      11.0942       2.7150      61.5014
   1886.7122       7.0740       0.0690      62.9000      25.5350    -999.2500      37.3780      28.3490       4.8140      11.7400       2.7300      62.7160
   1886.8646       7.1220       0.0386      61.7506      22.1156    -999.2500      36.0567      27.3527       3.9988      11.5655       2.7100      63.3731
   1887.0170       7.1700       0.0080      60.6000      18.6870    -999.2500      34.7360      26.3570       3.1840      11.3910       2.6900      64.0320
   1887.1694       7.2500       0.0090      60.3851      18.8498    -999.2500      31.1363      23.7570       2.6199      10.5403       2.6990      66.7622
   1887.3218       7.3300       0.0100      60.1700      19.0130    -999.2500      27.5380      21.1580       2.0560       9.6900       2.7080      69.5000
   1887.4742       7.3345       0.0150      60.1730      19.9461    -999.2500      27.1684      21.1630       2.0560       9.8190       2.7025      69.4271
   1887.6266       7.3390       0.0200      60.1760      20.8820    -999.2500      26.7990      21.1680       2.0560       9.9480       2.6970      69.3540
   1887.7791       7.3945       0.0200      60.2130      23.2264    -999.2500      26.6125      21.2270       2.0580      11.5291       2.6785      68.4599
   1887.9314       7.4500       0.0200      60.2500      25.5780    -999.2500      26.4260      21.2860       2.0600      13.1100       2.6600      67.5630
   1888.0839       7.5805       0.0160      61.0575      25.5440    -999.2500      33.7491      25.1855       2.1925      14.3430       2.6405      68.1663
   1888.2362       7.7110       0.0120      61.8650      25.5100    -999.2500      41.0720      29.0850       2.3250      15.5760       2.6210      68.7710
   1888.3885       7.7305       0.0120      62.7925      25.2552    -999.2500      44.4808      32.2748       2.3850      17.2434       2.6060      68.7920
   1888.5410       7.7500       0.0120      63.7200      25.0000    -999.2500      47.8900      35.4650       2.4450      18.9110       2.5910      68.8130
   1888.6934       7.7185       0.0105      63.5950      25.4591    -999.2500      48.2840      35.4290       2.4010      19.4256       2.5785      70.1718
   1888.8458       7.6870       0.0090      63.4700      25.9190    -999.2500      48.6780      35.3930       2.3570      19.9400       2.5660      71.5330
   1888.9982       7.4545       0.0070      63.8664      27.6463    -999.2500      48.9275      35.4360       2.5110      19.9180       2.5530      71.9066
   1889.1506       7.2220       0.0050      64.2630      29.3770    -999.2500      49.1770      35.4790       2.6650      19.8960       2.5400      72.2810
   1889.3030       7.0910       0.0080      65.5147      30.0977    -999.2500      48.1798      35.6520       2.4765      19.3262       2.5435      72.2925
