#------------------------------------------------------------------------------
#
#   Created by  : [OpenWorks] Log Export Utility (LEXP)
#   Created on  : 2016-05-23 11:57:09
#   Project     : CANT971
#   User        : R5K
#   Interpreter : PEP
#
#------------------------------------------------------------------------------
~VERSION INFORMATION
VERS. 2.0 : CWLS Log ASCII Standard - version 2.0
WRAP.  NO : One line per depth step
~WELL INFORMATION
#MNEMONIC   .UNIT                                           VALUE :DESCRIPTION
#------------------------------------------------------------------------------
STRT        .M                                           143.0270 :START DEPTH
STOP        .M                                          2096.0330 :STOP DEPTH
STEP        .M                                             0.1524 :STEP
NULL        .                                           -999.2500 :NULL VALUE
COMP        .                                   PEMEX EXPL & PROD :COMPANY
WELL        .                                                   7 :WELL
FLD         .                                           CANTARELL :FIELD
LOC         .                                             UNKNOWN :LOCATION
CNTY        .                                      CD. DEL CARMEN :COUNTY
STAT        .                                            CAMPECHE :STATE
CTRY        .                                              MEXICO :COUNTRY
SRVC        .                                             UNKNOWN :SERVICE COMPANY
DATE        .                                             UNKNOWN :LOG DATE
UWI         .                                            W-C-0007 :UNIQUE WELL ID
XCOORD      .                                       603360.340000 :SURFACE X
YCOORD      .                                      2145093.880000 :SURFACE Y
LAT         .                                           19.398550 :LATITUDE
LON         .                                          -92.015638 :LONGITUDE
ELEV        .M                                            27.1400 :SURFACE ELEV
ELEV_TYPE   .                                                  KB :ELEV TYPE
~CURVE INFORMATION
#MNEMONIC.UNIT        API CODE       : CURVE DESCRIPTION
#------------------------------------------------------------------------------
DEPTH    .M                          : Measured Depth
CAL      .inches      UNKNOWN        : CAL:UNKNOWN:rC:NONE:v0 (auto-composite)
DRHO     .g/cm3       UNKNOWN        : DRHO:UNKNOWN:rC:NONE:v0 (auto-composite)
DT       .us/ft       UNKNOWN        : DT:UNKNOWN:rC:NONE:v0 (auto-composite)
GR       .api         UNKNOWN        : GR:UNKNOWN:rC:NONE:v0 (auto-composite)
ILD      .ohmm        UNKNOWN        : ILD:UNKNOWN:rC:NONE:v0 (auto-composite)
NPHI     .v/v_decimal UNKNOWN        : NPHI:UNKNOWN:rC:NONE:v0 (auto-composite)
RHOB     .g/cm3       UNKNOWN        : RHOB:UNKNOWN:rC:NONE:v0 (auto-composite)
~A     DEPTH          CAL         DRHO           DT           GR          ILD         NPHI         RHOB
# ...
   1562.9377       8.6408      -0.0002      67.2118      90.5948      14.3637       0.2880       2.6090
   1563.0902       8.6267      -0.0104      67.2584      90.6929      15.3971       0.2857       2.6085
   1563.2426       8.6126      -0.0206      67.3050      90.7909      16.4306       0.2834       2.6080
   1563.3950       8.6087      -0.0187      67.0781      90.2978      17.0615       0.2774       2.6131
   1563.5474       8.6054      -0.0163      66.8389      89.7791      17.6743       0.2712       2.6184
   1563.6998       8.6111      -0.0086      65.9580      89.2593      18.0025       0.2727       2.6216
   1563.8522       8.6179      -0.0004      65.0027      88.7395      18.2976       0.2751       2.6245
   1564.0046       8.5922       0.0051      64.0081      87.7200      18.4949       0.2785       2.6258
   1564.1570       8.5602       0.0099      63.0057      86.6035      18.6731       0.2822       2.6268
   1564.3094       8.5417       0.0072      62.5950      82.2442      18.8712       0.2797       2.6315
   1564.4618       8.5271       0.0024      62.3552      76.9563      19.0750       0.2753       2.6373
   1564.6141       8.5282       0.0090      61.3991      72.4557      19.2771       0.2644       2.6498
   1564.7666       8.5355       0.0201      60.1584      68.2667      19.4785       0.2508       2.6648
   1564.9189       8.5513       0.0269      59.0734      66.8315      19.8258       0.2367       2.6783
   1565.0714       8.5717       0.0312      58.0706      66.8383      20.2500       0.2222       2.6909
   1565.2238       8.6025       0.0275      58.1171      67.8625      20.9415       0.2142       2.6969
   1565.3762       8.6404       0.0183      58.8792      69.5760      21.8152       0.2105       2.6983
   1565.5286       8.6614       0.0124      59.7174      70.8368      22.6989       0.2090       2.6907
   1565.6810       8.6677       0.0095      60.6218      71.7059      23.5912       0.2095       2.6752
   1565.8334       8.6692       0.0050      61.0074      73.0545      24.3278       0.2114       2.6601
   1565.9858       8.6653      -0.0013      60.8162      74.9330      24.8914       0.2150       2.6455
   1566.1382       8.6618      -0.0042      60.1119      76.5928      25.3709       0.2167       2.6380
   1566.2906       8.6589      -0.0023      58.6794      77.9441      25.7311       0.2159       2.6404
   1566.4430       8.6555       0.0043      57.5339      78.9710      26.0797       0.2149       2.6482
   1566.5953       8.6511       0.0194      56.9135      79.4077      26.4074       0.2136       2.6656
   1566.7478       8.6417       0.0280      56.3070      79.9149      26.7431       0.2133       2.6826
   1566.9001       8.6204       0.0212      55.7340      80.5915      27.0983       0.2154       2.6981
   1567.0526       8.6050       0.0143      55.4265      81.1558      27.4695       0.2174       2.7059
   1567.2050       8.6094       0.0070      55.9974      81.3519      27.8937       0.2195       2.6885
   1567.3574       8.6124       0.0010      56.4617      81.6529      28.3179       0.2212       2.6731
   1567.5098       8.6090       0.0010      56.4131      82.4528      28.7417       0.2215       2.6677
   1567.6622       8.6066       0.0010      56.4020      83.3860      29.1570       0.2215       2.6639
   1567.8146       8.6119       0.0010      56.6878      85.3599      29.5059       0.2196       2.6716
   1567.9670       8.6164       0.0009      57.0197      87.3071      29.8775       0.2178       2.6788
   1568.1194       8.6037      -0.0005      58.2109      88.7735      30.6731       0.2189       2.6749
   1568.2719       8.5910      -0.0020      59.4130      90.2510      31.4760       0.2200       2.6710
   1568.4242       8.5963       0.0086      59.6487      92.4250      33.2468       0.2225       2.6710
   1568.5765       8.6016       0.0193      59.8865      94.6156      35.0341       0.2250       2.6710
   1568.7290       8.6074       0.0381      59.5913      94.2759      36.6145       0.2235       2.6827
   1568.8813       8.6132       0.0575      59.2564      93.7524      38.1794       0.2216       2.6954
   1569.0338       8.6022       0.0634      58.2989      91.8316      39.2374       0.2170       2.7177
   1569.1862       8.5886       0.0673      57.2489      89.7046      40.2199       0.2119       2.7415
   1569.3386       8.6080       0.0570      55.2330      89.6243      41.0122       0.2025       2.7507
   1569.4910       8.6352       0.0434      52.9900      90.0204      41.7597       0.1921       2.7565
   1569.6434       8.6482       0.0375      51.9627      89.9079      42.6182       0.1877       2.7496
   1569.7958       8.6564       0.0341      51.3419      89.6269      43.5138       0.1853       2.7385
   1569.9482       8.6623       0.0317      51.4112      88.8336      44.9984       0.1844       2.7367
   1570.1006       8.6672       0.0297      51.7916      87.8113      46.7486       0.1842       2.7391
   1570.2531       8.6788       0.0247      51.9022      86.7593      48.1768       0.1832       2.7312
   1570.4054       8.6943       0.0179      51.8532      85.6900      49.4146       0.1819       2.7171
   1570.5577       8.6880       0.0131      51.8044      84.1830      50.1848       0.1783       2.7088
   1570.7102       8.6652       0.0097      51.7559      82.3458      50.5999       0.1731       2.7049
   1570.8625       8.6424       0.0139      52.3617      80.9976      51.3725       0.1693       2.7072
   1571.0150       8.6196       0.0256      53.6009      80.1198      52.4914       0.1667       2.7154
   1571.1674       8.6190       0.0407      54.6263      79.8005      53.8446       0.1636       2.7283
   1571.3198       8.6456       0.0601      55.3881      80.1669      55.4865       0.1598       2.7467
   1571.4722       8.6528       0.0694      55.1715      79.5183      57.1695       0.1563       2.7599
   1571.6246       8.6290       0.0626      53.4056      77.2728      58.9175       0.1532       2.7647
   1571.7770       8.6095       0.0536      52.1545      75.2793      60.5704       0.1511       2.7710
   1571.9294       8.5988       0.0400      51.9632      73.8008      62.0275       0.1512       2.7802
   1572.0818       8.5926       0.0275      51.5047      72.5150      63.7268       0.1512       2.7904
   1572.2343       8.5984       0.0183      50.3116      71.7546      66.0912       0.1510       2.8030
   1572.3866       8.6042       0.0101      49.1576      70.7111      68.8209       0.1504       2.8121
   1572.5389       8.6100       0.0057      48.1547      68.5855      72.9600       0.1485       2.8077
   1572.6914       8.6159       0.0027      47.1867      66.5058      76.9036       0.1470       2.8032
   1572.8438       8.6222       0.0076      46.4227      64.6919      79.7009       0.1478       2.7973
   1572.9962       8.6308       0.0127      45.7647      62.9698      82.3011       0.1487       2.7908
   1573.1486       8.6638       0.0210      46.2404      62.2099      82.7928       0.1504       2.7772
   1573.3010       8.6962       0.0290      46.7622      61.4866      83.2738       0.1520       2.7637
   1573.4534       8.7030       0.0285      49.0504      62.1186      83.3451       0.1493       2.7521
   1573.6058       8.7098       0.0280      51.3387      62.7506      83.4165       0.1466       2.7404
   1573.7582       8.6885       0.0331      51.3727      62.1999      84.4462       0.1431       2.7451
   1573.9106       8.6661       0.0385      51.3237      61.6077      85.5111       0.1396       2.7505
   1574.0630       8.6521       0.0434      50.4555      61.7983      86.1139       0.1339       2.7721
   1574.2153       8.6390       0.0482      49.5008      62.0701      86.6677       0.1280       2.7954
   1574.3678       8.6374       0.0510      48.1833      61.5715      85.6628       0.1236       2.8178
   1574.5201       8.6379       0.0535      46.7990      60.9325      84.3701       0.1194       2.8402
