#------------------------------------------------------------------------------
#
#   Created by  : [OpenWorks] Log Export Utility (LEXP)
#   Created on  : 2016-05-23 11:56:46
#   Project     : CANT971
#   User        : R5K
#   Interpreter : PEP
#
#------------------------------------------------------------------------------
~VERSION INFORMATION
VERS. 2.0 : CWLS Log ASCII Standard - version 2.0
WRAP.  NO : One line per depth step
~WELL INFORMATION
#MNEMONIC   .UNIT                                           VALUE :DESCRIPTION
#------------------------------------------------------------------------------
STRT        .M                                           170.6880 :START DEPTH
STOP        .M                                          2221.8396 :STOP DEPTH
STEP        .M                                             0.1524 :STEP
NULL        .                                           -999.2500 :NULL VALUE
COMP        .                                   PEMEX EXPL & PROD :COMPANY
WELL        .                                                  51 :WELL
FLD         .                                           CANTARELL :FIELD
LOC         .                                             UNKNOWN :LOCATION
CNTY        .                                      CD. DEL CARMEN :COUNTY
STAT        .                                            CAMPECHE :STATE
CTRY        .                                              MEXICO :COUNTRY
SRVC        .                                             UNKNOWN :SERVICE COMPANY
DATE        .                                             UNKNOWN :LOG DATE
UWI         .                                          3060000165 :UNIQUE WELL ID
XCOORD      .                                       599727.990000 :SURFACE X
YCOORD      .                                      2147220.270000 :SURFACE Y
LAT         .                                           19.417949 :LATITUDE
LON         .                                          -92.050116 :LONGITUDE
ELEV        .M                                            27.8000 :SURFACE ELEV
ELEV_TYPE   .                                                  KB :ELEV TYPE
~CURVE INFORMATION
#MNEMONIC.UNIT        API CODE       : CURVE DESCRIPTION
#------------------------------------------------------------------------------
DEPTH    .M                          : Measured Depth
CAL      .inches      UNKNOWN        : CAL:CAL-Load:rC:NONE:v0 (auto-composite)
DRHO     .UNKNOWN     UNKNOWN        : DRHO:DRHO-Load:rC:NONE:v0 (auto-composite)
DT       .us/ft       UNKNOWN        : DT:DT:rC:NONE:v0 (auto-composite)
GR       .UNKNOWN     UNKNOWN        : GR:GR-Load:rC:NONE:v0 (auto-composite)
ILD      .UNKNOWN     UNKNOWN        : ILD:ILD-Load:rC:NONE:v0 (auto-composite)
NPHI     .v/v_decimal UNKNOWN        : NPHI:NPHI:rC:NONE:v0 (auto-composite)
RHOB     .UNKNOWN     UNKNOWN        : RHOB:RHOB-Load:rC:NONE:v0 (auto-composite)
SN       .UNKNOWN     UNKNOWN        : SN:SN-Load:rC:NONE:v0 (auto-composite)
~A     DEPTH          CAL         DRHO           DT           GR          ILD         NPHI         RHOB           SN
# ...
    433.5780      13.1644       0.0440     147.3725      26.1200       1.2125      52.5195       2.3190       0.9785
    433.7304      13.4550       0.0590     143.4750      25.9670       1.2050      52.6050       2.3370       0.9750
    433.8828      13.6262       0.0380     139.5687      25.3839       1.1840      53.0440       2.3175       0.9760
    434.0352      13.7970       0.0170     135.6620      24.8010       1.1630      53.4830       2.2980       0.9770
    434.1876      13.6979       0.0175     136.3275      24.8765       1.1535      52.9500       2.2740       0.9780
    434.3400      13.5990       0.0180     136.9930      24.9520       1.1440      52.4170       2.2500       0.9790
    434.4924      13.6976       0.0130     142.6786      25.1405       1.1480      52.1280       2.2385       0.9805
    434.6448      13.7960       0.0080     148.3640      25.3290       1.1520      51.8390       2.2270       0.9820
    434.7972      13.2619      -0.0095     150.7744      25.4595       1.1640      51.4240       2.2315       0.9910
    434.9496      12.7290      -0.0270     153.1850      25.5900       1.1760      51.0090       2.2360       1.0000
    435.1020      12.7510      -0.0180     154.6350      25.4205       1.1850      50.7920       2.2525       1.0125
    435.2544      12.7730      -0.0090     156.0850      25.2510       1.1940      50.5750       2.2690       1.0250
    435.4068      12.9067       0.0100     160.0981      25.0930       1.2295      50.8385       2.2865       1.0400
    435.5592      13.0400       0.0290     164.1110      24.9350       1.2650      51.1020       2.3040       1.0550
    435.7116      13.2232       0.0285     163.8525      24.8855       1.3010      51.2170       2.3120       1.0805
    435.8640      13.4060       0.0280     163.5940      24.8360       1.3370      51.3320       2.3200       1.1060
    436.0164      13.4531      -0.0265     160.7383      25.0165       1.3870      50.2250       2.3255       1.1530
    436.1688      13.5000      -0.0810     157.8820      25.1970       1.4370      49.1180       2.3310       1.2000
    436.3212      13.2327      -0.0620     155.0782      25.4290       1.5430      47.9960       2.3365       1.2770
    436.4736      12.9660      -0.0430     152.2740      25.6610       1.6490      46.8740       2.3420       1.3540
    436.6260      12.7187      -0.0170     150.5020      25.6205       1.7290      46.2470       2.3760       1.4421
    436.7784      12.4720       0.0090     148.7300      25.5800       1.8090      45.6200       2.4100       1.5300
    436.9308      12.5461       0.0070     147.3491      25.6210       1.8655      45.3450       2.4085       1.5635
    437.0832      12.6200       0.0050     145.9680      25.6620       1.9220      45.0700       2.4070       1.5970
    437.2356      12.7632       0.0030     145.3900      25.8380       1.9755      45.3345       2.4035       1.6115
    437.3880      12.9060       0.0010     144.8120      26.0140       2.0290      45.5990       2.4000       1.6260
    437.5404      12.8464      -0.0230     145.7720      26.1440       2.1316      46.2440       2.3870       1.6745
    437.6928      12.7870      -0.0470     146.7320      26.2740       2.2340      46.8890       2.3740       1.7230
    437.8452      12.6288      -0.0455     148.2329      26.3215       2.3456      46.8430       2.3740       1.8766
    437.9976      12.4710      -0.0440     149.7340      26.3690       2.4570      46.7970       2.3740       2.0300
    438.1500      12.5010      -0.0425     143.3937      26.5010       2.6696      46.4265       2.3790       2.3397
    438.3024      12.5310      -0.0410     137.0530      26.6330       2.8820      46.0560       2.3840       2.6490
    438.4548      12.5010      -0.0465     129.6055      26.3040       3.6074      44.8145       2.3895       2.9867
    438.6072      12.4710      -0.0520     122.1580      25.9750       4.3320      43.5730       2.3950       3.3240
    438.7596      12.5156      -0.0615     118.0278      25.3769       4.9348      43.9475       2.3785       3.6507
    438.9120      12.5600      -0.0710     113.8970      24.7790       5.5370      44.3220       2.3620       3.9770
    439.0644      12.6246      -0.0645     120.5798      24.1300       5.3129      44.8425       2.3360       3.9400
    439.2168      12.6890      -0.0580     127.2630      23.4810       5.0890      45.3630       2.3100       3.9030
    439.3692      12.6444      -0.0390     154.8393      23.2315       4.6843      45.7130       2.3135       3.6964
    439.5216      12.6000      -0.0200     182.4150      22.9820       4.2800      46.0630       2.3170       3.4900
    439.6740      12.5700      -0.0225     175.5233      23.5321       3.8873      46.1910       2.3255       3.2478
    439.8264      12.5400      -0.0250     168.6310      24.0820       3.4950      46.3190       2.3340       3.0060
    439.9788      12.4904      -0.0360     170.1455      24.5700       3.5515      45.8725       2.3330       3.0350
    440.1312      12.4410      -0.0470     171.6600      25.0580       3.6080      45.4260       2.3320       3.0640
    440.2836      12.3669      -0.0460     176.8881      25.1815       3.8861      45.9240       2.3275       3.1936
    440.4360      12.2930      -0.0450     182.1160      25.3050       4.1640      46.4220       2.3230       3.3230
    440.5884      12.3601      -0.0530     179.0136      25.3900       4.5202      45.8675       2.3285       3.5346
    440.7408      12.4270      -0.0610     175.9110      25.4750       4.8760      45.3130       2.3340       3.7460
    440.8932      12.5231      -0.0655     163.5168      25.4580       5.2437      45.0080       2.3435       3.9677
    441.0456      12.6190      -0.0700     151.1200      25.4410       5.6110      44.7030       2.3530       4.1890
    441.1980      12.6636      -0.0680     145.1559      25.6220       5.3744      44.7895       2.3600       4.0599
    441.3504      12.7080      -0.0660     139.1910      25.8030       5.1380      44.8760       2.3670       3.9310
    441.5028      12.6880      -0.0670     141.1104      26.0345       4.6448      44.1660       2.3720       3.5838
    441.6552      12.6680      -0.0680     143.0300      26.2660       4.1520      43.4560       2.3770       3.2370
    441.8076      12.6755      -0.0735     141.1822      26.2095       3.7838      43.4990       2.3750       3.0008
    441.9600      12.6830      -0.0790     139.3340      26.1530       3.4160      43.5420       2.3730       2.7650
    442.1124      12.6855      -0.0760     137.4896      25.9295       3.1579      44.6129       2.3670       2.6394
    442.2648      12.6880      -0.0730     135.6450      25.7060       2.9000      45.6840       2.3610       2.5140
    442.4172      12.6880      -0.0685     136.3830      25.7250       2.7029      45.5640       2.3580       2.4384
    442.5696      12.6880      -0.0640     137.1210      25.7440       2.5060      45.4440       2.3550       2.3630
    442.7220      12.6950      -0.0670     134.9097      25.6085       2.3394      45.6185       2.3445       2.2549
    442.8744      12.7020      -0.0700     132.6980      25.4730       2.1730      45.7930       2.3340       2.1470
    443.0268      12.7145      -0.0740     129.6421      25.1165       2.0474      46.2255       2.3365       2.0379
    443.1792      12.7270      -0.0780     126.5860      24.7600       1.9220      46.6580       2.3390       1.9290
    443.3316      12.7125      -0.0760     127.3730      24.5905       1.7999      47.2450       2.3385       1.8254
    443.4840      12.6980      -0.0740     128.1600      24.4210       1.6780      47.8320       2.3380       1.7220
    443.6364      12.6409      -0.0605     127.6800      24.3865       1.7065      48.6609       2.3325       1.6655
    443.7888      12.5840      -0.0470     127.2000      24.3520       1.7350      49.4900       2.3270       1.6090
    443.9412      12.5074      -0.0400     125.5630      24.2655       1.9171      49.0900       2.3240       1.7141
