#------------------------------------------------------------------------------
#
#   Created by  : [OpenWorks] Log Export Utility (LEXP)
#   Created on  : 2015-10-01 09:49:56
#   Project     : CANT971
#   User        : R5K
#   Interpreter : PEP
#
#------------------------------------------------------------------------------
~VERSION INFORMATION
VERS. 2.0 : CWLS Log ASCII Standard - version 2.0
WRAP.  NO : One line per depth step
~WELL INFORMATION
#MNEMONIC   .UNIT                                           VALUE :DESCRIPTION
#------------------------------------------------------------------------------
STRT        .M                                           799.8710 :START DEPTH
STOP        .M                                          1367.5610 :STOP DEPTH
STEP        .M                                             0.1524 :STEP
NULL        .                                           -999.2500 :NULL VALUE
COMP        .                                   PEMEX EXPL & PROD :COMPANY
WELL        .                                        CANTARELL-1A :WELL
FLD         .                                           CANTARELL :FIELD
LOC         .                                             UNKNOWN :LOCATION
CNTY        .                                      CD. DEL CARMEN :COUNTY
STAT        .                                            CAMPECHE :STATE
CTRY        .                                              MEXICO :COUNTRY
SRVC        .                                             UNKNOWN :SERVICE COMPANY
DATE        .                                             UNKNOWN :LOG DATE
UWI         .                                          3060000138 :UNIQUE WELL ID
XCOORD      .                                       600823.080000 :SURFACE X
YCOORD      .                                      2145118.550000 :SURFACE Y
LAT         .                                           19.398902 :LATITUDE
LON         .                                          -92.039798 :LONGITUDE
ELEV        .M                                            27.7000 :SURFACE ELEV
ELEV_TYPE   .                                                  KB :ELEV TYPE
~CURVE INFORMATION
#MNEMONIC.UNIT        API CODE       : CURVE DESCRIPTION
#------------------------------------------------------------------------------
DEPTH    .M                          : Measured Depth
CALI     .inches      UNKNOWN        : CALI:UNKNOWN:rC:NONE:v0 (auto-composite)
DRHO     .g/cm3       UNKNOWN        : DRHO:UNKNOWN:rC:NONE:v0 (auto-composite)
DT       .us/ft       UNKNOWN        : DT:DT:rC:NONE:v0 (auto-composite)
ILD      .ohm.m       UNKNOWN        : ILD:UNKNOWN:rC:NONE:v0 (auto-composite)
LLD      .ohm.m       UNKNOWN        : LLD:UNKNOWN:rC:NONE:v0 (auto-composite)
LLS      .ohm.m       UNKNOWN        : LLS:UNKNOWN:rC:NONE:v0 (auto-composite)
MSFL     .ohm.m       UNKNOWN        : MSFL:UNKNOWN:rC:NONE:v0 (auto-composite)
NPHI     .v/v_decimal UNKNOWN        : NPHI:NPHI:rC:NONE:v0 (auto-composite)
GR       .API         UNKNOWN        : RG:UNKNOWN:rC:NONE:v0 (auto-composite)
RHOB     .g/cm3       UNKNOWN        : RHOB:UNKNOWN:rC:NONE:v0 (auto-composite)
~A     DEPTH         CALI         DRHO           DT          ILD          LLD          LLS         MSFL         NPHI           GR         RHOB
# ...
   1038.8342      15.3892       0.0085    -999.2500       0.9853       0.2000       0.2000       0.2000      36.2709      24.8510       2.2953
   1038.9866      15.3181       0.0075    -999.2500       0.9819       0.2000       0.2000       0.2000      38.6514      24.7685       2.2972
   1039.1390      15.2289       0.0054    -999.2500       0.9844       0.2000       0.2000       0.2000      40.0735      24.8662       2.2987
   1039.2914      15.1938       0.0046    -999.2500       0.9866       0.2000       0.2000       0.2000      40.5335      25.1938       2.3064
   1039.4438      15.1743       0.0041    -999.2500       0.9886       0.2000       0.2000       0.2000      41.0681      25.5872       2.3159
   1039.5962      15.2398       0.0044    -999.2500       0.9996       0.2000       0.2000       0.2000      41.6776      25.7495       2.3164
   1039.7487      15.3290       0.0049    -999.2500       1.0131       0.2000       0.2000       0.2000      42.2072      25.8472       2.3144
   1039.9010      15.3871       0.0054    -999.2500       1.0369       0.2000       0.2000       0.2000      42.6567      26.2552       2.3219
   1040.0535      15.4367       0.0059    -999.2500       1.0635       0.2000       0.2000       0.2000      42.8354      26.7469       2.3319
   1040.2058      15.4704       0.0052    -999.2500       1.0718       0.2000       0.2000       0.2000      42.7419      26.5745       2.3316
   1040.3583      15.5000       0.0042    -999.2500       1.0753       0.2000       0.2000       0.2000      42.2940      26.2280       2.3286
   1040.5106      15.4980       0.0064    -999.2500       1.0596       0.2000       0.2000       0.2000      41.4901      26.0388       2.3292
   1040.6631      15.4880       0.0094    -999.2500       1.0390       0.2000       0.2000       0.2000      40.9943      25.8894       2.3307
   1040.8154      15.4147       0.0124    -999.2500       1.0286       0.2000       0.2000       0.2000      40.8083      26.0968       2.3169
   1040.9678      15.3260       0.0154    -999.2500       1.0205       0.2000       0.2000       0.2000      40.7232      26.3915       2.2994
   1041.1202      15.4050       0.0124    -999.2500       1.0068       0.2000       0.2000       0.2000      40.7397      26.6867       2.3021
   1041.2726      15.5239       0.0078    -999.2500       0.9918       0.2000       0.2000       0.2000      41.0379      26.9820       2.3096
   1041.4250      15.6023       0.0139    -999.2500       0.9829       0.2000       0.2000       0.2000      41.6194      27.1161       2.3249
   1041.5774      15.6715       0.0225    -999.2500       0.9754       0.2000       0.2000       0.2000      41.8938      27.2134       2.3419
   1041.7299      15.7246       0.0224    -999.2500       0.9908       0.2000       0.2000       0.2000      41.8593      26.3412       2.3401
   1041.8822      15.7743       0.0204    -999.2500       1.0114       0.2000       0.2000       0.2000      41.6498      25.2552       2.3341
   1042.0347      15.8074       0.0212    -999.2500       1.0460       0.2000       0.2000       0.2000      41.2648      24.1679       2.3231
   1042.1870      15.8370       0.0227    -999.2500       1.0836       0.2000       0.2000       0.2000      39.8099      23.0804       2.3111
   1042.3395      15.8341       0.0168    -999.2500       1.0883       0.2000       0.2000       0.2000      37.2815      22.8938       2.3003
   1042.4918      15.8246       0.0092    -999.2500       1.0863       0.2000       0.2000       0.2000      36.2096      22.8923       2.2897
   1042.6443      15.6912       0.0055    -999.2500       1.0735       0.2000       0.2000       0.2000      36.5996      24.0436       2.2830
   1042.7966      15.5333       0.0025    -999.2500       1.0584       0.2000       0.2000       0.2000      36.7765      25.4239       2.2770
   1042.9490      15.4832       0.0020    -999.2500       1.0459       0.2000       0.2000       0.2000      36.7395      25.9760       2.2836
   1043.1014      15.4536       0.0020    -999.2500       1.0339       0.2000       0.2000       0.2000      36.5546      26.3701       2.2926
   1043.2538      15.4659       0.0037    -999.2500       1.0239       0.2000       0.2000       0.2000      36.2211      26.1793       2.3067
   1043.4062      15.4860       0.0057    -999.2500       1.0144       0.2000       0.2000       0.2000      35.6806      25.8816       2.3217
   1043.5586      15.4890       0.0175    -999.2500       1.0139       0.2000       0.2000       0.2000      34.9321      25.3328       2.3436
   1043.7111      15.4890       0.0310    -999.2500       1.0149       0.2000       0.2000       0.2000      34.6036      24.7396       2.3667
   1043.8634      15.5315       0.0360    -999.2500       1.0240       0.2000       0.2000       0.2000      34.6971      24.3996       2.3829
   1044.0159      15.5811       0.0395    -999.2500       1.0345       0.2000       0.2000       0.2000      34.6525      24.1023       2.3979
   1044.1682      15.5794       0.0348    -999.2500       1.0559       0.2000       0.2000       0.2000      34.4690      24.3998       2.3927
   1044.3207      15.5693       0.0288    -999.2500       1.0789       0.2000       0.2000       0.2000      34.3812      24.7933       2.3841
   1044.4730      15.5424       0.0219    -999.2500       1.0998       0.2000       0.2000       0.2000      34.3897      25.1868       2.3587
   1044.6255      15.5128       0.0149    -999.2500       1.1204       0.2000       0.2000       0.2000      34.4479      25.5804       2.3306
   1044.7778      15.5868       0.0140    -999.2500       1.0963       0.2000       0.2000       0.2000      34.5559      25.8879       2.3279
   1044.9302      15.6760       0.0140    -999.2500       1.0658       0.2000       0.2000       0.2000      34.8411      26.1827       2.3289
   1045.0826      15.6523       0.0158    -999.2500       1.0369       0.2000       0.2000       0.2000      35.3046      26.3047       2.3233
   1045.2350      15.6127       0.0178    -999.2500       1.0084       0.2000       0.2000       0.2000      36.0844      26.4024       2.3168
   1045.3875      15.5037       0.0114    -999.2500       0.9873       0.2000       0.2000       0.2000      37.1823      25.8905       2.3023
   1045.5398      15.3853       0.0038    -999.2500       0.9673       0.2000       0.2000       0.2000      37.1052      25.2969       2.2868
   1045.6923      15.2844       0.0074    -999.2500       0.9477       0.2000       0.2000       0.2000      35.8457      25.4043       2.2837
   1045.8446      15.1857       0.0125    -999.2500       0.9281       0.2000       0.2000       0.2000      35.2207      25.6008       2.2822
   1045.9971      15.1576       0.0184    -999.2500       0.9103       0.2000       0.2000       0.2000      35.2322      25.9727       2.2923
   1046.1494      15.1380       0.0244    -999.2500       0.8928       0.2000       0.2000       0.2000      35.5362      26.3657       2.3038
   1046.3019      15.3844       0.0205    -999.2500       0.8770       0.2000       0.2000       0.2000      36.1337      26.4938       2.3059
   1046.4542      15.6612       0.0155    -999.2500       0.8615       0.2000       0.2000       0.2000      36.3549      26.5915       2.3069
   1046.6067      15.6703       0.0105    -999.2500       0.8614       0.2000       0.2000       0.2000      36.1984      26.6001       2.2970
   1046.7590      15.6508       0.0055    -999.2500       0.8629       0.2000       0.2000       0.2000      36.5990      26.5991       2.2860
   1046.9114      15.7478       0.0050    -999.2500       0.8739       0.2000       0.2000       0.2000      37.5590      26.7770       2.2836
   1047.0638      15.8566       0.0050    -999.2500       0.8860       0.2000       0.2000       0.2000      37.9881      26.9730       2.2821
   1047.2162      15.8930       0.0068    -999.2500       0.8916       0.2000       0.2000       0.2000      37.8841      26.6282       2.2884
