#------------------------------------------------------------------------------
#
#   Created by  : [OpenWorks] Log Export Utility (LEXP)
#   Created on  : 2015-10-01 09:50:16
#   Project     : CANT971
#   User        : R5K
#   Interpreter : PEP
#
#------------------------------------------------------------------------------
~VERSION INFORMATION
VERS. 2.0 : CWLS Log ASCII Standard - version 2.0
WRAP.  NO : One line per depth step
~WELL INFORMATION
#MNEMONIC   .UNIT                                           VALUE :DESCRIPTION
#------------------------------------------------------------------------------
STRT        .M                                           352.7300 :START DEPTH
STOP        .M                                          2346.8840 :STOP DEPTH
STEP        .M                                             0.1524 :STEP
NULL        .                                           -999.2500 :NULL VALUE
COMP        .                                   PEMEX EXPL & PROD :COMPANY
WELL        .                                        CANTARELL-64 :WELL
FLD         .                                           CANTARELL :FIELD
LOC         .                                             UNKNOWN :LOCATION
CNTY        .                                      CD. DEL CARMEN :COUNTY
STAT        .                                            CAMPECHE :STATE
CTRY        .                                              MEXICO :COUNTRY
SRVC        .                                             UNKNOWN :SERVICE COMPANY
DATE        .                                             UNKNOWN :LOG DATE
UWI         .                                          3060000172 :UNIQUE WELL ID
XCOORD      .                                       599695.280000 :SURFACE X
YCOORD      .                                      2143036.290000 :SURFACE Y
LAT         .                                           19.380142 :LATITUDE
LON         .                                          -92.050647 :LONGITUDE
ELEV        .M                                            26.7400 :SURFACE ELEV
ELEV_TYPE   .                                                  KB :ELEV TYPE
~CURVE INFORMATION
#MNEMONIC.UNIT        API CODE       : CURVE DESCRIPTION
#------------------------------------------------------------------------------
DEPTH    .M                          : Measured Depth
CALI     .inches      UNKNOWN        : CALI:UNKNOWN:rC:NONE:v0 (auto-composite)
DRHO     .g/cm3       UNKNOWN        : DRHO:UNKNOWN:rC:NONE:v0 (auto-composite)
DT       .us/ft       UNKNOWN        : DT:DT:rC:NONE:v0 (auto-composite)
GR       .API         UNKNOWN        : GR:GR-Load:rC:NONE:v0 (auto-composite)
ILD      .ohm.m       UNKNOWN        : ILD:ILD-Load:rC:NONE:v0 (auto-composite)
LLD      .ohm.m       UNKNOWN        : LLD:UNKNOWN:rC:NONE:v0 (auto-composite)
LLS      .ohm.m       UNKNOWN        : LLS:UNKNOWN:rC:NONE:v0 (auto-composite)
MSFL     .ohm.m       UNKNOWN        : MSFL:UNKNOWN:rC:NONE:v0 (auto-composite)
NPHI     .v/v_decimal UNKNOWN        : NPHI:NPHI:rC:NONE:v0 (auto-composite)
PEF      .b/elec      UNKNOWN        : PEF:UNKNOWN:rC:NONE:v0 (auto-composite)
RHOB     .g/cm3       UNKNOWN        : RHOB:RHOB-Load:rC:NONE:v0 (auto-composite)
~A     DEPTH        CALI         DRHO           DT           GR          ILD          LLD          LLS         MSFL         NPHI          PEF         RHOB
# ...
   2175.4341      5.6337       0.0482      48.7160      46.4860       0.0000    2392.0879    1408.8846     303.5724       3.1666       3.2553       2.7427 
   2175.5864      5.6401       0.0345      48.8096      47.3213       0.0000    1771.7002    1142.3607     293.3004       3.6237       3.1027       2.7382 
   2175.7388      5.6491       0.0305      48.9977      48.2101       0.0000    1585.6910    1126.3337     327.1663       4.0363       3.1749       2.7350 
   2175.8914      5.6560       0.0281      49.2790      49.1517       0.0000    1382.0540    1085.7708     352.1380       4.4051       3.2450       2.7330 
   2176.0437      5.6480       0.0366      49.7106      50.5738       0.0000    1055.9119     874.6951     315.3004       4.7825       3.3007       2.7307 
   2176.1960      5.6419       0.0426      50.2908      52.4715       0.0000     767.1431     679.3697     302.9784       5.1681       3.3595       2.7282 
   2176.3484      5.6484       0.0321      50.9373      56.1947       0.0000     725.5568     588.2145     452.7997       6.0230       3.4392       2.7290 
   2176.5007      5.6526       0.0221      51.6490      61.7188       0.0000     688.6069     524.1854     624.1223       7.3380       3.5055       2.7330 
   2176.6533      5.6426       0.0156      51.7800      64.1124       0.0000     680.8915     631.1996     931.0211       7.8149       3.4869       2.7378 
   2176.8057      5.6343       0.0109      51.3397      63.4066       0.0000    1115.8982     718.6514    1152.5314       7.4725       3.4723       2.7433 
   2176.9580      5.6363       0.0169      51.4590      57.3376       0.0000    4216.5854     688.3161     859.9081       6.3546       3.4813       2.7437 
   2177.1104      5.6381       0.0224      52.1308      45.9745       0.0000    6417.2466     669.4199     603.6395       4.4759       3.4722       2.7392 
   2177.2629      5.6386       0.0254      52.3537      40.3738       0.0000    3368.9448     717.2359     559.3912       3.5910       3.3574       2.7325 
   2177.4153      5.6462       0.0317      52.1348      40.4808       0.0000     793.5631     761.2191     510.3892       3.6779       3.2847       2.7235 
   2177.5676      5.6933       0.0557      51.3083      42.3746       0.0000     858.3442     783.8047     434.8478       4.0580       3.4471       2.7193 
   2177.7200      5.7361       0.0767      49.8818      46.0330       0.0000     880.8004     781.4637     354.2590       4.7258       3.5784       2.7198 
   2177.8726      5.7556       0.0812      49.3065      50.4036       0.0000     676.7804     645.7435     246.6623       5.0479       3.5428       2.7283 
   2178.0249      5.7713       0.0831      49.5693      55.4800       0.0000     492.7702     515.9861     146.7888       5.0319       3.4878       2.7448 
   2178.1772      5.7673       0.0716      50.0067      57.2905       0.0000     411.5084     416.8468      86.5739       5.1239       3.3334       2.7470 
   2178.3296      5.7638       0.0599      50.6164      55.8740       0.0000     364.4556     334.4673      61.2484       5.3220       3.2310       2.7350 
   2178.4819      5.7628       0.0474      50.8372      53.6071       0.0000     486.1590     334.7656     208.0353       5.5594       3.3855       2.7303 
   2178.6345      5.7633       0.0347      50.6748      50.5024       0.0000     629.6909     360.2592     333.9672       5.8353       3.5042       2.7328 
   2178.7869      5.7708       0.0217      50.3236      49.1497       0.0000     876.7804     505.2831     360.9599       5.8113       3.4536       2.7455 
   2178.9392      5.7770       0.0111      49.7859      49.5288       0.0000    1203.5372     622.7021     402.9864       5.4927       3.4091       2.7685 
   2179.0916      5.7770       0.0116      49.2316      49.9627       0.0000    1898.1147     612.6714     514.4233       5.1166       3.3925       2.7750 
   2179.2441      5.7769       0.0113      48.6608      50.4504       0.0000    2861.6484     605.5392     599.2698       4.6843       3.3876       2.7650 
   2179.3965      5.7764       0.0073      48.7839      50.8079       0.0000    5021.3169     611.2982     565.8602       4.4306       3.4342       2.7603 
   2179.5488      5.7755       0.0046      49.5932      51.0365       0.0000    6319.3237     632.6469     518.0316       4.3526       3.4577       2.7608 
   2179.7012      5.7730       0.0076      49.9255      51.6238       0.0000    3922.8423     720.8383     408.3796       4.2918       3.3820       2.7590 
   2179.8538      5.7710       0.0103      49.7876      52.5649       0.0000    2001.8969     821.8676     329.6135       4.2478       3.2984       2.7550 
   2180.0061      5.7710       0.0118      49.6129      54.3149       0.0000    2048.2634     976.0073     378.6234       4.1329       3.1820       2.7495 
   2180.1584      5.7716       0.0123      49.4018      56.8653       0.0000    1933.5161    1039.7913     408.4993       3.9484       3.1239       2.7425 
   2180.3108      5.7746       0.0088      49.3695      56.2674       0.0000    1175.1539     742.6230     361.9396       3.9027       3.2982       2.7400 
   2180.4631      5.7751       0.0058      49.5136      52.5630       0.0000     534.5473     484.7102     301.8081       3.9932       3.5067       2.7420 
   2180.6157      5.7655       0.0048      50.3519      50.9977       0.0000     352.9920     379.8280     188.7698       4.2263       3.8482       2.7402 
   2180.7681      5.7599       0.0041      51.8732      51.5504       0.0000     225.9199     293.7536     131.1799       4.5986       4.0421       2.7347 
   2180.9204      5.7689       0.0046      54.2565      52.9170       0.0000     304.1853     278.5630     282.5661       5.1332       3.6801       2.7179 
   2181.0728      5.7751       0.0061      57.4907      55.0871       0.0000     404.8367     299.5379     423.7164       5.8270       3.3741       2.6899 
   2181.2253      5.7711       0.0111      58.5918      57.6761       0.0000     587.1069     452.3721     527.5467       6.1288       3.2723       2.6790 
   2181.3777      5.7689       0.0172      57.5932      60.6803       0.0000     737.3696     574.8120     582.5761       6.0473       3.1907       2.6850 
   2181.5300      5.7729       0.0272      55.7734      61.5542       0.0000     774.6671     589.9805     465.3712       5.9053       3.1801       2.6955 
   2181.6824      5.7757       0.0359      53.1424      60.3242       0.0000     792.2795     595.6129     396.6010       5.7037       3.1626       2.7105 
   2181.8350      5.7742       0.0399      51.8788      56.9326       0.0000     742.6013     568.6472     493.3988       5.5272       3.1210       2.7250 
   2181.9873      5.7735       0.0422      51.9618      51.3986       0.0000     699.5490     538.4515     582.6450       5.3753       3.0961       2.7390 
   2182.1396      5.7755       0.0387      52.1041      48.7677       0.0000     678.4464     497.5559     646.8746       5.2460       3.1266       2.7518 
   2182.2920      5.7752       0.0338      52.3052      49.0058       0.0000     655.8649     471.1384     661.7445       5.1390       3.1643       2.7633 
   2182.4443      5.7677       0.0242      52.8619      50.1690       0.0000     628.4910     491.6392     516.6573       5.0135       3.2250       2.7680 
   2182.5969      5.7638       0.0174      53.7690      52.2436       0.0000     762.1335     561.3979     404.8153       4.8701       3.2803       2.7660 
   2182.7493      5.7713       0.0189      53.7962      52.7332       0.0000    1401.8875     785.9855     397.4704       4.8038       3.3189       2.7595 
   2182.9016      5.7770       0.0224      52.9534      51.6558       0.0000    1852.3378     955.5132     367.2020       4.8133       3.3378       2.7485 
   2183.0540      5.7770       0.0319      52.6002      48.1295       0.0000    1725.3754     957.0976     267.0122       4.9483       3.2967       2.7272 
   2183.2065      5.7770       0.0367      52.7296      42.1890       0.0000    1565.7772     943.6060     190.0851       5.2062       3.2544       2.6957 
