#------------------------------------------------------------------------------
#
#   Created by  : [OpenWorks] Log Export Utility (LEXP)
#   Created on  : 2016-05-23 11:56:20
#   Project     : CANT971
#   User        : R5K
#   Interpreter : PEP
#
#------------------------------------------------------------------------------
~VERSION INFORMATION
VERS. 2.0 : CWLS Log ASCII Standard - version 2.0
WRAP.  NO : One line per depth step
~WELL INFORMATION
#MNEMONIC   .UNIT                                           VALUE :DESCRIPTION
#------------------------------------------------------------------------------
STRT        .M                                          1446.1469 :START DEPTH
STOP        .M                                          3739.7668 :STOP DEPTH
STEP        .M                                             0.1524 :STEP
NULL        .                                           -999.2500 :NULL VALUE
COMP        .                                             UNKNOWN :COMPANY
WELL        .                                               468-V :WELL
FLD         .                                             UNKNOWN :FIELD
LOC         .                                             UNKNOWN :LOCATION
CNTY        .                                             UNKNOWN :COUNTY
STAT        .                                             UNKNOWN :STATE
CTRY        .                                             UNKNOWN :COUNTRY
SRVC        .                                             UNKNOWN :SERVICE COMPANY
DATE        .                                             UNKNOWN :LOG DATE
UWI         .                                               468-V :UNIQUE WELL ID
XCOORD      .                                       598699.140000 :SURFACE X
YCOORD      .                                      2143301.650000 :SURFACE Y
LAT         .                                           19.382589 :LATITUDE
LON         .                                          -92.060118 :LONGITUDE
ELEV        .M                                             0.0000 :SURFACE ELEV
ELEV_TYPE   .                                                  NA :ELEV TYPE
~CURVE INFORMATION
#MNEMONIC.UNIT        API CODE       : CURVE DESCRIPTION
#------------------------------------------------------------------------------
DEPTH    .M                          : Measured Depth
CALI     .inches      UNKNOWN        : CALI:PETROWORKS:rC:NONE:v1 
DRHO     .g/cm3       UNKNOWN        : DRHO:PETROWORKS:rC:NONE:v1 
DT       .us/ft       UNKNOWN        : DT:sonico:rC:NONE:v0 (auto-composite)
GR       .API         UNKNOWN        : GR:PETROWORKS:rC:NONE:v1 
GR-LWD   .API         UNKNOWN        : GR-LWD:PETROWORKS:rC:NONE:v3 
ILD-LWD  .ohm.m       UNKNOWN        : ILD-LWD:PETROWORKS:rC:NONE:v3 
ILM-LWD  .UNKNOWN     UNKNOWN        : ILM-LWD:PETROWORKS:rC:NONE:v3 
NPHI     .v/v_decimal UNKNOWN        : NPHI:PETROWORKS:rC:NONE:v1 
PEF      .b/elec      UNKNOWN        : PEF:PETROWORKS:rC:NONE:v1 
RHOB     .g/cm3       UNKNOWN        : RHOB:PETROWORKS:rC:NONE:v1 
~A     DEPTH         CALI         DRHO           DT           GR       GR-LWD      ILD-LWD      ILM-LWD         NPHI          PEF         RHOB
# ...
   3477.3340       6.2669      -0.0006      51.8335      61.9589      35.5489      53.4389      52.2269       0.0535       3.3768       2.7312
   3477.4866       6.2766       0.0020      52.2772      57.9645      34.8012      53.4069      52.0476       0.0527       3.3464       2.7429
   3477.6389       6.2790       0.0015      52.4960      57.4050      34.3923      52.6832      51.9378       0.0516       3.3153       2.7486
   3477.7913       6.2812      -0.0012      52.4434      59.9291      33.9536      52.2010      51.3973       0.0512       3.3072       2.7494
   3477.9436       6.2826      -0.0015      52.0974      61.8237      34.6464      52.4687      51.0749       0.0521       3.3169       2.7482
   3478.0959       6.2827       0.0005      51.5094      60.7053      36.0972      51.7749      50.6972       0.0540       3.3048       2.7448
   3478.2485       6.2854       0.0011      50.9754      56.3777      36.0539      50.5276      50.0803       0.0545       3.2598       2.7451
   3478.4009       6.2921       0.0001      50.6935      55.4555      35.0368      49.1611      48.5586       0.0539       3.2200       2.7488
   3478.5532       6.2820      -0.0006      50.6734      57.4072      34.9126      48.7881      47.3946       0.0551       3.2487       2.7439
   3478.7056       6.2802      -0.0001      50.7235      57.2220      36.6266      48.8314      47.2130       0.0566       3.3048       2.7362
   3478.8582       6.2824       0.0028      50.7466      56.4961      38.5861      49.7274      47.7239       0.0575       3.3265       2.7424
   3479.0105       6.2809       0.0056      50.8365      55.5652      38.9700      49.4226      47.4482       0.0597       3.3286       2.7527
   3479.1628       6.2715       0.0046      51.1735      56.2155      37.7764      47.6514      46.1787       0.0614       3.2963       2.7608
   3479.3152       6.2697       0.0018      51.6825      58.9006      35.9664      44.2652      43.9804       0.0618       3.2598       2.7682
   3479.4675       6.2786      -0.0028      52.2128      63.6837      36.3699      42.7413      41.8057       0.0610       3.2750       2.7643
   3479.6201       6.2821      -0.0036      52.6150      62.5279      38.2158      42.6556      40.8381       0.0622       3.3362       2.7495
   3479.7725       6.2785       0.0001      52.7551      53.7858      38.3184      39.0204      38.0369       0.0620       3.4278       2.7352
   3479.9248       6.2757       0.0003      52.6635      50.8132      36.1399      35.6065      34.8151       0.0636       3.4442       2.7344
   3480.0771       6.2775      -0.0019      52.3348      49.1294      34.6973      34.8710      34.2159       0.0632       3.3575       2.7451
   3480.2297       6.2786      -0.0029      52.0122      47.4508      34.1775      35.3114      33.8931       0.0610       3.2991       2.7526
   3480.3821       6.2782      -0.0040      51.9407      49.2915      34.6992      36.0425      33.7717       0.0600       3.3233       2.7555
   3480.5344       6.2814      -0.0013      52.1745      53.7537      37.3336      36.4587      34.0900       0.0614       3.3602       2.7601
   3480.6868       6.2778       0.0028      52.7461      58.2408      39.4702      36.5059      34.3678       0.0645       3.3414       2.7604
   3480.8394       6.2728       0.0024      53.4220      58.7755      41.7599      38.4846      36.1522       0.0663       3.2984       2.7472
   3480.9917       6.2714       0.0028      54.0723      57.6238      41.7134      39.5330      38.1569       0.0659       3.2894       2.7370
   3481.1440       6.2688       0.0041      54.6317      56.4895      41.4576      39.3510      39.0322       0.0626       3.3248       2.7443
   3481.2964       6.2706       0.0028      54.9734      54.5067      41.4201      40.9378      41.7745       0.0588       3.3459       2.7506
   3481.4487       6.2742       0.0022      54.9181      56.4073      43.8724      41.5248      42.6905       0.0586       3.3152       2.7516
   3481.6013       6.2758       0.0034      54.4354      61.6588      47.1855      42.0036      42.8300       0.0588       3.2886       2.7652
   3481.7537       6.2754       0.0022      53.6662      63.7901      48.6052      41.8055      42.0089       0.0590       3.3237       2.7766
   3481.9060       6.2757      -0.0001      52.9293      66.9063      48.8727      43.1191      42.4660       0.0584       3.3835       2.7659
   3482.0583       6.2783       0.0003      52.3979      74.8968      48.7443      43.0676      42.7800       0.0573       3.4188       2.7406
   3482.2109       6.2869       0.0030      52.0398      78.6189      47.7137      43.7233      42.9945       0.0571       3.4363       2.7304
   3482.3633       6.3089       0.0062      51.8218      77.3058      44.9729      44.1700      43.7232       0.0573       3.4089       2.7500
   3482.5156       6.3069       0.0101      51.6687      74.8386      42.9694      43.8958      43.6574       0.0586       3.3746       2.7649
   3482.6680       6.2839       0.0189      51.6174      72.2608      42.2974      43.2609      44.0604       0.0614       3.3736       2.7590
   3482.8206       6.2819       0.0255      51.7221      70.2422      42.6967      42.4880      43.8532       0.0622       3.4000       2.7541
   3482.9729       6.2645       0.0232      52.1479      64.9064      42.1982      40.8951      41.7176       0.0623       3.4275       2.7539
   3483.1252       6.2201       0.0168      52.8141      58.6156      40.7663      43.1986      41.9274       0.0630       3.4234       2.7534
   3483.2776       6.2052       0.0096      53.5168      46.2136      37.8208      43.9774      42.8712       0.0626       3.3863       2.7513
   3483.4299       6.1861       0.0047      53.8679      41.1921      35.5424      42.8847      42.6144       0.0612       3.3384       2.7410
   3483.5825       6.2024       0.0007      53.5225      45.8229      34.6970      40.8129      41.2866       0.0609       3.2918       2.7201
   3483.7349       6.2174       0.0007      52.7373      48.6905      35.0605      40.0829      40.5042       0.0584       3.3117       2.7082
   3483.8872       6.2372       0.0019      51.6669      45.1092      33.7067      40.4909      40.7068       0.0554       3.3593       2.7114
   3484.0396       6.2452       0.0010      50.6888      41.4552      31.9211      41.2904      41.5060       0.0541       3.3566       2.7271
   3484.1921       6.2663      -0.0009      50.0907      41.2239      31.2562      42.9586      42.5305       0.0541       3.3414       2.7376
   3484.3445       6.2746      -0.0020      49.9459      46.5106      32.4627      43.8283      43.4624       0.0542       3.3524       2.7411
   3484.4968       6.2752      -0.0029      50.2257      53.4505      34.2926      43.9867      44.2322       0.0551       3.3614       2.7537
   3484.6492       6.2746      -0.0018      50.7387      57.6199      36.2194      44.8889      45.0737       0.0554       3.3491       2.7630
   3484.8018       6.2756       0.0031      51.2943      60.0797      39.0944      46.0196      46.4264       0.0578       3.3389       2.7661
   3484.9541       6.2808       0.0085      51.8092      61.8734      44.2656      47.3769      47.1994       0.0601       3.3642       2.7546
   3485.1064       6.2806       0.0091      52.2547      66.1066      46.2305      46.1659      46.8550       0.0627       3.4125       2.7244
   3485.2588       6.2825       0.0029      52.5380      68.1447      47.9081      46.5008      46.8517       0.0660       3.4087       2.7001
   3485.4111       6.2824      -0.0045      52.6117      66.9362      50.4266      46.7685      47.1845       0.0664       3.3615       2.6915
   3485.5637       6.2813      -0.0083      52.5065      65.1604      50.6968      47.0464      47.0724       0.0653       3.3339       2.7015
   3485.7161       6.2880      -0.0109      52.4174      63.7205      49.4999      46.7511      46.6098       0.0642       3.3217       2.7079
