#------------------------------------------------------------------------------
#
#   Created by  : [OpenWorks] Log Export Utility (LEXP)
#   Created on  : 2016-05-23 11:55:46
#   Project     : CANT971
#   User        : R5K
#   Interpreter : PEP
#
#------------------------------------------------------------------------------
~VERSION INFORMATION
VERS. 2.0 : CWLS Log ASCII Standard - version 2.0
WRAP.  NO : One line per depth step
~WELL INFORMATION
#MNEMONIC   .UNIT                                           VALUE :DESCRIPTION
#------------------------------------------------------------------------------
STRT        .M                                           325.5260 :START DEPTH
STOP        .M                                          2414.9299 :STOP DEPTH
STEP        .M                                             0.1524 :STEP
NULL        .                                           -999.2500 :NULL VALUE
COMP        .                                   PEMEX EXPL & PROD :COMPANY
WELL        .                                                   4 :WELL
FLD         .                                           CANTARELL :FIELD
LOC         .                                             UNKNOWN :LOCATION
CNTY        .                                      CD. DEL CARMEN :COUNTY
STAT        .                                            CAMPECHE :STATE
CTRY        .                                              MEXICO :COUNTRY
SRVC        .                                             UNKNOWN :SERVICE COMPANY
DATE        .                                             UNKNOWN :LOG DATE
UWI         .                                          3060000140 :UNIQUE WELL ID
XCOORD      .                                       598455.270000 :SURFACE X
YCOORD      .                                      2145027.190000 :SURFACE Y
LAT         .                                           19.398194 :LATITUDE
LON         .                                          -92.062351 :LONGITUDE
ELEV        .M                                            26.5400 :SURFACE ELEV
ELEV_TYPE   .                                                  KB :ELEV TYPE
~CURVE INFORMATION
#MNEMONIC.UNIT        API CODE       : CURVE DESCRIPTION
#------------------------------------------------------------------------------
DEPTH    .M                          : Measured Depth
CALI     .inches      UNKNOWN        : CALI:Import:rC:NONE:v0 (auto-composite)
CGR      .API         UNKNOWN        : CGR:Import:rC:NONE:v0 (auto-composite)
DRHO     .g/cm3       UNKNOWN        : DRHO:Import:rC:NONE:v0 (auto-composite)
DT       .us/ft       UNKNOWN        : DT:Import:rC:NONE:v0 (auto-composite)
GR       .API         UNKNOWN        : GR:Import:rC:NONE:v0 (auto-composite)
ILD      .ohm.m       UNKNOWN        : ILD:Import:rC:NONE:v0 (auto-composite)
LLD      .ohm.m       UNKNOWN        : LLD:Import:rC:NONE:v0 (auto-composite)
LLS      .ohm.m       UNKNOWN        : LLS:Import:rC:NONE:v0 (auto-composite)
MSFL     .ohm.m       UNKNOWN        : MSFL:Import:rC:NONE:v0 (auto-composite)
NPHI     .v/v_decimal UNKNOWN        : NPHI:Import:rC:NONE:v0 (auto-composite)
POTA     .wtpercent   UNKNOWN        : POTA:Import:rC:NONE:v0 (auto-composite)
RHOB     .g/cm3       UNKNOWN        : RHOB:Import:rC:NONE:v0 (auto-composite)
THOR     .ppm         UNKNOWN        : THOR:Import:rC:NONE:v0 (auto-composite)
URAN     .ppm         UNKNOWN        : URAN:Import:rC:NONE:v0 (auto-composite)
~A     DEPTH         CALI          CGR         DRHO           DT           GR          ILD          LLD          LLS         MSFL         NPHI         POTA         RHOB         THOR         URAN
# ...
   2360.9805       5.9190       7.6984       0.1340    -999.2500      21.1760    -999.2500   19290.7344    2778.4790     221.4120       0.0398       0.0033       2.7790       0.5450       1.6771
   2361.1328       5.8660       7.8045       0.1020    -999.2500      21.3618    -999.2500   35220.0117    4465.5981     819.2016       0.0328       0.0040       2.7575       0.5540       1.6733
   2361.2852       5.8130       8.0637       0.0700    -999.2500      21.4130    -999.2500   51126.2031    6150.2729    1416.1250       0.0343       0.0040       2.7360       0.4950       1.6825
   2361.4375       5.8435       8.2565       0.0700    -999.2500      21.2550    -999.2500   49744.0352    7695.4023    1301.1519       0.0356       0.0040       2.7530       0.5247       1.6969
   2361.5901       5.8740       8.2464       0.0700    -999.2500      21.5337    -999.2500   48363.6953    9238.4844    1186.3311       0.0367       0.0040       2.7700       0.6274       1.7169
   2361.7424       5.8950       8.2120       0.0720    -999.2500      22.0024    -999.2500   49557.7891    8817.9688    1117.2806       0.0369       0.0030       2.7910       0.7410       1.7390
   2361.8948       5.9160       8.2120       0.0740    -999.2500      22.2040    -999.2500   50750.4531    8397.9570    1048.3130       0.0343       0.0030       2.8120       0.8935       1.7552
   2362.0471       5.8860       8.2920       0.0455    -999.2500      22.2040    -999.2500   52366.0195    8441.3994    1162.2177       0.0319       0.0030       2.7965       0.9700       1.7737
   2362.1997       5.8560       8.3334       0.0170    -999.2500      22.3060    -999.2500   53979.8516    8484.7949    1276.0000       0.0298       0.0030       2.7810       0.9650       1.8000
   2362.3521       5.8225       8.5844       0.0230    -999.2500      22.6442    -999.2500   53442.8789    8878.9150    1202.0435       0.0286       0.0030       2.7895       0.8954       1.8346
   2362.5044       5.7890       9.0283       0.0290    -999.2500      23.4504    -999.2500   52906.4141    9272.6611    1128.1570       0.0300       0.0030       2.7980       0.8570       1.8913
   2362.6567       5.8626       9.4286       0.0510    -999.2500      24.6460    -999.2500   51055.5664    8875.0049    1005.1779       0.0316       0.0030       2.8090       0.9507       1.9515
   2362.8091       5.9360       9.6905       0.0730    -999.2500      25.6312    -999.2500   49206.2422    8477.6768     882.3000       0.0338       0.0030       2.8200       1.0265       2.0142
   2362.9617       5.9100       9.8142       0.0610    -999.2500      26.1863    -999.2500   43911.5117    6721.6177     577.0193       0.0357       0.0030       2.8070       1.0676       2.0780
   2363.1140       5.8840       9.9209       0.0490    -999.2500      26.1422    -999.2500   38628.9414    4969.5928     272.4400       0.0364       0.0037       2.7940       1.1132       2.1124
   2363.2664       5.8259       9.9064       0.0345    -999.2500      25.9250    -999.2500   41844.5547    3860.4514     161.0601       0.0367       0.0039       2.7845       1.1955       2.1260
   2363.4187       5.7680       9.8473       0.0200    -999.2500      25.4026    -999.2500   45053.1914    2753.7170      49.9220       0.0353       0.0030       2.7750       1.2988       2.1081
   2363.5713       5.8236       9.7990       0.0290    -999.2500      25.0027    -999.2500   32549.9023    2091.9648     119.1724       0.0359       0.0030       2.7565       1.4099       2.0228
   2363.7236       5.8790       9.7635       0.0380    -999.2500      24.5237    -999.2500   20072.2012    1431.5670     188.2810       0.0424       0.0030       2.7380       1.4888       1.9750
   2363.8760       5.9075       9.4822       0.0370    -999.2500      24.3224    -999.2500   23390.2949    1147.2161     174.5338       0.0506       0.0023       2.7380       1.5450       1.9660
   2364.0283       5.9360       9.3159       0.0360    -999.2500      23.9746    -999.2500   26702.0176     863.4110     160.8130       0.0640       0.0020       2.7380       1.5392       1.9854
   2364.1809       5.8845       9.0679       0.0275    -999.2500      23.5055    -999.2500   31874.5352     999.7599     215.6432       0.0763       0.0020       2.7210       1.4217       1.9900
   2364.3333       5.8330       8.6490       0.0190    -999.2500      22.6389    -999.2500   37037.7656    1135.8640     270.3750       0.0851       0.0020       2.7040       1.1335       1.8484
   2364.4856       5.8080       8.3805       0.0245    -999.2500      21.5923    -999.2500   42085.6641    1259.3771     432.9316       0.0891       0.0020       2.7135       1.0272       1.7061
   2364.6379       5.7830       8.2645       0.0300    -999.2500      20.4830    -999.2500   47125.1406    1382.6840     595.2170       0.0775       0.0020       2.7230       0.8289       1.6169
   2364.7903       5.8290       8.5145       0.0195    -999.2500      20.7998    -999.2500   44714.5742    1552.9585     704.3177       0.0653       0.0030       2.7365       0.7374       1.5970
   2364.9429       5.8750       8.8832       0.0090    -999.2500      21.5666    -999.2500   42307.7344    1722.9700     813.2500       0.0511       0.0034       2.7500       0.8550       1.6678
   2365.0952       5.8945       9.3719       0.0125    -999.2500      22.2031    -999.2500   38704.7656    1524.7939     593.7193       0.0388       0.0030       2.7685       0.9427       1.7250
   2365.2476       5.9140       9.6271       0.0160    -999.2500      22.3610    -999.2500   35106.9062    1326.8990     374.5000       0.0322       0.0030       2.7870       0.8891       1.7111
   2365.3999       5.8214       9.4977       0.0140    -999.2500      22.4904    -999.2500   26654.9707    1045.3479     760.2186       0.0278       0.0035       2.7700       0.7706       1.6857
   2365.5525       5.7290       9.1660       0.0120    -999.2500      22.2335    -999.2500   18213.9707     764.1610    1145.4380       0.0304       0.0040       2.7530       0.6843       1.6453
   2365.7048       5.8211       8.2081       0.0245    -999.2500      21.3832    -999.2500   10904.6914     456.8521     739.8262       0.0324       0.0040       2.7405       0.6191       1.6112
   2365.8572       5.9130       7.1250       0.0370    -999.2500      20.3101    -999.2500    3603.9470     149.9020     334.6880       0.0324       0.0040       2.7280       0.5644       1.6091
   2366.0095       5.9955       5.6879       0.0415    -999.2500      18.8760    -999.2500    2765.0076     184.8012     356.3553       0.0316       0.0040       2.7085       0.4653       1.6723
   2366.1621       6.0780       4.3844       0.0460    -999.2500      20.5907    -999.2500    1926.9430     219.6640     378.0000       0.0279       0.0030       2.6890       0.3570       1.7665
   2366.3145       5.9904       2.8975       0.0500    -999.2500      23.1158    -999.2500    1938.8574     361.2609     205.5149       0.0262       0.0040       2.6830       0.4195       1.8884
   2366.4668       5.9030       4.6082       0.0540    -999.2500      26.2791    -999.2500    1950.7419     502.7280      33.1880       0.0310       0.0043       2.6770       0.5714       2.2018
   2366.6191       5.8519      10.9833       0.0555    -999.2500      29.1372    -999.2500    1528.8082     451.0210      67.6702       0.0356       0.0057       2.6780       0.7964       3.1696
   2366.7715       5.8010      17.5521       0.0570    -999.2500      42.2678    -999.2500    1107.8831     399.3550     102.1250       0.0396       0.0070       2.6790       1.0709       3.5372
   2366.9241       5.9757      17.0926       0.0410    -999.2500      45.7722    -999.2500     816.2835     315.9530      68.9394       0.0413       0.0070       2.6890       1.1789       3.5660
   2367.0764       6.1500      14.4540       0.0250    -999.2500      40.8395    -999.2500     525.3450     232.7400      35.8290       0.0355       0.0054       2.6990       0.7336       3.4187
   2367.2288       6.1050      12.8673       0.0285    -999.2500      36.3665    -999.2500     534.8636     195.3425      43.0092       0.0308       0.0050       2.7105       0.3946       3.2407
