#------------------------------------------------------------------------------
#
#   Created by  : [OpenWorks] Log Export Utility (LEXP)
#   Created on  : 2016-05-23 11:57:04
#   Project     : CANT971
#   User        : R5K
#   Interpreter : PEP
#
#------------------------------------------------------------------------------
~VERSION INFORMATION
VERS. 2.0 : CWLS Log ASCII Standard - version 2.0
WRAP.  NO : One line per depth step
~WELL INFORMATION
#MNEMONIC   .UNIT                                           VALUE :DESCRIPTION
#------------------------------------------------------------------------------
STRT        .M                                           125.9451 :START DEPTH
STOP        .M                                          3005.5432 :STOP DEPTH
STEP        .M                                             0.1524 :STEP
NULL        .                                           -999.2500 :NULL VALUE
COMP        .                                   PEMEX EXPL & PROD :COMPANY
WELL        .                                                 66A :WELL
FLD         .                                           CANTARELL :FIELD
LOC         .                                             UNKNOWN :LOCATION
CNTY        .                                      CD. DEL CARMEN :COUNTY
STAT        .                                            CAMPECHE :STATE
CTRY        .                                              MEXICO :COUNTRY
SRVC        .                                             UNKNOWN :SERVICE COMPANY
DATE        .                                             UNKNOWN :LOG DATE
UWI         .                                          3060000173 :UNIQUE WELL ID
XCOORD      .                                       599692.990000 :SURFACE X
YCOORD      .                                      2143036.380000 :SURFACE Y
LAT         .                                           19.380143 :LATITUDE
LON         .                                          -92.050669 :LONGITUDE
ELEV        .M                                            26.7400 :SURFACE ELEV
ELEV_TYPE   .                                                  KB :ELEV TYPE
~CURVE INFORMATION
#MNEMONIC.UNIT        API CODE       : CURVE DESCRIPTION
#------------------------------------------------------------------------------
DEPTH    .M                          : Measured Depth
CALI     .UNKNOWN     UNKNOWN        : CALI:UNKNOWN:rC:NONE:v0 (auto-composite)
DT       .us/ft       UNKNOWN        : DT:DT:rC:NONE:v0 (auto-composite)
GR       .API         UNKNOWN        : GR:UNKNOWN:rC:NONE:v0 (auto-composite)
GR-ENT   .API         UNKNOWN        : GR-ENT:porosidad-entubado:rC:NONE:v0 (auto-composite)
GR-LWD   .UNKNOWN     UNKNOWN        : GR-LWD:GR-LWD:rC:NONE:v0 (auto-composite)
ILD      .UNKNOWN     UNKNOWN        : ILD:UNKNOWN:rC:NONE:v0 (auto-composite)
LLD      .UNKNOWN     UNKNOWN        : LLD:UNKNOWN:rC:NONE:v0 (auto-composite)
LLD-LWD  .UNKNOWN     UNKNOWN        : LLD-LWD:LLD-LWD:rC:NONE:v0 (auto-composite)
LLS      .UNKNOWN     UNKNOWN        : LLS:UNKNOWN:rC:NONE:v0 (auto-composite)
LLS-LWD  .UNKNOWN     UNKNOWN        : LLS-LWD:LLS-LWD:rC:NONE:v0 (auto-composite)
MSFL     .UNKNOWN     UNKNOWN        : MSFL:UNKNOWN:rC:NONE:v0 (auto-composite)
MSFL-LWD .UNKNOWN     UNKNOWN        : MSFL-LWD:MSFL-LWD:rC:NONE:v0 (auto-composite)
NPHI     .v/v_decimal UNKNOWN        : NPHI:PETROWORKS:rC:NONE:v1 
NPHI-ENT .UNKNOWN     UNKNOWN        : NPHI-ENT:porosidad-entubado:rC:NONE:v0 (auto-composite)
RHOB     .g/cm3       UNKNOWN        : RHOB:UNKNOWN:rC:NONE:v0 (auto-composite)
~A     DEPTH         CALI           DT           GR       GR-ENT       GR-LWD          ILD          LLD      LLD-LWD          LLS      LLS-LWD         MSFL     MSFL-LWD         NPHI     NPHI-ENT         RHOB
# ...
   2087.3330    -999.2500    -999.2500      41.1564      25.5662      44.0064      17.0590    -999.2500    -999.2500    -999.2500    -999.2500    -999.2500    -999.2500       0.4423       0.0780       2.3307
   2087.4856    -999.2500    -999.2500      40.5752      24.8435      46.4418      17.0590    -999.2500    -999.2500    -999.2500    -999.2500    -999.2500    -999.2500       0.4393       0.0915       2.3295
   2087.6379    -999.2500    -999.2500      39.8253      24.8045      47.1017      17.0514    -999.2500    -999.2500    -999.2500    -999.2500    -999.2500    -999.2500       0.4391       0.1035       2.3254
   2087.7903    -999.2500    -999.2500      38.8357      25.9805      55.0595      17.0329    -999.2500    -999.2500    -999.2500    -999.2500    -999.2500    -999.2500       0.4426       0.1124       2.3201
   2087.9426    -999.2500    -999.2500      38.6606      27.7114      55.7119      16.9892    -999.2500    -999.2500    -999.2500    -999.2500    -999.2500    -999.2500       0.4435       0.1141       2.3109
   2088.0952    -999.2500    -999.2500      39.6470      30.7094      49.8028      16.9095    -999.2500    -999.2500    -999.2500    -999.2500    -999.2500    -999.2500       0.4409       0.1067       2.3077
   2088.2476    -999.2500    -999.2500      41.6936      34.2729      45.3479      16.8630    -999.2500    -999.2500    -999.2500    -999.2500    -999.2500    -999.2500       0.4409       0.0938       2.3090
   2088.3999    -999.2500    -999.2500      45.2275      38.3113      37.3000      16.8630    -999.2500    1366.7000    -999.2500       0.5700    -999.2500       0.4100       0.4444       0.0829       2.3124
   2088.5522    -999.2500    -999.2500      48.6737      42.8602      36.1320      16.8630    -999.2500    1477.2649    -999.2500       0.5752    -999.2500       0.3943       0.4491       0.0734       2.3143
   2088.7046    -999.2500    -999.2500      51.9963      45.6209      33.6000      16.8630    -999.2500    1798.9371    -999.2500       0.6010    -999.2500       0.3586       0.4556       0.0667       2.3186
   2088.8572    -999.2500    -999.2500      54.2986      47.2153      34.9769      16.8630    -999.2500    2000.0000    -999.2500       0.6200    -999.2500       0.3300       0.4606       0.0630       2.3236
   2089.0095    -999.2500    -999.2500      55.1590      46.6510      39.6100      16.8630    -999.2500    2000.0000    -999.2500       0.6200    -999.2500       0.3300       0.4639       0.0607       2.3285
   2089.1619    -999.2500    -999.2500      55.1487      44.9026      39.6100      16.8630    -999.2500    2000.0000    -999.2500       0.5394    -999.2500       0.3486       0.4645       0.0625       2.3334
   2089.3142    -999.2500    -999.2500      53.8952      42.6828      42.3400      16.8630    -999.2500    2000.0000    -999.2500       0.5043    -999.2500       0.3743       0.4609       0.0646       2.3374
   2089.4668    -999.2500    -999.2500      53.3194      40.6205      43.5078      16.8630    -999.2500    2000.0000    -999.2500       0.5433    -999.2500       0.4067       0.4568       0.0672       2.3372
   2089.6191    -999.2500    -999.2500      53.7145      40.0488      50.7215      16.8630    -999.2500    2000.0000    -999.2500       0.6019    -999.2500       0.4219       0.4521       0.0682       2.3338
   2089.7715    -999.2500    -999.2500      53.6210      40.9887      51.3054      16.8630    -999.2500    2000.0000    -999.2500       0.6028    -999.2500       0.4372       0.4499       0.0687       2.3253
   2089.9238    -999.2500    -999.2500      52.8434      42.3860      49.7585      16.8630    -999.2500    2000.0000    -999.2500       0.5952    -999.2500       0.4424       0.4510       0.0689       2.3136
   2090.0764    -999.2500    -999.2500      52.2175      42.8474      45.6667      16.8983       0.1792    2000.0000       0.1792       0.5800       0.1792       0.4500       0.4510       0.0705       2.3133
   2090.2288    -999.2500    -999.2500      51.8050      42.6370      43.4908      16.9832       0.1293    2000.0000       0.1293       0.6000       0.1293       0.4629       0.4495       0.0749       2.3142
   2090.3811    -999.2500    -999.2500      52.3564      40.7435      37.0941      17.1732       0.1000    2000.0000       0.1000       0.6000       0.1000       0.4700       0.4453       0.0801       2.3201
   2090.5334    -999.2500    -999.2500      54.2760      38.0563      28.6900      17.5126       0.1000    2000.0000       0.1000       0.6000       0.1000       0.4800       0.4375       0.0926       2.3229
   2090.6858    -999.2500    -999.2500      55.1838      35.9424      28.6900      17.6409       0.1000    2000.0000       0.1000       0.6000       0.1000       0.4800       0.4334       0.1024       2.3267
   2090.8384    -999.2500    -999.2500      54.6498      34.2956      32.2700      17.4684       0.1000    2000.0000       0.1000       0.6138       0.1000       0.4800       0.4350       0.1082       2.3303
   2090.9907    -197.0952    -999.2500      54.2229      34.8234      31.8074      17.2907      18.1225    2000.0000       2.1344       0.6200       0.1178       0.4800       0.4380       0.1122       2.3345
   2091.1431     -69.5281    -999.2500      53.9450      36.6521      30.1045      17.1058      61.2429    2000.0000       7.0018       0.6200       0.1602       0.4800       0.4428       0.1154       2.3358
   2091.2954       4.9518    -999.2500      54.3044      39.3378      37.1259      16.9699      82.9277    2000.0000      24.2942       0.6200       0.1940       0.4800       0.4456       0.1158       2.3358
   2091.4480       5.7274    -999.2500      55.5543      42.0028      44.4131      16.9025      74.6554    2000.0000      58.9509       0.6200       0.2154       0.4800       0.4451       0.1135       2.3315
   2091.6003       6.1836    -999.2500      57.1365      43.0771      48.1200      16.8630      66.0303    2000.0000      71.4134       0.6200       0.2280       0.4800       0.4432       0.1081       2.3305
   2091.7527       6.1946    -249.6120      59.1876      43.4136      55.3057      16.8630      56.9073    2000.0000      52.5420       0.6200       0.2280       0.4700       0.4397       0.0958       2.3282
   2091.9050       6.1964    -194.8825      60.1418      43.0182      62.1943      16.8630      50.1375    2000.0000      42.1509       0.6300       0.2280       0.4700       0.4349       0.0830       2.3223
   2092.0576       6.1854     -62.6107      59.5421      42.9095      55.2098      16.8630      46.7020    2000.0000      43.7747       0.6300       0.2280       0.4700       0.4287       0.0737       2.3197
   2092.2100       6.1790      19.0046      58.7754      43.8012      52.1600      16.8630      36.1330    1974.4397      44.6519       0.5700       0.2292       0.4510       0.4254       0.0657       2.3136
   2092.3623       6.1790      29.0662      57.7714      45.0128      52.0104      16.8630      15.4209    1032.6340      44.4674       0.5825       0.2322       0.4662       0.4254       0.0586       2.3078
   2092.5146       6.1790      36.2140      57.2471      46.1203      51.9200      16.8680       6.7855     224.0718      40.1434       0.5959       0.2332       0.4829       0.4269       0.0577       2.3033
   2092.6670       6.1790      39.2311      57.4074      46.5644      51.9200      16.8800      15.3829       5.2700      29.9122       0.6434       0.2312       0.5067       0.4302       0.0616       2.2986
   2092.8196       6.1836      42.9503      57.8170      46.2443      37.1200      16.9090      32.3751     166.0519      26.4811       0.6461       0.2296       0.5120       0.4317       0.0658       2.2941
   2092.9719       6.1946      47.6618      58.5767      46.1020      37.1200      16.9620      61.1532    1669.4209      32.5969       0.6084       0.2286       0.5344       0.4309       0.0705       2.2889
   2093.1243       6.1964      52.9144      59.6683      46.6055      41.0885      17.0050      77.1678    2000.0000      34.3491       0.6000       0.2288       0.5376       0.4292       0.0773       2.2897
