#------------------------------------------------------------------------------
#
#   Created by  : [OpenWorks] Log Export Utility (LEXP)
#   Created on  : 2016-05-23 11:56:05
#   Project     : CANT971
#   User        : R5K
#   Interpreter : PEP
#
#------------------------------------------------------------------------------
~VERSION INFORMATION
VERS. 2.0 : CWLS Log ASCII Standard - version 2.0
WRAP.  NO : One line per depth step
~WELL INFORMATION
#MNEMONIC   .UNIT                                           VALUE :DESCRIPTION
#------------------------------------------------------------------------------
STRT        .M                                          1100.3549 :START DEPTH
STOP        .M                                          2766.5439 :STOP DEPTH
STEP        .M                                             0.1524 :STEP
NULL        .                                           -999.2500 :NULL VALUE
COMP        .                                   PEMEX EXPL & PROD :COMPANY
WELL        .                                                  43 :WELL
FLD         .                                           CANTARELL :FIELD
LOC         .                                             UNKNOWN :LOCATION
CNTY        .                                      CD. DEL CARMEN :COUNTY
STAT        .                                            CAMPECHE :STATE
CTRY        .                                              MEXICO :COUNTRY
SRVC        .                                             UNKNOWN :SERVICE COMPANY
DATE        .                                             UNKNOWN :LOG DATE
UWI         .                                          3060000465 :UNIQUE WELL ID
XCOORD      .                                       601717.960000 :SURFACE X
YCOORD      .                                      2142346.560000 :SURFACE Y
LAT         .                                           19.373808 :LATITUDE
LON         .                                          -92.031425 :LONGITUDE
ELEV        .M                                            24.0000 :SURFACE ELEV
ELEV_TYPE   .                                                  KB :ELEV TYPE
~CURVE INFORMATION
#MNEMONIC.UNIT        API CODE       : CURVE DESCRIPTION
#------------------------------------------------------------------------------
DEPTH    .M                          : Measured Depth
CAL      .inches      UNKNOWN        : CAL:UNKNOWN:rC:NONE:v0 (auto-composite)
CALI     .in          UNKNOWN        : CALI:UNKNOWN:rC:NONE:v0 (auto-composite)
CNL      .v/v_decimal UNKNOWN        : CNL:UNKNOWN:rC:NONE:v0 (auto-composite)
DT       .us/ft       UNKNOWN        : DT:DT:rC:NONE:v0 (auto-composite)
GR       .API         UNKNOWN        : GR:UNKNOWN:rC:NONE:v0 (auto-composite)
ILD      .ohmm        UNKNOWN        : ILD:UNKNOWN:rC:NONE:v0 (auto-composite)
ILM      .ohmm        UNKNOWN        : ILM:UNKNOWN:rC:NONE:v0 (auto-composite)
LLD      .ohmm        UNKNOWN        : LLD:UNKNOWN:rC:NONE:v0 (auto-composite)
LLS      .ohmm        UNKNOWN        : LLS:UNKNOWN:rC:NONE:v0 (auto-composite)
NPHI     .v/v_decimal UNKNOWN        : NPHI:UNKNOWN:rC:NONE:v0 (auto-composite)
PEF      .b/elec      UNKNOWN        : PEF:UNKNOWN:rC:NONE:v0 (auto-composite)
RHOB     .g/cm3       UNKNOWN        : RHOB:UNKNOWN:rC:NONE:v0 (auto-composite)
~A     DEPTH          CAL         CALI          CNL           DT           GR          ILD          ILM          LLD          LLS         NPHI          PEF         RHOB
# ...
   2380.5149    -999.2500      11.4440    -999.2500      62.0910      16.4283    -999.2500    -999.2500     419.8488      87.5112       1.7028       3.5334       2.8399
   2380.6672    -999.2500      11.4440    -999.2500      59.2537      15.9415    -999.2500    -999.2500     472.1508      86.8814       1.7189       3.5981       2.8394
   2380.8196    -999.2500      11.4440    -999.2500      56.8958      15.3721    -999.2500    -999.2500     508.5643      87.8228       1.7563       3.6411       2.8365
   2380.9722    -999.2500      11.4440    -999.2500      57.3715      14.4305    -999.2500    -999.2500     473.3445      95.8479       1.8903       3.5866       2.8225
   2381.1245    -999.2500      11.4452    -999.2500      57.7765      13.5293    -999.2500    -999.2500     441.3368     105.6214       1.9969       3.5161       2.8091
   2381.2769    -999.2500      11.4517    -999.2500      57.7660      12.8117    -999.2500    -999.2500     423.8953     123.3241       1.9800       3.3728       2.7986
   2381.4292    -999.2500      11.4662    -999.2500      57.6654      12.2803    -999.2500    -999.2500     420.0936     136.0778       1.8895       3.2995       2.7961
   2381.5815    -999.2500      11.5177    -999.2500      57.0317      12.6077    -999.2500    -999.2500     479.1911     126.0096       1.4602       3.5494       2.8300
   2381.7341    -999.2500      11.5754    -999.2500      56.2966      13.2148    -999.2500    -999.2500     515.6329     119.2711       1.1538       3.7752       2.8565
   2381.8865    -999.2500      11.6624    -999.2500      54.9657      15.1195    -999.2500    -999.2500     446.9800     127.9778       1.4177       3.8892       2.8480
   2382.0388    -999.2500      11.7391    -999.2500      53.6700      16.7841    -999.2500    -999.2500     381.2437     135.7548       1.6943       3.9730       2.8369
   2382.1912    -999.2500      11.7681    -999.2500      52.5831      17.3289    -999.2500    -999.2500     329.1172     139.1933       2.0301       3.9166       2.8140
   2382.3438    -999.2500      11.7987    -999.2500      51.6570      17.8025    -999.2500    -999.2500     287.7298     139.8384       2.3757       3.8424       2.7956
   2382.4961    -999.2500      11.8368    -999.2500      51.6775      17.9423    -999.2500    -999.2500     296.7541     127.3703       2.7670       3.6851       2.7991
   2382.6484    -999.2500      11.8699    -999.2500      51.9598      18.2149    -999.2500    -999.2500     314.6954     115.2618       2.9948       3.5573       2.8033
   2382.8008    -999.2500      11.8804    -999.2500      53.7950      19.0940    -999.2500    -999.2500     373.3806     104.7964       2.4761       3.5643       2.8108
   2382.9534    -999.2500      11.8877    -999.2500      55.3114      19.5087    -999.2500    -999.2500     445.6234      99.4116       2.1020       3.5787       2.8136
   2383.1057    -999.2500      11.8802    -999.2500      54.9491      17.7889    -999.2500    -999.2500     580.1793     117.3789       2.3929       3.6271       2.7946
   2383.2581    -999.2500      11.8655    -999.2500      54.6400      16.2084    -999.2500    -999.2500     680.6523     135.1874       2.6867       3.6657       2.7760
   2383.4104    -999.2500      11.8175    -999.2500      54.6470      15.2713    -999.2500    -999.2500     623.5490     152.2620       2.9940       3.6582       2.7590
   2383.5627    -999.2500      11.7793    -999.2500      54.8135      14.4015    -999.2500    -999.2500     572.3083     167.5325       3.2178       3.6426       2.7457
   2383.7153    -999.2500      11.7868    -999.2500      55.9210      13.8446    -999.2500    -999.2500     548.3339     174.4120       3.0530       3.5897       2.7497
   2383.8677    -999.2500      11.8014    -999.2500      56.8676      13.3011    -999.2500    -999.2500     538.5540     181.0452       2.8442       3.5296       2.7551
   2384.0200    -999.2500      11.8495    -999.2500      56.8576      12.8203    -999.2500    -999.2500     595.9230     186.5134       2.4270       3.4353       2.7671
   2384.1724    -999.2500      11.8813    -999.2500      56.6902      12.3641    -999.2500    -999.2500     641.5301     192.5413       2.0211       3.3495       2.7804
   2384.3250    -999.2500      11.8383    -999.2500      55.5938      12.0202    -999.2500    -999.2500     633.5715     201.1186       1.6663       3.3026       2.7994
   2384.4773    -999.2500      11.7992    -999.2500      54.6578      11.9711    -999.2500    -999.2500     626.5184     209.3245       1.4017       3.2795       2.8145
   2384.6296    -999.2500      11.7782    -999.2500      54.6633      13.2720    -999.2500    -999.2500     623.6132     215.8292       1.5506       3.3660       2.8115
   2384.7820    -999.2500      11.7526    -999.2500      54.7184      14.6393    -999.2500    -999.2500     611.1612     222.2131       1.6974       3.4575       2.8100
   2384.9346    -999.2500      11.7057    -999.2500      55.0665      16.3123    -999.2500    -999.2500     554.7178     228.0404       1.8342       3.5723       2.8155
   2385.0869    -999.2500      11.6685    -999.2500      55.4425      17.9723    -999.2500    -999.2500     497.8696     233.9488       1.9517       3.6655       2.8208
   2385.2393    -999.2500      11.6770    -999.2500      55.9823      19.5721    -999.2500    -999.2500     439.1245     240.2371       1.9781       3.6570       2.8253
   2385.3916    -999.2500      11.6922    -999.2500      56.4407      20.7942    -999.2500    -999.2500     382.3162     244.5543       2.0000       3.6398       2.8298
   2385.5439    -999.2500      11.7394    -999.2500      56.4182      20.2351    -999.2500    -999.2500     334.6395     239.5785       2.0000       3.5817       2.8343
   2385.6965    -999.2500      11.7685    -999.2500      56.0319      19.9497    -999.2500    -999.2500     290.6669     228.0282       1.9730       3.5355       2.8357
   2385.8489    -999.2500      11.7161    -999.2500      53.5055      20.9066    -999.2500    -999.2500     263.5079     186.6347       1.8231       3.5440       2.8227
   2386.0012    -999.2500      11.6646    -999.2500      51.3450      21.8053    -999.2500    -999.2500     242.9755     150.3341       1.6775       3.5514       2.8110
   2386.1536    -999.2500      11.6177    -999.2500      51.3520      22.4360    -999.2500    -999.2500     253.0306     137.5416       1.5510       3.5539       2.8055
   2386.3062    -999.2500      11.5868    -999.2500      51.4219      23.2666    -999.2500    -999.2500     258.0031     129.0777       1.4959       3.5577       2.8014
   2386.4585    -999.2500      11.6308    -999.2500      51.8622      25.0248    -999.2500    -999.2500     239.3751     140.7121       1.7718       3.5672       2.8034
   2386.6108    -999.2500      11.6653    -999.2500      52.3197      26.8050    -999.2500    -999.2500     222.5946     148.4048       2.0400       3.5831       2.8046
   2386.7632    -999.2500      11.6558    -999.2500      52.8789      28.6877    -999.2500    -999.2500     214.4431     137.6860       2.2724       3.6291       2.8021
   2386.9158    -999.2500      11.6421    -999.2500      53.4527      29.8041    -999.2500    -999.2500     219.3592     130.4511       2.4866       3.6692       2.7996
   2387.0681    -999.2500      11.6085    -999.2500      54.1124      27.3197    -999.2500    -999.2500     285.6774     139.5872       2.6153       3.6817       2.7971
   2387.2205    -999.2500      11.5887    -999.2500      54.7950      25.0067    -999.2500    -999.2500     349.8089     149.0357       2.7399       3.6997       2.7957
   2387.3728    -999.2500      11.6317    -999.2500      55.6133      23.4779    -999.2500    -999.2500     403.9390     159.9135       2.8454       3.7427       2.7997
   2387.5251    -999.2500      11.6652    -999.2500      56.3819      22.2579    -999.2500    -999.2500     446.8126     170.0615       2.9043       3.7744       2.8047
   2387.6777    -999.2500      11.6552    -999.2500      56.8570      22.4588    -999.2500    -999.2500     437.9000     176.8521       2.7494       3.7544       2.8142
