#------------------------------------------------------------------------------
#
#   Created by  : [OpenWorks] Log Export Utility (LEXP)
#   Created on  : 2016-05-12 17:01:20
#   Project     : CANT971
#   User        : R5K
#   Interpreter : PEP
#
#------------------------------------------------------------------------------
~VERSION INFORMATION
VERS. 2.0 : CWLS Log ASCII Standard - version 2.0
WRAP.  NO : One line per depth step
~WELL INFORMATION
#MNEMONIC   .UNIT                                           VALUE :DESCRIPTION
#------------------------------------------------------------------------------
STRT        .M                                           993.9530 :START DEPTH
STOP        .M                                          2371.9539 :STOP DEPTH
STEP        .M                                             0.1524 :STEP
NULL        .                                           -999.2500 :NULL VALUE
COMP        .                                   PEMEX EXPL & PROD :COMPANY
WELL        .                                                  55 :WELL
FLD         .                                           CANTARELL :FIELD
LOC         .                                             UNKNOWN :LOCATION
CNTY        .                                      CD. DEL CARMEN :COUNTY
STAT        .                                            CAMPECHE :STATE
CTRY        .                                              MEXICO :COUNTRY
SRVC        .                                             UNKNOWN :SERVICE COMPANY
DATE        .                                             UNKNOWN :LOG DATE
UWI         .                                          3060000168 :UNIQUE WELL ID
XCOORD      .                                       602149.520000 :SURFACE X
YCOORD      .                                      2147170.290000 :SURFACE Y
LAT         .                                           19.417375 :LATITUDE
LON         .                                          -92.027057 :LONGITUDE
ELEV        .M                                            28.1700 :SURFACE ELEV
ELEV_TYPE   .                                                  KB :ELEV TYPE
~CURVE INFORMATION
#MNEMONIC.UNIT        API CODE       : CURVE DESCRIPTION
#------------------------------------------------------------------------------
DEPTH    .M                          : Measured Depth
CALI     .inches      UNKNOWN        : CALI:CALI-Load:rC:NONE:v0 (auto-composite)
DRHO     .UNKNOWN     UNKNOWN        : DRHO:DRHO-Load:rC:NONE:v0 (auto-composite)
DT       .us/ft       UNKNOWN        : DT:DT:rC:NONE:v0 (auto-composite)
GR       .UNKNOWN     UNKNOWN        : GR:GR-Load:rC:NONE:v0 (auto-composite)
ILD      .UNKNOWN     UNKNOWN        : ILD:ILD-Load:rC:NONE:v0 (auto-composite)
LLD      .UNKNOWN     UNKNOWN        : LLD:LLD-Load:rC:NONE:v0 (auto-composite)
LLS      .UNKNOWN     UNKNOWN        : LLS:LLS-Load:rC:NONE:v0 (auto-composite)
MSFL     .UNKNOWN     UNKNOWN        : MSFL:MSFL-Load:rC:NONE:v0 (auto-composite)
NPHI     .v/v_decimal UNKNOWN        : NPHI:NPHI:rC:NONE:v0 (auto-composite)
RHOB     .UNKNOWN     UNKNOWN        : RHOB:RHOB-Load:rC:NONE:v0 (auto-composite)
SP       .UNKNOWN     UNKNOWN        : SP:SP-Load:rC:NONE:v0 (auto-composite)
~A     DEPTH         CALI         DRHO           DT           GR          ILD          LLD          LLS         MSFL         NPHI         RHOB           SP
# ...
   1176.2234    -999.2500       0.0100    -999.2500      48.1940       1.0390    -999.2500    -999.2500    -999.2500      39.5010       2.2300     109.6180
   1176.3759    -999.2500       0.0025    -999.2500      48.9921       1.0270    -999.2500    -999.2500    -999.2500      39.1155       2.2250     109.5140
   1176.5282    -999.2500      -0.0050    -999.2500      49.7900       1.0150    -999.2500    -999.2500    -999.2500      38.7300       2.2200     109.4100
   1176.6805    -999.2500      -0.0050    -999.2500      48.9900       1.0150    -999.2500    -999.2500    -999.2500      38.7500       2.2200     109.4420
   1176.8330    -999.2500      -0.0050    -999.2500      48.1900       1.0150    -999.2500    -999.2500    -999.2500      38.7700       2.2200     109.4740
   1176.9854    -999.2500      -0.0065    -999.2500      48.2680       1.0170    -999.2500    -999.2500    -999.2500      38.8975       2.2150     109.5775
   1177.1378    -999.2500      -0.0080    -999.2500      48.3460       1.0190    -999.2500    -999.2500    -999.2500      39.0250       2.2100     109.6810
   1177.2902    -999.2500       0.0010    -999.2500      49.6678       1.0270    -999.2500    -999.2500    -999.2500      39.2965       2.2115     109.7430
   1177.4426    -999.2500       0.0100    -999.2500      50.9900       1.0350    -999.2500    -999.2500    -999.2500      39.5680       2.2130     109.8050
   1177.5950    -999.2500       0.0085    -999.2500      50.3451       1.0500    -999.2500    -999.2500    -999.2500      39.8939       2.2165     109.8990
   1177.7474    -999.2500       0.0070    -999.2500      49.7000       1.0650    -999.2500    -999.2500    -999.2500      40.2200       2.2200     109.9930
   1177.8998    -999.2500      -0.0015    -999.2500      47.0707       1.0885    -999.2500    -999.2500    -999.2500      39.6851       2.2300     110.3664
   1178.0522    -999.2500      -0.0100    -999.2500      44.4400       1.1120    -999.2500    -999.2500    -999.2500      39.1500       2.2400     110.7400
   1178.2046    -999.2500       0.0030    -999.2500      44.5300       1.1310    -999.2500    -999.2500    -999.2500      40.1751       2.2250     110.6475
   1178.3571    -999.2500       0.0160    -999.2500      44.6200       1.1500    -999.2500    -999.2500    -999.2500      41.2000       2.2100     110.5550
   1178.5094    -999.2500       0.0080    -999.2500      44.8864       1.1810    -999.2500    -999.2500    -999.2500      41.0009       2.2100     110.2716
   1178.6617    -999.2500       0.0000    -999.2500      45.1530       1.2120    -999.2500    -999.2500    -999.2500      40.8020       2.2100     109.9880
   1178.8142    -999.2500       0.0080    -999.2500      45.8462       1.2045    -999.2500    -999.2500    -999.2500      38.0150       2.2250     109.8191
   1178.9666    -999.2500       0.0160    -999.2500      46.5400       1.1970    -999.2500    -999.2500    -999.2500      35.2300       2.2400     109.6500
   1179.1190    -999.2500       0.0160    -999.2500      46.4286       1.1680    -999.2500    -999.2500    -999.2500      35.6461       2.2345     109.6830
   1179.2714    -999.2500       0.0160    -999.2500      46.3170       1.1390    -999.2500    -999.2500    -999.2500      36.0620       2.2290     109.7160
   1179.4238    -999.2500       0.0145    -999.2500      44.9293       1.1155    -999.2500    -999.2500    -999.2500      37.6579       2.1995     109.8080
   1179.5762    -999.2500       0.0130    -999.2500      43.5400       1.0920    -999.2500    -999.2500    -999.2500      39.2530       2.1700     109.9000
   1179.7286    -999.2500       0.0100    -999.2500      43.6815       1.0725    -999.2500    -999.2500    -999.2500      40.5517       2.1715     109.9325
   1179.8810    -999.2500       0.0070    -999.2500      43.8230       1.0530    -999.2500    -999.2500    -999.2500      41.8500       2.1730     109.9650
   1180.0334    -999.2500       0.0030    -999.2500      44.3796       1.0350    -999.2500    -999.2500    -999.2500      41.6505       2.1780     110.0525
   1180.1858    -999.2500      -0.0010    -999.2500      44.9360       1.0170    -999.2500    -999.2500    -999.2500      41.4510       2.1830     110.1400
   1180.3383    -999.2500      -0.0000    -999.2500      45.5760       0.9975    -999.2500    -999.2500    -999.2500      39.9454       2.1880     110.1240
   1180.4906    -999.2500       0.0010    -999.2500      46.2160       0.9780    -999.2500    -999.2500    -999.2500      38.4400       2.1930     110.1080
   1180.6429    -999.2500       0.0115    -999.2500      46.9000       0.9780    -999.2500    -999.2500    -999.2500      38.8850       2.1965     110.0295
   1180.7954    -999.2500       0.0220    -999.2500      47.5840       0.9780    -999.2500    -999.2500    -999.2500      39.3300       2.2000     109.9510
   1180.9478    -999.2500       0.0210    -999.2500      48.1870       0.9690    -999.2500    -999.2500    -999.2500      39.2350       2.1985     109.8005
   1181.1002    -999.2500       0.0200    -999.2500      48.7900       0.9600    -999.2500    -999.2500    -999.2500      39.1400       2.1970     109.6500
   1181.2526    -999.2500       0.0095    -999.2500      48.7285       0.9610    -999.2500    -999.2500    -999.2500      38.8100       2.1885     109.6500
   1181.4050    -999.2500      -0.0010    -999.2500      48.6670       0.9620    -999.2500    -999.2500    -999.2500      38.4800       2.1800     109.6500
   1181.5574    -999.2500       0.0025    -999.2500      48.3771       0.9680    -999.2500    -999.2500    -999.2500      39.2848       2.1815     109.6500
   1181.7098    -999.2500       0.0060    -999.2500      48.0870       0.9740    -999.2500    -999.2500    -999.2500      40.0900       2.1830     109.6500
   1181.8622    -999.2500       0.0040    -999.2500      47.3887       0.9735    -999.2500    -999.2500    -999.2500      39.8251       2.1880     109.6500
   1182.0146    -999.2500       0.0020    -999.2500      46.6900       0.9730    -999.2500    -999.2500    -999.2500      39.5600       2.1930     109.6500
   1182.1670    -999.2500       0.0020    -999.2500      46.6965       0.9690    -999.2500    -999.2500    -999.2500      39.6725       2.1965     109.6830
   1182.3195    -999.2500       0.0020    -999.2500      46.7030       0.9650    -999.2500    -999.2500    -999.2500      39.7850       2.2000     109.7160
   1182.4718    -999.2500       0.0005    -999.2500      46.8639       0.9655    -999.2500    -999.2500    -999.2500      40.2047       2.2000     109.8080
   1182.6241    -999.2500      -0.0010    -999.2500      47.0250       0.9660    -999.2500    -999.2500    -999.2500      40.6240       2.2000     109.9000
   1182.7766    -999.2500       0.0010    -999.2500      47.8321       0.9675    -999.2500    -999.2500    -999.2500      40.9136       2.2000     109.9600
   1182.9290    -999.2500       0.0030    -999.2500      48.6400       0.9690    -999.2500    -999.2500    -999.2500      41.2030       2.2000     110.0200
   1183.0814    -999.2500      -0.0045    -999.2500      48.4981       0.9690    -999.2500    -999.2500    -999.2500      41.4766       2.1975     109.9860
   1183.2338    -999.2500      -0.0120    -999.2500      48.3560       0.9690    -999.2500    -999.2500    -999.2500      41.7500       2.1950     109.9520
   1183.3862    -999.2500      -0.0100    -999.2500      47.2736       0.9680    -999.2500    -999.2500    -999.2500      41.1799       2.1825     109.8011
   1183.5386    -999.2500      -0.0080    -999.2500      46.1900       0.9670    -999.2500    -999.2500    -999.2500      40.6100       2.1700     109.6500
   1183.6910    -999.2500      -0.0085    -999.2500      46.6149       0.9625    -999.2500    -999.2500    -999.2500      41.1951       2.1715     109.6660
   1183.8434    -999.2500      -0.0090    -999.2500      47.0400       0.9580    -999.2500    -999.2500    -999.2500      41.7800       2.1730     109.6820
   1183.9958    -999.2500      -0.0080    -999.2500      47.0270       0.9505    -999.2500    -999.2500    -999.2500      41.6275       2.1765     109.7430
