#------------------------------------------------------------------------------
#
#   Created by  : [OpenWorks] Log Export Utility (LEXP)
#   Created on  : 2016-05-23 11:55:49
#   Project     : CANT971
#   User        : R5K
#   Interpreter : PEP
#
#------------------------------------------------------------------------------
~VERSION INFORMATION
VERS. 2.0 : CWLS Log ASCII Standard - version 2.0
WRAP.  NO : One line per depth step
~WELL INFORMATION
#MNEMONIC   .UNIT                                           VALUE :DESCRIPTION
#------------------------------------------------------------------------------
STRT        .M                                           773.4315 :START DEPTH
STOP        .M                                          2865.1216 :STOP DEPTH
STEP        .M                                             0.1524 :STEP
NULL        .                                           -999.2500 :NULL VALUE
COMP        .                                             UNKNOWN :COMPANY
WELL        .                                                408D :WELL
FLD         .                                             UNKNOWN :FIELD
LOC         .                                             UNKNOWN :LOCATION
CNTY        .                                             UNKNOWN :COUNTY
STAT        .                                             UNKNOWN :STATE
CTRY        .                                             UNKNOWN :COUNTRY
SRVC        .                                             UNKNOWN :SERVICE COMPANY
DATE        .                                             UNKNOWN :LOG DATE
UWI         .                                                408D :UNIQUE WELL ID
XCOORD      .                                       597130.770000 :SURFACE X
YCOORD      .                                      2144867.260000 :SURFACE Y
LAT         .                                           19.396814 :LATITUDE
LON         .                                          -92.074972 :LONGITUDE
ELEV        .M                                             0.0000 :SURFACE ELEV
ELEV_TYPE   .                                                  KB :ELEV TYPE
~CURVE INFORMATION
#MNEMONIC.UNIT        API CODE       : CURVE DESCRIPTION
#------------------------------------------------------------------------------
DEPTH    .M                          : Measured Depth
CALI     .inches      UNKNOWN        : CALI:litodensidad:rC:NONE:v0 (auto-composite)
CGR      .API         UNKNOWN        : CGR:PETROWORKS:rC:NONE:v1 
DRHO     .g/cm3       UNKNOWN        : DRHO:litodensidad:rC:NONE:v0 (auto-composite)
DT       .us/ft       UNKNOWN        : DT:PETROWORKS:rC:NONE:v1 
GR       .API         UNKNOWN        : GR:PETROWORKS:rC:NONE:v3 
GR-LWD   .UNKNOWN     UNKNOWN        : GR-LWD:resistivos-LWD:rC:NONE:v0 (auto-composite)
LLD      .ohm.m       UNKNOWN        : LLD:PETROWORKS:rC:NONE:v1 
LLD-LWD  .UNKNOWN     UNKNOWN        : LLD-LWD:resistivos-LWD:rC:NONE:v0 (auto-composite)
LLS      .UNKNOWN     UNKNOWN        : LLS:PETROWORKS:rC:NONE:v1 
LLS-LWD  .UNKNOWN     UNKNOWN        : LLS-LWD:resistivos-LWD:rC:NONE:v0 (auto-composite)
MSFL     .UNKNOWN     UNKNOWN        : MSFL:PETROWORKS:rC:NONE:v1 
MSFL-LWD .UNKNOWN     UNKNOWN        : MSFL-LWD:resistivos-LWD:rC:NONE:v0 (auto-composite)
NPHI     .v/v_decimal UNKNOWN        : NPHI:PETROWORKS:rC:NONE:v3 
PEF      .UNKNOWN     UNKNOWN        : PEF:litodensidad:rC:NONE:v0 (auto-composite)
POTA     .wtpercent   UNKNOWN        : POTA:PETROWORKS:rC:NONE:v1 
RHOB     .g/cm3       UNKNOWN        : RHOB:litodensidad:rC:NONE:v0 (auto-composite)
THOR     .ppm         UNKNOWN        : THOR:PETROWORKS:rC:NONE:v1 
URAN     .ppm         UNKNOWN        : URAN:PETROWORKS:rC:NONE:v1 
~A     DEPTH         CALI          CGR         DRHO           DT           GR       GR-LWD          LLD      LLD-LWD          LLS      LLS-LWD         MSFL     MSFL-LWD         NPHI          PEF         POTA         RHOB         THOR         URAN
# ...
   2709.6736       9.1995       3.0242      -0.0041    -999.2500      21.9394    -999.2500     267.7560    -999.2500      96.5129    -999.2500     165.5710    -999.2500       0.0474       3.6088       0.0014       2.7609       0.1437       2.3435
   2709.8259       9.2131       3.2524      -0.0029    -999.2500      25.7715    -999.2500     262.2500    -999.2500      96.4340    -999.2500     103.3179    -999.2500       0.0512       3.7814       0.0014       2.7422       0.2225       2.8740
   2709.9783       9.6342       4.3534       0.0000    -999.2500      30.7046    -999.2500     271.1189    -999.2500      99.4917    -999.2500     109.4108    -999.2500       0.0550       3.9758       0.0019       2.7201       0.2918       3.3844
   2710.1306       9.6410       4.6256       0.0079    -999.2500      36.6642    -999.2500     283.7086    -999.2500     102.8519    -999.2500     150.9948    -999.2500       0.0576       3.7857       0.0020       2.7071       0.2770       4.1690
   2710.2832       9.3422       6.2483       0.0039    -999.2500      41.7499    -999.2500     282.4299    -999.2500     101.8804    -999.2500      66.8002    -999.2500       0.0611       3.6012       0.0024       2.6819       0.5968       4.5271
   2710.4355       9.0569       7.0518       0.0049    -999.2500      46.8160    -999.2500     247.8942    -999.2500      89.4461    -999.2500      72.6695    -999.2500       0.0673       3.2248       0.0022       2.6885       0.9524       5.0442
   2710.5879       9.0772       6.9420       0.0078    -999.2500      44.7771    -999.2500     254.0775    -999.2500      91.5558    -999.2500      78.2330    -999.2500       0.0726       3.1945       0.0020       2.7133       1.0482       4.8537
   2710.7402       9.1520       6.3095       0.0108    -999.2500      40.8446    -999.2500     266.7193    -999.2500      95.5233    -999.2500      93.1819    -999.2500       0.0712       3.2353       0.0018       2.7374       0.9536       4.4632
   2710.8928       9.2539       5.8862       0.0028    -999.2500      34.8073    -999.2500     296.4429    -999.2500     104.1896    -999.2500     160.2688    -999.2500       0.0633       3.2808       0.0018       2.7418       0.8353       3.6307
   2711.0452       9.3422       4.8338      -0.0012    -999.2500      31.9575    -999.2500     432.5187    -999.2500     149.8646    -999.2500      71.2664    -999.2500       0.0546       3.3431       0.0013       2.7541       0.7824       3.4750
   2711.1975       9.0704       4.8990       0.0000    -999.2500      32.2494    -999.2500     630.5717    -999.2500     222.3700    -999.2500     114.2991    -999.2500       0.0504       3.3403       0.0012       2.7558       0.8500       3.4213
   2711.3499       9.0297       5.4163      -0.0022    -999.2500      36.2308    -999.2500     743.2881    -999.2500     272.9304    -999.2500     283.5413    -999.2500       0.0486       3.6793       0.0014       2.7318       0.9043       3.9574
   2711.5022       9.1275       6.4956      -0.0103    -999.2500      42.8366    -999.2500     816.1207    -999.2500     315.6389    -999.2500     213.5858    -999.2500       0.0495       3.6288       0.0018       2.6749       1.0548       4.6617
   2711.6548       9.0704       7.2428      -0.0085    -999.2500      49.1497    -999.2500     642.1850    -999.2500     265.3423    -999.2500     496.3846    -999.2500       0.0567       3.4856       0.0019       2.6367       1.1748       5.3741
   2711.8071       9.1384       8.0999      -0.0085    -999.2500      51.9489    -999.2500     532.0562    -999.2500     231.6726    -999.2500     936.5446    -999.2500       0.0650       3.2536       0.0025       2.6234       1.1089       5.6459
   2711.9595       9.1384       7.0924      -0.0055    -999.2500      51.5364    -999.2500     510.6502    -999.2500     231.7178    -999.2500     337.5427    -999.2500       0.0680       3.1574       0.0025       2.6464       0.8147       5.6854
   2712.1118       9.1248       6.8397      -0.0076    -999.2500      50.3299    -999.2500     536.7936    -999.2500     253.7404    -999.2500     266.5979    -999.2500       0.0618       3.1987       0.0025       2.6765       0.7206       5.5729
   2712.2644       9.0297       6.2898      -0.0072    -999.2500      48.2930    -999.2500     642.8674    -999.2500     309.8880    -999.2500     373.0949    -999.2500       0.0529       3.4635       0.0025       2.6728       0.5700       5.4176
   2712.4167       9.2810       5.7548      -0.0155    -999.2500      44.3992    -999.2500     548.4323    -999.2500     288.7748    -999.2500     966.6904    -999.2500       0.0498       3.4029       0.0023       2.6357       0.5115       4.9015
   2712.5691       9.3150       4.3899      -0.0154    -999.2500      38.9461    -999.2500     313.8136    -999.2500     176.6163    -999.2500    1022.0000    -999.2500       0.0560       3.1442       0.0017       2.6092       0.4000       4.3422
   2712.7214       9.3286       4.3689      -0.0132    -999.2500      34.1518    -999.2500     178.4463    -999.2500     104.6095    -999.2500     595.6478    -999.2500       0.0662       2.8310       0.0017       2.5886       0.3752       3.7315
   2712.8740       9.3883       4.5245      -0.0122    -999.2500      31.1448    -999.2500     143.9822    -999.2500      85.6726    -999.2500     194.4991    -999.2500       0.0742       2.8561       0.0019       2.5557       0.3280       3.3303
   2713.0264       9.1588       4.4706      -0.0167    -999.2500      28.4753    -999.2500     132.6463    -999.2500      79.6912    -999.2500      55.6158    -999.2500       0.0830       3.0125       0.0019       2.5459       0.3151       2.9608
   2713.1787       9.2063       4.0360      -0.0144    -999.2500      26.7190    -999.2500     137.9350    -999.2500      84.5095    -999.2500      39.4441    -999.2500       0.0917       3.2089       0.0017       2.5687       0.2872       2.8457
   2713.3311       9.4033       3.6522      -0.0133    -999.2500      24.5788    -999.2500     166.8398    -999.2500     106.9411    -999.2500      70.5382    -999.2500       0.0969       3.2098       0.0017       2.6226       0.1853       2.5946
   2713.4834       9.3422       3.3511      -0.0102    -999.2500      23.0853    -999.2500     212.4100    -999.2500     145.5986    -999.2500     236.9946    -999.2500       0.0966       3.1571       0.0015       2.6480       0.1849       2.4433
   2713.6360       9.0433       2.9011      -0.0090    -999.2500      20.1297    -999.2500     239.8021    -999.2500     174.6398    -999.2500     263.2560    -999.2500       0.0915       2.9182       0.0014       2.6588       0.1258       2.0878
   2713.7883       9.0297       3.3669      -0.0073    -999.2500      19.9531    -999.2500     236.6426    -999.2500     182.8646    -999.2500     263.7730    -999.2500       0.0842       2.8816       0.0018       2.6447       0.0542       2.0187
   2713.9407       9.0786       3.7708      -0.0074    -999.2500      20.4961    -999.2500     205.4331    -999.2500     165.4666    -999.2500     137.6353    -999.2500       0.0825       3.0264       0.0019       2.6199       0.0826       2.0323
   2714.0930       9.0908       3.5351      -0.0065    -999.2500      21.8246    -999.2500     151.8386    -999.2500     127.0534    -999.2500      51.2214    -999.2500       0.0898       3.0629       0.0019       2.5919       0.0418       2.2354
   2714.2456       9.0908       3.2571      -0.0073    -999.2500      22.9674    -999.2500     117.1431    -999.2500      97.9502    -999.2500      49.2826    -999.2500       0.1031       3.2638       0.0017       2.5801       0.0180       2.4499
   2714.3979       9.0704       4.2692      -0.0118    -999.2500      22.8119    -999.2500     100.8989    -999.2500      83.7021    -999.2500      45.6571    -999.2500       0.1142       3.1986       0.0022       2.5769       0.0977       2.2668
   2714.5503       9.0637       4.9464      -0.0089    -999.2500      22.8625    -999.2500     104.2461    -999.2500      84.3674    -999.2500      49.3779    -999.2500       0.1175       3.5041       0.0024       2.6093       0.1907       2.1808
