#------------------------------------------------------------------------------
#
#   Created by  : [OpenWorks] Log Export Utility (LEXP)
#   Created on  : 2016-05-23 11:57:09
#   Project     : CANT971
#   User        : R5K
#   Interpreter : PEP
#
#------------------------------------------------------------------------------
~VERSION INFORMATION
VERS. 2.0 : CWLS Log ASCII Standard - version 2.0
WRAP.  NO : One line per depth step
~WELL INFORMATION
#MNEMONIC   .UNIT                                           VALUE :DESCRIPTION
#------------------------------------------------------------------------------
STRT        .M                                           143.0270 :START DEPTH
STOP        .M                                          2096.0330 :STOP DEPTH
STEP        .M                                             0.1524 :STEP
NULL        .                                           -999.2500 :NULL VALUE
COMP        .                                   PEMEX EXPL & PROD :COMPANY
WELL        .                                                   7 :WELL
FLD         .                                           CANTARELL :FIELD
LOC         .                                             UNKNOWN :LOCATION
CNTY        .                                      CD. DEL CARMEN :COUNTY
STAT        .                                            CAMPECHE :STATE
CTRY        .                                              MEXICO :COUNTRY
SRVC        .                                             UNKNOWN :SERVICE COMPANY
DATE        .                                             UNKNOWN :LOG DATE
UWI         .                                            W-C-0007 :UNIQUE WELL ID
XCOORD      .                                       603360.340000 :SURFACE X
YCOORD      .                                      2145093.880000 :SURFACE Y
LAT         .                                           19.398550 :LATITUDE
LON         .                                          -92.015638 :LONGITUDE
ELEV        .M                                            27.1400 :SURFACE ELEV
ELEV_TYPE   .                                                  KB :ELEV TYPE
~CURVE INFORMATION
#MNEMONIC.UNIT        API CODE       : CURVE DESCRIPTION
#------------------------------------------------------------------------------
DEPTH    .M                          : Measured Depth
CAL      .inches      UNKNOWN        : CAL:UNKNOWN:rC:NONE:v0 (auto-composite)
DRHO     .g/cm3       UNKNOWN        : DRHO:UNKNOWN:rC:NONE:v0 (auto-composite)
DT       .us/ft       UNKNOWN        : DT:UNKNOWN:rC:NONE:v0 (auto-composite)
GR       .api         UNKNOWN        : GR:UNKNOWN:rC:NONE:v0 (auto-composite)
ILD      .ohmm        UNKNOWN        : ILD:UNKNOWN:rC:NONE:v0 (auto-composite)
NPHI     .v/v_decimal UNKNOWN        : NPHI:UNKNOWN:rC:NONE:v0 (auto-composite)
RHOB     .g/cm3       UNKNOWN        : RHOB:UNKNOWN:rC:NONE:v0 (auto-composite)
~A     DEPTH          CAL         DRHO           DT           GR          ILD         NPHI         RHOB
# ...
    917.5238       0.0000       0.2500      40.0000       0.0000       1.0123      -0.1500       1.9500
    917.6762       0.0000       0.2500      40.0000       0.0000       1.0059      -0.1500       1.9500
    917.8286       0.0000       0.2500      40.0000       0.0000       1.0044      -0.1500       1.9500
    917.9810       0.0000       0.2500      40.0000       0.0000       1.0030      -0.1500       1.9500
    918.1334       0.0000       0.2500      40.0000       0.0000       1.0064      -0.1500       1.9500
    918.2858       0.0000       0.2500      40.0000       0.0000       1.0098      -0.1500       1.9500
    918.4382       0.0000       0.2500      40.0000       0.0000       1.0146      -0.1500       1.9500
    918.5906       0.0000       0.2500      40.0000       0.0000       1.0195      -0.1500       1.9500
    918.7430       0.0000       0.2500      40.0000       0.0000       1.0230      -0.1500       1.9500
    918.8954       0.0000       0.2500      40.0000       0.0000       1.0264      -0.1500       1.9500
    919.0478       0.0000       0.2500      40.0000       0.0000       1.0302      -0.1500       1.9500
    919.2002       0.0000       0.2500      40.0000       0.0000       1.0341      -0.1500       1.9500
    919.3526       0.0000       0.2500      40.0000       0.0000       1.0372      -0.1500       1.9500
    919.5050       0.0000       0.2500      40.0000       0.0000       1.0402      -0.1500       1.9500
    919.6574       0.0000       0.2500      40.0000       0.0000       1.0427      -0.1500       1.9500
    919.8098       0.0000       0.2500      40.0000       0.0000       1.0452      -0.1500       1.9500
    919.9622       0.0000       0.2500      40.0000       0.0000       1.0457      -0.1500       1.9500
    920.1146       0.0000       0.2500      40.0000       0.0000       1.0452      -0.1500       1.9500
    920.2670       0.0000       0.2500      40.0000       0.0000       1.0436      -0.1500       1.9500
    920.4194       0.0000       0.2500      40.0000       0.0000       1.0411      -0.1500       1.9500
    920.5718       0.0000       0.2500      40.0000       0.0000       1.0395      -0.1500       1.9500
    920.7242       0.0000       0.2500      40.0000       0.0000       1.0385      -0.1500       1.9500
    920.8766       0.0000       0.2500      40.0000       0.0000       1.0387      -0.1500       1.9500
    921.0290       0.0000       0.2500      40.0000       0.0000       1.0401      -0.1500       1.9500
    921.1814       0.0000       0.2500      40.0000       0.0000       1.0430      -0.1500       1.9500
    921.3338       0.0000       0.2500      40.0000       0.0000       1.0478      -0.1500       1.9500
    921.4862       0.0000       0.2500      40.0000       0.0000       1.0520      -0.1500       1.9500
    921.6386       0.0000       0.2500      40.0000       0.0000       1.0549      -0.1500       1.9500
    921.7910       0.0000       0.2500      40.0000       0.0000       1.0587      -0.1500       1.9500
    921.9434       0.0000       0.2500      40.0000       0.0000       1.0645      -0.1500       1.9500
    922.0958       0.0000       0.2500      40.0000       0.0000       1.0711      -0.1500       1.9500
    922.2482       0.0000       0.2500      40.0000       0.0000       1.0803      -0.1500       1.9500
    922.4006       0.0000       0.2500      40.0000       0.0000       1.0892      -0.1500       1.9500
    922.5530       0.0000       0.2500      40.0000       0.0000       1.0965      -0.1500       1.9500
    922.7054       0.0000       0.2500      40.0000       0.0000       1.1035      -0.1500       1.9500
    922.8578       0.0000       0.2500      40.0000       0.0000       1.1084      -0.1500       1.9500
    923.0102       0.0000       0.2500      40.0000       0.0000       1.1131      -0.1500       1.9500
    923.1626       0.0000       0.2500      40.0000       0.0000       1.1150      -0.1500       1.9500
    923.3150       0.0000       0.2500      40.0000       0.0000       1.1170      -0.1500       1.9500
    923.4674       0.0000       0.2500      40.0000       0.0000       1.1127      -0.1500       1.9500
    923.6198       0.0000       0.2500      40.0000       0.0000       1.1083      -0.1500       1.9500
    923.7722       0.0000       0.2500      40.0000       0.0000       1.1076      -0.1500       1.9500
    923.9246       0.0000       0.2500      40.0000       0.0000       1.1071      -0.1500       1.9500
    924.0770       0.0000       0.2500      40.0000       0.0000       1.1028      -0.1500       1.9500
    924.2294       0.0000       0.2500      40.0000       0.0000       1.0979      -0.1500       1.9500
    924.3818       0.0000       0.2500      40.0000       0.0000       1.0896      -0.1500       1.9500
    924.5342       0.0000       0.2500      40.0000       0.0000       1.0804      -0.1500       1.9500
    924.6866       0.0000       0.2500      40.0000       0.0000       1.0740      -0.1500       1.9500
    924.8390       0.0000       0.2500      40.0000       0.0000       1.0687      -0.1500       1.9500
    924.9914       0.0000       0.2500      40.0000       0.0000       1.0667      -0.1500       1.9500
    925.1438       0.0000       0.2500      40.0000       0.0000       1.0662      -0.1500       1.9500
    925.2962       0.0000       0.2500      40.0000       0.0000       1.0684      -0.1500       1.9500
    925.4486       0.0000       0.2500      40.0000       0.0000       1.0723      -0.1500       1.9500
    925.6010       0.0000       0.2500      40.0000       0.0000       1.0751      -0.1500       1.9500
    925.7534       0.0000       0.2500      40.0000       0.0000       1.0770      -0.1500       1.9500
    925.9058       0.0000       0.2500      40.0000       0.0000       1.0836      -0.1500       1.9500
    926.0582       0.0000       0.2500      40.0000       0.0000       1.0948      -0.1500       1.9500
    926.2106       0.0000       0.2500      40.0000       0.0000       1.1092      -0.1500       1.9500
    926.3630       0.0000       0.2500      40.0000       0.0000       1.1276      -0.1500       1.9500
    926.5154       0.0000       0.2500      40.0000       0.0000       1.1433      -0.1500       1.9500
    926.6678       0.0000       0.2500      40.0000       0.0000       1.1544      -0.1500       1.9500
    926.8202       0.0000       0.2500      40.0000       0.0000       1.1637      -0.1500       1.9500
    926.9726       0.0000       0.2500      40.0000       0.0000       1.1691      -0.1500       1.9500
    927.1250       0.0000       0.2500      40.0000       0.0000       1.1762      -0.1500       1.9500
    927.2774       0.0000       0.2500      40.0000       0.0000       1.1883      -0.1500       1.9500
    927.4298       0.0000       0.2500      40.0000       0.0000       1.1997      -0.1500       1.9500
    927.5822       0.0000       0.2500      40.0000       0.0000       1.2079      -0.1500       1.9500
    927.7346       0.0000       0.2500      40.0000       0.0000       1.2151      -0.1500       1.9500
    927.8870       0.0000       0.2500      40.0000       0.0000       1.2156      -0.1500       1.9500
    928.0394       0.0000       0.2500      40.0000       0.0000       1.2160      -0.1500       1.9500
    928.1918       0.0000       0.2500      40.0000       0.0000       1.2160      -0.1500       1.9500
    928.3442       0.0000       0.2500      40.0000       0.0000       1.2160      -0.1500       1.9500
    928.4966       0.0000       0.2500      40.0000       0.0000       1.2185      -0.1500       1.9500
    928.6490       0.0000       0.2500      40.0000       0.0000       1.2209      -0.1500       1.9500
    928.8014       0.0000       0.2500      40.0000       0.0000       1.2126      -0.1500       1.9500
    928.9538       0.0000       0.2500      40.0000       0.0000       1.2039      -0.1500       1.9500
    929.1062       0.0000       0.2500      40.0000       0.0000       1.1903      -0.1500       1.9500
