#------------------------------------------------------------------------------
#
#   Created by  : [OpenWorks] Log Export Utility (LEXP)
#   Created on  : 2016-05-23 11:52:56
#   Project     : CANT971
#   User        : R5K
#   Interpreter : PEP
#
#------------------------------------------------------------------------------
~VERSION INFORMATION
VERS. 2.0 : CWLS Log ASCII Standard - version 2.0
WRAP.  NO : One line per depth step
~WELL INFORMATION
#MNEMONIC   .UNIT                                           VALUE :DESCRIPTION
#------------------------------------------------------------------------------
STRT        .M                                           340.6189 :START DEPTH
STOP        .M                                          3243.0769 :STOP DEPTH
STEP        .M                                             0.1524 :STEP
NULL        .                                           -999.2500 :NULL VALUE
COMP        .                                   PEMEX EXPL & PROD :COMPANY
WELL        .                                                2098 :WELL
FLD         .                                           CANTARELL :FIELD
LOC         .                                             UNKNOWN :LOCATION
CNTY        .                                      CD. DEL CARMEN :COUNTY
STAT        .                                            CAMPECHE :STATE
CTRY        .                                              MEXICO :COUNTRY
SRVC        .                                             UNKNOWN :SERVICE COMPANY
DATE        .                                             UNKNOWN :LOG DATE
UWI         .                                          3060000229 :UNIQUE WELL ID
XCOORD      .                                       599692.800000 :SURFACE X
YCOORD      .                                      2143031.510000 :SURFACE Y
LAT         .                                           19.380099 :LATITUDE
LON         .                                          -92.050671 :LONGITUDE
ELEV        .M                                            26.7400 :SURFACE ELEV
ELEV_TYPE   .                                                  KB :ELEV TYPE
~CURVE INFORMATION
#MNEMONIC.UNIT        API CODE       : CURVE DESCRIPTION
#------------------------------------------------------------------------------
DEPTH    .M                          : Measured Depth
CALI     .inches      UNKNOWN        : CALI:litodensidad:rC:NONE:v0 (auto-composite)
CGR      .API         UNKNOWN        : CGR:Espectrometria:rC:NONE:v0 (auto-composite)
DRHO     .g/cm3       UNKNOWN        : DRHO:litodensidad:rC:NONE:v0 (auto-composite)
DT       .us/ft       UNKNOWN        : DT:DT-Load:rC:NONE:v0 (auto-composite)
GR       .API         UNKNOWN        : GR:GR-load:rC:NONE:v0 (auto-composite)
ILD      .UNKNOWN     UNKNOWN        : ILD:resistivos:rC:NONE:v0 (auto-composite)
LLD      .ohm.m       UNKNOWN        : LLD:resistivos:rC:NONE:v0 (auto-composite)
LLS      .UNKNOWN     UNKNOWN        : LLS:resistivos:rC:NONE:v0 (auto-composite)
MSFL     .UNKNOWN     UNKNOWN        : MSFL:resistivos:rC:NONE:v0 (auto-composite)
NPHI     .v/v_decimal UNKNOWN        : NPHI:porosidad:rC:NONE:v0 (auto-composite)
PEF      .UNKNOWN     UNKNOWN        : PEF:litodensidad:rC:NONE:v0 (auto-composite)
POTA     .UNKNOWN     UNKNOWN        : POTA:Espectrometria:rC:NONE:v0 (auto-composite)
RHOB     .UNKNOWN     UNKNOWN        : RHOB:litodensidad:rC:NONE:v0 (auto-composite)
THOR     .ppm         UNKNOWN        : THOR:Espectrometria:rC:NONE:v0 (auto-composite)
URAN     .ppm         UNKNOWN        : URAN:Espectrometria:rC:NONE:v0 (auto-composite)
~A     DEPTH         CALI          CGR         DRHO           DT           GR          ILD          LLD          LLS         MSFL         NPHI          PEF         POTA         RHOB         THOR         URAN
# ...
   2777.4949       8.9140    -999.2500       0.0109      56.7976      33.7497    -999.2500      32.6860      52.0805      79.6530       0.0632    -999.2500    -999.2500       2.6227    -999.2500    -999.2500
   2777.6472       8.9140    -999.2500       0.0070      56.4566      34.1838    -999.2500      32.8650      52.6024      91.6753       0.0615    -999.2500    -999.2500       2.6281    -999.2500    -999.2500
   2777.7996       8.9140    -999.2500       0.0075      55.8184      34.1148    -999.2500      33.7903      55.9562      91.4803       0.0586    -999.2500    -999.2500       2.6316    -999.2500    -999.2500
   2777.9521       8.9140    -999.2500       0.0081      55.2028      34.0036    -999.2500      34.7421      59.1855      91.1880       0.0559    -999.2500    -999.2500       2.6350    -999.2500    -999.2500
   2778.1045       8.9140    -999.2500       0.0121      55.2583      32.5715    -999.2500      36.3959      59.1165      88.2048       0.0562    -999.2500    -999.2500       2.6335    -999.2500    -999.2500
   2778.2568       8.9140    -999.2500       0.0159      55.3305      31.1894    -999.2500      37.9817      59.0147      85.5354       0.0565    -999.2500    -999.2500       2.6319    -999.2500    -999.2500
   2778.4092       8.9140    -999.2500       0.0134      55.8853      31.3280    -999.2500      37.7201      58.0193      91.3589       0.0578    -999.2500    -999.2500       2.6274    -999.2500    -999.2500
   2778.5618       8.9136    -999.2500       0.0110      56.4220      31.4762    -999.2500      37.4391      57.0694      96.7893       0.0592    -999.2500    -999.2500       2.6229    -999.2500    -999.2500
   2778.7141       8.8955    -999.2500       0.0126      56.4210      31.9125    -999.2500      36.6420      57.3293      91.3043       0.0620    -999.2500    -999.2500       2.6199    -999.2500    -999.2500
   2778.8665       8.8780    -999.2500       0.0142      56.4189      32.3334    -999.2500      35.8609      57.5661      86.0242       0.0647    -999.2500    -999.2500       2.6171    -999.2500    -999.2500
   2779.0188       8.8795    -999.2500       0.0186      56.3849      32.2834    -999.2500      35.5193      57.1740      86.3116       0.0643    -999.2500    -999.2500       2.6191    -999.2500    -999.2500
   2779.1714       8.8812    -999.2500       0.0230      56.3471      32.2409    -999.2500      35.1169      56.7340      86.7352       0.0639    -999.2500    -999.2500       2.6213    -999.2500    -999.2500
   2779.3237       8.8882    -999.2500       0.0235      56.1971      32.4233    -999.2500      33.0938      55.0177      90.9547       0.0622    -999.2500    -999.2500       2.6298    -999.2500    -999.2500
   2779.4761       8.8952    -999.2500       0.0241      56.0413      32.6177    -999.2500      31.1471      53.2922      94.6473       0.0606    -999.2500    -999.2500       2.6383    -999.2500    -999.2500
   2779.6284       8.9048    -999.2500       0.0261      55.7184      33.1794    -999.2500      31.2906      51.3130      83.9718       0.0588    -999.2500    -999.2500       2.6468    -999.2500    -999.2500
   2779.7808       8.9140    -999.2500       0.0280      55.3876      33.7531    -999.2500      31.5048      49.5520      73.9219       0.0571    -999.2500    -999.2500       2.6549    -999.2500    -999.2500
   2779.9333       8.9140    -999.2500       0.0265      54.8184      34.6842    -999.2500      33.6111      53.6345      81.3632       0.0572    -999.2500    -999.2500       2.6529    -999.2500    -999.2500
   2780.0857       8.9139    -999.2500       0.0249      54.2559      35.5854    -999.2500      35.6385      57.5550      88.5297       0.0573    -999.2500    -999.2500       2.6508    -999.2500    -999.2500
   2780.2380       8.9104    -999.2500       0.0214      53.8896      35.5664    -999.2500      35.5991      57.2292      88.1819       0.0583    -999.2500    -999.2500       2.6443    -999.2500    -999.2500
   2780.3904       8.9060    -999.2500       0.0179      53.5366      35.5450    -999.2500      35.5424      56.8608      87.7609       0.0593    -999.2500    -999.2500       2.6378    -999.2500    -999.2500
   2780.5430       8.8664    -999.2500       0.0154      53.5851      35.4510    -999.2500      35.0252      55.3492      85.2875       0.0592    -999.2500    -999.2500       2.6303    -999.2500    -999.2500
   2780.6953       8.8280    -999.2500       0.0129      53.6408      35.3541    -999.2500      34.4828      53.8258      82.7588       0.0592    -999.2500    -999.2500       2.6230    -999.2500    -999.2500
   2780.8477       8.8280    -999.2500       0.0114      53.9092      35.1666    -999.2500      33.2753      51.9921      78.7130       0.0579    -999.2500    -999.2500       2.6230    -999.2500    -999.2500
   2781.0000       8.8291    -999.2500       0.0099      54.1845      34.9434    -999.2500      32.0931      50.2281      74.8389       0.0567    -999.2500    -999.2500       2.6230    -999.2500    -999.2500
   2781.1526       8.8722    -999.2500       0.0079      54.6677      33.6439    -999.2500      31.5929      50.3442      75.7982       0.0569    -999.2500    -999.2500       2.6235    -999.2500    -999.2500
   2781.3049       8.9133    -999.2500       0.0060      55.1486      32.3975    -999.2500      31.1118      50.4780      76.8908       0.0570    -999.2500    -999.2500       2.6240    -999.2500    -999.2500
   2781.4573       8.8847    -999.2500       0.0060      55.5643      32.7976    -999.2500      31.1333      51.0797      81.6536       0.0580    -999.2500    -999.2500       2.6255    -999.2500    -999.2500
   2781.6096       8.8570    -999.2500       0.0061      55.9731      33.1822    -999.2500      31.1438      51.6370      86.5831       0.0590    -999.2500    -999.2500       2.6272    -999.2500    -999.2500
   2781.7620       8.8570    -999.2500       0.0076      56.1850      33.0947    -999.2500      30.8577      50.9912      96.0071       0.0612    -999.2500    -999.2500       2.6347    -999.2500    -999.2500
   2781.9146       8.8573    -999.2500       0.0091      56.3926      32.9847    -999.2500      30.4935      50.2428     104.9634       0.0634    -999.2500    -999.2500       2.6419    -999.2500    -999.2500
   2782.0669       8.8678    -999.2500       0.0126      56.4726      32.1719    -999.2500      28.0626      46.7743     100.9929       0.0659    -999.2500    -999.2500       2.6389    -999.2500    -999.2500
   2782.2192       8.8791    -999.2500       0.0166      56.5487      31.3914    -999.2500      25.7288      43.4504      96.5628       0.0684    -999.2500    -999.2500       2.6362    -999.2500    -999.2500
   2782.3716       8.9258    -999.2500       0.0346      56.5113      31.5930    -999.2500      26.0319      44.0537      79.7020       0.0717    -999.2500    -999.2500       2.6427    -999.2500    -999.2500
   2782.5242       8.9700    -999.2500       0.0519      56.4679      31.8093    -999.2500      26.4109      44.7612      63.5773       0.0749    -999.2500    -999.2500       2.6488    -999.2500    -999.2500
   2782.6765       8.9268    -999.2500       0.0489      56.2514      32.4645    -999.2500      28.8079      48.2407      67.8674       0.0742    -999.2500    -999.2500       2.6428    -999.2500    -999.2500
   2782.8289       8.8850    -999.2500       0.0457      56.0276      33.1099    -999.2500      31.1053      51.5888      71.9638       0.0734    -999.2500    -999.2500       2.6374    -999.2500    -999.2500
   2782.9812       8.8850    -999.2500       0.0372      55.5958      33.4540    -999.2500      30.6896      51.3562      70.8058       0.0698    -999.2500    -999.2500       2.6483    -999.2500    -999.2500
   2783.1335       8.8853    -999.2500       0.0289      55.1616      33.8122    -999.2500      30.2149      51.0850      70.0042       0.0662    -999.2500    -999.2500       2.6590    -999.2500    -999.2500
   2783.2861       8.8963    -999.2500       0.0264      54.6564      34.5878    -999.2500      28.1648      49.7840      79.1226       0.0608    -999.2500    -999.2500       2.6575    -999.2500    -999.2500
