#------------------------------------------------------------------------------
#
#   Created by  : [OpenWorks] Log Export Utility (LEXP)
#   Created on  : 2016-05-23 11:51:27
#   Project     : CANT971
#   User        : R5K
#   Interpreter : PEP
#
#------------------------------------------------------------------------------
~VERSION INFORMATION
VERS. 2.0 : CWLS Log ASCII Standard - version 2.0
WRAP.  NO : One line per depth step
~WELL INFORMATION
#MNEMONIC   .UNIT                                           VALUE :DESCRIPTION
#------------------------------------------------------------------------------
STRT        .M                                           294.1315 :START DEPTH
STOP        .M                                          1758.8479 :STOP DEPTH
STEP        .M                                             0.1524 :STEP
NULL        .                                           -999.2500 :NULL VALUE
COMP        .                                   PEMEX EXPL & PROD :COMPANY
WELL        .                                                1084 :WELL
FLD         .                                           CANTARELL :FIELD
LOC         .                                             UNKNOWN :LOCATION
CNTY        .                                      CD. DEL CARMEN :COUNTY
STAT        .                                            CAMPECHE :STATE
CTRY        .                                              MEXICO :COUNTRY
SRVC        .                                             UNKNOWN :SERVICE COMPANY
DATE        .                                             UNKNOWN :LOG DATE
UWI         .                                          3060000213 :UNIQUE WELL ID
XCOORD      .                                       596992.320000 :SURFACE X
YCOORD      .                                      2148289.820000 :SURFACE Y
LAT         .                                           19.427749 :LATITUDE
LON         .                                          -92.076116 :LONGITUDE
ELEV        .M                                            27.5000 :SURFACE ELEV
ELEV_TYPE   .                                                  KB :ELEV TYPE
~CURVE INFORMATION
#MNEMONIC.UNIT        API CODE       : CURVE DESCRIPTION
#------------------------------------------------------------------------------
DEPTH    .M                          : Measured Depth
CALI     .in          UNKNOWN        : CALI:registros:rC:NONE:v0 (auto-composite)
DRHO     .g/cm3       UNKNOWN        : DRHO:registros:rC:NONE:v0 (auto-composite)
DT       .us/ft       UNKNOWN        : DT:registros:rC:NONE:v0 (auto-composite)
GR       .api         UNKNOWN        : GR:registros:rC:NONE:v0 (auto-composite)
ILD      .ohmm        UNKNOWN        : ILD:registros:rC:NONE:v0 (auto-composite)
NPHI     .v/v_decimal UNKNOWN        : NPHI:registros:rC:NONE:v0 (auto-composite)
RHOB     .g/cm3       UNKNOWN        : RHOB:registros:rC:NONE:v0 (auto-composite)
~A     DEPTH         CALI         DRHO           DT           GR          ILD         NPHI         RHOB
# ...
   1385.4679      14.7695       0.2925     136.8808      66.5825       0.9695    -999.2500       2.4975
   1385.6202      14.7790       0.3000     136.2600      65.6500       0.9490    -999.2500       2.4950
   1385.7727      15.3397       0.2970     135.0786      65.7848       0.9315    -999.2500       2.4825
   1385.9250      15.9000       0.2940     133.9000      65.9200       0.9140    -999.2500       2.4700
   1386.0775      15.7200       0.2855     134.1237      65.6424       0.8970    -999.2500       2.4700
   1386.2299      15.5400       0.2770     134.3470      65.3640       0.8800    -999.2500       2.4700
   1386.3823      15.5700       0.2685     135.2548      64.3035       0.8825    -999.2500       2.4700
   1386.5347      15.6000       0.2600     136.1600      63.2400       0.8850    -999.2500       2.4700
   1386.6871      15.7290       0.2700     136.0163      63.4327       0.8965    -999.2500       2.4650
   1386.8395      15.8580       0.2800     135.8730      63.6260       0.9080    -999.2500       2.4600
   1386.9919      16.1020       0.2750     135.4498      64.3564       0.9215    -999.2500       2.4600
   1387.1443      16.3460       0.2700     135.0280      65.0890       0.9350    -999.2500       2.4600
   1387.2968      17.3980       0.2800     134.7365      65.8498       0.9475    -999.2500       2.4600
   1387.4491      18.4500       0.2900     134.4460      66.6130       0.9600    -999.2500       2.4600
   1387.6014      18.0255       0.2850     133.6317      67.5400       0.9775    -999.2500       2.4550
   1387.7539      17.6010       0.2800     132.8200      68.4700       0.9950    -999.2500       2.4500
   1387.9062      16.1756       0.2800     133.0533      68.4281       1.0050    -999.2500       2.4540
   1388.0587      14.7500       0.2800     133.2860      68.3860       1.0150    -999.2500       2.4580
   1388.2111      14.7700       0.2815     136.6478      68.2263       1.0240    -999.2500       2.4715
   1388.3635      14.7900       0.2830     140.0000      68.0660       1.0330    -999.2500       2.4850
   1388.5159      14.7780       0.2865     139.9359      67.7975       1.0365    -999.2500       2.4925
   1388.6683      14.7660       0.2900     139.8720      67.5280       1.0400    -999.2500       2.5000
   1388.8207      14.6030       0.2900     139.0149      66.6926       1.0385    -999.2500       2.4985
   1388.9731      14.4400       0.2900     138.1600      65.8540       1.0370    -999.2500       2.4970
   1389.1255      14.4450       0.2900     134.8959      64.6568       1.0235    -999.2500       2.4910
   1389.2780      14.4500       0.2900     131.6400      63.4550       1.0100    -999.2500       2.4850
   1389.4303      14.5065       0.2900     132.0620      63.0803       1.0115    -999.2500       2.4760
   1389.5826      14.5630       0.2900     132.4830      62.7040       1.0130    -999.2500       2.4670
   1389.7351      14.7050       0.2875     134.7190      62.5093       1.0230    -999.2500       2.4485
   1389.8875      14.8470       0.2850     136.9500      62.3140       1.0330    -999.2500       2.4300
   1390.0399      14.9885       0.2750     136.8444      62.0873       1.0595    -999.2500       2.4300
   1390.1923      15.1300       0.2650     136.7390      61.8600       1.0860    -999.2500       2.4300
   1390.3447      14.8749       0.2525     136.1827      62.0857       1.1155    -999.2500       2.4340
   1390.4971      14.6200       0.2400     135.6280      62.3120       1.1450    -999.2500       2.4380
   1390.6495      14.6665       0.2415     134.1169      63.0948       1.1775    -999.2500       2.4690
   1390.8019      14.7130       0.2430     132.6110      63.8800       1.2100    -999.2500       2.5000
   1390.9543      14.8490       0.2490     128.5788      63.8401       1.2060    -999.2500       2.4985
   1391.1067      14.9850       0.2550     124.5600      63.8000       1.2020    -999.2500       2.4970
   1391.2592      15.0075       0.2725     124.8204      63.6837       1.1870    -999.2500       2.4910
   1391.4115      15.0300       0.2900     125.0800      63.5670       1.1720    -999.2500       2.4850
   1391.5638      14.8300       0.2885     125.9569      63.2984       1.1570    -999.2500       2.4760
   1391.7163      14.6300       0.2870     126.8310      63.0290       1.1420    -999.2500       2.4670
   1391.8687      14.6300       0.2785     127.3488      61.8066       1.1260    -999.2500       2.4535
   1392.0211      14.6300       0.2700     127.8650      60.5800       1.1100    -999.2500       2.4400
   1392.1735      14.6425       0.2700     128.4819      62.3319       1.1140    -999.2500       2.4400
   1392.3259      14.6550       0.2700     129.0970      64.0900       1.1180    -999.2500       2.4400
   1392.4783      14.6975       0.2700     130.7157      64.0885       1.1340    -999.2500       2.4400
   1392.6307      14.7400       0.2700     132.3300      64.0870       1.1500    -999.2500       2.4400
   1392.7831      14.7650       0.2650     132.0441      63.8589       1.1690    -999.2500       2.4425
   1392.9355      14.7900       0.2600     131.7590      63.6300       1.1880    -999.2500       2.4450
   1393.0879      14.8725       0.2615     130.3448      62.5172       1.1990    -999.2500       2.4540
   1393.2404      14.9550       0.2630     128.9340      61.4000       1.2100    -999.2500       2.4630
   1393.3927      15.2876       0.2695     125.1225      61.4783       1.2060    -999.2500       2.4665
   1393.5450      15.6200       0.2760     121.3200      61.5570       1.2020    -999.2500       2.4700
   1393.6975      15.3499       0.2830     121.7270      62.0352       1.1760    -999.2500       2.4700
   1393.8499      15.0800       0.2900     122.1330      62.5150       1.1500    -999.2500       2.4700
   1394.0023      15.1100       0.3050     124.0180      63.5821       1.1515    -999.2500       2.4600
   1394.1547      15.1400       0.3200     125.8990      64.6520       1.1530    -999.2500       2.4500
   1394.3071      15.3300       0.3100     130.3006      65.7894       1.1605    -999.2500       2.4500
   1394.4595      15.5200       0.3000     134.6900      66.9300       1.1680    -999.2500       2.4500
   1394.6119      15.4700       0.3000     134.3810      66.9275       1.1845    -999.2500       2.4485
   1394.7643      15.4200       0.3000     134.0730      66.9250       1.2010    -999.2500       2.4470
   1394.9167      15.4330       0.2975     130.7360      66.7208       1.2195    -999.2500       2.4385
   1395.0691      15.4460       0.2950     127.4100      66.5160       1.2380    -999.2500       2.4300
   1395.2216      15.5180       0.2725     127.7851      65.8061       1.2490    -999.2500       2.4300
   1395.3739      15.5900       0.2500     128.1590      65.0940       1.2600    -999.2500       2.4300
   1395.5262      15.5800       0.2500     129.6067      64.5030       1.2545    -999.2500       2.4325
   1395.6787      15.5700       0.2500     131.0500      63.9100       1.2490    -999.2500       2.4350
   1395.8311      15.5755       0.2525     127.8503      63.9869       1.2275    -999.2500       2.4440
   1395.9835      15.5810       0.2550     124.6600      64.0640       1.2060    -999.2500       2.4530
   1396.1359      15.6140       0.2640     124.9960      64.4613       1.1785    -999.2500       2.4580
   1396.2883      15.6470       0.2730     125.3310      64.8600       1.1510    -999.2500       2.4630
   1396.4407      15.7485       0.2790     126.5406      65.8262       1.1205    -999.2500       2.4665
   1396.5931      15.8500       0.2850     127.7470      66.7960       1.0900    -999.2500       2.4700
   1396.7455      15.7990       0.2925     129.2985      68.1973       1.0950    -999.2500       2.4675
   1396.8979      15.7480       0.3000     130.8460      69.6040       1.1000    -999.2500       2.4650
   1397.0503      15.4839       0.2975     133.5152      70.6799       1.1215    -999.2500       2.4550
