#------------------------------------------------------------------------------
#
#   Created by  : [OpenWorks] Log Export Utility (LEXP)
#   Created on  : 2016-05-23 11:56:31
#   Project     : CANT971
#   User        : R5K
#   Interpreter : PEP
#
#------------------------------------------------------------------------------
~VERSION INFORMATION
VERS. 2.0 : CWLS Log ASCII Standard - version 2.0
WRAP.  NO : One line per depth step
~WELL INFORMATION
#MNEMONIC   .UNIT                                           VALUE :DESCRIPTION
#------------------------------------------------------------------------------
STRT        .M                                          1639.8856 :START DEPTH
STOP        .M                                          2789.8960 :STOP DEPTH
STEP        .M                                             0.1524 :STEP
NULL        .                                           -999.2500 :NULL VALUE
COMP        .                                             UNKNOWN :COMPANY
WELL        .                                                 477 :WELL
FLD         .                                             UNKNOWN :FIELD
LOC         .                                             UNKNOWN :LOCATION
CNTY        .                                             UNKNOWN :COUNTY
STAT        .                                             UNKNOWN :STATE
CTRY        .                                             UNKNOWN :COUNTRY
SRVC        .                                             UNKNOWN :SERVICE COMPANY
DATE        .                                             UNKNOWN :LOG DATE
UWI         .                                                 477 :UNIQUE WELL ID
XCOORD      .                                       598704.070000 :SURFACE X
YCOORD      .                                      2143268.860000 :SURFACE Y
LAT         .                                           19.382293 :LATITUDE
LON         .                                          -92.060073 :LONGITUDE
ELEV        .M                                             0.0000 :SURFACE ELEV
ELEV_TYPE   .                                                  KB :ELEV TYPE
~CURVE INFORMATION
#MNEMONIC.UNIT        API CODE       : CURVE DESCRIPTION
#------------------------------------------------------------------------------
DEPTH    .M                          : Measured Depth
CALI     .inches      UNKNOWN        : CALI:litodensidad:rC:NONE:v0 (auto-composite)
CGR      .API         UNKNOWN        : CGR:Espectrometria:rC:NONE:v0 (auto-composite)
DRHO     .g/cm3       UNKNOWN        : DRHO:litodensidad:rC:NONE:v0 (auto-composite)
DT       .us/ft       UNKNOWN        : DT:Sonico:rC:NONE:v0 (auto-composite)
GR       .API         UNKNOWN        : GR:Espectrometria:rC:NONE:v0 (auto-composite)
GR-LWD   .API         UNKNOWN        : GR-LWD:resistivos-LWD:rC:NONE:v0 (auto-composite)
LLD      .ohm.m       UNKNOWN        : LLD:resistivos:rC:NONE:v0 (auto-composite)
LLD-LWD  .ohm.m       UNKNOWN        : LLD-LWD:resistivos-LWD:rC:NONE:v0 (auto-composite)
LLS      .ohm.m       UNKNOWN        : LLS:resistivos:rC:NONE:v0 (auto-composite)
LLS-LWD  .ohm.m       UNKNOWN        : LLS-LWD:resistivos-LWD:rC:NONE:v0 (auto-composite)
MSFL     .ohm.m       UNKNOWN        : MSFL:resistivos:rC:NONE:v0 (auto-composite)
MSFL-LWD .ohm.m       UNKNOWN        : MSFL-LWD:resistivos-LWD:rC:NONE:v0 (auto-composite)
NPHI     .UNKNOWN     UNKNOWN        : NPHI:porosidad:rC:NONE:v0 (auto-composite)
PEF      .UNKNOWN     UNKNOWN        : PEF:litodensidad:rC:NONE:v0 (auto-composite)
POTA     .wtpercent   UNKNOWN        : POTA:PETROWORKS:rC:NONE:v1 
RHOB     .g/cm3       UNKNOWN        : RHOB:litodensidad:rC:NONE:v0 (auto-composite)
THOR     .ppm         UNKNOWN        : THOR:Espectrometria:rC:NONE:v0 (auto-composite)
URAN     .ppm         UNKNOWN        : URAN:Espectrometria:rC:NONE:v0 (auto-composite)
~A     DEPTH         CALI          CGR         DRHO           DT           GR       GR-LWD          LLD      LLD-LWD          LLS      LLS-LWD         MSFL     MSFL-LWD         NPHI          PEF         POTA         RHOB         THOR         URAN
# ...
   2313.7983       8.7146      18.2154      -0.0163    -999.2500      68.1324    -999.2500    1674.3107    -999.2500     608.8010    -999.2500      69.4982    -999.2500       0.0273       3.3194       0.0072       2.7041       2.3273       5.5574
   2313.9509       8.8272      17.3236      -0.0122    -999.2500      66.7230    -999.2500    1761.2880    -999.2500     651.3039    -999.2500      77.0325    -999.2500       0.0262       3.3045       0.0063       2.7208       2.4081       5.4999
   2314.1033       8.8930      15.1615      -0.0113    -999.2500      68.6104    -999.2500    2010.4736    -999.2500     772.1555    -999.2500      90.2456    -999.2500       0.0251       3.3177       0.0047       2.7182       2.4189       5.9507
   2314.2556       8.7817      14.1591      -0.0067    -999.2500      71.2095    -999.2500    2157.5620    -999.2500     849.3571    -999.2500     105.8552    -999.2500       0.0244       3.3689       0.0056       2.7099       1.8124       6.3516
   2314.4080       8.7445      12.9154      -0.0026    -999.2500      71.5570    -999.2500    2322.0684    -999.2500     937.2976    -999.2500      79.2163    -999.2500       0.0240       3.4184       0.0063       2.7038       1.1447       6.5288
   2314.5603       8.7552      11.5079      -0.0009     104.9043      67.6677    -999.2500    2471.8979    -999.2500    1037.9033    -999.2500      52.2897    -999.2500       0.0236       3.4159       0.0069       2.6997       0.5304       6.2525
   2314.7129       8.7999       7.7543      -0.0045     104.6403      61.3535    -999.2500    2416.6929    -999.2500    1052.1407    -999.2500      49.8418    -999.2500       0.0242       3.3841       0.0051       2.6895       0.1784       5.9674
   2314.8652       8.8364       5.6995      -0.0087     104.5020      54.3840    -999.2500    2209.4812    -999.2500     950.6680    -999.2500      72.1907    -999.2500       0.0267       3.3593       0.0039       2.6660       0.0750       5.4202
   2315.0176       8.8682       5.6960      -0.0090     104.9768      48.7353    -999.2500    1902.8936    -999.2500     777.0724    -999.2500      99.3313    -999.2500       0.0303       3.3616       0.0034       2.6346       0.2485       4.7917
   2315.1699       8.7569       6.9115      -0.0031     105.9260      44.3225    -999.2500    1363.1699    -999.2500     522.3480    -999.2500      32.8604    -999.2500       0.0342       3.3787       0.0042       2.6165       0.3066       4.1651
   2315.3225       8.7254       7.7064       0.0064     107.4175      41.1389    -999.2500    1100.0872    -999.2500     391.4224    -999.2500      30.2732    -999.2500       0.0353       3.4031       0.0047       2.6343       0.3269       3.7222
   2315.4749       8.7164       6.3985       0.0118     110.7566      39.1698    -999.2500     957.4642    -999.2500     335.5337    -999.2500      70.4906    -999.2500       0.0325       3.4264       0.0043       2.6716       0.1137       3.6486
   2315.6272       8.7709       5.5593       0.0111     114.9377      39.5471    -999.2500     949.6264    -999.2500     333.7259    -999.2500      66.1824    -999.2500       0.0288       3.4339       0.0037       2.7003       0.1003       3.7840
   2315.7795       8.8352       5.5193       0.0040     116.8429      40.9330    -999.2500    1031.8698    -999.2500     383.7769    -999.2500      37.8652    -999.2500       0.0253       3.4247       0.0037       2.7161       0.0940       3.9427
   2315.9321       8.8068       6.6970      -0.0020     116.7820      39.4367    -999.2500    1333.3242    -999.2500     542.5281    -999.2500      42.2091    -999.2500       0.0223       3.4165       0.0043       2.7376       0.1902       3.6451
   2316.0845       8.7312       9.7727      -0.0050     116.5525      38.4425    -999.2500    1845.1669    -999.2500     773.0676    -999.2500      89.1725    -999.2500       0.0203       3.4239       0.0049       2.7576       0.8085       3.1920
   2316.2368       8.7096      11.6555      -0.0032     115.7366      37.8058    -999.2500    2727.9827    -999.2500    1027.2125    -999.2500     119.9150    -999.2500       0.0196       3.4379       0.0053       2.7746       1.2219       2.9114
   2316.3892       8.7342      11.7629      -0.0013     114.4678      37.3445    -999.2500    3169.3853    -999.2500     962.4011    -999.2500     172.6916    -999.2500       0.0195       3.4439       0.0053       2.7828       1.2313       2.8481
   2316.5415       8.8378      11.2954       0.0002     113.5637      36.8665    -999.2500    2781.4866    -999.2500     754.5754    -999.2500     454.0203    -999.2500       0.0189       3.4218       0.0051       2.7819       1.1912       2.8469
   2316.6941       8.8779      10.1606       0.0034     112.9277      36.2020    -999.2500    2595.0215    -999.2500     654.3840    -999.2500     463.3227    -999.2500       0.0181       3.3808       0.0046       2.7734       1.0438       2.8993
   2316.8464       8.8491       8.1925       0.0080     111.8169      35.8670    -999.2500    2730.2075    -999.2500     656.3396    -999.2500     142.0620    -999.2500       0.0183       3.3524       0.0038       2.7696       0.8183       3.0811
   2316.9988       8.7493       7.1220       0.0080     108.5489      36.6648    -999.2500    2849.0576    -999.2500     686.6438    -999.2500      94.1588    -999.2500       0.0189       3.3590       0.0032       2.7705       0.7415       3.2891
   2317.1511       8.7141       6.6114       0.0043     103.7167      38.7295    -999.2500    2978.7888    -999.2500     715.8409    -999.2500     214.7219    -999.2500       0.0188       3.3729       0.0027       2.7759       0.8193       3.5759
   2317.3037       8.7251       7.2355       0.0027     101.1592      41.5376    -999.2500    2923.7529    -999.2500     753.4435    -999.2500     368.9872    -999.2500       0.0182       3.3632       0.0028       2.7804       0.9594       3.8190
   2317.4561       8.7892       8.8570       0.0032     101.3394      43.5821    -999.2500    2775.3425    -999.2500     755.0009    -999.2500     525.0731    -999.2500       0.0182       3.3431       0.0037       2.7762       1.0495       3.8661
   2317.6084       8.8220       9.9410       0.0045     102.1378      44.0613    -999.2500    2537.5789    -999.2500     748.7212    -999.2500     225.1222    -999.2500       0.0187       3.3428       0.0048       2.7619       0.8972       3.7987
   2317.7607       8.7861       8.1524       0.0056     102.8329      42.7931    -999.2500    2232.8999    -999.2500     702.6660    -999.2500      87.4128    -999.2500       0.0194       3.3590       0.0048       2.7481       0.4184       3.8567
   2317.9133       8.7269       6.4930       0.0063     102.6816      41.7592    -999.2500    1888.8632    -999.2500     626.3021    -999.2500      59.8017    -999.2500       0.0201       3.3612       0.0045       2.7507       0.0471       3.9263
   2318.0657       8.7168       6.0949       0.0027     102.3223      41.4514    -999.2500    1667.0442    -999.2500     541.3665    -999.2500     120.1045    -999.2500       0.0204       3.3589       0.0043       2.7659       0.0364       3.9364
   2318.2180       8.7434       6.5646      -0.0036     103.0115      41.3721    -999.2500    1512.2119    -999.2500     483.7687    -999.2500     699.9976    -999.2500       0.0202       3.3724       0.0044       2.7767       0.1007       3.8753
   2318.3704       8.7535       7.5145      -0.0092     104.7649      40.4629    -999.2500    1409.1931    -999.2500     446.4495    -999.2500     648.9000    -999.2500       0.0208       3.3906       0.0048       2.7668       0.2090       3.6683
   2318.5227       8.7471       8.2579      -0.0085     107.1698      39.6780    -999.2500    1377.0736    -999.2500     424.1949    -999.2500     466.0322    -999.2500       0.0216       3.3954       0.0054       2.7529       0.2037       3.4981
   2318.6753       8.7348       8.9994      -0.0038     110.8860      39.5357    -999.2500    1407.8173    -999.2500     423.5750    -999.2500     154.1374    -999.2500       0.0218       3.3726       0.0056       2.7507       0.3474       3.3997
