#------------------------------------------------------------------------------
#
#   Created by  : [OpenWorks] Log Export Utility (LEXP)
#   Created on  : 2016-05-23 11:50:53
#   Project     : CANT971
#   User        : R5K
#   Interpreter : PEP
#
#------------------------------------------------------------------------------
~VERSION INFORMATION
VERS. 2.0 : CWLS Log ASCII Standard - version 2.0
WRAP.  NO : One line per depth step
~WELL INFORMATION
#MNEMONIC   .UNIT                                           VALUE :DESCRIPTION
#------------------------------------------------------------------------------
STRT        .M                                           494.4622 :START DEPTH
STOP        .M                                          2707.4626 :STOP DEPTH
STEP        .M                                             0.1524 :STEP
NULL        .                                           -999.2500 :NULL VALUE
COMP        .                                   PEMEX EXPL & PROD :COMPANY
WELL        .                                                1042 :WELL
FLD         .                                           CANTARELL :FIELD
LOC         .                                             UNKNOWN :LOCATION
CNTY        .                                      CD. DEL CARMEN :COUNTY
STAT        .                                            CAMPECHE :STATE
CTRY        .                                              MEXICO :COUNTRY
SRVC        .                                             UNKNOWN :SERVICE COMPANY
DATE        .                                             UNKNOWN :LOG DATE
UWI         .                                          3060000495 :UNIQUE WELL ID
XCOORD      .                                       596162.680000 :SURFACE X
YCOORD      .                                      2150604.600000 :SURFACE Y
LAT         .                                           19.448706 :LATITUDE
LON         .                                          -92.083900 :LONGITUDE
ELEV        .M                                            30.0000 :SURFACE ELEV
ELEV_TYPE   .                                                  KB :ELEV TYPE
~CURVE INFORMATION
#MNEMONIC.UNIT        API CODE       : CURVE DESCRIPTION
#------------------------------------------------------------------------------
DEPTH    .M                          : Measured Depth
CALI     .inches      UNKNOWN        : CALI:litodensidad:rC:NONE:v0 (auto-composite)
DT       .us/ft       UNKNOWN        : DT:DT:rC:NONE:v0 (auto-composite)
GR       .API         UNKNOWN        : GR:GR-Load:rC:NONE:v0 (auto-composite)
ILD      .ohmm        UNKNOWN        : ILD:UNKNOWN:rC:NONE:v0 (auto-composite)
LLD      .ohmm        UNKNOWN        : LLD:UNKNOWN:rC:NONE:v0 (auto-composite)
LLS      .ohmm        UNKNOWN        : LLS:UNKNOWN:rC:NONE:v0 (auto-composite)
MSFL     .ohmm        UNKNOWN        : MSFL:UNKNOWN:rC:NONE:v0 (auto-composite)
NPHI     .v/v_decimal UNKNOWN        : NPHI:NPHI:rC:NONE:v0 (auto-composite)
~A     DEPTH         CALI           DT           GR          ILD          LLD          LLS         MSFL         NPHI
# ...
   2208.5051    -999.2500    -999.2500      21.1662       0.2000     219.2851     130.9658      30.9680       0.0846
   2208.6575    -999.2500    -999.2500      21.4519       0.2000     237.8415     145.5046      35.6575       0.0874
   2208.8098    -999.2500    -999.2500      23.9973       0.2000     242.6319     150.4930      34.2439       0.0885
   2208.9622    -999.2500    -999.2500      24.4701       0.2000     241.5309     151.3940      30.2182       0.0877
   2209.1147    -999.2500    -999.2500      22.8605       0.2000     224.4148     144.0505      26.9294       0.0850
   2209.2671    -999.2500    -999.2500      22.2792       0.2000     200.6243     133.2711      23.9476       0.0816
   2209.4194    -999.2500    -999.2500      22.7280       0.2000     181.8751     124.7557      19.2319       0.0775
   2209.5718    -999.2500    -999.2500      23.9567       0.2000     165.1712     117.1587      13.8127       0.0723
   2209.7244    -999.2500    -999.2500      25.9695       0.2000     159.6678     116.4920      18.6831       0.0661
   2209.8767    -999.2500    -999.2500      26.2000       0.2000     158.6219     118.5833      27.6485       0.0637
   2210.0291    -999.2500    -999.2500      24.6441       0.2000     151.3095     116.4555      27.4489       0.0650
   2210.1814    -999.2500    -999.2500      23.1146       0.2000     141.5705     112.6941      23.7005       0.0679
   2210.3337    -999.2500    -999.2500      21.6116       0.2000     123.9280     101.4076      27.1603       0.0724
   2210.4863    -999.2500    -999.2500      22.4773       0.2000     103.3088      87.2869      33.3349       0.0773
   2210.6387    -999.2500    -999.2500      25.7184       0.2000     111.6515      95.9509      52.5816       0.0827
   2210.7910    -999.2500    -999.2500      26.4909       0.2000     130.6000     112.9585      76.6152       0.0874
   2210.9434    -999.2500    -999.2500      24.7792       0.2000     243.0658     209.0271     360.4134       0.0917
   2211.0959    -999.2500    -999.2500      24.7647       0.2000     388.8174     333.2359     736.6699       0.0965
   2211.2483    -999.2500    -999.2500      26.4528       0.2000     441.2195     383.9621     633.8303       0.1018
   2211.4006    -999.2500    -999.2500      26.2721       0.2000     461.3402     409.2770     365.3126       0.1036
   2211.5530    -999.2500    -999.2500      24.2220       0.2000     379.5734     342.5985     212.5254       0.1020
   2211.7056    -999.2500    -999.2500      25.4455       0.2000     263.2961     244.7608      98.9375       0.0954
   2211.8579    -999.2500    -999.2500      29.9552       0.2000     208.1088     194.7650     157.9069       0.0839
   2212.0103    -999.2500    -999.2500      30.0878       0.2000     173.0110     160.5021     273.6217       0.0717
   2212.1626    -999.2500    -999.2500      25.8397       0.2000     164.5576     150.8956     499.2394       0.0590
   2212.3149    -999.2500    -999.2500      24.6396       0.2000     164.6073     149.1578     759.9305       0.0503
   2212.4675    -999.2500    -999.2500      26.5008       0.2000     147.1639     135.6873     809.1326       0.0458
   2212.6199    -999.2500    -999.2500      28.7518       0.2000     124.3055     118.5849     792.8676       0.0447
   2212.7722    -999.2500    -999.2500      31.3931       0.2000     131.2435     125.9379     597.1962       0.0471
   2212.9246    -999.2500    -999.2500      34.0817       0.2000     147.1238     140.6304     347.6824       0.0480
   2213.0771    -999.2500    -999.2500      36.8177       0.2000     206.3833     194.4179     188.6498       0.0473
   2213.2295    -999.2500    -999.2500      36.3957       0.2000     278.3738     259.6794      56.1720       0.0445
   2213.3818    -999.2500    -999.2500      32.8097       0.2000     311.8059     289.6394      30.3660       0.0395
   2213.5342    -999.2500    -999.2500      30.3076       0.2000     334.2767     309.5641      34.8840       0.0375
   2213.6868    -999.2500    -999.2500      28.8951       0.2000     375.6137     348.7365     328.1764       0.0387
   2213.8391    -999.2500    -999.2500      27.4976       0.2000     422.1427     393.2058     700.9382       0.0413
   2213.9915    -999.2500    -999.2500      26.1152       0.2000     407.6172     389.0670     589.5586       0.0454
   2214.1438    -999.2500    -999.2500      25.7941       0.2000     376.8364     371.9867     349.2795       0.0517
   2214.2961    -999.2500    -999.2500      26.5403       0.2000     274.7562     277.3075     294.2567       0.0601
   2214.4487    -999.2500    -999.2500      26.1382       0.2000     154.3223     162.6532     286.9219       0.0676
   2214.6011    -999.2500    -999.2500      24.5844       0.2000      98.0012     105.8274     478.2795       0.0742
   2214.7534    -999.2500    -999.2500      24.3365       0.2000      57.6256      63.3843     719.0541       0.0743
   2214.9058    -999.2500    -999.2500      25.4029       0.2000      54.1501      59.9832     477.2803       0.0678
   2215.0583    -999.2500    -999.2500      24.1855       0.2000      59.6262      66.0535     118.4431       0.0588
   2215.2107    -999.2500    -999.2500      20.6768       0.2000      82.5620      92.8239      46.9815       0.0473
   2215.3630    -999.2500    -999.2500      19.5906       0.2000     109.5849     124.4401      42.7924       0.0443
   2215.5154    -999.2500    -999.2500      20.9280       0.2000     121.7597     138.8834      79.1143       0.0496
   2215.6680    -999.2500    -999.2500      24.1263       0.2000     130.5831     149.4507     124.5799       0.0564
   2215.8203    -999.2500    -999.2500      29.1927       0.2000     171.6419     188.0409     171.6055       0.0647
   2215.9727    -999.2500    -999.2500      28.3178       0.2000     219.7096     232.7243     218.9703       0.0706
   2216.1250    -999.2500    -999.2500      21.4962       0.2000     355.0642     346.4341     166.8822       0.0741
   2216.2773    -999.2500    -999.2500      19.4465       0.2000     508.6855     474.5892      93.9815       0.0744
   2216.4299    -999.2500    -999.2500      22.1895       0.2000     815.5262     710.9562     171.9735       0.0715
   2216.5823    -999.2500    -999.2500      27.6786       0.2000    1153.5522     969.3480     280.6774       0.0771
   2216.7346    -999.2500    -999.2500      35.9175       0.2000    1143.3282     941.4373     534.0620       0.0914
   2216.8870    -999.2500    -999.2500      37.3660       0.2000    1065.0016     857.5382     815.7398       0.1085
   2217.0396    -999.2500    -999.2500      31.9911       0.2000     953.2621     768.1456     634.3010       0.1286
   2217.1919    -999.2500    -999.2500      28.1336       0.2000     835.2514     677.7219     365.9426       0.1420
   2217.3442    -999.2500    -999.2500      25.7966       0.2000     828.9062     698.3408     259.4182       0.1488
   2217.4966    -999.2500    -999.2500      25.1787       0.2000     842.6514     738.9378     182.0101       0.1515
   2217.6492    -999.2500    -999.2500      26.2891       0.2000     804.4694     721.5300     114.6645       0.1500
   2217.8015    -999.2500    -999.2500      28.2038       0.2000     757.3433     694.1310      49.0521       0.1462
   2217.9539    -999.2500    -999.2500      30.9246       0.2000     604.7989     572.4717      55.2854       0.1398
   2218.1062    -999.2500    -999.2500      31.8252       0.2000     434.8945     435.2898      73.3500       0.1306
   2218.2585    -999.2500    -999.2500      30.8949       0.2000     397.4177     398.0054     119.9116       0.1184
   2218.4111    -999.2500    -999.2500      30.0120       0.2000     381.0438     376.6402     171.0142       0.1046
   2218.5635    -999.2500    -999.2500      29.1769       0.2000     360.4193     350.6117     243.8839       0.0892
   2218.7158    -999.2500    -999.2500      28.9482       0.2000     339.1488     323.8746     320.0611       0.0757
   2218.8682    -999.2500    -999.2500      29.3299       0.2000     280.2539     267.5965     221.9984       0.0642
