#------------------------------------------------------------------------------
#
#   Created by  : [OpenWorks] Log Export Utility (LEXP)
#   Created on  : 2016-05-23 11:55:46
#   Project     : CANT971
#   User        : R5K
#   Interpreter : PEP
#
#------------------------------------------------------------------------------
~VERSION INFORMATION
VERS. 2.0 : CWLS Log ASCII Standard - version 2.0
WRAP.  NO : One line per depth step
~WELL INFORMATION
#MNEMONIC   .UNIT                                           VALUE :DESCRIPTION
#------------------------------------------------------------------------------
STRT        .M                                           325.5260 :START DEPTH
STOP        .M                                          2414.9299 :STOP DEPTH
STEP        .M                                             0.1524 :STEP
NULL        .                                           -999.2500 :NULL VALUE
COMP        .                                   PEMEX EXPL & PROD :COMPANY
WELL        .                                                   4 :WELL
FLD         .                                           CANTARELL :FIELD
LOC         .                                             UNKNOWN :LOCATION
CNTY        .                                      CD. DEL CARMEN :COUNTY
STAT        .                                            CAMPECHE :STATE
CTRY        .                                              MEXICO :COUNTRY
SRVC        .                                             UNKNOWN :SERVICE COMPANY
DATE        .                                             UNKNOWN :LOG DATE
UWI         .                                          3060000140 :UNIQUE WELL ID
XCOORD      .                                       598455.270000 :SURFACE X
YCOORD      .                                      2145027.190000 :SURFACE Y
LAT         .                                           19.398194 :LATITUDE
LON         .                                          -92.062351 :LONGITUDE
ELEV        .M                                            26.5400 :SURFACE ELEV
ELEV_TYPE   .                                                  KB :ELEV TYPE
~CURVE INFORMATION
#MNEMONIC.UNIT        API CODE       : CURVE DESCRIPTION
#------------------------------------------------------------------------------
DEPTH    .M                          : Measured Depth
CALI     .inches      UNKNOWN        : CALI:Import:rC:NONE:v0 (auto-composite)
CGR      .API         UNKNOWN        : CGR:Import:rC:NONE:v0 (auto-composite)
DRHO     .g/cm3       UNKNOWN        : DRHO:Import:rC:NONE:v0 (auto-composite)
DT       .us/ft       UNKNOWN        : DT:Import:rC:NONE:v0 (auto-composite)
GR       .API         UNKNOWN        : GR:Import:rC:NONE:v0 (auto-composite)
ILD      .ohm.m       UNKNOWN        : ILD:Import:rC:NONE:v0 (auto-composite)
LLD      .ohm.m       UNKNOWN        : LLD:Import:rC:NONE:v0 (auto-composite)
LLS      .ohm.m       UNKNOWN        : LLS:Import:rC:NONE:v0 (auto-composite)
MSFL     .ohm.m       UNKNOWN        : MSFL:Import:rC:NONE:v0 (auto-composite)
NPHI     .v/v_decimal UNKNOWN        : NPHI:Import:rC:NONE:v0 (auto-composite)
POTA     .wtpercent   UNKNOWN        : POTA:Import:rC:NONE:v0 (auto-composite)
RHOB     .g/cm3       UNKNOWN        : RHOB:Import:rC:NONE:v0 (auto-composite)
THOR     .ppm         UNKNOWN        : THOR:Import:rC:NONE:v0 (auto-composite)
URAN     .ppm         UNKNOWN        : URAN:Import:rC:NONE:v0 (auto-composite)
~A     DEPTH         CALI          CGR         DRHO           DT           GR          ILD          LLD          LLS         MSFL         NPHI         POTA         RHOB         THOR         URAN
# ...
   2271.3691       9.3100    -999.2500      -0.0160      68.6880      34.0160    -999.2500    3589.4619    2541.8110     230.5810       0.0902    -999.2500       2.6160    -999.2500    -999.2500
   2271.5215       9.1539    -999.2500      -0.0140      68.6629      32.5789    -999.2500    4319.9307    2776.8142     335.6313       0.0882    -999.2500       2.6370    -999.2500    -999.2500
   2271.6741       8.9980    -999.2500      -0.0120      68.6380      31.1440    -999.2500    5049.2822    3011.4580     440.5210       0.0824    -999.2500       2.6580    -999.2500    -999.2500
   2271.8264       9.1487    -999.2500      -0.0015      66.3332      28.2550    -999.2500    7906.7144    3814.4678     376.8293       0.0723    -999.2500       2.7041    -999.2500    -999.2500
   2271.9788       9.2990    -999.2500       0.0090      64.0390      25.3700    -999.2500   10760.1377    4616.3511     313.2270       0.0599    -999.2500       2.7500    -999.2500    -999.2500
   2272.1311       9.2745    -999.2500       0.0135      64.1783      23.7700    -999.2500   13008.6514    4147.7417     289.6089       0.0592    -999.2500       2.7460    -999.2500    -999.2500
   2272.2837       9.2500    -999.2500       0.0180      64.3170      22.1720    -999.2500   15254.2900    3679.7319     266.0210       0.0652    -999.2500       2.7420    -999.2500    -999.2500
   2272.4360       9.0868    -999.2500       0.0170      65.2621      22.9034    -999.2500   15229.9570    3535.4905     313.3503       0.0713    -999.2500       2.7320    -999.2500    -999.2500
   2272.5884       8.9240    -999.2500       0.0160      66.2030      23.6340    -999.2500   15205.6914    3391.4150     360.6250       0.0773    -999.2500       2.7220    -999.2500    -999.2500
   2272.7407       8.9295    -999.2500       0.0190      64.5550      25.6846    -999.2500   19780.5703    3991.3103     328.1603       0.0753    -999.2500       2.7105    -999.2500    -999.2500
   2272.8933       8.9350    -999.2500       0.0220      62.9140      27.7330    -999.2500   24343.4375    4590.5889     295.7290       0.0686    -999.2500       2.6990    -999.2500    -999.2500
   2273.0457       8.9836    -999.2500       0.0210      60.1549      29.0546    -999.2500   22995.0293    5024.5786     338.3343       0.0596    -999.2500       2.7125    -999.2500    -999.2500
   2273.1980       9.0320    -999.2500       0.0200      57.4070      30.3750    -999.2500   21649.9941    5457.4829     380.8330       0.0494    -999.2500       2.7260    -999.2500    -999.2500
   2273.3503       9.0025    -999.2500       0.0090      56.3329      29.8333    -999.2500   18027.6016    4964.5825     325.2335       0.0467    -999.2500       2.7240    -999.2500    -999.2500
   2273.5027       8.9730    -999.2500      -0.0020      55.2630      29.2920    -999.2500   14413.8096    4472.8530     269.7660       0.0484    -999.2500       2.7220    -999.2500    -999.2500
   2273.6553       8.9455    -999.2500      -0.0020      55.6307      27.8008    -999.2500   11877.4961    3916.1274     233.8701       0.0523    -999.2500       2.7140    -999.2500    -999.2500
   2273.8076       8.9180    -999.2500      -0.0020      55.9970      26.3130    -999.2500    9346.8936    3360.6550     198.0550       0.0576    -999.2500       2.7060    -999.2500    -999.2500
   2273.9600       8.9555    -999.2500      -0.0085      55.3182      26.5588    -999.2500    7053.2642    2676.3848     134.8614       0.0571    -999.2500       2.6950    -999.2500    -999.2500
   2274.1123       8.9930    -999.2500      -0.0150      54.6420      26.8040    -999.2500    4764.5068    1993.5680      71.8020       0.0531    -999.2500       2.6840    -999.2500    -999.2500
   2274.2649       9.1001    -999.2500      -0.0150      54.7327      27.4371    -999.2500    3356.0872    1533.8052      76.1944       0.0487    -999.2500       2.6945    -999.2500    -999.2500
   2274.4172       9.2070    -999.2500      -0.0150      54.8230      28.0690    -999.2500    1950.4850    1074.9620      80.5780       0.0442    -999.2500       2.7050    -999.2500    -999.2500
   2274.5696       9.0929    -999.2500      -0.0070      55.6625      31.8290    -999.2500    2216.2324    1234.9524     156.1238       0.0477    -999.2500       2.7365    -999.2500    -999.2500
   2274.7219       8.9790    -999.2500       0.0010      56.4990      35.5820    -999.2500    2481.4819    1394.6429     231.5280       0.0559    -999.2500       2.7680    -999.2500    -999.2500
   2274.8745       8.9250    -999.2500       0.0120      55.9075      38.0747    -999.2500    6017.7090    3191.9148     411.1922       0.0612    -999.2500       2.7620    -999.2500    -999.2500
   2275.0269       8.8710    -999.2500       0.0230      55.3190      40.5630    -999.2500    9547.7480    4986.0420     590.5420       0.0648    -999.2500       2.7560    -999.2500    -999.2500
   2275.1792       8.9005    -999.2500       0.0185      54.4845      36.8175    -999.2500    8087.3862    4348.2290     478.4225       0.0602    -999.2500       2.7355    -999.2500    -999.2500
   2275.3315       8.9300    -999.2500       0.0140      53.6540      33.0780    -999.2500    6629.3950    3711.4509     366.4850       0.0507    -999.2500       2.7150    -999.2500    -999.2500
   2275.4839       8.9270    -999.2500       0.0260      53.7146      33.6639    -999.2500    6798.7856    3078.5996     276.9464       0.0497    -999.2500       2.7240    -999.2500    -999.2500
   2275.6365       8.9240    -999.2500       0.0380      53.7750      34.2490    -999.2500    6967.9229    2446.6970     187.5420       0.0538    -999.2500       2.7330    -999.2500    -999.2500
   2275.7888       8.8920    -999.2500       0.0300      54.9326      40.6789    -999.2500    9348.7861    3010.7585     283.3137       0.0587    -999.2500       2.7195    -999.2500    -999.2500
   2275.9412       8.8600    -999.2500       0.0220      56.0850      47.1000    -999.2500   11726.3828    3574.0459     378.9540       0.0641    -999.2500       2.7060    -999.2500    -999.2500
   2276.0935       8.8109    -999.2500       0.0035      57.0722      54.3825    -999.2500   14292.8408    4006.1265     489.7962       0.0705    -999.2500       2.6900    -999.2500    -999.2500
   2276.2461       8.7620    -999.2500      -0.0150      58.0550      61.6560    -999.2500   16856.0957    4437.6680     600.5000       0.0775    -999.2500       2.6740    -999.2500    -999.2500
   2276.3984       8.7630    -999.2500      -0.0075      57.2934      55.7512    -999.2500   17932.2441    4853.3521     412.8112       0.0786    -999.2500       2.6845    -999.2500    -999.2500
   2276.5508       8.7640    -999.2500       0.0000      56.5350      49.8530    -999.2500   19005.4648    5268.5698     225.3330       0.0762    -999.2500       2.6950    -999.2500    -999.2500
   2276.7031       8.7855    -999.2500      -0.0010      56.8171      46.7705    -999.2500   16637.7266    4872.5044     227.0103       0.0808    -999.2500       2.6700    -999.2500    -999.2500
   2276.8557       8.8070    -999.2500      -0.0020      57.0980      43.6910    -999.2500   14276.1309    4476.8340     228.6860       0.0898    -999.2500       2.6450    -999.2500    -999.2500
   2277.0081       8.8020    -999.2500      -0.0070      58.7574      43.1167    -999.2500   15345.0303    4904.4248     417.6285       0.0973    -999.2500       2.6470    -999.2500    -999.2500
   2277.1604       8.7970    -999.2500      -0.0120      60.4100      42.5430    -999.2500   16411.2891    5330.9590     606.1040       0.1039    -999.2500       2.6490    -999.2500    -999.2500
   2277.3127       9.0783    -999.2500      -0.0070      59.7622      38.5385    -999.2500   18155.1230    5868.9287     542.2952       0.0981    -999.2500       2.6740    -999.2500    -999.2500
   2277.4651       9.3590    -999.2500      -0.0020      59.1170      34.5370    -999.2500   19894.8711    6405.6372     478.6360       0.0844    -999.2500       2.6990    -999.2500    -999.2500
   2277.6177       9.2674    -999.2500      -0.0055      59.6044      28.6369    -999.2500   21529.6426    6612.9253     307.2838       0.0732    -999.2500       2.6860    -999.2500    -999.2500
