#------------------------------------------------------------------------------
#
#   Created by  : [OpenWorks] Log Export Utility (LEXP)
#   Created on  : 2016-05-23 11:56:14
#   Project     : CANT971
#   User        : R5K
#   Interpreter : PEP
#
#------------------------------------------------------------------------------
~VERSION INFORMATION
VERS. 2.0 : CWLS Log ASCII Standard - version 2.0
WRAP.  NO : One line per depth step
~WELL INFORMATION
#MNEMONIC   .UNIT                                           VALUE :DESCRIPTION
#------------------------------------------------------------------------------
STRT        .M                                          2395.2905 :START DEPTH
STOP        .M                                          2859.1960 :STOP DEPTH
STEP        .M                                             0.1524 :STEP
NULL        .                                           -999.2500 :NULL VALUE
COMP        .                                             UNKNOWN :COMPANY
WELL        .                                               446-V :WELL
FLD         .                                             UNKNOWN :FIELD
LOC         .                                             UNKNOWN :LOCATION
CNTY        .                                             UNKNOWN :COUNTY
STAT        .                                             UNKNOWN :STATE
CTRY        .                                             UNKNOWN :COUNTRY
SRVC        .                                             UNKNOWN :SERVICE COMPANY
DATE        .                                             UNKNOWN :LOG DATE
UWI         .                                               446-V :UNIQUE WELL ID
XCOORD      .                                       596708.730000 :SURFACE X
YCOORD      .                                      2143311.960000 :SURFACE Y
LAT         .                                           19.382780 :LATITUDE
LON         .                                          -92.079070 :LONGITUDE
ELEV        .M                                             0.0000 :SURFACE ELEV
ELEV_TYPE   .                                                  NA :ELEV TYPE
~CURVE INFORMATION
#MNEMONIC.UNIT        API CODE       : CURVE DESCRIPTION
#------------------------------------------------------------------------------
DEPTH    .M                          : Measured Depth
CALI     .inches      UNKNOWN        : CALI:litodensidad:rC:NONE:v0 (auto-composite)
CGR      .API         UNKNOWN        : CGR:Espectrometria:rC:NONE:v0 (auto-composite)
DRHO     .g/cm3       UNKNOWN        : DRHO:litodensidad:rC:NONE:v0 (auto-composite)
DT       .us/ft       UNKNOWN        : DT:sonico:rC:NONE:v0 (auto-composite)
GR       .API         UNKNOWN        : GR:GR-Load:rC:NONE:v0 (auto-composite)
GR-LWD   .API         UNKNOWN        : GR-LWD:resistivos-LWD:rC:NONE:v0 (auto-composite)
ILD-LWD  .ohm.m       UNKNOWN        : ILD-LWD:resistivos-LWD:rC:NONE:v0 (auto-composite)
ILM-LWD  .UNKNOWN     UNKNOWN        : ILM-LWD:resistivos-LWD:rC:NONE:v0 (auto-composite)
LLD      .ohm.m       UNKNOWN        : LLD:resistivos:rC:NONE:v0 (auto-composite)
LLS      .ohm.m       UNKNOWN        : LLS:resistivos:rC:NONE:v0 (auto-composite)
MSFL     .ohm.m       UNKNOWN        : MSFL:resistivos:rC:NONE:v0 (auto-composite)
NPHI     .UNKNOWN     UNKNOWN        : NPHI:porosidad:rC:NONE:v0 (auto-composite)
PEF      .UNKNOWN     UNKNOWN        : PEF:litodensidad:rC:NONE:v0 (auto-composite)
POTA     .wtpercent   UNKNOWN        : POTA:Espectrometria:rC:NONE:v0 (auto-composite)
RHOB     .g/cm3       UNKNOWN        : RHOB:litodensidad:rC:NONE:v0 (auto-composite)
THOR     .ppm         UNKNOWN        : THOR:Espectrometria:rC:NONE:v0 (auto-composite)
URAN     .ppm         UNKNOWN        : URAN:Espectrometria:rC:NONE:v0 (auto-composite)
~A     DEPTH         CALI          CGR         DRHO           DT           GR       GR-LWD      ILD-LWD      ILM-LWD          LLD          LLS         MSFL         NPHI          PEF         POTA         RHOB         THOR         URAN
# ...
   2816.6765       8.4818      18.0339       0.0567      48.4726      27.7430      28.1287      58.5897      62.6183     108.3479     118.4760       3.2479       0.0439       3.6495       0.0082       2.8288       1.8478       1.0809
   2816.8289       8.4793      19.6295       0.0550      48.6308      27.4030      27.4672      59.0979      64.8233     108.9077     116.1733       3.1285       0.0419       3.6351       0.0084       2.8222       2.2453       0.8655
   2816.9814       8.4784      21.2639       0.0539      48.6486      27.3751      26.8722      58.4059      66.5501     107.8380     112.1309       2.4617       0.0415       3.6160       0.0082       2.8171       2.7598       0.6804
   2817.1338       8.4844      20.4916       0.0501      48.6376      27.3018      25.6553      55.5992      67.7015     108.4933     115.2454       2.3468       0.0431       3.5917       0.0072       2.8170       2.9485       0.7583
   2817.2861       8.4842      16.7362       0.0468      48.5522      27.3855      24.7448      53.8203      68.2296     106.3258     113.9639       2.2001       0.0438       3.5455       0.0057       2.8163       2.5001       1.1857
   2817.4385       8.4833      14.4074       0.0577      48.5076      27.5933      23.6302      49.6028      69.0545     108.3612     116.2508       2.2518       0.0438       3.5199       0.0056       2.8249       1.8459       1.4680
   2817.5908       8.4832      13.4332       0.0770      48.4320      27.5396      22.6642      46.7060      70.0385     110.9113     114.6736       2.3545       0.0434       3.5092       0.0065       2.8373       1.2345       1.5705
   2817.7434       8.4933      15.0554       0.0877      48.3084      26.6732      22.5090      43.7077      70.8515     119.8809     126.1391       2.7658       0.0441       3.5152       0.0078       2.8404       1.1714       1.2934
   2817.8958       8.4840      15.6696       0.0904      48.1010      23.7787      22.7161      42.4352      71.4001     148.4479     163.6647       3.2746       0.0389       3.5212       0.0092       2.8373       0.7959       0.9029
   2818.0481       8.4664      15.8163       0.0843      47.8207      23.4244      23.7090      42.3186      70.8773     167.6535     187.6065       2.9780       0.0345       3.5098       0.0093       2.8404       0.8049       0.8470
   2818.2004       8.4298      15.6945       0.0703      47.4900      24.5094      24.8030      43.0820      70.1560     192.2960     220.8027       2.8350       0.0319       3.4534       0.0083       2.8521       1.1586       0.9814
   2818.3530       8.4135      16.1736       0.0640      47.0331      25.8756      26.0091      46.8207      69.0828     182.8461     206.2031       2.3083       0.0338       3.4165       0.0076       2.8544       1.5619       1.0802
   2818.5054       8.3903      13.3421       0.0597      46.9449      27.6059      28.3144      52.5772      68.0955     162.1796     183.3318       1.9048       0.0375       3.3796       0.0058       2.8421       1.4940       1.5880
   2818.6577       8.3768      11.6920       0.0601      46.8691      28.1363      30.0651      56.4026      67.4114     150.5097     171.3011       1.7400       0.0385       3.3744       0.0053       2.8326       1.2208       1.8308
   2818.8101       8.3691       9.8495       0.0576      46.8957      28.4196      33.2580      57.6732      66.9597     140.6462     161.2574       2.1158       0.0427       3.4069       0.0051       2.8154       0.7838       2.0675
   2818.9626       8.3695      10.5077       0.0539      46.9311      29.1168      35.9833      54.8011      67.1302     142.1554     163.6406       2.4349       0.0435       3.4647       0.0060       2.8073       0.6129       2.0719
   2819.1150       8.3947      13.1739       0.0498      47.0199      31.5470      36.5636      49.4630      68.7258     140.3964     161.6209       3.2756       0.0447       3.5885       0.0074       2.8046       0.8175       2.0455
   2819.2673       8.4097      15.8743       0.0525      47.0224      33.8176      35.4544      46.3173      71.0480     132.1242     153.2214       3.3748       0.0452       3.6264       0.0086       2.8097       1.1051       1.9977
   2819.4197       8.3983      16.4411       0.0598      46.9671      35.7125      32.5160      44.0485      73.8785     123.6465     140.9298       3.1681       0.0460       3.5997       0.0089       2.8166       1.1399       2.1456
   2819.5720       8.3695      15.7838       0.0655      46.8015      36.2852      29.3728      45.4216      77.3798     123.2758     140.1962       2.5471       0.0448       3.4972       0.0096       2.8134       0.6774       2.2825
   2819.7246       8.3691      13.3427       0.0635      46.7295      34.9142      27.6758      46.9032      80.6403     142.2341     176.9053       2.7485       0.0463       3.4633       0.0088       2.8158       0.3053       2.4017
   2819.8770       8.3930      11.9523       0.0575      46.9542      31.5859      27.2632      48.1459      82.9077     182.9939     266.6665       2.8230       0.0489       3.5007       0.0082       2.8277       0.1261       2.1858
   2820.0293       8.3905      13.0883       0.0536      47.3980      29.0625      28.7425      49.4736      84.6298     203.4997     337.3778       2.8318       0.0485       3.5430       0.0080       2.8356       0.5250       1.7785
   2820.1816       8.3915      15.9113       0.0503      48.2354      28.0954      29.3619      50.8896      85.0114     185.8277     307.1008       2.8823       0.0395       3.5421       0.0093       2.8363       0.8141       1.3565
   2820.3342       8.3917      18.4737       0.0460      49.4241      28.7003      27.5589      52.7075      85.6903     153.0454     217.1471       3.4766       0.0400       3.5070       0.0106       2.8272       1.0269       1.1386
   2820.4866       8.3883      19.9893       0.0400      49.6359      29.5484      24.8202      55.6775      87.5427     135.2695     164.5783       4.0729       0.0410       3.4925       0.0111       2.8140       1.2775       1.0643
   2820.6389       8.3884      19.8304       0.0403      49.8830      28.7324      22.1742      59.0976      89.3943     140.7400     165.4673       3.8113       0.0407       3.5222       0.0098       2.8154       1.7174       0.9911
   2820.7913       8.3811      18.6494       0.0452      49.9584      26.8101      21.3211      62.2350      91.0507     155.5790     187.4396       2.4311       0.0399       3.5639       0.0081       2.8264       2.0879       0.9085
   2820.9438       8.3797      16.9582       0.0510      49.9958      25.1488      22.3993      64.1668      92.6356     173.3250     209.2236       2.0079       0.0397       3.5830       0.0073       2.8365       1.9306       0.9119
   2821.0962       8.3821      15.8499       0.0592      50.1158      24.5460      23.6953      64.7240      93.2233     176.5352     203.2495       2.3238       0.0367       3.6048       0.0083       2.8408       1.1956       0.9682
   2821.2485       8.4051      14.4789       0.0645      50.2476      25.2018      26.7117      63.6337      93.4022     178.5644     201.5572       3.0741       0.0366       3.6225       0.0084       2.8433       0.7753       1.1938
   2821.4009       8.4307      16.2365       0.0713      50.3747      27.5318      29.8320      62.6370      92.3790     171.6539     201.4192       3.7549       0.0393       3.6395       0.0084       2.8576       1.2894       1.2576
   2821.5532       8.4326      19.2444       0.0704      50.4459      29.4952      32.9823      60.5128      90.0544     147.2549     175.6257       3.8339       0.0446       3.6316       0.0074       2.8537       2.5077       1.1413
   2821.7058       8.4775      24.1038       0.0719      50.5067      34.0008      36.1915      59.7371      86.7463     106.1941     128.1590       3.2463       0.0525       3.6182       0.0078       2.8183       3.7594       1.1019
   2821.8582       8.5086      24.4813       0.0810      50.6821      36.9288      39.4493      60.2152      82.1557      88.8678     104.6760       3.0066       0.0591       3.6334       0.0077       2.7900       3.8811       1.3858
