#------------------------------------------------------------------------------
#
#   Created by  : [OpenWorks] Log Export Utility (LEXP)
#   Created on  : 2016-05-23 11:57:04
#   Project     : CANT971
#   User        : R5K
#   Interpreter : PEP
#
#------------------------------------------------------------------------------
~VERSION INFORMATION
VERS. 2.0 : CWLS Log ASCII Standard - version 2.0
WRAP.  NO : One line per depth step
~WELL INFORMATION
#MNEMONIC   .UNIT                                           VALUE :DESCRIPTION
#------------------------------------------------------------------------------
STRT        .M                                           125.9451 :START DEPTH
STOP        .M                                          3005.5432 :STOP DEPTH
STEP        .M                                             0.1524 :STEP
NULL        .                                           -999.2500 :NULL VALUE
COMP        .                                   PEMEX EXPL & PROD :COMPANY
WELL        .                                                 66A :WELL
FLD         .                                           CANTARELL :FIELD
LOC         .                                             UNKNOWN :LOCATION
CNTY        .                                      CD. DEL CARMEN :COUNTY
STAT        .                                            CAMPECHE :STATE
CTRY        .                                              MEXICO :COUNTRY
SRVC        .                                             UNKNOWN :SERVICE COMPANY
DATE        .                                             UNKNOWN :LOG DATE
UWI         .                                          3060000173 :UNIQUE WELL ID
XCOORD      .                                       599692.990000 :SURFACE X
YCOORD      .                                      2143036.380000 :SURFACE Y
LAT         .                                           19.380143 :LATITUDE
LON         .                                          -92.050669 :LONGITUDE
ELEV        .M                                            26.7400 :SURFACE ELEV
ELEV_TYPE   .                                                  KB :ELEV TYPE
~CURVE INFORMATION
#MNEMONIC.UNIT        API CODE       : CURVE DESCRIPTION
#------------------------------------------------------------------------------
DEPTH    .M                          : Measured Depth
CALI     .UNKNOWN     UNKNOWN        : CALI:UNKNOWN:rC:NONE:v0 (auto-composite)
DT       .us/ft       UNKNOWN        : DT:DT:rC:NONE:v0 (auto-composite)
GR       .API         UNKNOWN        : GR:UNKNOWN:rC:NONE:v0 (auto-composite)
GR-ENT   .API         UNKNOWN        : GR-ENT:porosidad-entubado:rC:NONE:v0 (auto-composite)
GR-LWD   .UNKNOWN     UNKNOWN        : GR-LWD:GR-LWD:rC:NONE:v0 (auto-composite)
ILD      .UNKNOWN     UNKNOWN        : ILD:UNKNOWN:rC:NONE:v0 (auto-composite)
LLD      .UNKNOWN     UNKNOWN        : LLD:UNKNOWN:rC:NONE:v0 (auto-composite)
LLD-LWD  .UNKNOWN     UNKNOWN        : LLD-LWD:LLD-LWD:rC:NONE:v0 (auto-composite)
LLS      .UNKNOWN     UNKNOWN        : LLS:UNKNOWN:rC:NONE:v0 (auto-composite)
LLS-LWD  .UNKNOWN     UNKNOWN        : LLS-LWD:LLS-LWD:rC:NONE:v0 (auto-composite)
MSFL     .UNKNOWN     UNKNOWN        : MSFL:UNKNOWN:rC:NONE:v0 (auto-composite)
MSFL-LWD .UNKNOWN     UNKNOWN        : MSFL-LWD:MSFL-LWD:rC:NONE:v0 (auto-composite)
NPHI     .v/v_decimal UNKNOWN        : NPHI:PETROWORKS:rC:NONE:v1 
NPHI-ENT .UNKNOWN     UNKNOWN        : NPHI-ENT:porosidad-entubado:rC:NONE:v0 (auto-composite)
RHOB     .g/cm3       UNKNOWN        : RHOB:UNKNOWN:rC:NONE:v0 (auto-composite)
~A     DEPTH         CALI           DT           GR       GR-ENT       GR-LWD          ILD          LLD      LLD-LWD          LLS      LLS-LWD         MSFL     MSFL-LWD         NPHI     NPHI-ENT         RHOB
# ...
   2491.4978       5.6870      50.2501      29.9097      23.2182      22.2210    -999.2500    1834.1425      53.2600    1694.8711      42.1500     307.7372      34.0800       0.0544       0.0812       2.7404
   2491.6504       5.6870      50.3447      28.6358      24.4896      24.7309    -999.2500    1043.9323      59.6006     934.5215      53.9519     155.3335      43.2292       0.0541       0.0782       2.7215
   2491.8027       5.6870      50.1550      28.1330      25.8959      26.0366    -999.2500     510.3180      65.3521     435.1072      64.6359      81.2339      51.4586       0.0538       0.0751       2.7237
   2491.9551       5.6870      49.5643      28.7331      26.1724      28.4686    -999.2500     343.7097      61.4603     308.9054      56.9271     119.1314      42.9792       0.0534       0.0741       2.7371
   2492.1074       5.6870      49.0901      29.7080      25.6790      35.2699    -999.2500     256.8475      67.0825     250.8622      65.2478     135.5320      51.3469       0.0536       0.0723       2.7454
   2492.2600       5.6870      48.7810      31.2066      25.1544      30.1109    -999.2500     281.4686      75.8347     288.1033      84.6587     121.8803      62.3915       0.0545       0.0726       2.7499
   2492.4124       5.6870      48.5233      31.8432      25.5274      21.4487    -999.2500     490.1039      78.3991     459.7103     111.1960     117.7098      55.7111       0.0559       0.0747       2.7650
   2492.5647       5.6870      48.3384      31.2625      26.0330      20.2926    -999.2500     958.6116      76.8073     821.0742      93.9907     126.9288      50.3420       0.0580       0.0771       2.7753
   2492.7170       5.6835      48.2745      30.3150      26.5005      29.2575    -999.2500    1181.3955      73.9458     989.5052      79.8356     167.3283      48.6460       0.0577       0.0768       2.7818
   2492.8694       5.6750      48.3820      28.8476      26.4205      24.2310    -999.2500    1055.9207      73.6353     884.4965      83.1855     251.9193      57.1953       0.0551       0.0744       2.7839
   2493.0220       5.6654      48.9050      28.1304      26.1370      18.4568    -999.2500     930.7374      90.3604     770.7094     122.7868     275.2630      93.6747       0.0525       0.0738       2.7773
   2493.1743       5.6544      50.0150      28.4803      25.6206      15.4397    -999.2500     805.9688      93.4600     644.4364     115.8732     211.4925     100.3100       0.0506       0.0720       2.7724
   2493.3267       5.6432      50.5586      28.3558      24.8869      16.4543    -999.2500     629.6034      94.7871     491.7096     103.2105     151.6008      97.4857       0.0491       0.0685       2.7695
   2493.4790       5.6317      50.2990      27.5542      24.4396      19.1011    -999.2500     379.5881      98.0321     301.2221      99.0686      97.2457      88.4830       0.0480       0.0662       2.7675
   2493.6316       5.5890      49.9673      27.1172      23.9795      22.5219    -999.2500     213.9615      89.1998     175.7533      93.4257      68.6661      79.4199       0.0471       0.0663       2.7688
   2493.7839       5.5025      49.5337      27.1921      23.6930      25.5813    -999.2500     166.8509      79.6765     141.5971      78.3251      76.2858      65.4866       0.0462       0.0659       2.7753
   2493.9363       5.4076      49.4161      27.6741      23.2330      26.0136    -999.2500     148.2403      64.5260     129.5020      55.0346      80.5333      45.6781       0.0451       0.0645       2.7783
   2494.0886       5.3012      49.7439      28.7296      22.6768      28.5224    -999.2500     169.7980      47.8890     148.5003      47.3416      80.0280      37.5265       0.0436       0.0637       2.7737
   2494.2412       5.2390      50.0798      29.5316      21.5778      23.2749    -999.2500     186.7228      70.0345     162.8967     129.4227      81.3222     105.1148       0.0429       0.0633       2.7657
   2494.3936       5.2390      50.4269      29.9749      21.0303      20.1975    -999.2500     197.0948      79.6784     170.7837     150.7700      85.1615     109.0355       0.0430       0.0625       2.7488
   2494.5459       5.2390      50.4038      29.9103      21.0577      19.9175    -999.2500     197.5904      80.7080     170.6245     142.7953      87.9746      93.7364       0.0435       0.0623       2.7388
   2494.6982       5.2390      49.8585      29.1248      21.7368      23.5500    -999.2500     184.0666      79.0700     159.0438     129.3700      89.3309      85.4900       0.0443       0.0629       2.7392
   2494.8506       5.2390      49.6140      28.2840      23.2618      27.3194    -999.2500     176.8299      81.1783     152.7549     117.1673      90.1300      97.1492       0.0456       0.0642       2.7428
   2495.0032       5.2390      49.7950      27.3640      24.6556      22.9404    -999.2500     178.6088      76.3628     154.0545     103.6947      90.1300      90.1285       0.0473       0.0654       2.7458
   2495.1555       5.2390      50.1987      26.3775      24.0587      24.7784    -999.2500     186.8878      71.8739     159.6916      86.7706      90.1300      78.6695       0.0490       0.0655       2.7459
   2495.3079       5.2390      50.9164      25.2980      22.9706      20.4043    -999.2500     204.2773      69.6681     171.4081      70.4560      90.1300      67.5562       0.0504       0.0646       2.7420
   2495.4602       5.2390      51.7107      24.3135      21.8846      16.1466    -999.2500     224.4845      66.1592     183.4021      66.7426      90.1300      51.0885       0.0502       0.0658       2.7352
   2495.6128       5.2390      52.6135      23.4629      21.1684      28.9623    -999.2500     248.6551      54.2935     195.7868      50.9016      90.1300      39.1881       0.0483       0.0685       2.7306
   2495.7651       5.2390      53.1405      22.5869      21.1795      41.2693    -999.2500     273.4771      47.4661     210.2188      43.1094      90.1300      36.4639       0.0477       0.0706       2.7335
   2495.9175       5.2390      53.1371      21.6750      21.5367      36.5580    -999.2500     299.2189      50.5384     227.5410      50.1893      90.1300      44.2965       0.0494       0.0710       2.7440
   2496.0698       5.2390      53.4076      21.4476      22.1503      28.0656    -999.2500     327.2027      52.5968     248.2122      50.2375      90.1300      43.5582       0.0515       0.0713       2.7474
   2496.2224       5.2390      54.0663      22.1963      22.8229      32.7871    -999.2500     358.3838      52.1710     273.6592      45.7282      90.1300      40.8020       0.0540       0.0750       2.7542
   2496.3748       5.2390      54.8264      23.5508      24.2588      29.3295    -999.2500     400.3065      53.0004     306.2944      44.1878      90.1300      40.2622       0.0566       0.0802       2.7550
   2496.5271       5.2390      55.7295      25.7725      25.2651      27.3783    -999.2500     457.6018      55.0186     349.2169      42.9351      90.1300      38.2420       0.0591       0.0839       2.7550
   2496.6794       5.2390      56.2275      27.8737      25.7212      27.2961    -999.2500     479.2780      54.5263     364.0271      42.1827      90.1300      35.9758       0.0610       0.0866       2.7312
   2496.8318       5.2390      56.1515      29.8063      25.7932      28.9683    -999.2500     451.1307      52.5402     339.5142      42.6719      90.1300      35.2547       0.0621       0.0893       2.6985
   2496.9844       5.2390      55.6074      29.9145      24.5370      27.6478    -999.2500     404.6548      50.4796     303.0688      44.1700      90.1300      35.8020       0.0617       0.0905       2.6990
   2497.1367       5.2390      54.4020      27.4616      23.2301      23.5915    -999.2500     332.4498      55.0151     249.8729      51.0188      90.1300      40.3088       0.0596       0.0852       2.7082
   2497.2891       5.2390      54.1842      24.2802      21.8478      27.7696    -999.2500     291.8596      59.3345     221.1922      58.1690      90.1300      46.3129       0.0564       0.0763       2.7227
