#------------------------------------------------------------------------------
#
#   Created by  : [OpenWorks] Log Export Utility (LEXP)
#   Created on  : 2016-05-23 11:53:41
#   Project     : CANT971
#   User        : R5K
#   Interpreter : PEP
#
#------------------------------------------------------------------------------
~VERSION INFORMATION
VERS. 2.0 : CWLS Log ASCII Standard - version 2.0
WRAP.  NO : One line per depth step
~WELL INFORMATION
#MNEMONIC   .UNIT                                           VALUE :DESCRIPTION
#------------------------------------------------------------------------------
STRT        .M                                           901.1412 :START DEPTH
STOP        .M                                          2449.6777 :STOP DEPTH
STEP        .M                                             0.1524 :STEP
NULL        .                                           -999.2500 :NULL VALUE
COMP        .                                   PEMEX EXPL & PROD :COMPANY
WELL        .                                                  25 :WELL
FLD         .                                           CANTARELL :FIELD
LOC         .                                             UNKNOWN :LOCATION
CNTY        .                                      CD. DEL CARMEN :COUNTY
STAT        .                                            CAMPECHE :STATE
CTRY        .                                              MEXICO :COUNTRY
SRVC        .                                             UNKNOWN :SERVICE COMPANY
DATE        .                                             UNKNOWN :LOG DATE
UWI         .                                          3060000154 :UNIQUE WELL ID
XCOORD      .                                       603358.080000 :SURFACE X
YCOORD      .                                      2145091.420000 :SURFACE Y
LAT         .                                           19.398528 :LATITUDE
LON         .                                          -92.015660 :LONGITUDE
ELEV        .M                                            27.1400 :SURFACE ELEV
ELEV_TYPE   .                                                  KB :ELEV TYPE
~CURVE INFORMATION
#MNEMONIC.UNIT        API CODE       : CURVE DESCRIPTION
#------------------------------------------------------------------------------
DEPTH    .M                          : Measured Depth
CALI     .in          UNKNOWN        : CALI:registros:rC:NONE:v0 (auto-composite)
DRHO     .g/cm3       UNKNOWN        : DRHO:registros:rC:NONE:v0 (auto-composite)
DT       .us/ft       UNKNOWN        : DT:registros:rC:NONE:v0 (auto-composite)
GR       .api         UNKNOWN        : GR:registros:rC:NONE:v0 (auto-composite)
ILD      .ohmm        UNKNOWN        : ILD:registros:rC:NONE:v0 (auto-composite)
LLD      .ohmm        UNKNOWN        : LLD:registros:rC:NONE:v0 (auto-composite)
LLS      .ohmm        UNKNOWN        : LLS:registros:rC:NONE:v0 (auto-composite)
MSFL     .ohmm        UNKNOWN        : MSFL:registros:rC:NONE:v0 (auto-composite)
NPHI     .v/v_decimal UNKNOWN        : NPHI:registros:rC:NONE:v0 (auto-composite)
PEF      .b/elec      UNKNOWN        : PEF:registros:rC:NONE:v0 (auto-composite)
RHOB     .g/cm3       UNKNOWN        : RHOB:registros:rC:NONE:v0 (auto-composite)
~A     DEPTH         CALI         DRHO           DT           GR          ILD          LLD          LLS         MSFL         NPHI          PEF         RHOB
# ...
   2121.5605       6.3330       0.0325      49.7388      27.4555    -999.2500     410.5805      53.4566      84.2279       0.0625       3.2881       2.7705
   2121.7129       6.3330       0.0270      50.0320      28.1160    -999.2500     427.7460      54.0410      99.7370       0.0645       3.3670       2.7810
   2121.8652       6.3330       0.0165      50.7268      27.1271    -999.2500     441.4940      56.5520      90.7341       0.0640       3.2864       2.7755
   2122.0176       6.3330       0.0060      51.4250      26.1350    -999.2500     455.3080      59.0750      81.6880       0.0635       3.2060       2.7700
   2122.1699       6.3590      -0.0025      51.3676      24.2541    -999.2500     466.2859      61.9729      74.2863       0.0618       3.1029       2.7735
   2122.3225       6.3850      -0.0110      51.3100      22.3670    -999.2500     477.3180      64.8850      66.8480       0.0600       3.0000       2.7770
   2122.4749       6.4095      -0.0060      51.0696      21.3313    -999.2500     456.4632      62.9659      71.2394       0.0610       3.0000       2.7755
   2122.6272       6.4340      -0.0010      50.8280      20.2920    -999.2500     435.5030      61.0370      75.6530       0.0620       3.0000       2.7740
   2122.7795       6.4390       0.0050      50.3822      20.0739    -999.2500     406.7700      57.8941      74.5843       0.0639       3.2467       2.7581
   2122.9321       6.4440       0.0110      49.9340      19.8550    -999.2500     377.8880      54.7350      73.5100       0.0658       3.4930       2.7420
   2123.0845       6.4440       0.0105      48.9795      19.4018    -999.2500     351.1694      51.4313      50.3948       0.0674       3.4580       2.7246
   2123.2368       6.4440       0.0100      48.0200      18.9470    -999.2500     324.3090      48.1100      27.1570       0.0690       3.4230       2.7070
   2123.3892       6.4440       0.0025      48.6573      18.2708    -999.2500     303.0294      48.7498      32.2861       0.0708       3.2429       2.6980
   2123.5417       6.4440      -0.0050      49.2980      17.5920    -999.2500     281.6340      49.3930      37.4430       0.0726       3.0630       2.6890
   2123.6941       6.4440       0.0064      50.1566      16.9158    -999.2500     265.1049      53.6023      43.2733       0.0785       2.9204       2.6746
   2123.8464       6.4440       0.0180      51.0200      16.2370    -999.2500     248.4840      57.8350      49.1360       0.0845       2.7780       2.6600
   2123.9988       6.4440       0.0140      51.5101      15.8972    -999.2500     236.6686      54.6102      44.0310       0.0880       2.8450       2.6495
   2124.1511       6.4440       0.0100      52.0030      15.5560    -999.2500     224.7860      51.3670      38.8970       0.0916       2.9120       2.6390
   2124.3037       6.4440       0.0005      52.1871      16.0689    -999.2500     237.0507      48.3653      40.9287       0.0858       2.9560       2.6619
   2124.4561       6.4440      -0.0090      52.3720      16.5840    -999.2500     249.3670      45.3510      42.9690       0.0799       3.0000       2.6850
   2124.6084       6.4440      -0.0070      52.6110      18.6121    -999.2500     284.6766      46.1158      56.9787       0.0744       3.0290       2.7114
   2124.7607       6.4440      -0.0050      52.8510      20.6490    -999.2500     320.1390      46.8840      71.0490       0.0688       3.0580       2.7380
   2124.9133       6.4440      -0.0025      53.6457      22.7304    -999.2500     318.3096      50.5573      56.4795       0.0673       3.0435       2.7475
   2125.0657       6.4440       0.0000      54.4440      24.8210    -999.2500     316.4720      54.2470      41.8450       0.0658       3.0290       2.7570
   2125.2180       6.4440      -0.0020      53.9591      26.8040    -999.2500     282.7368      53.8639      48.6833       0.0680       3.0525       2.7620
   2125.3704       6.4440      -0.0040      53.4720      28.7960    -999.2500     248.8470      53.4790      55.5530       0.0702       3.0760       2.7670
   2125.5229       6.4380      -0.0075      52.6021      26.1008    -999.2500     216.1735      49.8570      70.4354       0.0738       3.1491       2.7655
   2125.6753       6.4320      -0.0110      51.7280      23.3930    -999.2500     183.3460      46.2180      85.3880       0.0774       3.2220       2.7640
   2125.8276       6.3825      -0.0095      51.1434      25.2640    -999.2500     163.8431      42.7454      79.1720       0.0894       3.2085       2.7476
   2125.9800       6.3330      -0.0080      50.5560      27.1410    -999.2500     144.2460      39.2560      72.9260       0.1015       3.1950       2.7310
   2126.1323       6.3330       0.0025      50.5560      26.4726    -999.2500     132.1016      36.9627      55.9870       0.1188       3.1189       2.6901
   2126.2849       6.3330       0.0130      50.5560      25.8020    -999.2500     119.8970      34.6580      38.9640       0.1361       3.0430       2.6490
   2126.4373       6.3615       0.0100      50.6971      26.9151    -999.2500     136.3432      33.1818      31.4735       0.1433       3.0580       2.6201
   2126.5896       6.3900       0.0070      50.8390      28.0320    -999.2500     152.8730      31.6980      23.9450       0.1506       3.0730       2.5910
   2126.7419       6.4135       0.0005      52.2369      29.4674    -999.2500     172.4504      32.8051      21.6854       0.1470       3.1255       2.6099
   2126.8945       6.4370      -0.0060      53.6420      30.9080    -999.2500     192.1300      33.9180      19.4140       0.1434       3.1780       2.6290
   2127.0469       6.4405      -0.0045      56.6146      29.6009    -999.2500     214.2091      36.8272      30.6595       0.1332       3.2821       2.6594
   2127.1992       6.4440      -0.0030      59.6030      28.2890    -999.2500     236.4060      39.7520      41.9650       0.1230       3.3860       2.6900
   2127.3516       6.4440      -0.0060      61.5367      26.8193    -999.2500     235.6456      42.1026      34.3224       0.1131       3.2689       2.7154
   2127.5042       6.4440      -0.0090      63.4810      25.3440    -999.2500     234.8810      44.4660      26.6380       0.1031       3.1520       2.7410
   2127.6565       6.4440      -0.0055      63.8834      23.5022    -999.2500     223.4455      40.6791      21.9242       0.0977       2.9649       2.7390
   2127.8088       6.4440      -0.0020      64.2880      21.6530    -999.2500     211.9460      36.8710      17.1840       0.0923       2.7780       2.7370
   2127.9612       6.4440       0.0020      65.1470      20.2738    -999.2500     200.0191      37.9604      15.6833       0.0974       2.8095       2.7195
   2128.1135       6.4440       0.0060      66.0110      18.8890    -999.2500     188.0240      39.0560      14.1740       0.1025       2.8410       2.7020
   2128.2661       6.4440       0.0020      67.8536      21.6606    -999.2500     173.1839      42.7696      20.1448       0.1021       2.9205       2.6581
   2128.4185       6.4440      -0.0020      69.7040      24.4440    -999.2500     158.2810      46.4990      26.1410       0.1016       3.0000       2.6140
   2128.5708       6.4440      -0.0075      68.9217      24.3228    -999.2500     170.4210      48.7795      34.9543       0.0961       2.9755       2.6374
   2128.7231       6.4440      -0.0130      68.1360      24.2010    -999.2500     182.6140      51.0700      43.8060       0.0906       2.9510       2.6610
   2128.8757       6.4440      -0.0125      67.5987      23.4527    -999.2500     204.5428      48.7572      50.5888       0.0855       2.8714       2.6834
   2129.0281       6.4440      -0.0120      67.0590      22.7010    -999.2500     226.5700      46.4340      57.4020       0.0804       2.7920       2.7060
   2129.1804       6.4440      -0.0100      68.2403      23.0976    -999.2500     212.1453      40.7217      54.4857       0.0788       2.7294       2.6711
   2129.3328       6.4440      -0.0080      69.4270      23.4960    -999.2500     197.6540      34.9830      51.5560       0.0772       2.6670       2.6360
