#------------------------------------------------------------------------------
#
#   Created by  : [OpenWorks] Log Export Utility (LEXP)
#   Created on  : 2016-05-23 11:56:01
#   Project     : CANT971
#   User        : R5K
#   Interpreter : PEP
#
#------------------------------------------------------------------------------
~VERSION INFORMATION
VERS. 2.0 : CWLS Log ASCII Standard - version 2.0
WRAP.  NO : One line per depth step
~WELL INFORMATION
#MNEMONIC   .UNIT                                           VALUE :DESCRIPTION
#------------------------------------------------------------------------------
STRT        .M                                          1572.0055 :START DEPTH
STOP        .M                                          3732.1230 :STOP DEPTH
STEP        .M                                             0.1524 :STEP
NULL        .                                           -999.2500 :NULL VALUE
COMP        .                                             UNKNOWN :COMPANY
WELL        .                                               428-V :WELL
FLD         .                                             UNKNOWN :FIELD
LOC         .                                             UNKNOWN :LOCATION
CNTY        .                                             UNKNOWN :COUNTY
STAT        .                                             UNKNOWN :STATE
CTRY        .                                             UNKNOWN :COUNTRY
SRVC        .                                             UNKNOWN :SERVICE COMPANY
DATE        .                                             UNKNOWN :LOG DATE
UWI         .                                               428-V :UNIQUE WELL ID
XCOORD      .                                            0.000000 :SURFACE X
YCOORD      .                                            0.000000 :SURFACE Y
LAT         .                                            0.000000 :LATITUDE
LON         .                                            0.000000 :LONGITUDE
ELEV        .M                                             0.0000 :SURFACE ELEV
ELEV_TYPE   .                                                  KB :ELEV TYPE
~CURVE INFORMATION
#MNEMONIC .UNIT        API CODE       : CURVE DESCRIPTION
#------------------------------------------------------------------------------
DEPTH     .M                          : Measured Depth
CALIH-LWD .inches      UNKNOWN        : CALIH-LWD:PETROWORKS:rC:NONE:v5 
CALIV-LWD .inches      UNKNOWN        : CALIV-LWD:PETROWORKS:rC:NONE:v5 
CGR       .API         UNKNOWN        : CGR:Espectrometria:rC:NONE:v0 (auto-composite)
DRHO-LWD  .g/cm3       UNKNOWN        : DRHO-LWD:PETROWORKS:rC:NONE:v5 
DT        .us/ft       UNKNOWN        : DT:sonico:rC:NONE:v0 (auto-composite)
GR        .API         UNKNOWN        : GR:Espectrometria:rC:NONE:v0 (auto-composite)
GR-LWD    .API         UNKNOWN        : GR-LWD:PETROWORKS:rC:NONE:v3 
ILD-LWD   .ohm.m       UNKNOWN        : ILD-LWD:PETROWORKS:rC:NONE:v2 
ILM-LWD   .ohm.m       UNKNOWN        : ILM-LWD:PETROWORKS:rC:NONE:v2 
LLD-LWD   .ohm.m       UNKNOWN        : LLD-LWD:registros-LWD:rC:NONE:v0 (auto-composite)
LLS-LWD   .ohm.m       UNKNOWN        : LLS-LWD:registros-LWD:rC:NONE:v0 (auto-composite)
MSFL-LWD  .ohm.m       UNKNOWN        : MSFL-LWD:registros-LWD:rC:NONE:v0 (auto-composite)
NPHI-LWD  .v/v_decimal UNKNOWN        : NPHI-LWD:PETROWORKS:rC:NONE:v5 
PEF-LWD   .b/elec      UNKNOWN        : PEF-LWD:PETROWORKS:rC:NONE:v5 
POTA      .wtpercent   UNKNOWN        : POTA:Espectrometria:rC:NONE:v0 (auto-composite)
RHOB-LWD  .g/cm3       UNKNOWN        : RHOB-LWD:PETROWORKS:rC:NONE:v5 
THOR      .UNKNOWN     UNKNOWN        : THOR:Espectrometria:rC:NONE:v0 (auto-composite)
URAN      .UNKNOWN     UNKNOWN        : URAN:Espectrometria:rC:NONE:v0 (auto-composite)
~A     DEPTH    CALIH-LWD    CALIV-LWD          CGR     DRHO-LWD           DT           GR       GR-LWD      ILD-LWD      ILM-LWD      LLD-LWD      LLS-LWD     MSFL-LWD     NPHI-LWD      PEF-LWD         POTA     RHOB-LWD         THOR         URAN
# ...
   3297.0210       6.3758       6.6335       6.6177       0.2340      50.9177      28.0295      24.6586     143.1837     138.9790    -999.2500    -999.2500    -999.2500       0.0652       2.6827       0.0037       2.7509       0.4096       2.3838
   3297.1736       6.4221       6.7142       5.8646       0.2237      50.4570      28.6840      24.3405     137.4447     131.3058    -999.2500    -999.2500    -999.2500       0.0682       2.7401       0.0032       2.7217       0.4073       2.5406
   3297.3259       6.5687       6.8742       5.6707       0.2301      50.2469      29.0056      24.7977     138.6854     135.1174    -999.2500    -999.2500    -999.2500       0.0687       2.8492       0.0029       2.7173       0.4634       2.5980
   3297.4783       6.4092       6.7902       3.7704       0.2034      50.3909      29.7054      25.2538     146.9919     142.1760    -999.2500    -999.2500    -999.2500       0.0678       2.7966       0.0023       2.6793       0.1468       2.8875
   3297.6306       6.4554       6.7948       3.0504       0.2204      51.0518      31.4900      25.6215     144.5076     140.5847    -999.2500    -999.2500    -999.2500       0.0664       2.8015       0.0020       2.6943       0.0645       3.1663
   3297.7832       6.4792       6.8114       2.4995       0.2113      52.2542      29.2779      25.7194     135.0301     133.0206    -999.2500    -999.2500    -999.2500       0.0664       2.7755       0.0016       2.6833       0.0668       2.9813
   3297.9355       6.6326       7.0232       3.7739       0.2088      53.7171      28.7424      26.1782     134.8887     128.0505    -999.2500    -999.2500    -999.2500       0.0670       2.7409       0.0024       2.6864       0.1333       2.7799
   3298.0879       6.5143       7.0848       5.9661       0.1782      54.9819      29.1140      26.7435     125.9634     125.4091    -999.2500    -999.2500    -999.2500       0.0680       2.6495       0.0041       2.6508       0.0567       2.5771
   3298.2402       6.3551       6.9922       7.0935       0.1780      55.7347      29.8708      27.4180     124.7429     122.7581    -999.2500    -999.2500    -999.2500       0.0692       2.6178       0.0047       2.6411       0.1529       2.5359
   3298.3926       6.2424       6.8406       8.3038       0.1874      56.0326      30.4709      27.2900     125.0685     121.1298    -999.2500    -999.2500    -999.2500       0.0699       2.6665       0.0048       2.6445       0.4587       2.4680
   3298.5452       6.1678       6.7606       8.1851       0.1862      55.9216      29.9836      26.6968     127.0321     121.5992    -999.2500    -999.2500    -999.2500       0.0706       2.6785       0.0044       2.6417       0.5721       2.4269
   3298.6975       6.0975       6.6978       7.2091       0.1870      55.6077      28.0470      25.6427     127.6964     122.2692    -999.2500    -999.2500    -999.2500       0.0713       2.6900       0.0033       2.6397       0.7507       2.3200
   3298.8499       6.1339       6.7196       6.7561       0.1925      55.2967      26.1418      24.2661     130.6112     126.4156    -999.2500    -999.2500    -999.2500       0.0721       2.7008       0.0028       2.6307       0.8101       2.1583
   3299.0022       6.3820       6.8550       6.2808       0.2056      55.1665      24.1718      22.4430     126.7923     121.6386    -999.2500    -999.2500    -999.2500       0.0731       2.7122       0.0026       2.6117       0.7653       1.9918
   3299.1548       6.5567       6.9719       6.6461       0.2236      55.4129      21.8170      20.0302     128.9254     125.3662    -999.2500    -999.2500    -999.2500       0.0747       2.7128       0.0030       2.6096       0.6811       1.6891
   3299.3071       6.5461       6.9438       7.7452       0.2191      56.0184      20.9396      18.5434     130.0751     128.8947    -999.2500    -999.2500    -999.2500       0.0770       2.6771       0.0037       2.6070       0.7348       1.4689
   3299.4595       6.4666       6.8499       9.2390       0.2127      56.8697      20.5250      17.9769     132.0863     130.5357    -999.2500    -999.2500    -999.2500       0.0780       2.6488       0.0045       2.6193       0.8355       1.2566
   3299.6118       6.4719       6.8038       8.3079       0.2075      57.6261      20.1778      17.7942     133.0726     134.4372    -999.2500    -999.2500    -999.2500       0.0769       2.6834       0.0044       2.6339       0.5998       1.3215
   3299.7644       6.5223       6.8274       6.4492       0.1960      58.0194      19.6205      17.3435     130.5325     137.9453    -999.2500    -999.2500    -999.2500       0.0746       2.7092       0.0039       2.6444       0.3009       1.4664
   3299.9167       6.5314       6.8493       5.1742       0.1830      58.0023      19.3708      17.2869     129.8591     137.4640    -999.2500    -999.2500    -999.2500       0.0728       2.6951       0.0032       2.6565       0.1913       1.5805
   3300.0691       6.5045       6.8161       4.8467       0.1756      57.4714      19.3000      18.1446     133.4707     136.2405    -999.2500    -999.2500    -999.2500       0.0714       2.6210       0.0026       2.6650       0.3480       1.6091
   3300.2214       6.4984       6.7547       4.6104       0.1798      56.2965      19.3834      19.0870     135.9191     138.3782    -999.2500    -999.2500    -999.2500       0.0695       2.5797       0.0022       2.6685       0.4381       1.6448
   3300.3738       6.5178       6.6977       3.7760       0.1843      54.5365      19.6091      19.1042     134.7798     141.1653    -999.2500    -999.2500    -999.2500       0.0675       2.6149       0.0015       2.6613       0.4785       1.7627
   3300.5264       6.6209       6.6810       3.0268       0.1977      52.7464      19.4770      18.4300     137.3548     140.6845    -999.2500    -999.2500    -999.2500       0.0659       2.6843       0.0010       2.6595       0.4482       1.8314
   3300.6787       6.7537       6.6892       1.5852       0.2168      51.4573      19.2339      17.9925     142.0568     141.3408    -999.2500    -999.2500    -999.2500       0.0650       2.7665       0.0003       2.6673       0.3228       1.9649
   3300.8311       6.8045       6.6957       1.1472       0.2303      50.8025      19.2976      18.7057     137.8793     142.1062    -999.2500    -999.2500    -999.2500       0.0651       2.8319       0.0002       2.6804       0.2415       2.0208
   3300.9834       6.7431       6.6868       0.6326       0.2326      50.6074      19.1585      19.8221     133.1416     140.5940    -999.2500    -999.2500    -999.2500       0.0658       2.8359       0.0003       2.6990       0.0784       2.0626
   3301.1360       6.6432       6.6561       1.3535       0.2248      50.8261      19.1977      20.2207     133.5207     138.8915    -999.2500    -999.2500    -999.2500       0.0658       2.7996       0.0007       2.7065       0.1033       1.9867
   3301.2883       6.5652       6.6322       2.2951       0.2166      51.3297      19.8512      19.7003     136.7145     140.6433    -999.2500    -999.2500    -999.2500       0.0655       2.7621       0.0015       2.7067       0.0707       1.9545
   3301.4407       6.4835       6.6275       3.0941       0.2029      51.8597      19.8367      18.7908     127.9121     131.7646    -999.2500    -999.2500    -999.2500       0.0648       2.7084       0.0020       2.7011       0.0914       1.8640
   3301.5930       6.4390       6.6540       4.2554       0.1883      52.2167      20.0486      18.1506     133.2113     130.8431    -999.2500    -999.2500    -999.2500       0.0644       2.6734       0.0025       2.6885       0.2253       1.7583
   3301.7456       6.4468       6.7579       4.9916       0.1796      52.4162      20.2626      17.7036     139.5059     139.6853    -999.2500    -999.2500    -999.2500       0.0651       2.6985       0.0029       2.6525       0.2633       1.7002
   3301.8979       6.4761       6.8305       6.2770       0.1681      52.6882      20.6041      17.8292     140.7504     143.8268    -999.2500    -999.2500    -999.2500       0.0666       2.7288       0.0035       2.5854       0.3788       1.5951
