#------------------------------------------------------------------------------
#
#   Created by  : [OpenWorks] Log Export Utility (LEXP)
#   Created on  : 2016-05-23 11:51:57
#   Project     : CANT971
#   User        : R5K
#   Interpreter : PEP
#
#------------------------------------------------------------------------------
~VERSION INFORMATION
VERS. 2.0 : CWLS Log ASCII Standard - version 2.0
WRAP. YES : Mulitple lines per depth step
~WELL INFORMATION
#MNEMONIC   .UNIT                                           VALUE :DESCRIPTION
#------------------------------------------------------------------------------
STRT        .M                                           782.8787 :START DEPTH
STOP        .M                                          2966.0088 :STOP DEPTH
STEP        .M                                             0.1524 :STEP
NULL        .                                           -999.2500 :NULL VALUE
COMP        .                                   PEMEX EXPL & PROD :COMPANY
WELL        .                                                 178 :WELL
FLD         .                                           CANTARELL :FIELD
LOC         .                                             UNKNOWN :LOCATION
CNTY        .                                      CD. DEL CARMEN :COUNTY
STAT        .                                            CAMPECHE :STATE
CTRY        .                                              MEXICO :COUNTRY
SRVC        .                                             UNKNOWN :SERVICE COMPANY
DATE        .                                             UNKNOWN :LOG DATE
UWI         .                                          3060000702 :UNIQUE WELL ID
XCOORD      .                                       602144.590000 :SURFACE X
YCOORD      .                                      2147185.340000 :SURFACE Y
LAT         .                                           19.417512 :LATITUDE
LON         .                                          -92.027103 :LONGITUDE
ELEV        .M                                            28.1700 :SURFACE ELEV
ELEV_TYPE   .                                                  KB :ELEV TYPE
~CURVE INFORMATION
#MNEMONIC.UNIT        API CODE       : CURVE DESCRIPTION
#------------------------------------------------------------------------------
DEPTH    .M                          : Measured Depth
CALI     .inches      UNKNOWN        : CALI:registros:rC:NONE:v0 (auto-composite)
CGR      .API         UNKNOWN        : CGR:registros:rC:NONE:v0 (auto-composite)
DRHO     .g/cm3       UNKNOWN        : DRHO:registros:rC:NONE:v0 (auto-composite)
DT       .UNKNOWN     UNKNOWN        : DT:registros:rC:NONE:v0 (auto-composite)
GR       .API         UNKNOWN        : GR:registros:rC:NONE:v0 (auto-composite)
GR-LWD   .UNKNOWN     UNKNOWN        : GR-LWD:registros:rC:NONE:v0 (auto-composite)
ILD      .ohm.m       UNKNOWN        : ILD:registros:rC:NONE:v0 (auto-composite)
ILM      .ohm.m       UNKNOWN        : ILM:registros:rC:NONE:v0 (auto-composite)
LLD      .ohm.m       UNKNOWN        : LLD:registros:rC:NONE:v0 (auto-composite)
LLD-LWD  .UNKNOWN     UNKNOWN        : LLD-LWD:registros:rC:NONE:v0 (auto-composite)
LLS      .ohm.m       UNKNOWN        : LLS:registros:rC:NONE:v0 (auto-composite)
LLS-LWD  .UNKNOWN     UNKNOWN        : LLS-LWD:registros:rC:NONE:v0 (auto-composite)
MSFL     .ohm.m       UNKNOWN        : MSFL:registros:rC:NONE:v0 (auto-composite)
MSFL-LWD .UNKNOWN     UNKNOWN        : MSFL-LWD:registros:rC:NONE:v0 (auto-composite)
NPHI     .v/v_decimal UNKNOWN        : NPHI:registros:rC:NONE:v0 (auto-composite)
PEF      .b/elec      UNKNOWN        : PEF:registros:rC:NONE:v0 (auto-composite)
POTA     .wtpercent   UNKNOWN        : POTA:registros:rC:NONE:v0 (auto-composite)
RHOB     .g/cm3       UNKNOWN        : RHOB:registros:rC:NONE:v0 (auto-composite)
THOR     .ppm         UNKNOWN        : THOR:registros:rC:NONE:v0 (auto-composite)
URAN     .ppm         UNKNOWN        : URAN:registros:rC:NONE:v0 (auto-composite)
~A
# ...
   2387.1936
       8.3592      20.4652       0.0280      76.4915      36.6837    -999.2500
    -999.2500    -999.2500      64.5313    -999.2500      61.0756    -999.2500
       2.2019    -999.2500       0.0865       3.0118       0.0084       2.7140
       1.7839       2.5413
   2387.3459
       8.3736      23.9307       0.0405      80.3939      40.9375    -999.2500
    -999.2500    -999.2500      53.8729    -999.2500      51.8908    -999.2500
       3.0222    -999.2500       0.0953       3.2585       0.0092       2.7015
       2.2940       2.3582
   2387.4983
       8.3892      27.0547       0.0512      84.2014      44.6516    -999.2500
    -999.2500    -999.2500      43.5086    -999.2500      42.9102    -999.2500
       4.1710    -999.2500       0.1037       3.4776       0.0100       2.6904
       2.7679       2.1794
   2387.6506
       8.4172      26.0945       0.0412      87.1176      41.9402    -999.2500
    -999.2500    -999.2500      36.9435    -999.2500      36.6296    -999.2500
       9.0577    -999.2500       0.1084       3.3712       0.0102       2.6959
       2.8043       2.0586
   2387.8032
       8.4387      25.1005       0.0317      89.8297      39.5990    -999.2500
    -999.2500    -999.2500      31.2386    -999.2500      31.1419    -999.2500
      13.7222    -999.2500       0.1121       3.2759       0.0102       2.7016
       2.8071       1.9714
   2387.9556
       8.3857      23.7720       0.0277      90.2872      41.5781    -999.2500
    -999.2500    -999.2500      35.7621    -999.2500      35.0956    -999.2500
      15.8195    -999.2500       0.1143       3.3124       0.0095       2.7096
       2.4213       2.2758
   2388.1079
       8.3345      22.4600       0.0245      90.3506      43.4519    -999.2500
    -999.2500    -999.2500      41.0173    -999.2500      39.7713    -999.2500
      17.9252    -999.2500       0.1130       3.3458       0.0088       2.7183
       2.0545       2.5662
   2388.2603
       8.3024      21.4086       0.0305      85.9603      44.0955    -999.2500
    -999.2500    -999.2500      54.5918    -999.2500      52.6781    -999.2500
      20.1522    -999.2500       0.0998       3.3438       0.0084       2.7343
       1.9250       2.6804
   2388.4128
       8.2726      20.4072       0.0359      81.6536      44.5235    -999.2500
    -999.2500    -999.2500      67.5234    -999.2500      64.9959    -999.2500
      22.3233    -999.2500       0.0864       3.3298       0.0081       2.7491
       1.8153       2.7777
   2388.5652
       8.2681      20.0594       0.0349      78.0396      42.3932    -999.2500
    -999.2500    -999.2500      72.2890    -999.2500      69.8054    -999.2500
      23.8390    -999.2500       0.0789       3.1780       0.0082       2.7506
       1.9440       2.6734
   2388.7175
       8.2651      20.0049       0.0338      74.5189      40.6533    -999.2500
    -999.2500    -999.2500      76.9517    -999.2500      74.3488    -999.2500
      25.6098    -999.2500       0.0739       3.0507       0.0085       2.7518
       2.0780       2.5688
   2388.8699
       8.2791      23.3098       0.0313      71.9075      43.5969    -999.2500
    -999.2500    -999.2500      80.1679    -999.2500      75.5850    -999.2500
      30.2974    -999.2500       0.0742       3.2079       0.0091       2.7488
       2.2633       2.4672
   2389.0222
       8.2929      26.2331       0.0288      69.4824      46.1993    -999.2500
    -999.2500    -999.2500      83.9668    -999.2500      77.3398    -999.2500
      35.1094    -999.2500       0.0737       3.3469       0.0096       2.7474
       2.4248       2.3805
   2389.1748
       8.3039      24.5072       0.0263      69.0496      44.6413    -999.2500
    -999.2500    -999.2500      94.2270    -999.2500      84.9725    -999.2500
      41.4693    -999.2500       0.0672       3.2710       0.0094       2.7644
       2.2965       2.4748
   2389.3271
       8.3141      22.7335       0.0241      68.7100      43.1166    -999.2500
    -999.2500    -999.2500     103.4643    -999.2500      91.7674    -999.2500
      46.7047    -999.2500       0.0610       3.2023       0.0090       2.7794
       2.1566       2.5761
   2389.4795
       8.3156      20.5195       0.0251      69.4168      41.9440    -999.2500
    -999.2500    -999.2500     100.4172    -999.2500      88.5473    -999.2500
      39.1648    -999.2500       0.0591       3.2183       0.0084       2.7724
       1.8916       2.7504
   2389.6318
       8.3168      18.3378       0.0259      70.0930      40.7948    -999.2500
    -999.2500    -999.2500      97.1731    -999.2500      85.1363    -999.2500
      32.0151    -999.2500       0.0579       3.2277       0.0077       2.7656
       1.6304       2.9187
   2389.7844
       8.3148      16.7054       0.0249      70.4561      39.9586    -999.2500
    -999.2500    -999.2500      91.8466    -999.2500      79.7250    -999.2500
      29.1977    -999.2500       0.0565       3.1607       0.0071       2.7611
       1.4354       3.0030
   2389.9368
       8.3130      15.1535       0.0242      70.7238      39.0777    -999.2500
    -999.2500    -999.2500      86.8248    -999.2500      74.6274    -999.2500
      26.7285    -999.2500       0.0559       3.1072       0.0065       2.7566
       1.2687       3.0703
   2390.0891
       8.3135      14.6252       0.0267      69.9149      37.7141    -999.2500
    -999.2500    -999.2500      85.5308    -999.2500      73.3652    -999.2500
      28.2245    -999.2500       0.0584       3.2096       0.0062       2.7511
       1.4394       2.9371
   2390.2415
       8.3140      14.4127       0.0284      69.0770      36.5656    -999.2500
    -999.2500    -999.2500      85.3350    -999.2500      73.0324    -999.2500
      29.5733    -999.2500       0.0606       3.3134       0.0062       2.7464
       1.6200       2.7936
   2390.3940
       8.3140      17.8743       0.0204      67.8836      37.9866    -999.2500
    -999.2500    -999.2500      97.9148    -999.2500      83.5200    -999.2500
      29.2507    -999.2500       0.0604       3.4313       0.0071       2.7509
       1.9083       2.5377
   2390.5464
       8.3141      21.2541       0.0124      66.7394      39.3482    -999.2500
    -999.2500    -999.2500     108.1383    -999.2500      92.0928    -999.2500
      28.7518    -999.2500       0.0603       3.5458       0.0082       2.7546
       2.1941       2.2830
   2390.6987
       8.3151      23.4696       0.0044      66.1348      40.0884    -999.2500
    -999.2500    -999.2500      90.7914    -999.2500      78.2471    -999.2500
      26.2382    -999.2500       0.0623       3.6183       0.0092       2.7496
       2.4317       2.0594
   2390.8511
       8.3159      25.6628      -0.0025      65.5452      41.0459    -999.2500
    -999.2500    -999.2500      73.6840    -999.2500      64.5241    -999.2500
      24.1105    -999.2500       0.0655       3.6659       0.0101       2.7441
       2.6591       1.8707
   2391.0034
       8.3149      27.5211       0.0040      65.1041      44.6106    -999.2500
    -999.2500    -999.2500      59.9401    -999.2500      52.6929    -999.2500
      26.3094    -999.2500       0.0717       3.4256       0.0108       2.7331
       2.7609       2.0927
   2391.1560
       8.3140      29.1606       0.0106      64.7459      48.1367    -999.2500
    -999.2500    -999.2500      47.4546    -999.2500      41.8972    -999.2500
      28.8432    -999.2500       0.0780       3.1938       0.0112       2.7233
       2.8294       2.3347
   2391.3083
       8.3140      28.1970       0.0176      65.3302      51.1420    -999.2500
    -999.2500    -999.2500      50.1031    -999.2500      43.5815    -999.2500
      35.2091    -999.2500       0.0826       3.0670       0.0111       2.7273
       2.5100       2.7918
   2391.4607
       8.3140      27.0673       0.0236      65.8972      53.5252    -999.2500
    -999.2500    -999.2500      52.6814    -999.2500      45.2362    -999.2500
      40.6325    -999.2500       0.0856       2.9535       0.0107       2.7308
       2.2076       3.2095
