#------------------------------------------------------------------------------
#
#   Created by  : [OpenWorks] Log Export Utility (LEXP)
#   Created on  : 2016-05-23 11:55:51
#   Project     : CANT971
#   User        : R5K
#   Interpreter : PEP
#
#------------------------------------------------------------------------------
~VERSION INFORMATION
VERS. 2.0 : CWLS Log ASCII Standard - version 2.0
WRAP.  NO : One line per depth step
~WELL INFORMATION
#MNEMONIC   .UNIT                                           VALUE :DESCRIPTION
#------------------------------------------------------------------------------
STRT        .M                                           490.1183 :START DEPTH
STOP        .M                                          2794.5586 :STOP DEPTH
STEP        .M                                             0.1524 :STEP
NULL        .                                           -999.2500 :NULL VALUE
COMP        .                                   PEMEX EXPL & PROD :COMPANY
WELL        .                                                  41 :WELL
FLD         .                                           CANTARELL :FIELD
LOC         .                                             UNKNOWN :LOCATION
CNTY        .                                      CD. DEL CARMEN :COUNTY
STAT        .                                            CAMPECHE :STATE
CTRY        .                                              MEXICO :COUNTRY
SRVC        .                                             UNKNOWN :SERVICE COMPANY
DATE        .                                             UNKNOWN :LOG DATE
UWI         .                                          3060000463 :UNIQUE WELL ID
XCOORD      .                                       601713.000000 :SURFACE X
YCOORD      .                                      2142348.040000 :SURFACE Y
LAT         .                                           19.373822 :LATITUDE
LON         .                                          -92.031472 :LONGITUDE
ELEV        .M                                            24.0000 :SURFACE ELEV
ELEV_TYPE   .                                                  KB :ELEV TYPE
~CURVE INFORMATION
#MNEMONIC.UNIT        API CODE       : CURVE DESCRIPTION
#------------------------------------------------------------------------------
DEPTH    .M                          : Measured Depth
CALI     .inches      UNKNOWN        : CALI:Import:rC:NONE:v0 (auto-composite)
DRHO     .g/cm3       UNKNOWN        : DRHO:Import:rC:NONE:v0 (auto-composite)
DT       .us/ft       UNKNOWN        : DT:Import:rC:NONE:v0 (auto-composite)
GR       .API         UNKNOWN        : GR:Import:rC:NONE:v0 (auto-composite)
ILD      .ohm.m       UNKNOWN        : ILD:Import:rC:NONE:v0 (auto-composite)
LLD      .ohm.m       UNKNOWN        : LLD:Import:rC:NONE:v0 (auto-composite)
LLS      .ohm.m       UNKNOWN        : LLS:Import:rC:NONE:v0 (auto-composite)
NPHI     .v/v_decimal UNKNOWN        : NPHI:Import:rC:NONE:v0 (auto-composite)
PEF      .b/elec      UNKNOWN        : PEF:Import:rC:NONE:v0 (auto-composite)
RHOB     .g/cm3       UNKNOWN        : RHOB:Import:rC:NONE:v0 (auto-composite)
~A     DEPTH         CALI         DRHO           DT           GR          ILD          LLD          LLS         NPHI          PEF         RHOB
# ...
   2043.3790       8.5310       0.0790    -999.2500      44.8640    -999.2500     144.8150      59.3890       0.1388       3.6440       2.7000
   2043.5315       8.4920       0.0745    -999.2500      36.2224    -999.2500     188.8175      78.2624       0.1234       3.6565       2.7095
   2043.6838       8.4530       0.0700    -999.2500      27.5900    -999.2500     232.8440      97.1460       0.1099       3.6690       2.7190
   2043.8363       8.4445       0.0665    -999.2500      25.2509    -999.2500     282.6793     132.2122       0.1006       3.6745       2.7145
   2043.9886       8.4360       0.0630    -999.2500      22.9140    -999.2500     332.5480     167.3020       0.0956       3.6800       2.7100
   2044.1411       8.4090       0.0575    -999.2500      22.5569    -999.2500     369.8107     212.5300       0.0952       3.7365       2.7100
   2044.2935       8.3820       0.0520    -999.2500      22.2000    -999.2500     407.1030     257.7940       0.0962       3.7930       2.7100
   2044.4459       8.4200       0.0490    -999.2500      22.7552    -999.2500     417.6826     275.8497       0.0952       3.7665       2.7145
   2044.5983       8.4580       0.0460    -999.2500      23.3100    -999.2500     428.2720     293.9220       0.0934       3.7400       2.7190
   2044.7507       8.5260       0.0390    -999.2500      25.2510    -999.2500     361.9972     259.4990       0.0918       3.8335       2.7240
   2044.9031       8.5940       0.0320    -999.2500      27.1910    -999.2500     295.6530     225.0400       0.0908       3.9270       2.7290
   2045.0555       8.6310       0.0360    -999.2500      28.9414    -999.2500     221.1539     173.3211       0.0911       4.1800       2.7295
   2045.2079       8.6680       0.0400    -999.2500      30.6910    -999.2500     146.6270     121.5830       0.0916       4.4330       2.7300
   2045.3602       8.6235       0.0505    -999.2500      30.5370    -999.2500     117.4651     100.9584       0.0914       4.4950       2.7335
   2045.5127       8.5790       0.0610    -999.2500      30.3830    -999.2500      88.3120      80.3400       0.0906       4.5570       2.7370
   2045.6650       8.5100       0.0680    -999.2500      30.9200    -999.2500      96.5937      72.2178       0.0893       4.4430       2.7285
   2045.8175       8.4410       0.0750    -999.2500      31.4570    -999.2500     104.8740      64.0970       0.0877       4.3290       2.7200
   2045.9698       8.3955       0.0760    -999.2500      31.7980    -999.2500     124.8800      69.5286       0.0861       4.2175       2.7225
   2046.1223       8.3500       0.0770    -999.2500      32.1390    -999.2500     144.8850      74.9600       0.0844       4.1060       2.7250
   2046.2747       8.3400       0.0650    -999.2500      30.9780    -999.2500     158.8235      91.0499       0.0825       4.0295       2.7385
   2046.4271       8.3300       0.0530    -999.2500      29.8170    -999.2500     172.7630     107.1410       0.0805       3.9530       2.7520
   2046.5795       8.3300       0.0465    -999.2500      30.5922    -999.2500     174.3268     128.4814       0.0788       3.8410       2.7605
   2046.7319       8.3300       0.0400    -999.2500      31.3670    -999.2500     175.8910     149.8260       0.0778       3.7290       2.7690
   2046.8843       8.3300       0.0500    -999.2500      30.4379    -999.2500     208.9501     163.2453       0.0782       3.5735       2.7620
   2047.0367       8.3300       0.0600    -999.2500      29.5100    -999.2500     242.0200     176.6690       0.0788       3.4180       2.7550
   2047.1891       8.3300       0.0635    -999.2500      32.5738    -999.2500     306.0361     205.8055       0.0785       3.3765       2.7640
   2047.3414       8.3300       0.0670    -999.2500      35.6340    -999.2500     370.0810     234.9550       0.0769       3.3350       2.7730
   2047.4939       8.3300       0.0735    -999.2500      54.2866    -999.2500     380.5255     205.7964       0.0734       3.3050       2.7835
   2047.6462       8.3300       0.0800    -999.2500      72.9200    -999.2500     390.9760     176.6210       0.0683       3.2750       2.7940
   2047.7987       8.3300       0.0860    -999.2500      96.4091    -999.2500     309.7435     132.3080       0.0621       3.2885       2.7925
   2047.9510       8.3300       0.0920    -999.2500     119.8770    -999.2500     228.4540      87.9640       0.0567       3.3020       2.7910
   2048.1035       8.3825       0.0955    -999.2500     114.2556    -999.2500     179.4023      88.9651       0.0541       3.4524       2.7905
   2048.2559       8.4350       0.0990    -999.2500     108.6340    -999.2500     130.3100      89.9670       0.0540       3.6030       2.7900
   2048.4082       8.5280       0.0985    -999.2500      90.0599    -999.2500     174.9236     122.5005       0.0562       3.6995       2.7870
   2048.5608       8.6210       0.0980    -999.2500      71.4830    -999.2500     219.5440     155.0390       0.0589       3.7960       2.7840
   2048.7131       8.6675       0.0955    -999.2500      57.8335    -999.2500     282.1148     181.2944       0.0604       3.7420       2.7750
   2048.8655       8.7140       0.0930    -999.2500      44.2020    -999.2500     344.7030     207.5570       0.0609       3.6880       2.7660
   2049.0178       8.7425       0.0860    -999.2500      40.8020    -999.2500     389.2580     222.3485       0.0602       3.7120       2.7630
   2049.1702       8.7710       0.0790    -999.2500      37.4060    -999.2500     433.8310     237.1460       0.0586       3.7360       2.7600
   2049.3228       8.7755       0.0740    -999.2500      40.2520    -999.2500     385.2893     246.5325       0.0565       3.8475       2.7510
   2049.4751       8.7800       0.0690    -999.2500      43.0950    -999.2500     336.7220     255.9240       0.0605       3.9590       2.7420
   2049.6274       8.7800       0.0675    -999.2500      45.2450    -999.2500     259.0299     244.3273       0.0780       3.9170       2.7315
   2049.7798       8.7800       0.0660    -999.2500      47.3930    -999.2500     181.2870     232.7230       0.1043       3.8750       2.7210
   2049.9324       8.7800       0.0610    -999.2500      48.5830    -999.2500     128.3911     167.7223       0.1354       3.7705       2.6920
   2050.0847       8.7800       0.0560    -999.2500      49.7720    -999.2500      75.4540     102.6710       0.1640       3.6660       2.6630
   2050.2371       8.7800       0.0625    -999.2500      48.1985    -999.2500      55.7739      71.2367       0.1826       3.5610       2.6645
   2050.3894       8.7800       0.0690    -999.2500      46.6260    -999.2500      36.0760      39.7740       0.1884       3.4560       2.6660
   2050.5420       8.8160       0.0925    -999.2500      42.5328    -999.2500      36.9026      33.6397       0.1782       3.3571       2.6805
   2050.6943       8.8520       0.1160    -999.2500      38.4420    -999.2500      37.7300      27.4990       0.1588       3.2580       2.6950
   2050.8467       8.8670       0.1415    -999.2500      35.1693    -999.2500      59.9671      39.6130       0.1369       3.3874       2.7115
   2050.9990       8.8820       0.1670    -999.2500      31.8980    -999.2500      82.2300      51.7410       0.1170       3.5170       2.7280
   2051.1514       8.8375       0.1435    -999.2500      32.7181    -999.2500      94.3269      56.4282       0.1039       3.6860       2.7360
   2051.3040       8.7930       0.1200    -999.2500      33.5380    -999.2500     106.4200      61.1140       0.0980       3.8550       2.7440
   2051.4563       8.7865       0.1050    -999.2500      34.9636    -999.2500     100.3099      60.3874       0.1002       3.8255       2.7730
   2051.6086       8.7800       0.0900    -999.2500      36.3890    -999.2500      94.2010      59.6610       0.1058       3.7960       2.8020
   2051.7610       8.7800       0.0865    -999.2500      35.6735    -999.2500     101.4607      55.2493       0.1103       3.7370       2.8050
