#------------------------------------------------------------------------------
#
#   Created by  : [OpenWorks] Log Export Utility (LEXP)
#   Created on  : 2016-05-23 11:57:01
#   Project     : CANT971
#   User        : R5K
#   Interpreter : PEP
#
#------------------------------------------------------------------------------
~VERSION INFORMATION
VERS. 2.0 : CWLS Log ASCII Standard - version 2.0
WRAP.  NO : One line per depth step
~WELL INFORMATION
#MNEMONIC   .UNIT                                           VALUE :DESCRIPTION
#------------------------------------------------------------------------------
STRT        .M                                           485.8514 :START DEPTH
STOP        .M                                          3526.5361 :STOP DEPTH
STEP        .M                                             0.1524 :STEP
NULL        .                                           -999.2500 :NULL VALUE
COMP        .                                   PEMEX EXPL & PROD :COMPANY
WELL        .                                                  62 :WELL
FLD         .                                           CANTARELL :FIELD
LOC         .                                             UNKNOWN :LOCATION
CNTY        .                                      CD. DEL CARMEN :COUNTY
STAT        .                                            CAMPECHE :STATE
CTRY        .                                              MEXICO :COUNTRY
SRVC        .                                             UNKNOWN :SERVICE COMPANY
DATE        .                                             UNKNOWN :LOG DATE
UWI         .                                          3060000468 :UNIQUE WELL ID
XCOORD      .                                       601711.280000 :SURFACE X
YCOORD      .                                      2142346.320000 :SURFACE Y
LAT         .                                           19.373806 :LATITUDE
LON         .                                          -92.031488 :LONGITUDE
ELEV        .M                                            24.0000 :SURFACE ELEV
ELEV_TYPE   .                                                  KB :ELEV TYPE
~CURVE INFORMATION
#MNEMONIC.UNIT        API CODE       : CURVE DESCRIPTION
#------------------------------------------------------------------------------
DEPTH    .M                          : Measured Depth
CALI     .inches      UNKNOWN        : CALI:editado:rC:NONE:v0 (auto-composite)
DRHO     .g/cm3       UNKNOWN        : DRHO:editado:rC:NONE:v0 (auto-composite)
DT       .us/ft       UNKNOWN        : DT:editado:rC:NONE:v0 (auto-composite)
GR       .API         UNKNOWN        : GR:editado:rC:NONE:v0 (auto-composite)
ILD      .ohm.m       UNKNOWN        : ILD:editado:rC:NONE:v0 (auto-composite)
ILM      .ohm.m       UNKNOWN        : ILM:editado:rC:NONE:v0 (auto-composite)
LLD      .ohm.m       UNKNOWN        : LLD:editado:rC:NONE:v0 (auto-composite)
LLS      .ohm.m       UNKNOWN        : LLS:editado:rC:NONE:v0 (auto-composite)
MSFL     .ohm.m       UNKNOWN        : MSFL:editado:rC:NONE:v0 (auto-composite)
NPHI     .v/v_decimal UNKNOWN        : NPHI:editado:rC:NONE:v0 (auto-composite)
PEF      .b/elec      UNKNOWN        : PEF:editado:rC:NONE:v0 (auto-composite)
RHOB     .g/cm3       UNKNOWN        : RHOB:editado:rC:NONE:v0 (auto-composite)
~A     DEPTH         CALI         DRHO           DT           GR          ILD          ILM          LLD          LLS         MSFL         NPHI          PEF         RHOB
# ...
   2841.3457       8.5560       0.0190      53.6890      44.2990    -999.2500    -999.2500      88.5930      77.5090     132.6630       0.0679       3.9450       2.7660
   2841.4983       8.5560       0.0145      52.8307      58.3828    -999.2500    -999.2500      73.0120      64.5810      78.3887       0.0722       4.0062       2.7495
   2841.6506       8.5560       0.0100      51.9770      72.4140    -999.2500    -999.2500      57.5140      51.7220      24.4900       0.0778       4.0670       2.7330
   2841.8030       8.5560       0.0010      55.7403      76.1823    -999.2500    -999.2500      49.4471      44.8547      30.2511       0.0859       4.0891       2.7170
   2841.9553       8.5560      -0.0080      59.4840      79.9370    -999.2500    -999.2500      41.4350      38.0340      35.9730       0.0937       4.1110       2.7010
   2842.1079       8.5560      -0.0105      58.9396      69.8799    -999.2500    -999.2500      38.9653      36.0659      32.8927       0.0965       4.0794       2.7275
   2842.2603       8.5560      -0.0130      58.3980      59.8740    -999.2500    -999.2500      36.5120      34.1110      29.8330       0.0986       4.0480       2.7540
   2842.4126       8.5560      -0.0009      57.0066      60.1913    -999.2500    -999.2500      35.2012      33.1087      26.7795       0.1002       3.9191       2.7470
   2842.5649       8.5560       0.0110      55.6220      60.5070    -999.2500    -999.2500      33.8990      32.1130      23.7460       0.1021       3.7910       2.7400
   2842.7175       8.5560       0.0095      56.6936      57.3293    -999.2500    -999.2500      36.2636      33.9328      20.2984       0.1064       3.9947       2.7310
   2842.8699       8.5560       0.0080      57.7600      54.1670    -999.2500    -999.2500      38.6130      35.7410      16.8730       0.1085       4.1970       2.7220
   2843.0222       8.5560       0.0010      58.1008      47.6121    -999.2500    -999.2500      45.0739      41.2955      17.4578       0.0945       4.1363       2.7235
   2843.1746       8.5560      -0.0060      58.4400      41.0880    -999.2500    -999.2500      51.4940      46.8150      18.0390       0.0789       4.0760       2.7250
   2843.3269       8.5560      -0.0115      56.4519      38.9331    -999.2500    -999.2500      57.3481      51.9749      16.7972       0.0691       3.8167       2.7375
   2843.4795       8.5560      -0.0170      54.4730      36.7880    -999.2500    -999.2500      63.1660      57.1030      15.5630       0.0622       3.5590       2.7500
   2843.6318       8.5560      -0.0165      54.8802      39.3532    -999.2500    -999.2500      61.7372      55.5132      29.1837       0.0661       3.6267       2.7390
   2843.7842       8.5560      -0.0160      55.2850      41.9070    -999.2500    -999.2500      60.3170      53.9330      42.7220       0.0713       3.6940       2.7280
   2843.9365       8.5560      -0.0135      54.7349      41.2987    -999.2500    -999.2500      61.6414      54.7058      45.1497       0.0734       3.6855       2.7130
   2844.0891       8.5560      -0.0110      54.1880      40.6930    -999.2500    -999.2500      62.9580      55.4740      47.5630       0.0746       3.6770       2.6980
   2844.2415       8.5214      -0.0095      54.3961      40.1173    -999.2500    -999.2500      67.1868      59.1391      79.3657       0.0746       3.6163       2.6875
   2844.3938       8.4870      -0.0080      54.6030      39.5440    -999.2500    -999.2500      71.3910      62.7830     110.9840       0.0736       3.5560       2.6770
   2844.5461       8.4157       0.0000      55.0518      37.6366    -999.2500    -999.2500      75.0353      66.5898      82.7449       0.0684       3.5560       2.6745
   2844.6987       8.3450       0.0080      55.4980      35.7370    -999.2500    -999.2500      78.6590      70.3750      54.7110       0.0623       3.5560       2.6720
   2844.8511       8.3455       0.0090      54.4451      35.9835    -999.2500    -999.2500      78.4965      72.2998      38.3341       0.0554       3.6011       2.6760
   2845.0034       8.3460       0.0100      53.3980      36.2290    -999.2500    -999.2500      78.3350      74.2140      22.0740       0.0503       3.6460       2.6800
   2845.1558       8.4082       0.0040      53.1769      39.3244    -999.2500    -999.2500      73.0858      70.8694      44.1866       0.0553       3.6555       2.6955
   2845.3081       8.4700      -0.0020      52.9570      42.4080    -999.2500    -999.2500      67.8650      67.5430      66.1440       0.0624       3.6650       2.7110
   2845.4607       8.5101      -0.0005      54.2038      48.2343    -999.2500    -999.2500      56.7139      57.4603      49.5077       0.0708       3.8245       2.7195
   2845.6130       8.5500       0.0010      55.4440      54.0390    -999.2500    -999.2500      45.6220      47.4310      32.9860       0.0796       3.9830       2.7280
   2845.7654       8.5530      -0.0025      56.6967      55.3694    -999.2500    -999.2500      42.9384      44.7725      27.8326       0.0886       4.0046       2.7240
   2845.9177       8.5560      -0.0060      57.9430      56.6950    -999.2500    -999.2500      40.2730      42.1320      22.7140       0.0954       4.0260       2.7200
   2846.0703       8.5560      -0.0085      57.3660      51.6934    -999.2500    -999.2500      47.5271      49.3645      59.7098       0.0897       3.9633       2.7385
   2846.2227       8.5560      -0.0110      56.7920      46.7170    -999.2500    -999.2500      54.7330      56.5490      96.4600       0.0818       3.9010       2.7570
   2846.3750       8.5455      -0.0025      54.8918      44.8855    -999.2500    -999.2500      67.5433      69.3818      89.3453       0.0746       3.7726       2.7625
   2846.5273       8.5350       0.0060      53.0010      43.0630    -999.2500    -999.2500      80.2700      82.1310      82.2770       0.0688       3.6450       2.7680
   2846.6799       8.4894       0.0085      53.3293      42.6535    -999.2500    -999.2500      87.0958      89.1630     112.2768       0.0693       3.6901       2.7565
   2846.8323       8.4440       0.0110      53.6560      42.2460    -999.2500    -999.2500      93.8780      96.1500     142.0850       0.0709       3.7350       2.7450
   2846.9846       8.4440       0.0130      52.8491      39.7276    -999.2500    -999.2500      98.5396     101.5590     129.9409       0.0720       3.8915       2.7470
   2847.1370       8.4440       0.0150      52.0460      37.2210    -999.2500    -999.2500     103.1720     106.9340     117.8730       0.0725       4.0470       2.7490
   2847.2893       8.4440       0.0230      49.4386      38.1241    -999.2500    -999.2500     107.5239     112.2212     224.8890       0.0706       4.2100       2.7565
   2847.4419       8.4440       0.0310      46.8430      39.0230    -999.2500    -999.2500     111.8490     117.4760     331.2480       0.0680       4.3720       2.7640
   2847.5942       8.4475       0.0245      50.3566      39.1312    -999.2500    -999.2500     108.6479     114.9910     368.5222       0.0642       4.4001       2.7660
   2847.7466       8.4510       0.0180      53.8490      39.2390    -999.2500    -999.2500     105.4660     112.5210     405.5720       0.0611       4.4280       2.7680
   2847.8989       8.4876       0.0145      53.3089      36.3418    -999.2500    -999.2500     100.8128     108.2439     407.4902       0.0629       4.3172       2.7725
   2848.0515       8.5240       0.0110      52.7720      33.4570    -999.2500    -999.2500      96.1870     103.9920     409.3940       0.0657       4.2070       2.7770
   2848.2039       8.4839       0.0110      51.7982      36.4477    -999.2500    -999.2500      90.8596      98.2439     409.3940       0.0699       4.1589       2.7790
   2848.3562       8.4440       0.0110      50.8300      39.4260    -999.2500    -999.2500      85.5630      92.5290     409.3940       0.0740       4.1110       2.7810
   2848.5085       8.4440       0.0110      51.6423      42.0588    -999.2500    -999.2500      96.2802     101.9441     424.3110       0.0757       4.1110       2.7710
