#------------------------------------------------------------------------------
#
#   Created by  : [OpenWorks] Log Export Utility (LEXP)
#   Created on  : 2016-05-23 11:50:23
#   Project     : CANT971
#   User        : R5K
#   Interpreter : PEP
#
#------------------------------------------------------------------------------
~VERSION INFORMATION
VERS. 2.0 : CWLS Log ASCII Standard - version 2.0
WRAP.  NO : One line per depth step
~WELL INFORMATION
#MNEMONIC   .UNIT                                           VALUE :DESCRIPTION
#------------------------------------------------------------------------------
STRT        .M                                           790.6004 :START DEPTH
STOP        .M                                          2649.8804 :STOP DEPTH
STEP        .M                                             0.1524 :STEP
NULL        .                                           -999.2500 :NULL VALUE
COMP        .                                             UNKNOWN :COMPANY
WELL        .                                               1012D :WELL
FLD         .                                             UNKNOWN :FIELD
LOC         .                                             UNKNOWN :LOCATION
CNTY        .                                             UNKNOWN :COUNTY
STAT        .                                             UNKNOWN :STATE
CTRY        .                                             UNKNOWN :COUNTRY
SRVC        .                                             UNKNOWN :SERVICE COMPANY
DATE        .                                             UNKNOWN :LOG DATE
UWI         .                                               1012D :UNIQUE WELL ID
XCOORD      .                                       594334.990000 :SURFACE X
YCOORD      .                                      2152041.060000 :SURFACE Y
LAT         .                                           19.461774 :LATITUDE
LON         .                                          -92.101239 :LONGITUDE
ELEV        .M                                             0.0000 :SURFACE ELEV
ELEV_TYPE   .                                                  KB :ELEV TYPE
~CURVE INFORMATION
#MNEMONIC.UNIT        API CODE       : CURVE DESCRIPTION
#------------------------------------------------------------------------------
DEPTH    .M                          : Measured Depth
DT       .us/ft       UNKNOWN        : DT:UNKNOWN:rC:NONE:v0 (auto-composite)
GR       .API         UNKNOWN        : GR:PETROWORKS:rC:NONE:v1 
GR-LWD   .API         UNKNOWN        : GR-LWD:PETROWORKS:rC:NONE:v1 
ILD      .ohm.m       UNKNOWN        : ILD:resistivos:rC:NONE:v0 (auto-composite)
ILD-LWD  .ohm.m       UNKNOWN        : ILD-LWD:PETROWORKS:rC:NONE:v1 
ILM      .ohm.m       UNKNOWN        : ILM:resistivos:rC:NONE:v0 (auto-composite)
ILM-LWD  .ohm.m       UNKNOWN        : ILM-LWD:PETROWORKS:rC:NONE:v1 
~A     DEPTH           DT           GR       GR-LWD          ILD      ILD-LWD          ILM      ILM-LWD
# ...
   2163.5720     114.5166      37.6064      73.1668    -999.2500       0.9221    -999.2500       0.9173
   2163.7244     115.2771      36.1426      73.9387    -999.2500       0.9173    -999.2500       0.9121
   2163.8767     116.2822      35.8804      74.1921    -999.2500       0.9431    -999.2500       0.9439
   2164.0293      72.2448      34.4821      76.1627    -999.2500       0.9515    -999.2500       0.9455
   2164.1816     108.8765      33.5365      75.9742    -999.2500       0.9092    -999.2500       0.8993
   2164.3340     116.5462      34.9663      77.0281    -999.2500       0.8561    -999.2500       0.8466
   2164.4863     115.2431      37.8638      79.0038    -999.2500       0.9032    -999.2500       0.8953
   2164.6389     113.2987      37.8021      81.3414    -999.2500       0.8543    -999.2500       0.8431
   2164.7913     111.5700      37.2159      83.8413    -999.2500       0.7595    -999.2500       0.7573
   2164.9436     111.0953      33.2848      86.2499    -999.2500       0.7354    -999.2500       0.7317
   2165.0959     110.2443      34.6322      86.5052    -999.2500       0.7489    -999.2500       0.7423
   2165.2483     110.9343      33.1067      86.0436    -999.2500       0.7596    -999.2500       0.7507
   2165.4009     113.4171      35.7305      82.5189    -999.2500       0.7593    -999.2500       0.7507
   2165.5532     117.4296      34.7088      82.1075    -999.2500       0.7382    -999.2500       0.7306
   2165.7056     119.0461      34.9030      81.4882    -999.2500       0.7207    -999.2500       0.7139
   2165.8579     120.2925      38.7413      82.3714    -999.2500       0.7384    -999.2500       0.7271
   2166.0105     120.2996      40.7635      81.2631    -999.2500       0.7451    -999.2500       0.7325
   2166.1628     119.5409      41.0550      81.6324    -999.2500       0.7398    -999.2500       0.7233
   2166.3152     118.4138      38.8358      82.6268    -999.2500       0.7176    -999.2500       0.7025
   2166.4675     117.6913      38.2206      87.9618    -999.2500       0.6493    -999.2500       0.6427
   2166.6201     118.1895      39.2678      88.5453    -999.2500       0.6554    -999.2500       0.6483
   2166.7725     119.0911      39.8020      89.8988    -999.2500       0.7097    -999.2500       0.7021
   2166.9248     119.2892      39.3677      88.0388    -999.2500       0.8015    -999.2500       0.7912
   2167.0771     119.2471      40.2425      88.7945    -999.2500       0.8539    -999.2500       0.8414
   2167.2295     120.1169      38.6501      89.7029    -999.2500       0.8545    -999.2500       0.8488
   2167.3821     120.5480      39.1037      89.2396    -999.2500       0.8506    -999.2500       0.8496
   2167.5344     122.2878      39.9177      87.6317    -999.2500       0.9330    -999.2500       0.9320
   2167.6868     123.4309      40.4381      83.4771    -999.2500       1.0435    -999.2500       1.0405
   2167.8391     125.1567      40.4717      78.2531    -999.2500       1.0619    -999.2500       1.0593
   2167.9917     126.0167      39.2999      76.3672    -999.2500       1.0110    -999.2500       1.0105
   2168.1440     126.3684      39.0710      77.8021    -999.2500       0.9665    -999.2500       0.9680
   2168.2964     124.9400      37.9008      81.3002    -999.2500       0.9378    -999.2500       0.9427
   2168.4487     121.4744      38.9391      84.8299    -999.2500       0.9198    -999.2500       0.9256
   2168.6013     117.2951      42.0319      85.6831    -999.2500       0.9127    -999.2500       0.9162
   2168.7537     114.7692      41.7742      85.9438    -999.2500       0.9175    -999.2500       0.9217
   2168.9060     112.5749      39.9836      86.9755    -999.2500       0.9469    -999.2500       0.9549
   2169.0583     110.1488      36.7016      86.6121    -999.2500       1.0711    -999.2500       1.0773
   2169.2107     109.6724      35.6723      82.2213    -999.2500       1.1660    -999.2500       1.1710
   2169.3633     111.3281      35.4809      79.3507    -999.2500       1.2266    -999.2500       1.2333
   2169.5156     112.9336      37.5154      79.0637    -999.2500       1.2624    -999.2500       1.2682
   2169.6680     114.3531      40.3310      79.4614    -999.2500       1.2886    -999.2500       1.2953
   2169.8203     114.5751      41.1535      78.4742    -999.2500       1.3223    -999.2500       1.3342
   2169.9729     113.8484      37.4256      76.3648    -999.2500       1.3406    -999.2500       1.3477
   2170.1252     110.5614      33.7922      75.7135    -999.2500       1.3347    -999.2500       1.3395
   2170.2776     107.7957      33.3408      73.8586    -999.2500       1.3120    -999.2500       1.3186
   2170.4299     106.4635      35.0321      69.7965    -999.2500       1.2791    -999.2500       1.2833
   2170.5825     104.0249      37.9617      69.7275    -999.2500       1.2304    -999.2500       1.2357
   2170.7349     101.7617      38.9731      69.2304    -999.2500       1.1927    -999.2500       1.2000
   2170.8872      99.7249      37.7694      68.1973    -999.2500       1.1562    -999.2500       1.1578
   2171.0396      99.2417      35.0695      66.5183    -999.2500       1.1015    -999.2500       1.1007
   2171.1919      98.0824      34.5780      66.4713    -999.2500       1.0292    -999.2500       1.0292
   2171.3445      96.8865      32.6259      68.1899    -999.2500       0.8992    -999.2500       0.9016
   2171.4968      96.1871      31.9082      71.0516    -999.2500       0.7939    -999.2500       0.7959
   2171.6492      96.0201      30.2825      75.1484    -999.2500       0.7577    -999.2500       0.7569
   2171.8015      95.7872      31.4499      79.2901    -999.2500       0.7995    -999.2500       0.7954
   2171.9541      95.3668      33.0137      82.6921    -999.2500       0.7540    -999.2500       0.7483
   2172.1064      95.5411      33.3411      86.0927    -999.2500       0.6683    -999.2500       0.6624
   2172.2588      98.3005      32.2993      89.1083    -999.2500       0.6215    -999.2500       0.6176
   2172.4111     102.6384      30.4772      90.3668    -999.2500       0.6361    -999.2500       0.6383
   2172.5637     105.5429      31.5805      90.4340    -999.2500       0.6757    -999.2500       0.6768
   2172.7161     110.6415      36.2036      88.6945    -999.2500       0.7402    -999.2500       0.7385
   2172.8684     115.9238      39.1368      83.1441    -999.2500       0.8335    -999.2500       0.8298
   2173.0208     121.1835      38.0966      75.5460    -999.2500       0.9324    -999.2500       0.9294
   2173.1731     123.8408      35.4810      69.2514    -999.2500       0.9717    -999.2500       0.9746
   2173.3257     124.3353      35.0086      66.6470    -999.2500       1.0033    -999.2500       1.0105
   2173.4780     123.8908      37.8960      65.8955    -999.2500       1.0127    -999.2500       1.0226
   2173.6304     122.3704      39.1406      66.8008    -999.2500       1.0013    -999.2500       1.0107
   2173.7827     117.8584      42.2447      68.8742    -999.2500       1.0229    -999.2500       1.0255
   2173.9353     114.2742      41.8386      68.1026    -999.2500       1.0537    -999.2500       1.0553
   2174.0876     109.2306      40.1790      66.7858    -999.2500       1.0630    -999.2500       1.0680
   2174.2400     105.7819      36.4343      66.6222    -999.2500       1.0279    -999.2500       1.0394
   2174.3923     102.7172      34.1225      68.8103    -999.2500       1.0188    -999.2500       1.0269
   2174.5449     100.9446      35.0982      70.7199    -999.2500       1.1297    -999.2500       1.1313
   2174.6973      99.6993      34.2533      69.8073    -999.2500       1.2361    -999.2500       1.2356
   2174.8496      97.5650      30.3463      68.8854    -999.2500       1.2130    -999.2500       1.2146
   2175.0020      97.3612      27.0268      68.3135    -999.2500       1.1860    -999.2500       1.1863
   2175.1543      99.1162      26.0482      68.8184    -999.2500       1.2152    -999.2500       1.2205
