#------------------------------------------------------------------------------
#
#   Created by  : [OpenWorks] Log Export Utility (LEXP)
#   Created on  : 2016-05-23 11:56:14
#   Project     : CANT971
#   User        : R5K
#   Interpreter : PEP
#
#------------------------------------------------------------------------------
~VERSION INFORMATION
VERS. 2.0 : CWLS Log ASCII Standard - version 2.0
WRAP.  NO : One line per depth step
~WELL INFORMATION
#MNEMONIC   .UNIT                                           VALUE :DESCRIPTION
#------------------------------------------------------------------------------
STRT        .M                                          1862.0000 :START DEPTH
STOP        .M                                          3052.8535 :STOP DEPTH
STEP        .M                                             0.1524 :STEP
NULL        .                                           -999.2500 :NULL VALUE
COMP        .                                   PEMEX EXPL & PROD :COMPANY
WELL        .                                                446D :WELL
FLD         .                                           CANTARELL :FIELD
LOC         .                                             UNKNOWN :LOCATION
CNTY        .                                      CD. DEL CARMEN :COUNTY
STAT        .                                            CAMPECHE :STATE
CTRY        .                                              MEXICO :COUNTRY
SRVC        .                                             UNKNOWN :SERVICE COMPANY
DATE        .                                             UNKNOWN :LOG DATE
UWI         .                                            W-C-446D :UNIQUE WELL ID
XCOORD      .                                       598705.170000 :SURFACE X
YCOORD      .                                      2143305.170000 :SURFACE Y
LAT         .                                           19.382621 :LATITUDE
LON         .                                          -92.060061 :LONGITUDE
ELEV        .M                                            28.0000 :SURFACE ELEV
ELEV_TYPE   .                                                  KB :ELEV TYPE
~CURVE INFORMATION
#MNEMONIC.UNIT        API CODE       : CURVE DESCRIPTION
#------------------------------------------------------------------------------
DEPTH    .M                          : Measured Depth
CALI     .inches      UNKNOWN        : CALI:litodensidad:rC:NONE:v0 (auto-composite)
CGR      .API         UNKNOWN        : CGR:CGR-Load:rC:NONE:v0 (auto-composite)
DRHO     .g/cm3       UNKNOWN        : DRHO:litodensidad:rC:NONE:v0 (auto-composite)
DT       .us/ft       UNKNOWN        : DT:DT-Load:rC:NONE:v0 (auto-composite)
GR       .UNKNOWN     UNKNOWN        : GR:PETROWORKS:rC:NONE:v1 
LLD      .ohm.m       UNKNOWN        : LLD:PETROWORKS:rC:NONE:v1 
LLS      .UNKNOWN     UNKNOWN        : LLS:PETROWORKS:rC:NONE:v1 
MSFL     .UNKNOWN     UNKNOWN        : MSFL:PETROWORKS:rC:NONE:v1 
NPHI     .v/v_decimal UNKNOWN        : NPHI:PETROWORKS:rC:NONE:v2 
PEF      .UNKNOWN     UNKNOWN        : PEF:litodensidad:rC:NONE:v0 (auto-composite)
POTA     .UNKNOWN     UNKNOWN        : POTA:radioactividad:rC:NONE:v0 (auto-composite)
RHOB     .g/cm3       UNKNOWN        : RHOB:litodensidad:rC:NONE:v0 (auto-composite)
THOR     .ppm         UNKNOWN        : THOR:radioactividad:rC:NONE:v0 (auto-composite)
URAN     .ppm         UNKNOWN        : URAN:radioactividad:rC:NONE:v0 (auto-composite)
~A     DEPTH         CALI          CGR         DRHO           DT           GR          LLD          LLS         MSFL         NPHI          PEF         POTA         RHOB         THOR         URAN
# ...
   2623.6953       7.2088      13.4025       0.0491      80.1004      35.4218    1479.8607     679.6129     476.0013       0.0445       3.3850       0.0047       2.7190       0.8425       2.1853
   2623.8477       7.3719      12.3039       0.0707      67.9501      33.6087    1304.9342     633.5811     329.6796       0.0502       3.2733       0.0045       2.6925       0.7054       2.0918
   2624.0000       7.5881      13.5912       0.0768      65.5728      34.9572     943.3777     487.5517     405.7247       0.0659       3.1724       0.0049       2.6495       0.7723       2.1201
   2624.1523       7.5038      15.3108       0.0629      64.4474      37.7461     881.3166     408.0231     143.4373       0.0886       3.1556       0.0054       2.6337       0.9482       2.2096
   2624.3047       7.1856      19.0958       0.0548      61.5348      41.9903     910.9461     423.9070      25.5797       0.0952       3.1198       0.0066       2.6797       1.2447       2.2764
   2624.4573       7.1577      21.3174       0.0419      55.4899      45.0498    1177.4271     536.1451     188.5695       0.0762       3.1514       0.0069       2.7530       1.5839       2.3648
   2624.6096       7.0448      22.3748       0.0158      53.9065      46.3371    1922.7832     812.5051     304.0171       0.0492       3.1980       0.0070       2.7862       1.7520       2.4251
   2624.7620       6.9871      13.0744       0.0009      50.4080      38.9022    2410.0830    1088.9607     359.8662       0.0334       3.2584       0.0046       2.7664       0.8072       2.5391
   2624.9143       7.0360       6.7344      -0.0018      49.6303      32.8154    2468.7251    1176.2297     323.5956       0.0332       3.2436       0.0023       2.7500       0.4547       2.5214
   2625.0669       6.9786       7.4288      -0.0019      51.2126      35.7685    2369.9253    1118.0437     486.5774       0.0355       3.1802       0.0034       2.7364       0.1453       2.8239
   2625.2192       6.9661       9.2358      -0.0008      52.6869      39.1349    2063.5750     944.0322     929.9896       0.0371       3.3444       0.0040       2.7416       0.2634       2.9649
   2625.3716       7.0149      11.0220      -0.0014      53.5359      42.0553    1470.0099     693.8603     725.5422       0.0372       3.3987       0.0044       2.7327       0.4600       3.0910
   2625.5239       7.0722      10.3018       0.0006      55.3465      41.2071    1148.2437     512.8824     513.2937       0.0430       3.3894       0.0042       2.7246       0.3780       3.0680
   2625.6765       7.0514       9.1434       0.0002      58.3231      39.4099    1031.2645     457.5690     441.1357       0.0494       3.2100       0.0039       2.7103       0.2665       3.0031
   2625.8289       7.0649       9.4589       0.0005      59.3943      39.5841     970.3011     436.8762     134.0340       0.0517       3.2709       0.0038       2.7193       0.3747       3.0175
   2625.9812       7.1172       7.9596       0.0014      58.0584      38.0899     880.1645     414.8063     134.7088       0.0479       3.4465       0.0032       2.7281       0.3396       2.9900
   2626.1335       7.2119      14.0508       0.0059      56.0190      47.9902     911.2685     401.5694     273.3602       0.0415       3.6080       0.0061       2.7414       0.3921       3.3581
   2626.2859       7.2524      22.8418       0.0107      54.2576      60.7668     906.1205     385.5771     214.1664       0.0384       3.5739       0.0096       2.7362       0.8066       3.7637
   2626.4385       7.2427      21.8586       0.0278      54.8489      58.2287     785.1362     370.2666     738.7191       0.0385       3.4459       0.0095       2.7389       0.6254       3.6958
   2626.5908       7.1888      14.6249       0.0340      56.5686      47.1418     648.1576     383.8489     291.1509       0.0453       3.3165       0.0061       2.7361       0.5353       3.2260
   2626.7432       7.1681      12.1515       0.0344      57.1044      43.2932     601.0977     422.7108      69.0034       0.0551       3.3304       0.0054       2.7308       0.3044       3.0329
   2626.8955       7.1775      13.6803       0.0380      59.8223      45.0449     611.7275     465.4662      39.8245       0.0621       3.3511       0.0057       2.7449       0.4908       3.1122
   2627.0481       7.1230      15.3371       0.0429      59.6635      47.1943     613.5020     468.3972      77.7418       0.0693       3.3948       0.0061       2.7394       0.6461       3.1477
   2627.2004       7.1517      17.8159       0.0275      60.8661      50.1253     454.8545     383.2893     140.0134       0.0758       3.3392       0.0068       2.7176       0.8758       3.2070
   2627.3528       7.1846      20.8180       0.0290      60.2519      53.4956     346.9063     280.4655      46.7333       0.0811       3.2666       0.0077       2.7146       1.1525       3.2502
   2627.5051       7.2592      23.1651       0.0314      56.8767      56.1878     298.0695     235.2897      15.6713       0.0805       3.1749       0.0082       2.7299       1.4067       3.2835
   2627.6577       7.0651      23.7353       0.0281      55.5363      55.4419     330.0163     243.3694      59.2223       0.0733       3.1270       0.0082       2.7484       1.5360       3.2512
   2627.8101       6.9704      22.1263       0.0148      52.9380      44.2330     509.6756     336.4171      67.0361       0.0598       3.2518       0.0061       2.7602       2.0583       2.1619
   2627.9624       7.0005      18.0490       0.0090      51.3128      35.3448     844.1812     543.7681     198.2184       0.0421       3.3788       0.0044       2.7828       1.9053       1.7052
   2628.1147       7.0078      14.1973       0.0044      52.3722      29.6555    1614.4165     936.7746     322.6566       0.0303       3.4199       0.0032       2.7992       1.6210       1.4974
   2628.2671       6.9231      13.7368       0.0033      52.0909      28.5610    2486.5413    1426.8468     683.8360       0.0263       3.3761       0.0029       2.8033       1.6326       1.4958
   2628.4197       6.8604       8.7800       0.0026      52.5093      24.4309    3073.8604    1741.8191     972.5359       0.0250       3.1716       0.0018       2.8020       1.0816       1.5305
   2628.5720       6.8734       6.4288       0.0001      52.7696      21.4250    3282.5281    1835.8881     880.6086       0.0249       3.0932       0.0013       2.7968       0.8003       1.4776
   2628.7244       6.8877       7.1325       0.0001      52.8848      23.0071    3696.1682    1839.0205     572.4926       0.0262       3.1283       0.0013       2.7876       0.9522       1.5606
   2628.8767       6.8334       8.5364      -0.0003      52.8152      26.6025    4164.0967    1772.5223     360.9675       0.0302       3.2573       0.0006       2.7705       1.4953       1.7923
   2629.0293       6.8394      14.1616      -0.0013      57.3831      33.9722    3446.1516    1630.7289     591.0513       0.0344       3.4269       0.0037       2.7579       1.3936       2.0685
   2629.1816       6.8854      13.6787      -0.0034      55.1857      34.5864    3221.8630    1565.8014     406.5060       0.0369       3.5267       0.0037       2.7510       1.2950       2.0748
   2629.3340       6.8963      14.8514       0.0000      49.3494      37.2735    3256.8264    1620.3618     704.3906       0.0361       3.5804       0.0039       2.7569       1.4787       2.2944
   2629.4863       6.8695      13.0845       0.0032      56.7975      36.1480    3260.1245    1668.7803     441.4634       0.0344       3.3817       0.0031       2.7512       1.4260       2.2887
   2629.6389       6.8642      13.5808       0.0040      57.8757      37.5410    3121.0281    1669.3706     645.7238       0.0347       3.2146       0.0029       2.7589       1.6003       2.3492
   2629.7913       6.8860      18.3038       0.0030      60.6016      41.6178    2927.5237    1634.2922     363.7724       0.0379       3.1070       0.0041       2.7613       2.1120       2.3136
   2629.9436       6.9198      20.1771       0.0021      59.4888      43.4540    2411.4675    1540.3265     777.5448       0.0438       3.2174       0.0044       2.7613       2.3681       2.2902
