#------------------------------------------------------------------------------
#
#   Created by  : [OpenWorks] Log Export Utility (LEXP)
#   Created on  : 2016-05-23 11:53:49
#   Project     : CANT971
#   User        : R5K
#   Interpreter : PEP
#
#------------------------------------------------------------------------------
~VERSION INFORMATION
VERS. 2.0 : CWLS Log ASCII Standard - version 2.0
WRAP.  NO : One line per depth step
~WELL INFORMATION
#MNEMONIC   .UNIT                                           VALUE :DESCRIPTION
#------------------------------------------------------------------------------
STRT        .M                                           293.9797 :START DEPTH
STOP        .M                                          2713.7869 :STOP DEPTH
STEP        .M                                             0.1524 :STEP
NULL        .                                           -999.2500 :NULL VALUE
COMP        .                                   PEMEX EXPL & PROD :COMPANY
WELL        .                                                  28 :WELL
FLD         .                                           CANTARELL :FIELD
LOC         .                                             UNKNOWN :LOCATION
CNTY        .                                      CD. DEL CARMEN :COUNTY
STAT        .                                            CAMPECHE :STATE
CTRY        .                                              MEXICO :COUNTRY
SRVC        .                                             UNKNOWN :SERVICE COMPANY
DATE        .                                             UNKNOWN :LOG DATE
UWI         .                                          3060000156 :UNIQUE WELL ID
XCOORD      .                                       598450.720000 :SURFACE X
YCOORD      .                                      2145024.710000 :SURFACE Y
LAT         .                                           19.398172 :LATITUDE
LON         .                                          -92.062394 :LONGITUDE
ELEV        .M                                            26.5400 :SURFACE ELEV
ELEV_TYPE   .                                                  KB :ELEV TYPE
~CURVE INFORMATION
#MNEMONIC.UNIT        API CODE       : CURVE DESCRIPTION
#------------------------------------------------------------------------------
DEPTH    .M                          : Measured Depth
CALI     .inches      UNKNOWN        : CALI:Import:rC:NONE:v0 (auto-composite)
DRHO     .g/cm3       UNKNOWN        : DRHO:Import:rC:NONE:v0 (auto-composite)
DT       .us/ft       UNKNOWN        : DT:Import:rC:NONE:v0 (auto-composite)
GR       .API         UNKNOWN        : GR:Import:rC:NONE:v0 (auto-composite)
ILD      .ohm.m       UNKNOWN        : ILD:Import:rC:NONE:v0 (auto-composite)
LLD      .ohm.m       UNKNOWN        : LLD:Import:rC:NONE:v0 (auto-composite)
LLS      .ohm.m       UNKNOWN        : LLS:Import:rC:NONE:v0 (auto-composite)
MSFL     .ohm.m       UNKNOWN        : MSFL:Import:rC:NONE:v0 (auto-composite)
NPHI     .v/v_decimal UNKNOWN        : NPHI:Import:rC:NONE:v0 (auto-composite)
PEF      .b/elec      UNKNOWN        : PEF:Import:rC:NONE:v0 (auto-composite)
RHOB     .g/cm3       UNKNOWN        : RHOB:Import:rC:NONE:v0 (auto-composite)
~A     DEPTH         CALI         DRHO           DT           GR          ILD          LLD          LLS         MSFL         NPHI          PEF         RHOB
# ...
   1340.0532       7.4340    -999.2500    -999.2500      57.4910    -999.2500       0.9206       1.0004       1.2453       0.4307    -999.2500    -999.2500
   1340.2057       7.4340    -999.2500    -999.2500      57.4419    -999.2500       0.9540       0.9810       1.1950       0.4373    -999.2500    -999.2500
   1340.3580       7.4345    -999.2500    -999.2500      57.3930    -999.2500       0.9425       0.9268       1.1292       0.4430    -999.2500    -999.2500
   1340.5105       7.4350    -999.2500    -999.2500      56.6315    -999.2500       0.9310       0.8730       1.0640       0.4469    -999.2500    -999.2500
   1340.6628       7.4355    -999.2500    -999.2500      55.8750    -999.2500       0.8708       0.8795       1.0645       0.4480    -999.2500    -999.2500
   1340.8153       7.4360    -999.2500    -999.2500      53.4202    -999.2500       0.8110       0.8860       1.0650       0.4467    -999.2500    -999.2500
   1340.9677       7.4360    -999.2500    -999.2500      50.9810    -999.2500       0.8165       0.9146       1.1458       0.4435    -999.2500    -999.2500
   1341.1201       7.4360    -999.2500    -999.2500      48.5484    -999.2500       0.8220       0.9430       1.2260       0.4375    -999.2500    -999.2500
   1341.2725       7.4370    -999.2500    -999.2500      46.1310    -999.2500       0.8717       0.9274       1.2155       0.4280    -999.2500    -999.2500
   1341.4249       7.4380    -999.2500    -999.2500      44.2854    -999.2500       0.9210       0.9120       1.2050       0.4183    -999.2500    -999.2500
   1341.5773       7.4365    -999.2500    -999.2500      42.4510    -999.2500       0.9140       0.8608       1.1568       0.4118    -999.2500    -999.2500
   1341.7297       7.4350    -999.2500    -999.2500      42.2058    -999.2500       0.9070       0.8100       1.1090       0.4070    -999.2500    -999.2500
   1341.8821       7.4175    -999.2500    -999.2500      41.9620    -999.2500       0.8784       0.7709       1.0538       0.4025    -999.2500    -999.2500
   1342.0344       7.4000    -999.2500    -999.2500      41.8156    -999.2500       0.8500       0.7320       0.9990       0.3976    -999.2500    -999.2500
   1342.1869       7.4000    -999.2500    -999.2500      41.6700    -999.2500       0.8174       0.7390       0.9734       0.3919    -999.2500    -999.2500
   1342.3392       7.4000    -999.2500    -999.2500      41.4007    -999.2500       0.7850       0.7460       0.9480       0.3873    -999.2500    -999.2500
   1342.4917       7.4000    -999.2500    -999.2500      41.1330    -999.2500       0.7464       0.7751       0.9149       0.3860    -999.2500    -999.2500
   1342.6440       7.4000    -999.2500    -999.2500      40.7905    -999.2500       0.7080       0.8040       0.8820       0.3866    -999.2500    -999.2500
   1342.7965       7.4005    -999.2500    -999.2500      40.4500    -999.2500       0.7080       0.8336       0.8835       0.3877    -999.2500    -999.2500
   1342.9489       7.4010    -999.2500    -999.2500      40.6455    -999.2500       0.7080       0.8630       0.8850       0.3898    -999.2500    -999.2500
   1343.1013       7.4025    -999.2500    -999.2500      40.8400    -999.2500       0.7170       0.8399       0.9282       0.3936    -999.2500    -999.2500
   1343.2537       7.4040    -999.2500    -999.2500      41.7765    -999.2500       0.7260       0.8170       0.9710       0.4004    -999.2500    -999.2500
   1343.4061       7.4100    -999.2500    -999.2500      42.7080    -999.2500       0.7692       0.8170       0.9534       0.4117    -999.2500    -999.2500
   1343.5585       7.4160    -999.2500    -999.2500      43.8019    -999.2500       0.8120       0.8170       0.9360       0.4216    -999.2500    -999.2500
   1343.7108       7.4270    -999.2500    -999.2500      44.8900    -999.2500       0.7804       0.8441       0.9445       0.4239    -999.2500    -999.2500
   1343.8633       7.4380    -999.2500    -999.2500      45.1612    -999.2500       0.7490       0.8710       0.9530       0.4203    -999.2500    -999.2500
   1344.0156       7.4405    -999.2500    -999.2500      45.4310    -999.2500       0.7495       0.8559       1.0037       0.4126    -999.2500    -999.2500
   1344.1681       7.4430    -999.2500    -999.2500      45.9856    -999.2500       0.7500       0.8410       1.0540       0.4054    -999.2500    -999.2500
   1344.3204       7.4435    -999.2500    -999.2500      46.5370    -999.2500       0.7585       0.8440       1.0505       0.4033    -999.2500    -999.2500
   1344.4729       7.4440    -999.2500    -999.2500      46.3890    -999.2500       0.7670       0.8470       1.0470       0.4040    -999.2500    -999.2500
   1344.6252       7.4445    -999.2500    -999.2500      46.2420    -999.2500       0.7861       0.8616       1.0139       0.4053    -999.2500    -999.2500
   1344.7777       7.4450    -999.2500    -999.2500      45.4816    -999.2500       0.8050       0.8760       0.9810       0.4075    -999.2500    -999.2500
   1344.9301       7.4255    -999.2500    -999.2500      44.7260    -999.2500       0.8065       0.8946       1.0277       0.4109    -999.2500    -999.2500
   1345.0825       7.4060    -999.2500    -999.2500      43.3753    -999.2500       0.8080       0.9130       1.0740       0.4136    -999.2500    -999.2500
   1345.2349       7.4060    -999.2500    -999.2500      42.0330    -999.2500       0.8150       0.9100       1.0700       0.4140    -999.2500    -999.2500
   1345.3873       7.4060    -999.2500    -999.2500      40.6578    -999.2500       0.8220       0.9070       1.0660       0.4126    -999.2500    -999.2500
   1345.5397       7.4070    -999.2500    -999.2500      39.2910    -999.2500       0.8330       0.8940       1.0530       0.4096    -999.2500    -999.2500
   1345.6920       7.4080    -999.2500    -999.2500      38.0132    -999.2500       0.8440       0.8810       1.0400       0.4053    -999.2500    -999.2500
   1345.8445       7.4055    -999.2500    -999.2500      36.7430    -999.2500       0.8515       0.8634       1.0350       0.3998    -999.2500    -999.2500
   1345.9968       7.4030    -999.2500    -999.2500      36.7676    -999.2500       0.8590       0.8460       1.0300       0.3935    -999.2500    -999.2500
   1346.1493       7.3865    -999.2500    -999.2500      36.7920    -999.2500       0.8214       0.8254       1.0019       0.3868    -999.2500    -999.2500
   1346.3016       7.3700    -999.2500    -999.2500      37.0392    -999.2500       0.7840       0.8050       0.9740       0.3822    -999.2500    -999.2500
   1346.4541       7.3700    -999.2500    -999.2500      37.2850    -999.2500       0.7860       0.8191       1.1095       0.3821    -999.2500    -999.2500
   1346.6064       7.3700    -999.2500    -999.2500      37.9002    -999.2500       0.7880       0.8330       1.2440       0.3830    -999.2500    -999.2500
   1346.7589       7.3700    -999.2500    -999.2500      38.5120    -999.2500       0.8241       0.8862       1.2289       0.3818    -999.2500    -999.2500
   1346.9113       7.3700    -999.2500    -999.2500      38.9306    -999.2500       0.8600       0.9390       1.2140       0.3776    -999.2500    -999.2500
   1347.0637       7.3705    -999.2500    -999.2500      39.3470    -999.2500       0.8595       0.9219       1.1443       0.3694    -999.2500    -999.2500
   1347.2161       7.3710    -999.2500    -999.2500      39.8634    -999.2500       0.8590       0.9050       1.0750       0.3621    -999.2500    -999.2500
   1347.3685       7.3750    -999.2500    -999.2500      40.3770    -999.2500       0.8464       0.8302       0.9666       0.3603    -999.2500    -999.2500
   1347.5209       7.3790    -999.2500    -999.2500      41.2152    -999.2500       0.8340       0.7560       0.8590       0.3620    -999.2500    -999.2500
   1347.6732       7.3920    -999.2500    -999.2500      42.0490    -999.2500       0.7722       0.7560       0.8705       0.3652    -999.2500    -999.2500
   1347.8257       7.4050    -999.2500    -999.2500      41.9016    -999.2500       0.7110       0.7560       0.8820       0.3693    -999.2500    -999.2500
