#------------------------------------------------------------------------------
#
#   Created by  : [OpenWorks] Log Export Utility (LEXP)
#   Created on  : 2016-05-23 11:50:52
#   Project     : CANT971
#   User        : R5K
#   Interpreter : PEP
#
#------------------------------------------------------------------------------
~VERSION INFORMATION
VERS. 2.0 : CWLS Log ASCII Standard - version 2.0
WRAP.  NO : One line per depth step
~WELL INFORMATION
#MNEMONIC   .UNIT                                           VALUE :DESCRIPTION
#------------------------------------------------------------------------------
STRT        .M                                           540.4100 :START DEPTH
STOP        .M                                          3242.0049 :STOP DEPTH
STEP        .M                                             0.1524 :STEP
NULL        .                                           -999.2500 :NULL VALUE
COMP        .                                   PEMEX EXPL & PROD :COMPANY
WELL        .                                                1041 :WELL
FLD         .                                           CANTARELL :FIELD
LOC         .                                             UNKNOWN :LOCATION
CNTY        .                                      CD. DEL CARMEN :COUNTY
STAT        .                                            CAMPECHE :STATE
CTRY        .                                              MEXICO :COUNTRY
SRVC        .                                             UNKNOWN :SERVICE COMPANY
DATE        .                                             UNKNOWN :LOG DATE
UWI         .                                          3060000494 :UNIQUE WELL ID
XCOORD      .                                       596162.660000 :SURFACE X
YCOORD      .                                      2150607.940000 :SURFACE Y
LAT         .                                           19.448736 :LATITUDE
LON         .                                          -92.083900 :LONGITUDE
ELEV        .M                                            30.0000 :SURFACE ELEV
ELEV_TYPE   .                                                  KB :ELEV TYPE
~CURVE INFORMATION
#MNEMONIC.UNIT        API CODE       : CURVE DESCRIPTION
#------------------------------------------------------------------------------
DEPTH    .M                          : Measured Depth
CALI     .inches      UNKNOWN        : CALI:litodensidad:rC:NONE:v0 (auto-composite)
DRHO     .g/cm3      UNKNOWN        : DRHO:DRHO-Load:rC:NONE:v0 (auto-composite)
DT       .us/ft       UNKNOWN        : DT:DT:rC:NONE:v0 (auto-composite)
GR       .API         UNKNOWN        : GR:GR-Load:rC:NONE:v0 (auto-composite)
ILD      .ohmm        UNKNOWN        : ILD:ILD-Load:rC:NONE:v0 (auto-composite)
ILM      .ohmm        UNKNOWN        : ILM:ILM-Load:rC:NONE:v0 (auto-composite)
LLD      .ohmm        UNKNOWN        : LLD:LLD-Load:rC:NONE:v0 (auto-composite)
LLS      .ohmm        UNKNOWN        : LLS:LLS-Load:rC:NONE:v0 (auto-composite)
MSFL     .ohmm        UNKNOWN        : MSFL:MSFL-Load:rC:NONE:v0 (auto-composite)
NPHI     .v/v_decimal UNKNOWN        : NPHI:NPHI-Load:rC:NONE:v0 (auto-composite)
PEF      .b/elec      UNKNOWN        : PEF:PEF-Load:rC:NONE:v0 (auto-composite)
RHOB     .g/cm3       UNKNOWN        : RHOB:RHOB-Load:rC:NONE:v0 (auto-composite)
~A     DEPTH         CALI         DRHO           DT           GR          ILD          ILM          LLD          LLS         MSFL         NPHI          PEF         RHOB
# ...
   3049.5237       6.6851    -999.2500    -999.2500      38.7058    -999.2500    -999.2500      52.2745      42.2103      59.1650       0.0994    -999.2500    -999.2500
   3049.6760       6.7272    -999.2500    -999.2500      35.2982    -999.2500    -999.2500      71.1792      55.8731     285.6661       0.0850    -999.2500    -999.2500
   3049.8284       6.9304    -999.2500    -999.2500      32.3045    -999.2500    -999.2500     108.7115      81.1397     212.1633       0.0760    -999.2500    -999.2500
   3049.9807       6.9538    -999.2500    -999.2500      29.3797    -999.2500    -999.2500     149.4816     111.4711     290.0819       0.0707    -999.2500    -999.2500
   3050.1331       6.7952    -999.2500    -999.2500      27.8481    -999.2500    -999.2500     170.8939     133.2985     586.3370       0.0716    -999.2500    -999.2500
   3050.2856       6.6506    -999.2500    -999.2500      27.6390    -999.2500    -999.2500     162.0542     133.1327     295.8898       0.0737    -999.2500    -999.2500
   3050.4380       6.7376    -999.2500    -999.2500      28.6727    -999.2500    -999.2500     143.6391     120.0736     137.3315       0.0727    -999.2500    -999.2500
   3050.5903       6.9541    -999.2500    -999.2500      31.8095    -999.2500    -999.2500     135.0939     112.0058     118.8272       0.0680    -999.2500    -999.2500
   3050.7427       6.9975    -999.2500    -999.2500      36.9939    -999.2500    -999.2500     142.8595     117.4703     226.0791       0.0640    -999.2500    -999.2500
   3050.8953       6.8754    -999.2500    -999.2500      41.5759    -999.2500    -999.2500     164.8682     135.9417     203.2305       0.0617    -999.2500    -999.2500
   3051.0476       6.6991    -999.2500    -999.2500      45.0547    -999.2500    -999.2500     205.0870     171.9808     126.6171       0.0623    -999.2500    -999.2500
   3051.2000       6.7508    -999.2500    -999.2500      45.3746    -999.2500    -999.2500     248.7878     218.5219     133.0666       0.0683    -999.2500    -999.2500
   3051.3523       6.9049    -999.2500    -999.2500      42.6683    -999.2500    -999.2500     284.8078     264.4570     114.0612       0.0770    -999.2500    -999.2500
   3051.5049       6.8870    -999.2500    -999.2500      35.4755    -999.2500    -999.2500     314.4857     306.8182     110.7100       0.0827    -999.2500    -999.2500
   3051.6572       6.7088    -999.2500    -999.2500      28.8937    -999.2500    -999.2500     326.0574     331.9496     120.4602       0.0847    -999.2500    -999.2500
   3051.8096       6.5890    -999.2500    -999.2500      26.5620    -999.2500    -999.2500     327.5836     347.4388     169.8193       0.0870    -999.2500    -999.2500
   3051.9619       6.6618    -999.2500    -999.2500      27.4427    -999.2500    -999.2500     362.1277     396.7548     284.6350       0.0893    -999.2500    -999.2500
   3052.1143       6.7987    -999.2500    -999.2500      27.7494    -999.2500    -999.2500     401.6686     447.6188     200.3021       0.0940    -999.2500    -999.2500
   3052.2668       6.8650    -999.2500    -999.2500      27.1330    -999.2500    -999.2500     452.1490     509.6523     221.2985       0.0967    -999.2500    -999.2500
   3052.4192       6.7934    -999.2500    -999.2500      29.0893    -999.2500    -999.2500     408.3362     473.2461     171.5750       0.0963    -999.2500    -999.2500
   3052.5715       6.6753    -999.2500    -999.2500      33.8709    -999.2500    -999.2500     217.3859     258.3825     125.0702       0.0960    -999.2500    -999.2500
   3052.7239       6.6268    -999.2500    -999.2500      38.7956    -999.2500    -999.2500     105.3988     126.8894      66.0621       0.0953    -999.2500    -999.2500
   3052.8765       6.7468    -999.2500    -999.2500      40.2064    -999.2500    -999.2500      72.9321      88.0148      96.0439       0.0970    -999.2500    -999.2500
   3053.0288       6.8448    -999.2500    -999.2500      38.5171    -999.2500    -999.2500      57.7021      70.2023      72.5545       0.0973    -999.2500    -999.2500
   3053.1812       6.8581    -999.2500    -999.2500      34.9783    -999.2500    -999.2500      60.9975      74.1915      56.6084       0.0950    -999.2500    -999.2500
   3053.3335       6.7445    -999.2500    -999.2500      30.5423    -999.2500    -999.2500      78.4811      96.0383      41.9795       0.0914    -999.2500    -999.2500
   3053.4861       6.6051    -999.2500    -999.2500      25.5751    -999.2500    -999.2500     108.7529     134.1012     122.9865       0.0887    -999.2500    -999.2500
   3053.6384       6.5807    -999.2500    -999.2500      21.3580    -999.2500    -999.2500     140.2039     172.0167      82.4831       0.0887    -999.2500    -999.2500
   3053.7908       6.6846    -999.2500    -999.2500      20.1696    -999.2500    -999.2500     141.2882     172.2835     151.8710       0.0910    -999.2500    -999.2500
   3053.9431       6.7955    -999.2500    -999.2500      22.4913    -999.2500    -999.2500     112.6124     135.6500     127.7697       0.0933    -999.2500    -999.2500
   3054.0955       6.7841    -999.2500    -999.2500      25.1243    -999.2500    -999.2500      87.0981     102.9217     134.0889       0.0907    -999.2500    -999.2500
   3054.2480       6.6550    -999.2500    -999.2500      27.3369    -999.2500    -999.2500      67.8004      78.5783      90.7830       0.0850    -999.2500    -999.2500
   3054.4004       6.6013    -999.2500    -999.2500      30.2792    -999.2500    -999.2500      67.1781      76.1793      99.9115       0.0797    -999.2500    -999.2500
   3054.5527       6.6789    -999.2500    -999.2500      32.2227    -999.2500    -999.2500      81.0328      90.6162      50.6864       0.0734    -999.2500    -999.2500
   3054.7051       6.8251    -999.2500    -999.2500      32.0581    -999.2500    -999.2500     101.3104     111.3623      89.1209       0.0664    -999.2500    -999.2500
   3054.8577       6.8666    -999.2500    -999.2500      27.4668    -999.2500    -999.2500     205.9040     211.9617      53.5675       0.0620    -999.2500    -999.2500
   3055.0100       6.7194    -999.2500    -999.2500      23.1313    -999.2500    -999.2500     303.3641     311.7248     169.6586       0.0617    -999.2500    -999.2500
   3055.1624       6.6673    -999.2500    -999.2500      20.3973    -999.2500    -999.2500     271.0842     279.6748     808.7894       0.0653    -999.2500    -999.2500
   3055.3147       6.8173    -999.2500    -999.2500      20.3342    -999.2500    -999.2500     204.1550     210.0748     567.1218       0.0697    -999.2500    -999.2500
   3055.4673       6.9575    -999.2500    -999.2500      21.8900    -999.2500    -999.2500     166.6324     170.2129     495.0331       0.0730    -999.2500    -999.2500
   3055.6196       6.8697    -999.2500    -999.2500      24.2767    -999.2500    -999.2500     155.3585     156.0051     379.8942       0.0707    -999.2500    -999.2500
   3055.7720       6.7602    -999.2500    -999.2500      25.4319    -999.2500    -999.2500     167.9167     163.7141     349.0457       0.0657    -999.2500    -999.2500
   3055.9243       6.8236    -999.2500    -999.2500      24.4411    -999.2500    -999.2500     212.0538     199.7386     808.3083       0.0627    -999.2500    -999.2500
   3056.0767       7.0077    -999.2500    -999.2500      21.7314    -999.2500    -999.2500     297.6313     270.1975     797.9265       0.0627    -999.2500    -999.2500
   3056.2292       6.9915    -999.2500    -999.2500      19.2871    -999.2500    -999.2500     393.1053     346.4939     460.0994       0.0630    -999.2500    -999.2500
   3056.3816       6.7746    -999.2500    -999.2500      18.3457    -999.2500    -999.2500     506.5869     432.4317     268.9380       0.0643    -999.2500    -999.2500
   3056.5339       6.7403    -999.2500    -999.2500      17.0639    -999.2500    -999.2500     555.0864     468.0093     380.6598       0.0663    -999.2500    -999.2500
   3056.6863       6.8458    -999.2500    -999.2500      15.8506    -999.2500    -999.2500     480.3311     399.6163     256.9467       0.0716    -999.2500    -999.2500
