#------------------------------------------------------------------------------
#
#   Created by  : [OpenWorks] Log Export Utility (LEXP)
#   Created on  : 2016-05-23 11:55:49
#   Project     : CANT971
#   User        : R5K
#   Interpreter : PEP
#
#------------------------------------------------------------------------------
~VERSION INFORMATION
VERS. 2.0 : CWLS Log ASCII Standard - version 2.0
WRAP.  NO : One line per depth step
~WELL INFORMATION
#MNEMONIC   .UNIT                                           VALUE :DESCRIPTION
#------------------------------------------------------------------------------
STRT        .M                                           773.4315 :START DEPTH
STOP        .M                                          2865.1216 :STOP DEPTH
STEP        .M                                             0.1524 :STEP
NULL        .                                           -999.2500 :NULL VALUE
COMP        .                                             UNKNOWN :COMPANY
WELL        .                                                408D :WELL
FLD         .                                             UNKNOWN :FIELD
LOC         .                                             UNKNOWN :LOCATION
CNTY        .                                             UNKNOWN :COUNTY
STAT        .                                             UNKNOWN :STATE
CTRY        .                                             UNKNOWN :COUNTRY
SRVC        .                                             UNKNOWN :SERVICE COMPANY
DATE        .                                             UNKNOWN :LOG DATE
UWI         .                                                408D :UNIQUE WELL ID
XCOORD      .                                       597130.770000 :SURFACE X
YCOORD      .                                      2144867.260000 :SURFACE Y
LAT         .                                           19.396814 :LATITUDE
LON         .                                          -92.074972 :LONGITUDE
ELEV        .M                                             0.0000 :SURFACE ELEV
ELEV_TYPE   .                                                  KB :ELEV TYPE
~CURVE INFORMATION
#MNEMONIC.UNIT        API CODE       : CURVE DESCRIPTION
#------------------------------------------------------------------------------
DEPTH    .M                          : Measured Depth
CALI     .inches      UNKNOWN        : CALI:litodensidad:rC:NONE:v0 (auto-composite)
CGR      .API         UNKNOWN        : CGR:PETROWORKS:rC:NONE:v1 
DRHO     .g/cm3       UNKNOWN        : DRHO:litodensidad:rC:NONE:v0 (auto-composite)
DT       .us/ft       UNKNOWN        : DT:PETROWORKS:rC:NONE:v1 
GR       .API         UNKNOWN        : GR:PETROWORKS:rC:NONE:v3 
GR-LWD   .UNKNOWN     UNKNOWN        : GR-LWD:resistivos-LWD:rC:NONE:v0 (auto-composite)
LLD      .ohm.m       UNKNOWN        : LLD:PETROWORKS:rC:NONE:v1 
LLD-LWD  .UNKNOWN     UNKNOWN        : LLD-LWD:resistivos-LWD:rC:NONE:v0 (auto-composite)
LLS      .UNKNOWN     UNKNOWN        : LLS:PETROWORKS:rC:NONE:v1 
LLS-LWD  .UNKNOWN     UNKNOWN        : LLS-LWD:resistivos-LWD:rC:NONE:v0 (auto-composite)
MSFL     .UNKNOWN     UNKNOWN        : MSFL:PETROWORKS:rC:NONE:v1 
MSFL-LWD .UNKNOWN     UNKNOWN        : MSFL-LWD:resistivos-LWD:rC:NONE:v0 (auto-composite)
NPHI     .v/v_decimal UNKNOWN        : NPHI:PETROWORKS:rC:NONE:v3 
PEF      .UNKNOWN     UNKNOWN        : PEF:litodensidad:rC:NONE:v0 (auto-composite)
POTA     .wtpercent   UNKNOWN        : POTA:PETROWORKS:rC:NONE:v1 
RHOB     .g/cm3       UNKNOWN        : RHOB:litodensidad:rC:NONE:v0 (auto-composite)
THOR     .ppm         UNKNOWN        : THOR:PETROWORKS:rC:NONE:v1 
URAN     .ppm         UNKNOWN        : URAN:PETROWORKS:rC:NONE:v1 
~A     DEPTH         CALI          CGR         DRHO           DT           GR       GR-LWD          LLD      LLD-LWD          LLS      LLS-LWD         MSFL     MSFL-LWD         NPHI          PEF         POTA         RHOB         THOR         URAN
# ...
   2744.8779       9.0908       4.1486      -0.0002    -999.2500      13.2926    -999.2500     198.1680    -999.2500     182.1600    -999.2500      99.0974    -999.2500       0.0504       3.6070       0.0016       2.7332       0.4206       1.1354
   2745.0303       9.1655       4.3088       0.0013    -999.2500      13.5234    -999.2500     217.7623    -999.2500     201.1201    -999.2500     174.0832    -999.2500       0.0536       3.3965       0.0016       2.7056       0.4545       1.1705
   2745.1826       9.2606       4.2860       0.0047    -999.2500      13.9321    -999.2500     220.7323    -999.2500     200.1619    -999.2500     454.9448    -999.2500       0.0577       3.2426       0.0015       2.7193       0.5119       1.2575
   2745.3352       9.2742       4.0033       0.0049    -999.2500      12.8394    -999.2500     254.2207    -999.2500     221.2627    -999.2500     213.8751    -999.2500       0.0608       3.2028       0.0014       2.7157       0.4418       1.1360
   2745.4875       9.0365       3.8644       0.0008    -999.2500      12.3062    -999.2500     313.0132    -999.2500     272.0363    -999.2500     116.4575    -999.2500       0.0581       3.3724       0.0015       2.7250       0.3461       1.0977
   2745.6399       9.0229       3.5509      -0.0004    -999.2500      11.2073    -999.2500     420.8572    -999.2500     364.9750    -999.2500     379.8322    -999.2500       0.0483       3.6133       0.0013       2.7385       0.4019       0.9920
   2745.7922       9.2199       3.3085      -0.0064    -999.2500      11.1855    -999.2500     576.6436    -999.2500     507.7979    -999.2500     259.1177    -999.2500       0.0353       3.6180       0.0011       2.7610       0.4029       1.0029
   2745.9448       9.7565       3.7405      -0.0057    -999.2500      11.7287    -999.2500     670.4639    -999.2500     569.1218    -999.2500     219.1177    -999.2500       0.0284       3.5499       0.0012       2.7836       0.4996       1.0181
   2746.0972       8.9278       3.7529      -0.0081    -999.2500      13.2839    -999.2500     785.0347    -999.2500     643.4984    -999.2500     280.8141    -999.2500       0.0269       3.6236       0.0013       2.7971       0.4591       1.1583
   2746.2495       8.9142       4.0408      -0.0098    -999.2500      15.1953    -999.2500    1059.9142    -999.2500     845.2164    -999.2500     621.0768    -999.2500       0.0231       3.7433       0.0013       2.7992       0.5290       1.3955
   2746.4019       8.9278       3.4368      -0.0142    -999.2500      14.7825    -999.2500    1466.3710    -999.2500    1130.2313    -999.2500     713.9922    -999.2500       0.0184       3.8156       0.0013       2.7974       0.3545       1.3611
   2746.5542       8.9074       3.0405      -0.0130    -999.2500      14.5352    -999.2500    1859.9572    -999.2500    1400.5352    -999.2500    1694.2544    -999.2500       0.0164       3.6649       0.0011       2.7986       0.3323       1.3936
   2746.7068       8.9346       2.1938      -0.0160    -999.2500      13.6272    -999.2500    1791.2017    -999.2500    1303.0745    -999.2500    1839.3988    -999.2500       0.0161       3.5970       0.0008       2.7866       0.2542       1.3378
   2746.8591       8.9210       1.9324      -0.0126    -999.2500      13.5224    -999.2500    1743.6852    -999.2500    1215.5333    -999.2500    1726.7212    -999.2500       0.0164       3.6162       0.0007       2.7917       0.2311       1.4027
   2747.0115       8.9278       2.1448      -0.0137    -999.2500      12.7422    -999.2500    1905.1038    -999.2500    1302.7068    -999.2500    1325.3994    -999.2500       0.0172       3.5385       0.0005       2.7954       0.3820       1.2313
   2747.1638       8.9278       2.7009      -0.0126    -999.2500      12.7961    -999.2500    2079.1155    -999.2500    1394.1178    -999.2500     773.7084    -999.2500       0.0180       3.0729       0.0005       2.8059       0.5497       1.1791
   2747.3164       8.8938       2.5503      -0.0109    -999.2500      12.8721    -999.2500    2775.4399    -999.2500    1847.2383    -999.2500    1820.2554    -999.2500       0.0187       2.8979       0.0007       2.8218       0.4106       1.2436
   2747.4688       8.7987       2.2592      -0.0092    -999.2500      12.4975    -999.2500    4433.0156    -999.2500    3126.9070    -999.2500    1895.5220    -999.2500       0.0194       3.2486       0.0006       2.8193       0.3525       1.2718
   2747.6211       8.7648       1.9156      -0.0121    -999.2500      12.1329    -999.2500    4908.8403    -999.2500    3424.6670    -999.2500    1771.7042    -999.2500       0.0201       3.6292       0.0007       2.8081       0.2211       1.2994
   2747.7734       8.7444       3.2285      -0.0059    -999.2500      11.7736    -999.2500    5040.8179    -999.2500    3537.4346    -999.2500    1902.6637    -999.2500       0.0209       3.6978       0.0011       2.7980       0.4128       1.0505
   2747.9260       8.7512       3.9084      -0.0055    -999.2500      13.1272    -999.2500    5557.2007    -999.2500    3757.1455    -999.2500    1741.3632    -999.2500       0.0225       3.5091       0.0012       2.7894       0.5217       1.2123
   2748.0784       8.7444       5.1057      -0.0063    -999.2500      15.5545    -999.2500    2659.0403    -999.2500    1961.0306    -999.2500     486.2048    -999.2500       0.0247       3.3698       0.0018       2.7660       0.5690       1.3660
   2748.2307       8.7444       7.4695      -0.0047    -999.2500      18.7475    -999.2500     821.7357    -999.2500     619.8657    -999.2500     350.2854    -999.2500       0.0273       3.6245       0.0027       2.7501       0.8308       1.5248
   2748.3831       8.7919       9.0521      -0.0083    -999.2500      20.6859    -999.2500     494.5589    -999.2500     363.3651    -999.2500     237.5798    -999.2500       0.0303       3.4613       0.0033       2.7425       0.9698       1.6793
   2748.5354       8.7987       9.8704      -0.0117    -999.2500      20.5925    -999.2500     446.3486    -999.2500     331.6772    -999.2500     163.9226    -999.2500       0.0328       3.8260       0.0036       2.7691       1.0519       1.4837
   2748.6880       8.8123       8.9225      -0.0104    -999.2500      19.4708    -999.2500     410.6416    -999.2500     303.3518    -999.2500     709.8777    -999.2500       0.0315       3.6466       0.0036       2.7871       0.7751       1.4858
   2748.8403       8.7512       6.8302      -0.0066    -999.2500      17.1354    -999.2500     604.3361    -999.2500     422.0353    -999.2500    1573.8345    -999.2500       0.0261       3.7727       0.0028       2.8072       0.5168       1.4139
   2748.9927       8.6493       6.1936      -0.0153    -999.2500      15.3365    -999.2500     733.1859    -999.2500     528.3118    -999.2500    1420.1039    -999.2500       0.0211       3.3566       0.0026       2.7993       0.4815       1.2154
   2749.1450       8.6357       6.2032      -0.0109    -999.2500      14.1698    -999.2500     713.8947    -999.2500     516.9721    -999.2500    1091.8192    -999.2500       0.0194       3.0371       0.0025       2.8163       0.5433       1.0533
   2749.2976       8.7036       5.7908      -0.0088    -999.2500      14.0464    -999.2500     596.5978    -999.2500     429.8458    -999.2500    1808.5161    -999.2500       0.0196       3.0488       0.0022       2.8267       0.5553       1.0378
   2749.4500       8.9142       5.3387      -0.0073    -999.2500      15.3427    -999.2500     442.9902    -999.2500     313.7000    -999.2500    1383.4232    -999.2500       0.0196       3.1583       0.0023       2.8183       0.3832       1.3211
   2749.6023       8.8735       5.8148      -0.0107    -999.2500      16.6491    -999.2500     335.5020    -999.2500     233.2389    -999.2500     546.3432    -999.2500       0.0200       3.4052       0.0026       2.8098       0.3606       1.3959
   2749.7546       8.8735       5.7447      -0.0091    -999.2500      16.9376    -999.2500     295.8955    -999.2500     199.8166    -999.2500     716.7447    -999.2500       0.0213       3.3433       0.0023       2.8034       0.4832       1.4044
