#------------------------------------------------------------------------------
#
#   Created by  : [OpenWorks] Log Export Utility (LEXP)
#   Created on  : 2016-05-23 11:57:11
#   Project     : CANT971
#   User        : R5K
#   Interpreter : PEP
#
#------------------------------------------------------------------------------
~VERSION INFORMATION
VERS. 2.0 : CWLS Log ASCII Standard - version 2.0
WRAP.  NO : One line per depth step
~WELL INFORMATION
#MNEMONIC   .UNIT                                           VALUE :DESCRIPTION
#------------------------------------------------------------------------------
STRT        .M                                           319.2782 :START DEPTH
STOP        .M                                          2532.8882 :STOP DEPTH
STEP        .M                                             0.1524 :STEP
NULL        .                                           -999.2500 :NULL VALUE
COMP        .                                   PEMEX EXPL & PROD :COMPANY
WELL        .                                                 73A :WELL
FLD         .                                           CANTARELL :FIELD
LOC         .                                             UNKNOWN :LOCATION
CNTY        .                                      CD. DEL CARMEN :COUNTY
STAT        .                                            CAMPECHE :STATE
CTRY        .                                              MEXICO :COUNTRY
SRVC        .                                             UNKNOWN :SERVICE COMPANY
DATE        .                                             UNKNOWN :LOG DATE
UWI         .                                          3060000177 :UNIQUE WELL ID
XCOORD      .                                       599722.890000 :SURFACE X
YCOORD      .                                      2147218.550000 :SURFACE Y
LAT         .                                           19.417934 :LATITUDE
LON         .                                          -92.050165 :LONGITUDE
ELEV        .M                                            27.8000 :SURFACE ELEV
ELEV_TYPE   .                                                  KB :ELEV TYPE
~CURVE INFORMATION
#MNEMONIC.UNIT        API CODE       : CURVE DESCRIPTION
#------------------------------------------------------------------------------
DEPTH    .M                          : Measured Depth
CALI     .inches      UNKNOWN        : CALI:registros:rC:NONE:v0 (auto-composite)
DRHO     .g/cm3       UNKNOWN        : DRHO:registros:rC:NONE:v0 (auto-composite)
DT       .UNKNOWN     UNKNOWN        : DT:registros:rC:NONE:v0 (auto-composite)
GR       .API         UNKNOWN        : GR:registros:rC:NONE:v0 (auto-composite)
ILD      .ohm.m       UNKNOWN        : ILD:registros:rC:NONE:v0 (auto-composite)
LLD      .ohm.m       UNKNOWN        : LLD:registros:rC:NONE:v0 (auto-composite)
LLS      .ohm.m       UNKNOWN        : LLS:registros:rC:NONE:v0 (auto-composite)
MSFL     .ohm.m       UNKNOWN        : MSFL:registros:rC:NONE:v0 (auto-composite)
RHOB     .g/cm3       UNKNOWN        : RHOB:registros:rC:NONE:v0 (auto-composite)
~A     DEPTH         CALI         DRHO           DT           GR          ILD          LLD          LLS         MSFL         RHOB
# ...
   1453.1342      14.2500       0.0280     101.5040      37.6304       1.6939    -999.2500    -999.2500    -999.2500       2.3460
   1453.2866      14.2500       0.0310     101.5580      37.7110       1.7420    -999.2500    -999.2500    -999.2500       2.3380
   1453.4390      14.1665       0.0440     103.0335      38.3013       1.7759    -999.2500    -999.2500    -999.2500       2.3290
   1453.5914      14.0830       0.0570     104.5090      38.8930       1.8100    -999.2500    -999.2500    -999.2500       2.3200
   1453.7438      13.7666       0.0500     109.5713      40.0845       1.7995    -999.2500    -999.2500    -999.2500       2.3215
   1453.8962      13.4500       0.0430     114.6300      41.2790       1.7890    -999.2500    -999.2500    -999.2500       2.3230
   1454.0486      13.5250       0.0460     114.2169      41.9197       1.7376    -999.2500    -999.2500    -999.2500       2.3325
   1454.2010      13.6000       0.0490     113.8040      42.5620       1.6860    -999.2500    -999.2500    -999.2500       2.3420
   1454.3534      13.5250       0.0615     112.7968      42.8970       1.6182    -999.2500    -999.2500    -999.2500       2.3600
   1454.5057      13.4500       0.0740     111.7900      43.2330       1.5500    -999.2500    -999.2500    -999.2500       2.3780
   1454.6582      13.4905       0.0700     112.0410      44.9141       1.5500    -999.2500    -999.2500    -999.2500       2.3885
   1454.8105      13.5310       0.0660     112.2920      46.6000       1.5500    -999.2500    -999.2500    -999.2500       2.3990
   1454.9630      13.7708       0.0675     113.2711      46.2151       1.5500    -999.2500    -999.2500    -999.2500       2.3995
   1455.1154      14.0110       0.0690     114.2500      45.8290       1.5500    -999.2500    -999.2500    -999.2500       2.4000
   1455.2678      14.5151       0.0655     113.9950      44.6409       1.5500    -999.2500    -999.2500    -999.2500       2.3970
   1455.4202      15.0200       0.0620     113.7400      43.4500       1.5500    -999.2500    -999.2500    -999.2500       2.3940
   1455.5726      14.9600       0.0630     112.9885      43.9336       1.5500    -999.2500    -999.2500    -999.2500       2.3845
   1455.7250      14.9000       0.0640     112.2370      44.4180       1.5500    -999.2500    -999.2500    -999.2500       2.3750
   1455.8774      14.9350       0.0640     110.7786      45.7658       1.5620    -999.2500    -999.2500    -999.2500       2.3650
   1456.0298      14.9700       0.0640     109.3200      47.1160       1.5740    -999.2500    -999.2500    -999.2500       2.3550
   1456.1823      14.9625       0.0625     110.9908      48.0656       1.6069    -999.2500    -999.2500    -999.2500       2.3465
   1456.3346      14.9550       0.0610     112.6620      49.0170       1.6400    -999.2500    -999.2500    -999.2500       2.3380
   1456.4869      14.4776       0.0495     120.9593      50.4820       1.7098    -999.2500    -999.2500    -999.2500       2.3240
   1456.6394      14.0000       0.0380     129.2600      51.9500       1.7800    -999.2500    -999.2500    -999.2500       2.3100
   1456.7917      14.2249       0.0485     128.8301      51.3197       1.7710    -999.2500    -999.2500    -999.2500       2.3130
   1456.9442      14.4500       0.0590     128.4000      50.6880       1.7620    -999.2500    -999.2500    -999.2500       2.3160
   1457.0966      14.2251       0.0470     126.8375      49.0708       1.7281    -999.2500    -999.2500    -999.2500       2.3230
   1457.2490      14.0000       0.0350     125.2740      47.4500       1.6940    -999.2500    -999.2500    -999.2500       2.3300
   1457.4014      14.0000       0.0365     123.7430      47.6607       1.6591    -999.2500    -999.2500    -999.2500       2.3270
   1457.5538      14.0000       0.0380     122.2120      47.8720       1.6240    -999.2500    -999.2500    -999.2500       2.3240
   1457.7062      13.9500       0.0430     121.5883      49.2842       1.5871    -999.2500    -999.2500    -999.2500       2.3120
   1457.8586      13.9000       0.0480     120.9650      50.7000       1.5500    -999.2500    -999.2500    -999.2500       2.3000
   1458.0110      13.9500       0.0455     120.1273      50.6001       1.5500    -999.2500    -999.2500    -999.2500       2.3000
   1458.1635      14.0000       0.0430     119.2900      50.5000       1.5500    -999.2500    -999.2500    -999.2500       2.3000
   1458.3158      13.9750       0.0360     122.1806      50.7247       1.5375    -999.2500    -999.2500    -999.2500       2.3030
   1458.4681      13.9500       0.0290     125.0700      50.9500       1.5250    -999.2500    -999.2500    -999.2500       2.3060
   1458.6206      13.9605       0.0345     124.8450      50.8511       1.4976    -999.2500    -999.2500    -999.2500       2.3130
   1458.7729      13.9710       0.0400     124.6200      50.7520       1.4700    -999.2500    -999.2500    -999.2500       2.3200
   1458.9254      13.9985       0.0345     123.3209      50.3796       1.4511    -999.2500    -999.2500    -999.2500       2.3050
   1459.0778      14.0260       0.0290     122.0220      50.0060       1.4320    -999.2500    -999.2500    -999.2500       2.2900
   1459.2302      14.0830       0.0375     117.7559      48.8638       1.3966    -999.2500    -999.2500    -999.2500       2.2990
   1459.3826      14.1400       0.0460     113.4900      47.7190       1.3610    -999.2500    -999.2500    -999.2500       2.3080
   1459.5350      14.2684       0.0450     113.4900      45.1866       1.3371    -999.2500    -999.2500    -999.2500       2.3290
   1459.6874      14.3970       0.0440     113.4900      42.6500       1.3130    -999.2500    -999.2500    -999.2500       2.3500
   1459.8398      14.5484       0.0420     112.9416      44.4234       1.2866    -999.2500    -999.2500    -999.2500       2.3625
   1459.9922      14.7000       0.0400     112.3930      46.2000       1.2600    -999.2500    -999.2500    -999.2500       2.3750
   1460.1447      14.6765       0.0385     110.5178      46.1251       1.2600    -999.2500    -999.2500    -999.2500       2.4125
   1460.2970      14.6530       0.0370     108.6420      46.0500       1.2600    -999.2500    -999.2500    -999.2500       2.4500
   1460.4493      14.5895       0.0270     106.5220      46.0500       1.2555    -999.2500    -999.2500    -999.2500       2.4485
   1460.6018      14.5260       0.0170     104.4010      46.0500       1.2510    -999.2500    -999.2500    -999.2500       2.4470
   1460.7542      14.4750       0.0185     102.9774      45.1010       1.2256    -999.2500    -999.2500    -999.2500       2.4405
   1460.9066      14.4240       0.0200     101.5530      44.1500       1.2000    -999.2500    -999.2500    -999.2500       2.4340
   1461.0590      14.3370       0.0225     100.9152      44.5430       1.2000    -999.2500    -999.2500    -999.2500       2.4220
   1461.2114      14.2500       0.0250     100.2770      44.9370       1.2000    -999.2500    -999.2500    -999.2500       2.4100
   1461.3638      14.2500       0.0260      99.6535      46.1670       1.2015    -999.2500    -999.2500    -999.2500       2.4100
   1461.5162      14.2500       0.0270      99.0300      47.4000       1.2030    -999.2500    -999.2500    -999.2500       2.4100
   1461.6686      14.2500       0.0285      99.0475      47.2082       1.2140    -999.2500    -999.2500    -999.2500       2.4150
   1461.8210      14.2500       0.0300      99.0650      47.0160       1.2250    -999.2500    -999.2500    -999.2500       2.4200
   1461.9734      14.1251       0.0360      99.2170      46.2340       1.2474    -999.2500    -999.2500    -999.2500       2.4185
   1462.1259      14.0000       0.0420      99.3690      45.4500       1.2700    -999.2500    -999.2500    -999.2500       2.4170
   1462.2782      14.0195       0.0380      99.8611      45.7146       1.2889    -999.2500    -999.2500    -999.2500       2.4085
   1462.4305      14.0390       0.0340     100.3530      45.9800       1.3080    -999.2500    -999.2500    -999.2500       2.4000
