#------------------------------------------------------------------------------
#
#   Created by  : [OpenWorks] Log Export Utility (LEXP)
#   Created on  : 2016-05-23 11:56:12
#   Project     : CANT971
#   User        : R5K
#   Interpreter : PEP
#
#------------------------------------------------------------------------------
~VERSION INFORMATION
VERS. 2.0 : CWLS Log ASCII Standard - version 2.0
WRAP.  NO : One line per depth step
~WELL INFORMATION
#MNEMONIC   .UNIT                                           VALUE :DESCRIPTION
#------------------------------------------------------------------------------
STRT        .M                                           365.7604 :START DEPTH
STOP        .M                                          2883.8655 :STOP DEPTH
STEP        .M                                             0.1524 :STEP
NULL        .                                           -999.2500 :NULL VALUE
COMP        .                                   PEMEX EXPL & PROD :COMPANY
WELL        .                                                  44 :WELL
FLD         .                                           CANTARELL :FIELD
LOC         .                                             UNKNOWN :LOCATION
CNTY        .                                      CD. DEL CARMEN :COUNTY
STAT        .                                            CAMPECHE :STATE
CTRY        .                                              MEXICO :COUNTRY
SRVC        .                                             UNKNOWN :SERVICE COMPANY
DATE        .                                             UNKNOWN :LOG DATE
UWI         .                                          3060000162 :UNIQUE WELL ID
XCOORD      .                                       599695.380000 :SURFACE X
YCOORD      .                                      2143038.730000 :SURFACE Y
LAT         .                                           19.380164 :LATITUDE
LON         .                                          -92.050646 :LONGITUDE
ELEV        .M                                            26.7400 :SURFACE ELEV
ELEV_TYPE   .                                                  KB :ELEV TYPE
~CURVE INFORMATION
#MNEMONIC.UNIT        API CODE       : CURVE DESCRIPTION
#------------------------------------------------------------------------------
DEPTH    .M                          : Measured Depth
CALI     .inches      UNKNOWN        : CALI:registros:rC:NONE:v0 (auto-composite)
CGR      .API         UNKNOWN        : CGR:registros:rC:NONE:v0 (auto-composite)
DRHO     .g/cm3       UNKNOWN        : DRHO:registros:rC:NONE:v0 (auto-composite)
DT       .UNKNOWN     UNKNOWN        : DT:registros:rC:NONE:v0 (auto-composite)
GR       .API         UNKNOWN        : GR:registros:rC:NONE:v0 (auto-composite)
ILD      .ohm.m       UNKNOWN        : ILD:registros:rC:NONE:v0 (auto-composite)
LLD      .ohm.m       UNKNOWN        : LLD:registros:rC:NONE:v0 (auto-composite)
LLS      .ohm.m       UNKNOWN        : LLS:registros:rC:NONE:v0 (auto-composite)
MSFL     .ohm.m       UNKNOWN        : MSFL:registros:rC:NONE:v0 (auto-composite)
NPHI     .UNKNOWN     UNKNOWN        : NPHI:registros:rC:NONE:v0 (auto-composite)
PEF      .b/elec      UNKNOWN        : PEF:registros:rC:NONE:v0 (auto-composite)
POTA     .wtpercent   UNKNOWN        : POTA:registros:rC:NONE:v0 (auto-composite)
RHOB     .g/cm3       UNKNOWN        : RHOB:registros:rC:NONE:v0 (auto-composite)
THOR     .ppm         UNKNOWN        : THOR:registros:rC:NONE:v0 (auto-composite)
URAN     .ppm         UNKNOWN        : URAN:registros:rC:NONE:v0 (auto-composite)
~A     DEPTH         CALI          CGR         DRHO           DT           GR          ILD          LLD          LLS         MSFL         NPHI          PEF         POTA         RHOB         THOR         URAN
# ...
   1982.4196      10.0880    -999.2500       0.0100      59.5620      14.5230    -999.2500   39059.3594   49654.8789    1100.7590       0.0316    -999.2500    -999.2500       2.7150    -999.2500    -999.2500
   1982.5720      10.0945    -999.2500       0.0336      55.9065      15.1873    -999.2500   38399.8320   54155.8359     550.9780       0.0248    -999.2500    -999.2500       2.7613    -999.2500    -999.2500
   1982.7244      10.1010    -999.2500       0.0570      52.2760      15.8470    -999.2500   37744.8281   58625.9297       4.9670       0.0184    -999.2500    -999.2500       2.8070    -999.2500    -999.2500
   1982.8768      10.4022    -999.2500       0.1742      50.0886      16.0909    -999.2500   39343.3281   59632.3672       6.4867       0.0142    -999.2500    -999.2500       2.8809    -999.2500    -999.2500
   1983.0292      10.7000    -999.2500       0.2900      47.9090      16.3340    -999.2500   40936.1602   60635.2344       8.0010       0.0102    -999.2500    -999.2500       2.9540    -999.2500    -999.2500
   1983.1815      10.5134    -999.2500       0.2664      50.0168      16.2487    -999.2500   41930.6719   63711.9336      12.2177       0.0117    -999.2500    -999.2500       2.9067    -999.2500    -999.2500
   1983.3340      10.3290    -999.2500       0.2430      52.1090      16.1640    -999.2500   42917.7930   66765.7734      16.4030       0.0135    -999.2500    -999.2500       2.8600    -999.2500    -999.2500
   1983.4863      10.1363    -999.2500       0.1841      53.4154      16.7380    -999.2500   41773.3984   63679.5859      31.5270       0.0206    -999.2500    -999.2500       2.7730    -999.2500    -999.2500
   1983.6388       9.9460    -999.2500       0.1260      54.7060      17.3050    -999.2500   40642.7812   60630.5508      46.4690       0.0276    -999.2500    -999.2500       2.6870    -999.2500    -999.2500
   1983.7911       9.9525    -999.2500       0.0717      55.1994      17.0402    -999.2500   39506.2695   58989.8984      30.3276       0.0273    -999.2500    -999.2500       2.6875    -999.2500    -999.2500
   1983.9436       9.9590    -999.2500       0.0180      55.6880      16.7780    -999.2500   38380.5977   57364.8867      14.3400       0.0266    -999.2500    -999.2500       2.6880    -999.2500    -999.2500
   1984.0959      10.0118    -999.2500       0.0190      55.6208      16.8226    -999.2500   39541.0000   57072.4531      17.8745       0.0229    -999.2500    -999.2500       2.7242    -999.2500    -999.2500
   1984.2484      10.0640    -999.2500       0.0200      55.5540      16.8670    -999.2500   40694.1680   56781.8438      21.3870       0.0192    -999.2500    -999.2500       2.7600    -999.2500    -999.2500
   1984.4008      10.0333    -999.2500       0.0245      54.5441      18.1278    -999.2500   40520.4727   56343.6406      16.6622       0.0193    -999.2500    -999.2500       2.7565    -999.2500    -999.2500
   1984.5532      10.0030    -999.2500       0.0290      53.5380      19.3840    -999.2500   40347.4219   55907.0664      11.9550       0.0197    -999.2500    -999.2500       2.7530    -999.2500    -999.2500
   1984.7056       9.9326    -999.2500       0.0381      54.5473      24.7233    -999.2500   38346.2812   56724.5820       8.8326       0.0248    -999.2500    -999.2500       2.7515    -999.2500    -999.2500
   1984.8580       9.8630    -999.2500       0.0470      55.5490      30.0220    -999.2500   36360.3438   57535.8828       5.7340       0.0301    -999.2500    -999.2500       2.7500    -999.2500    -999.2500
   1985.0104       9.9601    -999.2500       0.0349      56.1917      37.2317    -999.2500   38735.0820   58198.6602       5.9115       0.0376    -999.2500    -999.2500       2.7394    -999.2500    -999.2500
   1985.1627      10.0560    -999.2500       0.0230      56.8270      44.3590    -999.2500   41082.7070   58853.8711       6.0870       0.0449    -999.2500    -999.2500       2.7290    -999.2500    -999.2500
   1985.3152      10.1199    -999.2500       0.0502      58.2544      37.2945    -999.2500   38646.7695   58122.9219      10.8874       0.0447    -999.2500    -999.2500       2.7421    -999.2500    -999.2500
   1985.4675      10.1830    -999.2500       0.0770      59.6690      30.2930    -999.2500   36232.5469   57398.4844      15.6450       0.0443    -999.2500    -999.2500       2.7550    -999.2500    -999.2500
   1985.6200      10.2836    -999.2500       0.1761      61.6529      24.6870    -999.2500   38800.0508   60287.3320      14.4442       0.0484    -999.2500    -999.2500       2.7429    -999.2500    -999.2500
   1985.7723      10.3830    -999.2500       0.2740      63.6240      19.1170    -999.2500   41351.0977   63157.6680      13.2510       0.0527    -999.2500    -999.2500       2.7310    -999.2500    -999.2500
   1985.9248      10.3654    -999.2500       0.2675      63.3154      20.1074    -999.2500   40875.9805   61488.6562       7.2669       0.0591    -999.2500    -999.2500       2.6711    -999.2500    -999.2500
   1986.0771      10.3480    -999.2500       0.2610      63.0080      21.0940    -999.2500   40402.7148   59826.1406       1.3060       0.0654    -999.2500    -999.2500       2.6120    -999.2500    -999.2500
   1986.2296      10.3068    -999.2500       0.1790      61.1648      21.0001    -999.2500   39702.7617   60765.7109     221.5330       0.0684    -999.2500    -999.2500       2.5783    -999.2500    -999.2500
   1986.3820      10.2660    -999.2500       0.0980      59.3360      20.9070    -999.2500   39008.2500   61697.9766     440.0480       0.0709    -999.2500    -999.2500       2.5450    -999.2500    -999.2500
   1986.5344      10.1971    -999.2500       0.0527      57.3832      19.4908    -999.2500   37894.3594   59034.1562     266.2362       0.0582    -999.2500    -999.2500       2.6184    -999.2500    -999.2500
   1986.6868      10.1290    -999.2500       0.0080      55.4530      18.0910    -999.2500   36793.3711   56401.1953      94.4380       0.0452    -999.2500    -999.2500       2.6910    -999.2500    -999.2500
   1986.8392      10.1878    -999.2500       0.0256      54.7669      16.8308    -999.2500   39387.4336   58598.8008      63.7254       0.0329    -999.2500    -999.2500       2.7609    -999.2500    -999.2500
   1986.9916      10.2460    -999.2500       0.0430      54.0870      15.5820    -999.2500   41957.9219   60776.4375      33.2920       0.0211    -999.2500    -999.2500       2.8300    -999.2500    -999.2500
   1987.1439      10.1811    -999.2500       0.0339      54.6890      14.0535    -999.2500   41050.3711   60599.3828     183.1388       0.0245    -999.2500    -999.2500       2.7948    -999.2500    -999.2500
   1987.2964      10.1170    -999.2500       0.0250      55.2870      12.5350    -999.2500   40148.7891   60423.4961     332.0000       0.0283    -999.2500    -999.2500       2.7600    -999.2500    -999.2500
   1987.4487      10.0616    -999.2500       0.0185      56.8311      13.2429    -999.2500   39757.0156   59202.9219     268.6457       0.0340    -999.2500    -999.2500       2.7369    -999.2500    -999.2500
   1987.6012      10.0070    -999.2500       0.0120      58.3690      13.9480    -999.2500   39366.8320   57987.3086     205.5490       0.0394    -999.2500    -999.2500       2.7140    -999.2500    -999.2500
   1987.7535       9.9451    -999.2500       0.0175      58.1762      14.6011    -999.2500   35669.8789   52784.7500     132.6299       0.0321    -999.2500    -999.2500       2.7231    -999.2500    -999.2500
   1987.9060       9.8840    -999.2500       0.0230      57.9850      15.2490    -999.2500   32002.2930   47623.5156      60.2900       0.0246    -999.2500    -999.2500       2.7320    -999.2500    -999.2500
   1988.0583       9.9056    -999.2500       0.0270      56.8473      16.5456    -999.2500   34147.2500   49392.3086      37.2048       0.0182    -999.2500    -999.2500       2.7375    -999.2500    -999.2500
   1988.2108       9.9270    -999.2500       0.0310      55.7230      17.8270    -999.2500   36266.9805   51140.2969      14.3910       0.0120    -999.2500    -999.2500       2.7430    -999.2500    -999.2500
