#------------------------------------------------------------------------------
#
#   Created by  : [OpenWorks] Log Export Utility (LEXP)
#   Created on  : 2016-05-23 11:50:37
#   Project     : CANT971
#   User        : R5K
#   Interpreter : PEP
#
#------------------------------------------------------------------------------
~VERSION INFORMATION
VERS. 2.0 : CWLS Log ASCII Standard - version 2.0
WRAP.  NO : One line per depth step
~WELL INFORMATION
#MNEMONIC   .UNIT                                           VALUE :DESCRIPTION
#------------------------------------------------------------------------------
STRT        .M                                           690.6770 :START DEPTH
STOP        .M                                          3400.6538 :STOP DEPTH
STEP        .M                                             0.1524 :STEP
NULL        .                                           -999.2500 :NULL VALUE
COMP        .                                   PEMEX EXPL & PROD :COMPANY
WELL        .                                                1024 :WELL
FLD         .                                           CANTARELL :FIELD
LOC         .                                             UNKNOWN :LOCATION
CNTY        .                                      CD. DEL CARMEN :COUNTY
STAT        .                                            CAMPECHE :STATE
CTRY        .                                              MEXICO :COUNTRY
SRVC        .                                             UNKNOWN :SERVICE COMPANY
DATE        .                                             UNKNOWN :LOG DATE
UWI         .                                          3060000490 :UNIQUE WELL ID
XCOORD      .                                       596162.640000 :SURFACE X
YCOORD      .                                      2150611.280000 :SURFACE Y
LAT         .                                           19.448767 :LATITUDE
LON         .                                          -92.083900 :LONGITUDE
ELEV        .M                                            30.0000 :SURFACE ELEV
ELEV_TYPE   .                                                  KB :ELEV TYPE
~CURVE INFORMATION
#MNEMONIC.UNIT        API CODE       : CURVE DESCRIPTION
#------------------------------------------------------------------------------
DEPTH    .M                          : Measured Depth
CALI     .inches      UNKNOWN        : CALI:registros:rC:NONE:v0 (auto-composite)
DRHO     .g/cm3       UNKNOWN        : DRHO:registros:rC:NONE:v0 (auto-composite)
DT       .us/ft       UNKNOWN        : DT:registros:rC:NONE:v0 (auto-composite)
GR       .API         UNKNOWN        : GR:registros:rC:NONE:v0 (auto-composite)
ILD      .ohm.m       UNKNOWN        : ILD:registros:rC:NONE:v0 (auto-composite)
ILM      .ohm.m       UNKNOWN        : ILM:registros:rC:NONE:v0 (auto-composite)
LLD      .ohm.m       UNKNOWN        : LLD:registros:rC:NONE:v0 (auto-composite)
LLS      .ohm.m       UNKNOWN        : LLS:registros:rC:NONE:v0 (auto-composite)
MSFL     .ohm.m       UNKNOWN        : MSFL:registros:rC:NONE:v0 (auto-composite)
NPHI     .v/v_decimal UNKNOWN        : NPHI:registros:rC:NONE:v0 (auto-composite)
PEF      .b/elec      UNKNOWN        : PEF:registros:rC:NONE:v0 (auto-composite)
RHOB     .g/cm3       UNKNOWN        : RHOB:registros:rC:NONE:v0 (auto-composite)
~A     DEPTH         CALI         DRHO           DT           GR          ILD          ILM          LLD          LLS         MSFL         NPHI          PEF         RHOB
# ...
   3163.2146       8.2110      -1.0770      65.8790      44.1200       2.3960       2.9290       0.1880       0.1350       0.1160       0.4620     193.1140       1.9240
   3163.3669       8.2115      -1.1045      66.5836      45.8127       2.3940       2.9285       0.2809       0.1360       0.1160       0.4649     165.9733       1.8215
   3163.5193       8.2120      -1.1320      67.2900      47.4960       2.3920       2.9280       0.3740       0.1370       0.1160       0.4665     138.8100       1.7190
   3163.6719       8.2140      -1.1505      66.8231      47.4905       2.3910       2.9280       0.6596       0.1500       0.1195       0.4649     119.2679       1.7215
   3163.8242       8.2160      -1.1690      66.3550      47.4850       2.3900       2.9280       0.9460       0.1630       0.1230       0.4604      99.7070       1.7240
   3163.9766       8.2190      -1.1600      64.3872      46.7229       2.3900       2.9280       1.9746       0.2056       0.1265       0.4525      77.3261       1.7590
   3164.1289       8.2220      -1.1510      62.4140      45.9660       2.3900       2.9280       3.0060       0.2480       0.1300       0.4436      54.9210       1.7940
   3164.2815       8.2245      -1.1380      60.4782      46.0317       2.3900       2.9280       4.1689       0.2981       0.1280       0.4361      57.2176       1.8390
   3164.4338       8.2270      -1.1250      58.5370      46.0970       2.3900       2.9280       5.3350       0.3480       0.1260       0.4332      59.5170       1.8840
   3164.5862       8.2320      -1.1190      59.8201      46.4246       2.3900       2.9280       4.5741       0.3725       0.1225       0.4394      52.2683       1.9030
   3164.7385       8.2370      -1.1130      61.1070      46.7500       2.3900       2.9280       3.8110       0.3970       0.1190       0.4457      45.0100       1.9220
   3164.8911       8.2425      -1.1000      62.2472      48.2996       2.3900       2.9280       5.0806       0.4866       0.1205       0.4432      47.0600       1.9430
   3165.0435       8.2480      -1.0870      63.3890      49.8390       2.3900       2.9280       6.3520       0.5760       0.1220       0.4367      49.1130       1.9640
   3165.1958       8.2385      -1.0630      62.3518      49.2411       2.3900       2.9280       6.0507       0.9521       0.1255       0.4300      44.8859       1.9990
   3165.3481       8.2290      -1.0390      61.3130      48.6470       2.3900       2.9280       5.7490       1.3270       0.1290       0.4234      40.6520       2.0340
   3165.5005       8.2310      -1.0170      61.6402      49.6351       2.3900       2.9280       4.1868       1.1037       0.1360       0.4174      52.9480       2.0330
   3165.6531       8.2330      -0.9950      61.9680      50.6170       2.3900       2.9280       2.6220       0.8810       0.1430       0.4135      65.2650       2.0320
   3165.8054       8.2305      -1.0020      62.3182      49.9123       2.3895       2.9280       1.5470       0.6426       0.1580       0.4138      61.8112       2.0020
   3165.9578       8.2280      -1.0090      62.6690      49.2120       2.3890       2.9280       0.4700       0.4050       0.1730       0.4151      58.3510       1.9720
   3166.1101       8.2295      -1.0205      62.3263      47.4853       2.3890       2.9280       0.3087       0.3384       0.1890       0.4146      86.8959       1.9235
   3166.2627       8.2310      -1.0320      61.9830      45.7690       2.3890       2.9280       0.1470       0.2720       0.2050       0.4137     115.4970       1.8750
   3166.4150       8.2330      -1.0395      59.9062      46.3211       2.3890       2.9280       0.1345       0.2665       0.2020       0.4139     337.2630       1.8780
   3166.5674       8.2350      -1.0470      57.8250      46.8700       2.3890       2.9280       0.1220       0.2610       0.1990       0.4088     559.1370       1.8810
   3166.7197       8.2345      -1.0315      58.6106      47.6001       2.3890       2.9280       0.1215       0.2585       0.1875       0.3904     472.6460       1.9445
   3166.8723       8.2340      -1.0160      59.3980      48.3260       2.3890       2.9280       0.1210       0.2560       0.1760       0.3588     386.1020       2.0080
   3167.0247       8.2305      -0.9775      60.8423      47.3623       2.3895       2.9280       0.1210       0.2545       0.1650       0.3097     214.8093       2.1355
   3167.1770       8.2270      -0.9390      62.2900      46.4040       2.3900       2.9280       0.1210       0.2530       0.1540       0.2695      43.3900       2.2630
   3167.3293       8.2215      -0.9460      61.7691      46.9595       2.3900       2.9285       0.1210       0.2555       0.1500       0.2678      44.2786       2.2365
   3167.4817       8.2160      -0.9530      61.2470      47.5120       2.3900       2.9290       0.1210       0.2580       0.1460       0.2858      45.1680       2.2100
   3167.6343       8.2180      -0.9665      62.3471      48.9995       2.3900       2.9285       0.1215       0.2580       0.1405       0.3127      47.7637       2.1725
   3167.7866       8.2200      -0.9800      63.4500      50.4790       2.3900       2.9280       0.1220       0.2580       0.1350       0.3435      50.3620       2.1350
   3167.9390       8.2250      -0.9970      63.2997      49.9657       2.3900       2.9285       0.1220       0.2570       0.1300       0.3749      59.9811       2.1015
   3168.0913       8.2300      -1.0140      63.1490      49.4560       2.3900       2.9290       0.1220       0.2560       0.1250       0.4040      69.6110       2.0680
   3168.2439       8.2265      -1.0285      62.1564      48.0799       2.3900       2.9285       0.1220       0.2565       0.1220       0.4275     147.1988       2.0330
   3168.3962       8.2230      -1.0430      61.1610      46.7130       2.3900       2.9280       0.1220       0.2570       0.1190       0.4456     224.8830       1.9980
   3168.5486       8.2260      -1.0495      60.0232      45.8697       2.3900       2.9280       0.1215       0.2560       0.1155       0.4566     197.3483       2.0080
   3168.7009       8.2290      -1.0560      58.8820      45.0320       2.3900       2.9280       0.1210       0.2550       0.1120       0.4619     169.7760       2.0180
   3168.8535       8.2320      -1.0605      60.0396      44.7651       2.3895       2.9280       0.1165       0.2465       0.1100       0.4605     103.4945       2.0300
   3169.0059       8.2350      -1.0650      61.1990      44.5000       2.3890       2.9280       0.1120       0.2380       0.1080       0.4549      37.1140       2.0420
   3169.1582       8.2370      -1.0705      62.2087      44.6505       2.3890       2.9280       0.1300       0.2210       0.1045       0.4460      38.5059       2.0495
   3169.3105       8.2390      -1.0760      63.2200      44.8000       2.3890       2.9280       0.1480       0.2040       0.1010       0.4349      39.9000       2.0570
   3169.4629       8.2490      -1.0830      63.4413      45.7329       2.3890       2.9280       0.3293       0.2701       0.0985       0.4222      50.5502       2.0440
   3169.6155       8.2590      -1.0900      63.6630      46.6600       2.3890       2.9280       0.5110       0.3360       0.0960       0.4135      61.2190       2.0310
   3169.7678       8.2760      -1.0895      63.8523      47.5452       2.3890       2.9280       1.8448       0.7797       0.0970       0.4160      72.0729       2.0070
   3169.9202       8.2930      -1.0890      64.0420      48.4250       2.3890       2.9280       3.1810       1.2220       0.0980       0.4208      82.9470       1.9830
   3170.0725       8.3015      -1.0735      63.9601      49.2184       2.3890       2.9280       2.5252       1.0252       0.0970       0.4202     116.5859       2.0225
   3170.2251       8.3100      -1.0580      63.8780      50.0070       2.3890       2.9280       1.8680       0.8290       0.0960       0.4127     150.2920       2.0620
   3170.3774       8.3110      -1.0590      64.0518      49.0988       2.3890       2.9275       1.1393       0.6092       0.0955       0.3936     342.0349       2.1080
