#------------------------------------------------------------------------------
#
#   Created by  : [OpenWorks] Log Export Utility (LEXP)
#   Created on  : 2016-05-23 11:56:01
#   Project     : CANT971
#   User        : R5K
#   Interpreter : PEP
#
#------------------------------------------------------------------------------
~VERSION INFORMATION
VERS. 2.0 : CWLS Log ASCII Standard - version 2.0
WRAP.  NO : One line per depth step
~WELL INFORMATION
#MNEMONIC   .UNIT                                           VALUE :DESCRIPTION
#------------------------------------------------------------------------------
STRT        .M                                          1572.0055 :START DEPTH
STOP        .M                                          3732.1230 :STOP DEPTH
STEP        .M                                             0.1524 :STEP
NULL        .                                           -999.2500 :NULL VALUE
COMP        .                                             UNKNOWN :COMPANY
WELL        .                                               428-V :WELL
FLD         .                                             UNKNOWN :FIELD
LOC         .                                             UNKNOWN :LOCATION
CNTY        .                                             UNKNOWN :COUNTY
STAT        .                                             UNKNOWN :STATE
CTRY        .                                             UNKNOWN :COUNTRY
SRVC        .                                             UNKNOWN :SERVICE COMPANY
DATE        .                                             UNKNOWN :LOG DATE
UWI         .                                               428-V :UNIQUE WELL ID
XCOORD      .                                            0.000000 :SURFACE X
YCOORD      .                                            0.000000 :SURFACE Y
LAT         .                                            0.000000 :LATITUDE
LON         .                                            0.000000 :LONGITUDE
ELEV        .M                                             0.0000 :SURFACE ELEV
ELEV_TYPE   .                                                  KB :ELEV TYPE
~CURVE INFORMATION
#MNEMONIC .UNIT        API CODE       : CURVE DESCRIPTION
#------------------------------------------------------------------------------
DEPTH     .M                          : Measured Depth
CALIH-LWD .inches      UNKNOWN        : CALIH-LWD:PETROWORKS:rC:NONE:v5 
CALIV-LWD .inches      UNKNOWN        : CALIV-LWD:PETROWORKS:rC:NONE:v5 
CGR       .API         UNKNOWN        : CGR:Espectrometria:rC:NONE:v0 (auto-composite)
DRHO-LWD  .g/cm3       UNKNOWN        : DRHO-LWD:PETROWORKS:rC:NONE:v5 
DT        .us/ft       UNKNOWN        : DT:sonico:rC:NONE:v0 (auto-composite)
GR        .API         UNKNOWN        : GR:Espectrometria:rC:NONE:v0 (auto-composite)
GR-LWD    .API         UNKNOWN        : GR-LWD:PETROWORKS:rC:NONE:v3 
ILD-LWD   .ohm.m       UNKNOWN        : ILD-LWD:PETROWORKS:rC:NONE:v2 
ILM-LWD   .ohm.m       UNKNOWN        : ILM-LWD:PETROWORKS:rC:NONE:v2 
LLD-LWD   .ohm.m       UNKNOWN        : LLD-LWD:registros-LWD:rC:NONE:v0 (auto-composite)
LLS-LWD   .ohm.m       UNKNOWN        : LLS-LWD:registros-LWD:rC:NONE:v0 (auto-composite)
MSFL-LWD  .ohm.m       UNKNOWN        : MSFL-LWD:registros-LWD:rC:NONE:v0 (auto-composite)
NPHI-LWD  .v/v_decimal UNKNOWN        : NPHI-LWD:PETROWORKS:rC:NONE:v5 
PEF-LWD   .b/elec      UNKNOWN        : PEF-LWD:PETROWORKS:rC:NONE:v5 
POTA      .wtpercent   UNKNOWN        : POTA:Espectrometria:rC:NONE:v0 (auto-composite)
RHOB-LWD  .g/cm3       UNKNOWN        : RHOB-LWD:PETROWORKS:rC:NONE:v5 
THOR      .UNKNOWN     UNKNOWN        : THOR:Espectrometria:rC:NONE:v0 (auto-composite)
URAN      .UNKNOWN     UNKNOWN        : URAN:Espectrometria:rC:NONE:v0 (auto-composite)
~A     DEPTH    CALIH-LWD    CALIV-LWD          CGR     DRHO-LWD           DT           GR       GR-LWD      ILD-LWD      ILM-LWD      LLD-LWD      LLS-LWD     MSFL-LWD     NPHI-LWD      PEF-LWD         POTA     RHOB-LWD         THOR         URAN
# ...
   3161.2327       6.4919       6.8651      11.2400       0.2206      51.9433      23.4580      21.2940     122.1819     116.3156    -999.2500    -999.2500    -999.2500       0.0629       2.5037       0.0049       2.7682       1.2467       1.3602
   3161.3850       6.5540       6.9557       9.0143       0.2280      51.8206      23.0166      20.3268     118.6587     114.5278    -999.2500    -999.2500    -999.2500       0.0619       2.5728       0.0042       2.7815       0.9012       1.5590
   3161.5376       6.3916       6.7595       7.7627       0.2106      51.6144      23.0637      19.8249     115.1558     110.2599    -999.2500    -999.2500    -999.2500       0.0617       2.6435       0.0034       2.7581       0.8420       1.7035
   3161.6899       6.3564       6.7334       9.0315       0.2003      51.4119      22.8771      19.7957     117.9163     112.3680    -999.2500    -999.2500    -999.2500       0.0605       2.6334       0.0042       2.7482       0.9071       1.5415
   3161.8423       6.3601       6.7229       9.9775       0.1755      51.3393      22.5054      20.6182     116.7778     112.6100    -999.2500    -999.2500    -999.2500       0.0610       2.5379       0.0048       2.7205       0.9236       1.3948
   3161.9946       6.3847       6.7350       9.6123       0.1770      51.4252      21.6854      20.6800     116.5400     112.4979    -999.2500    -999.2500    -999.2500       0.0608       2.5858       0.0053       2.7227       0.6249       1.3441
   3162.1470       6.2954       6.6321       8.7710       0.1864      51.6958      21.0878      20.6800     109.6153     106.5274    -999.2500    -999.2500    -999.2500       0.0618       2.6914       0.0048       2.7247       0.5868       1.3712
   3162.2996       6.2357       6.6161       9.2140       0.1959      52.0566      20.7010      20.6638     109.4445     106.4040    -999.2500    -999.2500    -999.2500       0.0611       2.7377       0.0039       2.7262       1.0713       1.2789
   3162.4519       6.2625       6.6690       9.5774       0.2026      52.3315      20.5742      19.7714     115.0736     112.4895    -999.2500    -999.2500    -999.2500       0.0609       2.7321       0.0038       2.7359       1.2166       1.2243
   3162.6042       6.2906       6.7221       9.4001       0.2090      52.3512      20.7501      19.3300     112.1187     106.3174    -999.2500    -999.2500    -999.2500       0.0607       2.7255       0.0042       2.7455       1.0148       1.2637
   3162.7566       6.3209       6.8026       9.9317       0.2218      51.9526      20.5857      19.3693     109.6078     107.9198    -999.2500    -999.2500    -999.2500       0.0603       2.6724       0.0056       2.7503       0.5777       1.1862
   3162.9092       6.3330       6.7972      11.9430       0.2311      51.2592      21.0015      20.2572     115.5083     110.5570    -999.2500    -999.2500    -999.2500       0.0601       2.7039       0.0059       2.7547       1.0323       1.0085
   3163.0615       6.2822       6.6985      10.7369       0.2242      50.4471      21.4918      20.6795     115.3397     110.2682    -999.2500    -999.2500    -999.2500       0.0616       2.6257       0.0048       2.7326       1.1353       1.1974
   3163.2139       6.2883       6.6736       8.5978       0.2155      49.7560      21.5629      20.6396     113.2586     106.9419    -999.2500    -999.2500    -999.2500       0.0619       2.6043       0.0038       2.7123       0.9503       1.4434
   3163.3662       6.3575       6.7445       6.1860       0.2051      49.2926      21.5335      20.2787     113.1509     109.7208    -999.2500    -999.2500    -999.2500       0.0630       2.5968       0.0025       2.7080       0.7683       1.7087
   3163.5188       6.4495       6.8453       4.4919       0.2152      48.9649      21.2228      20.7358     112.6557     109.5994    -999.2500    -999.2500    -999.2500       0.0622       2.5994       0.0017       2.7326       0.5854       1.8627
   3163.6711       6.4680       6.8836       4.3150       0.2195      48.7274      20.7156      21.1925     115.2518     110.9871    -999.2500    -999.2500    -999.2500       0.0615       2.6070       0.0015       2.7435       0.6238       1.8259
   3163.8235       6.4370       6.9047       4.9533       0.2197      48.6906      20.7378      21.5776     110.6856     108.8842    -999.2500    -999.2500    -999.2500       0.0596       2.6388       0.0017       2.7562       0.7411       1.7574
   3163.9758       6.4386       6.9258       7.3261       0.2130      48.9802      20.9554      21.4248     120.6502     110.5048    -999.2500    -999.2500    -999.2500       0.0573       2.7661       0.0026       2.7532       1.0568       1.5174
   3164.1282       6.4002       6.8687       9.0611       0.2029      49.4612      21.2650      20.5107     114.4583     111.0165    -999.2500    -999.2500    -999.2500       0.0564       2.8664       0.0033       2.7465       1.2613       1.3587
   3164.2808       6.3551       6.8118      10.7561       0.2000      49.7909      21.1696      19.5963     115.3744     115.4259    -999.2500    -999.2500    -999.2500       0.0559       2.8735       0.0039       2.7467       1.4837       1.1594
   3164.4331       6.3133       6.7600      10.4611       0.1974      49.6838      20.6667      18.6827     118.0371     117.3520    -999.2500    -999.2500    -999.2500       0.0554       2.8774       0.0043       2.7473       1.2525       1.1363
   3164.5854       6.2979       6.7461       8.9569       0.1986      49.2148      19.5402      17.8735     119.5775     115.7627    -999.2500    -999.2500    -999.2500       0.0551       2.8842       0.0049       2.7528       0.6129       1.1783
   3164.7378       6.3594       6.8186       7.5294       0.2047      48.6566      18.6809      17.4202     121.2789     121.4574    -999.2500    -999.2500    -999.2500       0.0551       2.9351       0.0049       2.7638       0.1914       1.2415
   3164.8904       6.5037       6.9567       6.5368       0.1996      48.2755      18.2426      17.1985     117.6361     119.5807    -999.2500    -999.2500    -999.2500       0.0554       2.9194       0.0043       2.7572       0.1298       1.3033
   3165.0427       6.5854       7.0450       6.2322       0.2018      48.1822      17.9625      17.5369     121.3400     121.2674    -999.2500    -999.2500    -999.2500       0.0551       2.8417       0.0037       2.7545       0.3050       1.3060
   3165.1951       6.5933       7.0446       5.4753       0.2131      48.2154      17.9463      17.9387     124.4871     127.3357    -999.2500    -999.2500    -999.2500       0.0534       2.7695       0.0028       2.7594       0.4367       1.3885
   3165.3474       6.4863       6.9870       6.7864       0.2228      48.1666      17.9387      19.4501     126.3844     128.7467    -999.2500    -999.2500    -999.2500       0.0528       2.7687       0.0033       2.7675       0.6229       1.2416
   3165.5000       6.3206       6.9209       7.8035       0.2267      47.9975      17.9768      21.2681     128.1496     129.6167    -999.2500    -999.2500    -999.2500       0.0528       2.7272       0.0038       2.7686       0.6948       1.1326
   3165.6523       6.3217       6.9785       9.0077       0.2169      47.8772      18.3810      22.4800     127.8721     135.2978    -999.2500    -999.2500    -999.2500       0.0532       2.5416       0.0052       2.7568       0.4770       1.0435
   3165.8047       6.4523       7.1102       8.8034       0.2084      47.9806      18.7455      22.4740     130.9000     138.6254    -999.2500    -999.2500    -999.2500       0.0533       2.4395       0.0056       2.7477       0.2593       1.1070
   3165.9570       6.5021       7.0810       8.3779       0.2004      48.3174      19.7878      22.1401     130.9259     138.1148    -999.2500    -999.2500    -999.2500       0.0528       2.4757       0.0054       2.7397       0.2284       1.2703
   3166.1094       6.5141       7.0319       7.5519       0.1992      48.6326      20.3971      21.3950     128.4420     135.9106    -999.2500    -999.2500    -999.2500       0.0525       2.5632       0.0048       2.7392       0.2517       1.4301
