#------------------------------------------------------------------------------
#
#   Created by  : [OpenWorks] Log Export Utility (LEXP)
#   Created on  : 2016-05-23 11:56:12
#   Project     : CANT971
#   User        : R5K
#   Interpreter : PEP
#
#------------------------------------------------------------------------------
~VERSION INFORMATION
VERS. 2.0 : CWLS Log ASCII Standard - version 2.0
WRAP.  NO : One line per depth step
~WELL INFORMATION
#MNEMONIC   .UNIT                                           VALUE :DESCRIPTION
#------------------------------------------------------------------------------
STRT        .M                                           365.7604 :START DEPTH
STOP        .M                                          2883.8655 :STOP DEPTH
STEP        .M                                             0.1524 :STEP
NULL        .                                           -999.2500 :NULL VALUE
COMP        .                                   PEMEX EXPL & PROD :COMPANY
WELL        .                                                  44 :WELL
FLD         .                                           CANTARELL :FIELD
LOC         .                                             UNKNOWN :LOCATION
CNTY        .                                      CD. DEL CARMEN :COUNTY
STAT        .                                            CAMPECHE :STATE
CTRY        .                                              MEXICO :COUNTRY
SRVC        .                                             UNKNOWN :SERVICE COMPANY
DATE        .                                             UNKNOWN :LOG DATE
UWI         .                                          3060000162 :UNIQUE WELL ID
XCOORD      .                                       599695.380000 :SURFACE X
YCOORD      .                                      2143038.730000 :SURFACE Y
LAT         .                                           19.380164 :LATITUDE
LON         .                                          -92.050646 :LONGITUDE
ELEV        .M                                            26.7400 :SURFACE ELEV
ELEV_TYPE   .                                                  KB :ELEV TYPE
~CURVE INFORMATION
#MNEMONIC.UNIT        API CODE       : CURVE DESCRIPTION
#------------------------------------------------------------------------------
DEPTH    .M                          : Measured Depth
CALI     .inches      UNKNOWN        : CALI:registros:rC:NONE:v0 (auto-composite)
CGR      .API         UNKNOWN        : CGR:registros:rC:NONE:v0 (auto-composite)
DRHO     .g/cm3       UNKNOWN        : DRHO:registros:rC:NONE:v0 (auto-composite)
DT       .UNKNOWN     UNKNOWN        : DT:registros:rC:NONE:v0 (auto-composite)
GR       .API         UNKNOWN        : GR:registros:rC:NONE:v0 (auto-composite)
ILD      .ohm.m       UNKNOWN        : ILD:registros:rC:NONE:v0 (auto-composite)
LLD      .ohm.m       UNKNOWN        : LLD:registros:rC:NONE:v0 (auto-composite)
LLS      .ohm.m       UNKNOWN        : LLS:registros:rC:NONE:v0 (auto-composite)
MSFL     .ohm.m       UNKNOWN        : MSFL:registros:rC:NONE:v0 (auto-composite)
NPHI     .UNKNOWN     UNKNOWN        : NPHI:registros:rC:NONE:v0 (auto-composite)
PEF      .b/elec      UNKNOWN        : PEF:registros:rC:NONE:v0 (auto-composite)
POTA     .wtpercent   UNKNOWN        : POTA:registros:rC:NONE:v0 (auto-composite)
RHOB     .g/cm3       UNKNOWN        : RHOB:registros:rC:NONE:v0 (auto-composite)
THOR     .ppm         UNKNOWN        : THOR:registros:rC:NONE:v0 (auto-composite)
URAN     .ppm         UNKNOWN        : URAN:registros:rC:NONE:v0 (auto-composite)
~A     DEPTH         CALI          CGR         DRHO           DT           GR          ILD          LLD          LLS         MSFL         NPHI          PEF         POTA         RHOB         THOR         URAN
# ...
   1887.3220       9.7410    -999.2500       0.0040      56.0620      40.3280    -999.2500     221.4360     245.4420     385.0160       0.0602    -999.2500    -999.2500       2.6900    -999.2500    -999.2500
   1887.4744       9.7425    -999.2500       0.0171      55.6375      40.6504    -999.2500     218.5966     240.7056     296.6222       0.0578    -999.2500    -999.2500       2.7056    -999.2500    -999.2500
   1887.6268       9.7440    -999.2500       0.0300      55.2180      40.9690    -999.2500     215.7900     236.0240     209.2500       0.0538    -999.2500    -999.2500       2.7210    -999.2500    -999.2500
   1887.7792       9.7983    -999.2500       0.0426      55.9081      40.8279    -999.2500     169.4267     183.8549     216.5957       0.0467    -999.2500    -999.2500       2.7331    -999.2500    -999.2500
   1887.9315       9.8520    -999.2500       0.0550      56.5920      40.6880    -999.2500     123.4830     132.1580     223.8750       0.0412    -999.2500    -999.2500       2.7450    -999.2500    -999.2500
   1888.0840       9.8465    -999.2500       0.0681      56.3131      38.6182    -999.2500     104.6508     109.7491     192.9809       0.0419    -999.2500    -999.2500       2.7440    -999.2500    -999.2500
   1888.2363       9.8410    -999.2500       0.0810      56.0360      36.5620    -999.2500      85.9420      87.4870     162.2890       0.0480    -999.2500    -999.2500       2.7430    -999.2500    -999.2500
   1888.3888       9.8455    -999.2500       0.0609      56.3035      36.7970    -999.2500     108.7811     109.1537     117.7422       0.0587    -999.2500    -999.2500       2.6932    -999.2500    -999.2500
   1888.5411       9.8500    -999.2500       0.0410      56.5700      37.0310    -999.2500     131.5280     130.7330      73.3750       0.0666    -999.2500    -999.2500       2.6440    -999.2500    -999.2500
   1888.6936       9.8792    -999.2500       0.0209      58.6778      39.6745    -999.2500     157.5349     156.2931     112.0360       0.0646    -999.2500    -999.2500       2.6450    -999.2500    -999.2500
   1888.8459       9.9080    -999.2500       0.0010      60.7690      42.2970    -999.2500     183.3360     181.6510     150.3910       0.0605    -999.2500    -999.2500       2.6460    -999.2500    -999.2500
   1888.9984       9.9281    -999.2500       0.0090      59.5016      41.9681    -999.2500     194.7680     200.1862     134.4883       0.0623    -999.2500    -999.2500       2.6576    -999.2500    -999.2500
   1889.1508       9.9480    -999.2500       0.0170      58.2490      41.6430    -999.2500     206.0660     218.5040     118.7720       0.0636    -999.2500    -999.2500       2.6690    -999.2500    -999.2500
   1889.3032      10.0194    -999.2500       0.1407      57.8115      39.7608    -999.2500     191.3627     202.7483     113.8910       0.0582    -999.2500    -999.2500       2.6896    -999.2500    -999.2500
   1889.4556      10.0900    -999.2500       0.2630      57.3780      37.8960    -999.2500     176.7950     187.1380     109.0550       0.0552    -999.2500    -999.2500       2.7100    -999.2500    -999.2500
   1889.6080      10.3078    -999.2500       0.3858      58.6553      35.8155    -999.2500     130.1955     140.9815      56.2351       0.0639    -999.2500    -999.2500       2.6230    -999.2500    -999.2500
   1889.7604      10.5230    -999.2500       0.5070      59.9240      33.7490    -999.2500      83.9090      95.1350       3.7700       0.0906    -999.2500    -999.2500       2.5370    -999.2500    -999.2500
   1889.9127      10.9009    -999.2500       0.3907      59.8228      30.9661    -999.2500      68.3107      78.0586       2.2227       0.1430    -999.2500    -999.2500       2.2783    -999.2500    -999.2500
   1890.0652      11.2740    -999.2500       0.2760      59.7220      28.1950    -999.2500      52.7780      61.0540       0.6820       0.2090    -999.2500    -999.2500       2.0230    -999.2500    -999.2500
   1890.2175      11.5674    -999.2500       0.1829      61.0403      29.7869    -999.2500      66.0778      76.8774       1.2573       0.2777    -999.2500    -999.2500       1.8740    -999.2500    -999.2500
   1890.3700      11.8570    -999.2500       0.0910      62.3480      31.3660    -999.2500      79.2700      92.5730       1.8280       0.3170    -999.2500    -999.2500       1.7270    -999.2500    -999.2500
   1890.5223      11.4831    -999.2500       0.0356      60.9306      35.3160    -999.2500     122.3770     139.9514      25.0119       0.2936    -999.2500    -999.2500       1.8986    -999.2500    -999.2500
   1890.6748      11.1140    -999.2500      -0.0190      59.5300      39.2190    -999.2500     164.9710     186.7660      47.9200       0.2375    -999.2500    -999.2500       2.0680    -999.2500    -999.2500
   1890.8271      10.8076    -999.2500      -0.0089      58.6599      39.0125    -999.2500     379.0848     399.7676     442.6578       0.1763    -999.2500    -999.2500       2.3030    -999.2500    -999.2500
   1890.9796      10.5050    -999.2500       0.0010      57.7980      38.8080    -999.2500     591.1870     610.7680     833.6870       0.1226    -999.2500    -999.2500       2.5350    -999.2500    -999.2500
   1891.1320      10.3334    -999.2500       0.0181      55.2422      36.6946    -999.2500     554.2991     564.1565    1307.2865       0.0891    -999.2500    -999.2500       2.6236    -999.2500    -999.2500
   1891.2844      10.1640    -999.2500       0.0350      52.7020      34.5940    -999.2500     517.6360     517.8290    1778.0000       0.0715    -999.2500    -999.2500       2.7110    -999.2500    -999.2500
   1891.4368      10.1001    -999.2500       0.0320      53.0271      35.0338    -999.2500     479.3094     468.2712    1079.3395       0.0665    -999.2500    -999.2500       2.7040    -999.2500    -999.2500
   1891.5892      10.0370    -999.2500       0.0290      53.3510      35.4720    -999.2500     441.1200     418.8910     383.1810       0.0676    -999.2500    -999.2500       2.6970    -999.2500    -999.2500
   1891.7416      10.0068    -999.2500       0.0250      55.2795      37.8237    -999.2500     406.6467     389.3315     233.1380       0.0687    -999.2500    -999.2500       2.6849    -999.2500    -999.2500
   1891.8939       9.9770    -999.2500       0.0210      57.1920      40.1560    -999.2500     372.4580     360.0160      84.3340       0.0681    -999.2500    -999.2500       2.6730    -999.2500    -999.2500
   1892.0464       9.9252    -999.2500       0.0165      56.9671      39.5503    -999.2500     342.0571     334.6595      44.1868       0.0639    -999.2500    -999.2500       2.6378    -999.2500    -999.2500
   1892.1987       9.8740    -999.2500       0.0120      56.7450      38.9520    -999.2500     312.0230     309.6090       4.5240       0.0608    -999.2500    -999.2500       2.6030    -999.2500    -999.2500
   1892.3512       9.8946    -999.2500       0.0085      55.5226      36.7478    -999.2500     256.9098     261.5713       4.9690       0.0632    -999.2500    -999.2500       2.6176    -999.2500    -999.2500
   1892.5035       9.9150    -999.2500       0.0050      54.3110      34.5630    -999.2500     202.2800     213.9550       5.4100       0.0661    -999.2500    -999.2500       2.6320    -999.2500    -999.2500
   1892.6560      10.0473    -999.2500       0.0166      53.6173      33.4766    -999.2500     205.5798     218.2394      14.6148       0.0642    -999.2500    -999.2500       2.6818    -999.2500    -999.2500
   1892.8083      10.1780    -999.2500       0.0280      52.9280      32.3970    -999.2500     208.8590     222.4970      23.7620       0.0594    -999.2500    -999.2500       2.7310    -999.2500    -999.2500
   1892.9608      10.1156    -999.2500       0.0386      53.2286      33.0167    -999.2500     257.7206     277.0183      15.7475       0.0531    -999.2500    -999.2500       2.7275    -999.2500    -999.2500
   1893.1132      10.0540    -999.2500       0.0490      53.5280      33.6340    -999.2500     306.3990     331.3350       7.7630       0.0483    -999.2500    -999.2500       2.7240    -999.2500    -999.2500
