#------------------------------------------------------------------------------
#
#   Created by  : [OpenWorks] Log Export Utility (LEXP)
#   Created on  : 2016-05-23 11:55:51
#   Project     : CANT971
#   User        : R5K
#   Interpreter : PEP
#
#------------------------------------------------------------------------------
~VERSION INFORMATION
VERS. 2.0 : CWLS Log ASCII Standard - version 2.0
WRAP.  NO : One line per depth step
~WELL INFORMATION
#MNEMONIC   .UNIT                                           VALUE :DESCRIPTION
#------------------------------------------------------------------------------
STRT        .M                                           490.1183 :START DEPTH
STOP        .M                                          2794.5586 :STOP DEPTH
STEP        .M                                             0.1524 :STEP
NULL        .                                           -999.2500 :NULL VALUE
COMP        .                                   PEMEX EXPL & PROD :COMPANY
WELL        .                                                  41 :WELL
FLD         .                                           CANTARELL :FIELD
LOC         .                                             UNKNOWN :LOCATION
CNTY        .                                      CD. DEL CARMEN :COUNTY
STAT        .                                            CAMPECHE :STATE
CTRY        .                                              MEXICO :COUNTRY
SRVC        .                                             UNKNOWN :SERVICE COMPANY
DATE        .                                             UNKNOWN :LOG DATE
UWI         .                                          3060000463 :UNIQUE WELL ID
XCOORD      .                                       601713.000000 :SURFACE X
YCOORD      .                                      2142348.040000 :SURFACE Y
LAT         .                                           19.373822 :LATITUDE
LON         .                                          -92.031472 :LONGITUDE
ELEV        .M                                            24.0000 :SURFACE ELEV
ELEV_TYPE   .                                                  KB :ELEV TYPE
~CURVE INFORMATION
#MNEMONIC.UNIT        API CODE       : CURVE DESCRIPTION
#------------------------------------------------------------------------------
DEPTH    .M                          : Measured Depth
CALI     .inches      UNKNOWN        : CALI:Import:rC:NONE:v0 (auto-composite)
DRHO     .g/cm3       UNKNOWN        : DRHO:Import:rC:NONE:v0 (auto-composite)
DT       .us/ft       UNKNOWN        : DT:Import:rC:NONE:v0 (auto-composite)
GR       .API         UNKNOWN        : GR:Import:rC:NONE:v0 (auto-composite)
ILD      .ohm.m       UNKNOWN        : ILD:Import:rC:NONE:v0 (auto-composite)
LLD      .ohm.m       UNKNOWN        : LLD:Import:rC:NONE:v0 (auto-composite)
LLS      .ohm.m       UNKNOWN        : LLS:Import:rC:NONE:v0 (auto-composite)
NPHI     .v/v_decimal UNKNOWN        : NPHI:Import:rC:NONE:v0 (auto-composite)
PEF      .b/elec      UNKNOWN        : PEF:Import:rC:NONE:v0 (auto-composite)
RHOB     .g/cm3       UNKNOWN        : RHOB:Import:rC:NONE:v0 (auto-composite)
~A     DEPTH         CALI         DRHO           DT           GR          ILD          LLD          LLS         NPHI          PEF         RHOB
# ...
   2214.0671       8.5160       0.0610    -999.2500      16.6550    -999.2500     180.8200     128.9320       0.0826       3.1700       2.7480
   2214.2195       8.5380       0.0505    -999.2500      15.4257    -999.2500     242.4246     171.5791       0.0853       3.0325       2.7345
   2214.3718       8.5600       0.0400    -999.2500      14.1970    -999.2500     304.0040     214.2770       0.0881       2.8950       2.7210
   2214.5242       8.5575       0.0340    -999.2500      13.5574    -999.2500     365.9978     254.6417       0.0912       2.8955       2.7105
   2214.6768       8.5550       0.0280    -999.2500      12.9180    -999.2500     427.9740     294.9950       0.0943       2.8960       2.7000
   2214.8291       8.5275       0.0280    -999.2500      12.6745    -999.2500     479.3721     330.4848       0.0973       2.9340       2.7035
   2214.9814       8.5000       0.0280    -999.2500      12.4310    -999.2500     530.7620     365.9690       0.0997       2.9720       2.7070
   2215.1338       8.4755       0.0295    -999.2500      13.1370    -999.2500     581.5809     394.7655       0.0981       3.0605       2.7225
   2215.2864       8.4510       0.0310    -999.2500      13.8430    -999.2500     632.3980     423.5610       0.0957       3.1490       2.7380
   2215.4387       8.4300       0.0350    -999.2500      14.6041    -999.2500     666.0389     451.4282       0.0923       3.3115       2.7580
   2215.5911       8.4090       0.0390    -999.2500      15.3640    -999.2500     699.6830     479.2980       0.0896       3.4740       2.7780
   2215.7434       8.3700       0.0410    -999.2500      14.0541    -999.2500     708.7225     513.4393       0.0921       3.4730       2.7655
   2215.8960       8.3310       0.0430    -999.2500      12.7460    -999.2500     717.7640     547.5880       0.0964       3.4720       2.7530
   2216.0483       8.3355       0.0435    -999.2500      11.0629    -999.2500     718.3819     587.3562       0.1061       3.3740       2.7270
   2216.2007       8.3400       0.0440    -999.2500       9.3820    -999.2500     719.0000     627.1380       0.1167       3.2760       2.7010
   2216.3530       8.3945       0.0435    -999.2500       9.7842    -999.2500     719.0000     668.6923       0.1270       3.2075       2.6755
   2216.5054       8.4490       0.0430    -999.2500      10.1860    -999.2500     719.0000     710.2660       0.1355       3.1390       2.6500
   2216.6580       8.5520       0.0380    -999.2500      11.2926    -999.2500     714.2584     703.9549       0.1339       3.1765       2.6530
   2216.8103       8.6550       0.0330    -999.2500      12.3980    -999.2500     709.5140     697.6400       0.1312       3.2140       2.6560
   2216.9626       8.7475       0.0335    -999.2500      13.6020    -999.2500     679.8162     645.1624       0.1323       3.2775       2.6515
   2217.1150       8.8400       0.0340    -999.2500      14.8050    -999.2500     650.0970     592.6470       0.1334       3.3410       2.6470
   2217.2676       8.8320       0.0375    -999.2500      15.3392    -999.2500     661.6779     503.8885       0.1311       3.3815       2.6440
   2217.4199       8.8240       0.0410    -999.2500      15.8730    -999.2500     673.2500     415.0550       0.1278       3.4220       2.6410
   2217.5723       8.7940       0.0425    -999.2500      15.2158    -999.2500     627.7017     423.6243       0.1226       3.4310       2.6440
   2217.7246       8.7640       0.0440    -999.2500      14.5590    -999.2500     582.1820     432.2020       0.1178       3.4400       2.6470
   2217.8772       8.6780       0.0440    -999.2500      13.6693    -999.2500     518.9351     445.2873       0.1170       3.4400       2.6485
   2218.0295       8.5920       0.0440    -999.2500      12.7800    -999.2500     455.7200     458.3870       0.1170       3.4400       2.6500
   2218.1819       8.4820       0.0400    -999.2500      11.8578    -999.2500     428.0233     437.6137       0.1170       3.4400       2.6525
   2218.3342       8.3720       0.0360    -999.2500      10.9360    -999.2500     400.3370     416.8150       0.1170       3.4400       2.6550
   2218.4866       8.2870       0.0270    -999.2500      10.2884    -999.2500     418.0983     377.4095       0.1170       3.4175       2.6620
   2218.6392       8.2020       0.0180    -999.2500       9.6410    -999.2500     435.8550     338.0140       0.1168       3.3950       2.6690
   2218.7915       8.1595       0.0100    -999.2500       9.2655    -999.2500     423.4327     308.2556       0.1155       3.3355       2.6660
   2218.9438       8.1170       0.0020    -999.2500       8.8900    -999.2500     411.0120     278.5010       0.1138       3.2760       2.6630
   2219.0962       8.0710       0.0030    -999.2500       8.9855    -999.2500     376.3665     259.4445       0.1105       3.1910       2.6600
   2219.2488       8.0250       0.0040    -999.2500       9.0810    -999.2500     341.7210     240.3880       0.1068       3.1060       2.6570
   2219.4011       8.0470       0.0060    -999.2500       9.6659    -999.2500     306.2902     220.9402       0.1028       3.1965       2.6565
   2219.5535       8.0690       0.0080    -999.2500      10.2500    -999.2500     270.8550     201.4900       0.0988       3.2870       2.6560
   2219.7058       8.1420       0.0100    -999.2500      12.8548    -999.2500     247.3009     182.2629       0.0950       3.4320       2.6600
   2219.8584       8.2150       0.0120    -999.2500      15.4560    -999.2500     223.7410     163.0310       0.0911       3.5770       2.6640
   2220.0107       8.2635       0.0150    -999.2500      21.4011    -999.2500     205.5704     151.5582       0.0869       3.5715       2.6705
   2220.1631       8.3120       0.0180    -999.2500      27.3390    -999.2500     187.3930     140.0810       0.0828       3.5660       2.6770
   2220.3154       8.3280       0.0425    -999.2500      36.5106    -999.2500     188.7926     136.4109       0.0797       3.6690       2.6830
   2220.4678       8.3440       0.0670    -999.2500      45.6720    -999.2500     190.1930     132.7390       0.0779       3.7720       2.6890
   2220.6204       8.3985       0.1065    -999.2500      44.8256    -999.2500     168.7117     127.9910       0.0823       3.9484       2.7015
   2220.7727       8.4530       0.1460    -999.2500      43.9800    -999.2500     147.2170     123.2400       0.0886       4.1250       2.7140
   2220.9250       8.5465       0.1385    -999.2500      42.2638    -999.2500     118.4198     108.9594       0.0985       4.2999       2.7075
   2221.0774       8.6400       0.1310    -999.2500      40.5490    -999.2500      89.6010      94.6680       0.1095       4.4750       2.7010
   2221.2300       8.7445       0.1060    -999.2500      43.0509    -999.2500      79.0117      76.0871       0.1224       4.4530       2.6650
   2221.3823       8.8490       0.0810    -999.2500      45.5510    -999.2500      68.4300      57.4900       0.1324       4.4310       2.6290
   2221.5347       8.8245       0.0590    -999.2500      49.0686    -999.2500      77.9979      51.0362       0.1268       4.2409       2.6105
   2221.6870       8.8000       0.0370    -999.2500      52.5840    -999.2500      87.5600      44.5760       0.1173       4.0510       2.5920
   2221.8396       8.6535       0.0230    -999.2500      51.7378    -999.2500     100.5811      49.5917       0.1039       4.2280       2.6285
   2221.9919       8.5070       0.0090    -999.2500      50.8920    -999.2500     113.5960      54.6050       0.0909       4.4050       2.6650
   2222.1443       8.5165       0.0190    -999.2500      48.3346    -999.2500     119.1175      66.4981       0.0843       4.9486       2.6890
   2222.2966       8.5260       0.0290    -999.2500      45.7780    -999.2500     124.6370      78.3870       0.0809       5.4920       2.7130
   2222.4490       8.5945       0.0530    -999.2500      46.2090    -999.2500     113.4427      75.1206       0.0866       5.3915       2.7110
