#------------------------------------------------------------------------------
#
#   Created by  : [OpenWorks] Log Export Utility (LEXP)
#   Created on  : 2016-05-23 11:57:27
#   Project     : CANT971
#   User        : R5K
#   Interpreter : PEP
#
#------------------------------------------------------------------------------
~VERSION INFORMATION
VERS. 2.0 : CWLS Log ASCII Standard - version 2.0
WRAP.  NO : One line per depth step
~WELL INFORMATION
#MNEMONIC   .UNIT                                           VALUE :DESCRIPTION
#------------------------------------------------------------------------------
STRT        .M                                           813.0000 :START DEPTH
STOP        .M                                          2589.2219 :STOP DEPTH
STEP        .M                                             0.1524 :STEP
NULL        .                                           -999.2500 :NULL VALUE
COMP        .                                   PEMEX EXPL & PROD :COMPANY
WELL        .                                                  84 :WELL
FLD         .                                           CANTARELL :FIELD
LOC         .                                             UNKNOWN :LOCATION
CNTY        .                                      CD. DEL CARMEN :COUNTY
STAT        .                                            CAMPECHE :STATE
CTRY        .                                              MEXICO :COUNTRY
SRVC        .                                             UNKNOWN :SERVICE COMPANY
DATE        .                                             UNKNOWN :LOG DATE
UWI         .                                          3060000616 :UNIQUE WELL ID
XCOORD      .                                       601709.550000 :SURFACE X
YCOORD      .                                      2142344.590000 :SURFACE Y
LAT         .                                           19.373791 :LATITUDE
LON         .                                          -92.031505 :LONGITUDE
ELEV        .M                                            24.0000 :SURFACE ELEV
ELEV_TYPE   .                                                  KB :ELEV TYPE
~CURVE INFORMATION
#MNEMONIC.UNIT        API CODE       : CURVE DESCRIPTION
#------------------------------------------------------------------------------
DEPTH    .M                          : Measured Depth
CALI     .in          UNKNOWN        : CALI:UNKNOWN:rC:NONE:v0 (auto-composite)
DRHO     .g/cm3       UNKNOWN        : DRHO:UNKNOWN:rC:NONE:v0 (auto-composite)
DT       .us/ft       UNKNOWN        : DT:DT:rC:NONE:v0 (auto-composite)
ILD      .ohmm        UNKNOWN        : ILD:UNKNOWN:rC:NONE:v0 (auto-composite)
ILM      .ohmm        UNKNOWN        : ILM:UNKNOWN:rC:NONE:v0 (auto-composite)
LLD      .ohmm        UNKNOWN        : LLD:UNKNOWN:rC:NONE:v0 (auto-composite)
LLS      .ohmm        UNKNOWN        : LLS:UNKNOWN:rC:NONE:v0 (auto-composite)
MSFL     .ohmm        UNKNOWN        : MSFL:UNKNOWN:rC:NONE:v0 (auto-composite)
NPHI     .v/v_decimal UNKNOWN        : NPHI:NPHI:rC:NONE:v0 (auto-composite)
PEF      .b/elec      UNKNOWN        : PEF:UNKNOWN:rC:NONE:v0 (auto-composite)
RG       .UNKNOWN     UNKNOWN        : RG:UNKNOWN:rC:NONE:v0 (auto-composite)
RHOB     .g/cm3       UNKNOWN        : RHOB:UNKNOWN:rC:NONE:v0 (auto-composite)
~A     DEPTH         CALI         DRHO           DT          ILD          ILM          LLD          LLS         MSFL         NPHI          PEF           RG         RHOB
# ...
   2349.1919       8.9293       0.0097      62.5198       0.0000       0.0000    5664.8804     200.0150       2.2163       6.6992       3.5869      28.4266       2.7016
   2349.3445       9.0005       0.0188      61.6855       0.0000       0.0000    7037.0674     179.5492       3.0978       6.4931       3.5638      28.1683       2.7236
   2349.4968       9.0348       0.0310      58.8230       0.0000       0.0000    6335.3794     238.0300       2.9943       6.0336       3.5028      27.4822       2.7534
   2349.6492       9.0363       0.0460      54.8772       0.0000       0.0000    3795.1946     366.4971       2.0176       5.4379       3.4080      26.4168       2.7900
   2349.8015       9.0056       0.0570      53.7807       0.0000       0.0000    2314.3403     372.6529       1.5772       5.2485       3.3710      25.9051       2.8151
   2349.9541       8.9469       0.0645      54.2118       0.0000       0.0000    1751.9012     272.7675       1.6017       5.2770       3.3840      25.8735       2.8301
   2350.1064       8.9509       0.0558      55.6284       0.0000       0.0000    1277.0326     240.4075       1.7831       5.2642       3.3618      26.4654       2.8164
   2350.2588       9.0081       0.0332      57.5715       0.0000       0.0000     876.4106     265.2990       2.0975       5.2292       3.3096      27.5860       2.7783
   2350.4111       9.4312       0.0167      57.4768       0.0000       0.0000     528.0848     206.8303       1.9629       5.0664       2.8811      30.6466       2.6176
   2350.5637      10.1577       0.0052      56.2889       0.0000       0.0000     223.1184      79.2466       1.4560       4.8350       2.1406      35.3155       2.3554
   2350.7161      10.6050      -0.0208      56.7093       0.0000       0.0000      69.0029      17.8028       0.9941       4.3119       1.8154      45.9918       2.1420
   2350.8684      10.8259      -0.0583      57.9898       0.0000       0.0000      37.1897       9.9819       0.5688       3.6316       1.8269      61.5384       1.9682
   2351.0208      10.8607      -0.0758      57.8674       0.0000       0.0000      22.9076       6.9087       0.3599       2.9358       1.9313      68.3159       1.8969
   2351.1731      10.7469      -0.0773      56.9921       0.0000       0.0000      22.6138       7.6237       0.3238       2.2316       2.1098      68.0962       1.9074
   2351.3257      10.4584      -0.0707      64.9895       0.0000       0.0000      30.5645      12.1570       0.5688       2.0994       2.4426      62.3495       1.9878
   2351.4780      10.0338      -0.0576      77.7339       0.0000       0.0000      44.9474      19.6693       1.0331       2.2755       2.8959      52.2906       2.1226
   2351.6304       9.6116      -0.0264      79.0022       0.0000       0.0000      81.0916      26.1705       1.4348       2.6196       2.9666      53.0219       2.2951
   2351.7827       9.1915       0.0187      74.1068       0.0000       0.0000     133.8348      31.9004       1.7888       3.0539       2.7455      61.9838       2.4961
   2351.9353       9.0669       0.0389      66.9800       0.0000       0.0000     117.4664      27.9104       1.9012       3.4013       2.6734      86.2403       2.5269
   2352.0876       9.1626       0.0404      58.6586       0.0000       0.0000      49.5607      16.6723       1.8335       3.7019       2.7125     121.9021       2.4306
   2352.2400       9.1972       0.0378      73.1359       0.0000       0.0000      19.2734      10.1172       1.7068       9.0163       2.7765     162.7625       2.3344
   2352.3923       9.1872       0.0323      99.8642       0.0000       0.0000      16.4093       6.9760       1.5369      17.0248       2.8587     207.4125       2.2382
   2352.5449       9.1456       0.0259     109.1639       0.0000       0.0000      17.5087       6.0879       1.7787      19.7004       2.9350     244.7664       2.2006
   2352.6973       9.0815       0.0189     109.1284       0.0000       0.0000      21.4512       6.8160       2.3157      19.4993       3.0072     276.8869       2.2051
   2352.8496       9.0621       0.0142     105.3534       0.0000       0.0000      54.7788      13.4151       2.4495      18.7084       3.1791     286.2933       2.2424
   2353.0020       9.0741       0.0112      99.5677       0.0000       0.0000     108.7078      24.1303       2.3005      17.6004       3.4207     279.7752       2.3025
   2353.1543       9.0766       0.0115      83.7945       0.0000       0.0000     158.2105      37.8993       2.0764      15.4535       3.5788     250.2175       2.3963
   2353.3069       9.0726       0.0140      62.6687       0.0000       0.0000     204.6803      53.7608       1.8006      12.7460       3.6796     204.8733       2.5131
   2353.4592       9.0494       0.0135      60.4152       0.0000       0.0000     232.2034      62.2656       1.7516      12.7109       3.6527     152.4715       2.5792
   2353.6116       9.0133       0.0110      68.2428       0.0000       0.0000     247.0400      65.8445       1.8543      14.1135       3.5404      95.3442       2.6113
   2353.7639       8.9902       0.0091      86.8765       0.0000       0.0000     344.1074      86.6858       1.9186      18.4006       3.4693      58.8837       2.6322
   2353.9165       8.9757       0.0076     111.3045       0.0000       0.0000     494.9761     118.8214       1.9577      24.2346       3.4252      35.9452       2.6457
   2354.0688       8.9703       0.0067     117.4249       0.0000       0.0000     841.4196     212.1130       2.0057      26.1554       3.4147      23.5474       2.6525
   2354.2212       8.9708       0.0062     113.7605       0.0000       0.0000    1312.8824     344.4979       2.0593      25.9698       3.4257      17.8877       2.6550
   2354.3735       8.9805       0.0035     106.3359       0.0000       0.0000    3442.3113     809.9197       1.8777      25.1611       3.3884      15.5226       2.6295
   2354.5259       8.9961      -0.0005      96.8939       0.0000       0.0000    6614.1279    1484.7268       1.5483      24.0181       3.3208      15.2288       2.5864
   2354.6785       8.9973      -0.0014      88.1094       0.0000       0.0000   15553.5586    2022.1771       1.5314      21.8732       3.2444      14.6657       2.5678
   2354.8308       8.9898      -0.0004      79.6766       0.0000       0.0000   28035.1094    2475.2710       1.7064      19.1887       3.1626      13.9371       2.5643
   2354.9832       8.9682       0.0013      71.4076       0.0000       0.0000   24807.3066    2699.2732       1.6310      14.6750       3.1380      13.7743       2.5683
   2355.1355       8.9381       0.0033      63.2266       0.0000       0.0000   12156.6709    2785.8606       1.4053       9.1794       3.1475      13.9508       2.5769
   2355.2881       8.9162       0.0049      62.2269       0.0000       0.0000    9483.8916    2663.6646       1.4535       7.3197       3.1390      14.0454       2.5901
   2355.4404       8.8992       0.0065      65.0697       0.0000       0.0000   12655.7197    2419.1719       1.6621       7.4192       3.1199      14.0920       2.6062
   2355.5928       8.9026       0.0054      65.8378       0.0000       0.0000   13956.1709    2322.9956       1.9206       7.8318       3.1379      15.0501       2.6075
   2355.7451       8.9176       0.0029      65.4917       0.0000       0.0000   14186.3115    2311.6472       2.2077       8.4126       3.1769      16.5296       2.6005
   2355.8977       8.9281       0.0020      64.3346       0.0000       0.0000   19890.5508    2393.7258       2.0376       9.3657       3.2767      17.3881       2.5797
   2356.0500       8.9362       0.0020      62.7432       0.0000       0.0000   28672.6406    2528.3345       1.6104      10.5196       3.4106      17.8975       2.5511
   2356.2024       8.9439       0.0030      62.5511       0.0000       0.0000   31192.4219    2242.6643       1.8876      11.9236       3.5768      16.9424       2.5459
   2356.3547       8.9514       0.0045      63.1108       0.0000       0.0000   30275.1855    1726.3276       2.5514      13.4619       3.7608      15.1835       2.5534
