#------------------------------------------------------------------------------
#
#   Created by  : [OpenWorks] Log Export Utility (LEXP)
#   Created on  : 2016-05-23 11:56:24
#   Project     : CANT971
#   User        : R5K
#   Interpreter : PEP
#
#------------------------------------------------------------------------------
~VERSION INFORMATION
VERS. 2.0 : CWLS Log ASCII Standard - version 2.0
WRAP.  NO : One line per depth step
~WELL INFORMATION
#MNEMONIC   .UNIT                                           VALUE :DESCRIPTION
#------------------------------------------------------------------------------
STRT        .M                                           741.4294 :START DEPTH
STOP        .M                                          2768.5020 :STOP DEPTH
STEP        .M                                             0.1524 :STEP
NULL        .                                           -999.2500 :NULL VALUE
COMP        .                                             UNKNOWN :COMPANY
WELL        .                                                 470 :WELL
FLD         .                                             UNKNOWN :FIELD
LOC         .                                             UNKNOWN :LOCATION
CNTY        .                                             UNKNOWN :COUNTY
STAT        .                                             UNKNOWN :STATE
CTRY        .                                             UNKNOWN :COUNTRY
SRVC        .                                             UNKNOWN :SERVICE COMPANY
DATE        .                                             UNKNOWN :LOG DATE
UWI         .                                                 470 :UNIQUE WELL ID
XCOORD      .                                       598706.890000 :SURFACE X
YCOORD      .                                      2143306.000000 :SURFACE Y
LAT         .                                           19.382628 :LATITUDE
LON         .                                          -92.060044 :LONGITUDE
ELEV        .M                                             0.0000 :SURFACE ELEV
ELEV_TYPE   .                                                  NA :ELEV TYPE
~CURVE INFORMATION
#MNEMONIC.UNIT        API CODE       : CURVE DESCRIPTION
#------------------------------------------------------------------------------
DEPTH    .M                          : Measured Depth
CALI     .inches      UNKNOWN        : CALI:litodensidad:rC:NONE:v0 (auto-composite)
CGR      .API         UNKNOWN        : CGR:PETROWORKS:rC:NONE:v1 
DRHO     .g/cm3       UNKNOWN        : DRHO:litodensidad:rC:NONE:v0 (auto-composite)
DT       .us/ft       UNKNOWN        : DT:PETROWORKS:rC:NONE:v1 
GR       .API         UNKNOWN        : GR:PETROWORKS:rC:NONE:v8 
ILD      .ohm.m       UNKNOWN        : ILD:PETROWORKS:rC:NONE:v1 
ILM      .ohm.m       UNKNOWN        : ILM:PETROWORKS:rC:NONE:v1 
LLD      .ohm.m       UNKNOWN        : LLD:resistivos:rC:NONE:v0 (auto-composite)
LLS      .ohm.m       UNKNOWN        : LLS:resistivos:rC:NONE:v0 (auto-composite)
MSFL     .ohm.m       UNKNOWN        : MSFL:resistivos:rC:NONE:v0 (auto-composite)
NPHI     .v/v_decimal UNKNOWN        : NPHI:PETROWORKS:rC:NONE:v1 
PEF      .UNKNOWN     UNKNOWN        : PEF:litodensidad:rC:NONE:v0 (auto-composite)
POTA     .wtpercent   UNKNOWN        : POTA:PETROWORKS:rC:NONE:v1 
RHOB     .g/cm3       UNKNOWN        : RHOB:litodensidad:rC:NONE:v0 (auto-composite)
THOR     .ppm         UNKNOWN        : THOR:PETROWORKS:rC:NONE:v1 
URAN     .ppm         UNKNOWN        : URAN:PETROWORKS:rC:NONE:v1 
~A     DEPTH         CALI          CGR         DRHO           DT           GR          ILD          ILM          LLD          LLS         MSFL         NPHI          PEF         POTA         RHOB         THOR         URAN
# ...
   1953.7715    -999.2500      16.2693    -999.2500    -999.2500      28.3175       2.9535       3.0082    -999.2500    -999.2500    -999.2500       0.0559    -999.2500       0.0061    -999.2500       1.4874       1.2846
   1953.9238    -999.2500      18.1569    -999.2500    -999.2500      29.9130       2.8908       2.9526    -999.2500    -999.2500    -999.2500       0.0590    -999.2500       0.0064    -999.2500       1.8297       1.4040
   1954.0763    -999.2500      19.5349    -999.2500    -999.2500      28.6182       2.7600       2.9046    -999.2500    -999.2500    -999.2500       0.0567    -999.2500       0.0070    -999.2500       1.9239       1.3878
   1954.2286    -999.2500      18.9212    -999.2500    -999.2500      28.7241       2.7464       2.7235    -999.2500    -999.2500    -999.2500       0.0538    -999.2500       0.0064    -999.2500       2.0191       1.3470
   1954.3811    -999.2500      17.7965    -999.2500    -999.2500      30.0780       2.6678       2.6627    -999.2500    -999.2500    -999.2500       0.0552    -999.2500       0.0061    -999.2500       1.8596       1.2847
   1954.5334    -999.2500      17.5115    -999.2500    -999.2500      29.8287       2.5292       2.4472    -999.2500    -999.2500    -999.2500       0.0573    -999.2500       0.0060    -999.2500       1.8336       1.2748
   1954.6858    -999.2500      17.3428    -999.2500    -999.2500      30.0094       2.3389       2.3314    -999.2500    -999.2500    -999.2500       0.0540    -999.2500       0.0063    -999.2500       1.6717       1.3236
   1954.8383    -999.2500      18.3268    -999.2500    -999.2500      32.6207       2.2491       2.0994    -999.2500    -999.2500    -999.2500       0.0462    -999.2500       0.0066    -999.2500       1.7836       1.4782
   1954.9906    -999.2500      16.0887    -999.2500    -999.2500      37.1830       2.2613       1.7967    -999.2500    -999.2500    -999.2500       0.0413    -999.2500       0.0062    -999.2500       1.4115       1.3771
   1955.1431    -999.2500      17.5253    -999.2500    -999.2500      38.1595       2.1851       1.8495    -999.2500    -999.2500    -999.2500       0.0434    -999.2500       0.0070    -999.2500       1.4156       1.4089
   1955.2954    -999.2500      18.7645    -999.2500    -999.2500      33.9483       2.2135       1.9265    -999.2500    -999.2500    -999.2500       0.0491    -999.2500       0.0079    -999.2500       1.3683       1.4017
   1955.4479    -999.2500      18.3495    -999.2500    -999.2500      30.7885       2.2921       1.8350    -999.2500    -999.2500    -999.2500       0.0593    -999.2500       0.0082    -999.2500       1.1342       1.3359
   1955.6002    -999.2500      19.2006    -999.2500    -999.2500      26.5866       2.2114       2.2810    -999.2500    -999.2500    -999.2500       0.0718    -999.2500       0.0084    -999.2500       1.2394       1.4149
   1955.7527    -999.2500      22.6291    -999.2500    -999.2500      25.6777       2.2349       2.8549    -999.2500    -999.2500    -999.2500       0.0793    -999.2500       0.0094    -999.2500       1.6991       1.5805
   1955.9050    -999.2500      25.9582    -999.2500    -999.2500      27.1970       2.2565       2.8886    -999.2500    -999.2500    -999.2500       0.0694    -999.2500       0.0106    -999.2500       2.0248       1.6682
   1956.0575    -999.2500      21.7519    -999.2500    -999.2500      28.4517       2.4092       2.5919    -999.2500    -999.2500    -999.2500       0.0375    -999.2500       0.0078    -999.2500       2.1262       1.5497
   1956.2098    -999.2500      20.4305    -999.2500    -999.2500      34.0960       2.4107       2.4096    -999.2500    -999.2500    -999.2500       0.0250    -999.2500       0.0072    -999.2500       2.0555       1.4398
   1956.3622    -999.2500      17.1277    -999.2500    -999.2500      39.2602       2.4324       1.9470    -999.2500    -999.2500    -999.2500       0.0286    -999.2500       0.0070    -999.2500       1.3290       1.2360
   1956.5146    -999.2500      15.7062    -999.2500    -999.2500      38.3029       2.4225       1.7565    -999.2500    -999.2500    -999.2500       0.0484    -999.2500       0.0068    -999.2500       1.0424       1.0958
   1956.6670    -999.2500      17.9856    -999.2500    -999.2500      36.8523       2.4638       1.6598    -999.2500    -999.2500    -999.2500       0.0587    -999.2500       0.0077    -999.2500       1.2608       1.1177
   1956.8195    -999.2500      17.8907    -999.2500    -999.2500      35.6873       2.4329       2.1357    -999.2500    -999.2500    -999.2500       0.0466    -999.2500       0.0073    -999.2500       1.3960       1.0848
   1956.9718    -999.2500      20.0932    -999.2500    -999.2500      33.6696       2.6182       2.1183    -999.2500    -999.2500    -999.2500       0.0303    -999.2500       0.0076    -999.2500       1.8192       1.3609
   1957.1243    -999.2500      24.8959    -999.2500    -999.2500      32.8086       2.6103       2.1916    -999.2500    -999.2500    -999.2500       0.0225    -999.2500       0.0099    -999.2500       2.0313       1.7338
   1957.2766    -999.2500      24.4923    -999.2500    -999.2500      33.5393       2.5660       2.4170    -999.2500    -999.2500    -999.2500       0.0206    -999.2500       0.0096    -999.2500       2.0522       1.7403
   1957.4291    -999.2500      22.5191    -999.2500    -999.2500      29.0432       2.5283       2.5954    -999.2500    -999.2500    -999.2500       0.0240    -999.2500       0.0090    -999.2500       1.8465       1.7162
   1957.5814    -999.2500      21.6123    -999.2500    -999.2500      30.7909       2.6121       2.5979    -999.2500    -999.2500    -999.2500       0.0220    -999.2500       0.0087    -999.2500       1.7198       1.6853
   1957.7339    -999.2500      19.9396    -999.2500    -999.2500      29.9588       2.6958       2.5588    -999.2500    -999.2500    -999.2500       0.0195    -999.2500       0.0081    -999.2500       1.5665       1.6440
   1957.8862    -999.2500      19.5207    -999.2500    -999.2500      30.5747       2.6724       2.5992    -999.2500    -999.2500    -999.2500       0.0199    -999.2500       0.0082    -999.2500       1.4300       1.5910
   1958.0387    -999.2500      19.9957    -999.2500    -999.2500      27.6753       2.7164       2.6557    -999.2500    -999.2500    -999.2500       0.0281    -999.2500       0.0082    -999.2500       1.5499       1.6217
   1958.1910    -999.2500      16.8780    -999.2500    -999.2500      31.6872       2.7751       2.5385    -999.2500    -999.2500    -999.2500       0.0365    -999.2500       0.0068    -999.2500       1.3381       1.4566
   1958.3434    -999.2500      18.1396    -999.2500    -999.2500      32.5384       2.7326       2.4906    -999.2500    -999.2500    -999.2500       0.0420    -999.2500       0.0074    -999.2500       1.4231       1.5148
   1958.4958    -999.2500      17.5568    -999.2500    -999.2500      30.7058       2.7055       2.5277    -999.2500    -999.2500    -999.2500       0.0455    -999.2500       0.0074    -999.2500       1.2655       1.4850
   1958.6482    -999.2500      17.7439    -999.2500    -999.2500      31.4063       2.7287       2.4822    -999.2500    -999.2500    -999.2500       0.0558    -999.2500       0.0072    -999.2500       1.4154       1.5363
   1958.8007    -999.2500      15.9096    -999.2500    -999.2500      32.3250       2.7880       2.3263    -999.2500    -999.2500    -999.2500       0.0674    -999.2500       0.0065    -999.2500       1.2423       1.4088
   1958.9530    -999.2500      18.6202    -999.2500    -999.2500      29.7368       2.7317       2.3514    -999.2500    -999.2500    -999.2500       0.0770    -999.2500       0.0074    -999.2500       1.5464       1.5646
   1959.1055    -999.2500      19.3127    -999.2500    -999.2500      31.4182       2.6664       2.3806    -999.2500    -999.2500    -999.2500       0.0831    -999.2500       0.0075    -999.2500       1.6538       1.5836
   1959.2578    -999.2500      18.2444    -999.2500    -999.2500      32.2924       2.6326       2.3804    -999.2500    -999.2500    -999.2500       0.0854    -999.2500       0.0073    -999.2500       1.4790       1.4482
