#------------------------------------------------------------------------------
#
#   Created by  : [OpenWorks] Log Export Utility (LEXP)
#   Created on  : 2016-05-23 11:52:48
#   Project     : CANT971
#   User        : R5K
#   Interpreter : PEP
#
#------------------------------------------------------------------------------
~VERSION INFORMATION
VERS. 2.0 : CWLS Log ASCII Standard - version 2.0
WRAP.  NO : One line per depth step
~WELL INFORMATION
#MNEMONIC   .UNIT                                           VALUE :DESCRIPTION
#------------------------------------------------------------------------------
STRT        .M                                           688.5826 :START DEPTH
STOP        .M                                          3180.0178 :STOP DEPTH
STEP        .M                                             0.1524 :STEP
NULL        .                                           -999.2500 :NULL VALUE
COMP        .                                   PEMEX EXPL & PROD :COMPANY
WELL        .                                               2092D :WELL
FLD         .                                           CANTARELL :FIELD
LOC         .                                             UNKNOWN :LOCATION
CNTY        .                                      CD. DEL CARMEN :COUNTY
STAT        .                                            CAMPECHE :STATE
CTRY        .                                              MEXICO :COUNTRY
SRVC        .                                             UNKNOWN :SERVICE COMPANY
DATE        .                                             UNKNOWN :LOG DATE
UWI         .                                          3060000657 :UNIQUE WELL ID
XCOORD      .                                       601715.500000 :SURFACE X
YCOORD      .                                      2142373.650000 :SURFACE Y
LAT         .                                           19.374053 :LATITUDE
LON         .                                          -92.031447 :LONGITUDE
ELEV        .M                                            30.0000 :SURFACE ELEV
ELEV_TYPEF  .b/elec                                            KB :ELEV TYPE
~CURVE INFORMATION
#MNEMONIC.UNIT        API CODE       : CURVE DESCRIPTION
#------------------------------------------------------------------------------
DEPTH    .M                          : Measured Depth
CALI     .in          UNKNOWN        : CALI:UNKNOWN:rC:NONE:v0 (auto-composite)
CGR      .API         UNKNOWN        : CGR:UNKNOWN:rC:NONE:v0 (auto-composite)
DRHO     .g/cm3       UNKNOWN        : DRHO:UNKNOWN:rC:NONE:v0 (auto-composite)
DT       .us/ft       UNKNOWN        : DT:DT:rC:NONE:v0 (auto-composite)
GR       .API         UNKNOWN        : GR:UNKNOWN:rC:NONE:v0 (auto-composite)
ILD      .ohmm        UNKNOWN        : ILD:UNKNOWN:rC:NONE:v0 (auto-composite)
ILM      .ohmm        UNKNOWN        : ILM:UNKNOWN:rC:NONE:v0 (auto-composite)
LLD      .ohmm        UNKNOWN        : LLD:UNKNOWN:rC:NONE:v0 (auto-composite)
LLS      .ohmm        UNKNOWN        : LLS:UNKNOWN:rC:NONE:v0 (auto-composite)
MSFL     .ohmm        UNKNOWN        : MSFL:UNKNOWN:rC:NONE:v0 (auto-composite)
NPHI     .v/v_decimal UNKNOWN        : NPHI:PETROWORKS:rC:NONE:v1 
PEF      .b/elec      UNKNOWN        : PEF:UNKNOWN:rC:NONE:v0 (auto-composite)
POTA     .wtpercent   UNKNOWN        : POTA:UNKNOWN:rC:NONE:v0 (auto-composite)
RHOB     .g/cm3       UNKNOWN        : RHOB:UNKNOWN:rC:NONE:v0 (auto-composite)
SFLU     .ohmm       UNKNOWN        : SFLU:induccion:rC:NONE:v0 (auto-composite)
THOR     .ppm         UNKNOWN        : THOR:UNKNOWN:rC:NONE:v0 (auto-composite)
URAN     .ppm         UNKNOWN        : URAN:UNKNOWN:rC:NONE:v0 (auto-composite)
~A     DEPTH         CALI          CGR         DRHO           DT           GR          ILD          ILM          LLD          LLS         MSFL         NPHI          PEF         POTA         RHOB         SFLU         THOR         URAN
# ...
   2544.8147      10.3895      46.2927       0.0430     117.2177      72.3872    -999.2500    -999.2500       2.0610       2.4809       4.5101       0.4876       2.9632       0.0124       1.8917    -999.2500       8.4956       2.9101
   2544.9670       9.9955      46.7537       0.0477     119.1552      69.7869    -999.2500    -999.2500       2.8623       2.8948       5.7843       0.4442       3.0001       0.0115       1.9353    -999.2500       8.9945       2.5457
   2545.1194       9.6154      47.1367       0.0402     120.0211      65.5656    -999.2500    -999.2500       3.9215       3.5430       7.8248       0.3657       3.1848       0.0107       1.9993    -999.2500       9.4689       1.9953
   2545.2717       9.3963      43.2081       0.0482     112.9348      59.3189    -999.2500    -999.2500       7.3989       6.2093      10.3514       0.2447       3.4824       0.0106       2.1378    -999.2500       8.3734       1.7199
   2545.4241       9.2438      37.4911       0.0627     102.0214      52.2319    -999.2500    -999.2500      11.8795       9.7128      13.0797       0.1152       3.8267       0.0108       2.3072    -999.2500       6.6266       1.5585
   2545.5767       9.2043      30.8447       0.0793      87.5047      45.1263    -999.2500    -999.2500      27.5847      21.9977      12.4605       0.0488       4.1432       0.0093       2.4650    -999.2500       5.2200       1.6257
   2545.7290       9.2118      23.8113       0.0968      70.5185      38.0129    -999.2500    -999.2500      47.9654      37.9403      10.4469       0.0256       4.4481       0.0071       2.6179    -999.2500       3.9551       1.7881
   2545.8813       9.2246      18.6515       0.0847      61.8893      34.0512    -999.2500    -999.2500     123.8998      80.8510      20.8730       0.0162       4.5030       0.0060       2.6566    -999.2500       2.8647       1.8682
   2546.0337       9.2396      14.2753       0.0601      57.1574      31.4079    -999.2500    -999.2500     223.0707     135.0417      36.5023       0.0131       4.4534       0.0054       2.6476    -999.2500       1.8474       1.9138
   2546.1863       9.2575      13.7961       0.0569      55.0397      34.0349    -999.2500    -999.2500     208.8436     128.9726      53.2863       0.0129       4.4486       0.0059       2.6521    -999.2500       1.3901       2.2251
   2546.3386       9.2765      14.9038       0.0624      54.7156      38.8080    -999.2500    -999.2500     148.4400      98.3654      70.5406       0.0148       4.4621       0.0068       2.6621    -999.2500       1.1609       2.6446
   2546.4910       9.2986      19.5046       0.0569      54.8340      45.1836    -999.2500    -999.2500     107.9199      67.4254      59.1382       0.0195       4.5693       0.0092       2.6533    -999.2500       1.4129       2.9454
   2546.6433       9.3221      25.5450       0.0469      55.1910      52.2196    -999.2500    -999.2500      75.5939      36.3483      35.9262       0.0249       4.7153       0.0121       2.6368    -999.2500       1.8632       3.1973
   2546.7959       9.3732      26.8439       0.0387      56.1602      54.7919    -999.2500    -999.2500      73.2504      33.0790      25.2527       0.0278       4.7926       0.0132       2.6278    -999.2500       1.6878       3.2031
   2546.9482       9.4357      26.1807       0.0312      57.4413      55.5171    -999.2500    -999.2500      83.3145      41.3175      19.7681       0.0289       4.8416       0.0135       2.6218    -999.2500       1.2535       3.1072
   2547.1006       9.5916      23.1419       0.0322      57.4327      50.4033    -999.2500    -999.2500     135.8459      69.5879      23.7972       0.0236       4.9273       0.0116       2.6415    -999.2500       1.2982       2.8772
   2547.2529       9.7863      19.1158       0.0367      56.7764      42.8631    -999.2500    -999.2500     206.0248     106.1828      31.7799       0.0154       5.0281       0.0089       2.6720    -999.2500       1.5419       2.5916
   2547.4053       9.8881      15.9079       0.0415      55.3831      39.1627    -999.2500    -999.2500     265.8370     129.1855      52.6750       0.0119       4.9055       0.0073       2.6859    -999.2500       1.1036       2.5839
   2547.5579       9.9508      13.0439       0.0465      53.7826      37.0769    -999.2500    -999.2500     321.2897     146.4724      78.9999       0.0111       4.6889       0.0063       2.6930    -999.2500       0.3786       2.6932
   2547.7102       9.9803      12.4719       0.0558      53.2214      36.7327    -999.2500    -999.2500     318.0877     139.0563      78.0149       0.0134       4.5576       0.0066       2.6893    -999.2500       0.1563       2.6938
   2547.8625       9.9963      12.8383       0.0668      53.3164      37.1015    -999.2500    -999.2500     290.8715     121.5264      65.8486       0.0176       4.4611       0.0074       2.6813    -999.2500       0.1398       2.6498
   2548.0149      10.0056      12.2151       0.0714      53.8126      37.4293    -999.2500    -999.2500     297.9082     123.4412      65.2358       0.0196       4.4252       0.0070       2.6740    -999.2500       0.2221       2.7585
   2548.1675      10.0121      11.1850       0.0734      54.4372      37.7402    -999.2500    -999.2500     319.0276     133.3504      69.3730       0.0204       4.4142       0.0062       2.6670    -999.2500       0.3451       2.9299
   2548.3198      10.0098      10.4775       0.0676      54.8296      37.8646    -999.2500    -999.2500     299.8303     128.8584      65.2681       0.0194       4.3781       0.0054       2.6682    -999.2500       0.4711       3.0302
   2548.4722      10.0038       9.9032       0.0586      55.0593      37.9120    -999.2500    -999.2500     263.9880     118.4208      57.7604       0.0170       4.3317       0.0045       2.6727    -999.2500       0.5985       3.1011
   2548.6245       9.9942      11.5240       0.0504      54.9147      39.7301    -999.2500    -999.2500     223.5527      99.7620      50.3432       0.0162       4.4111       0.0051       2.6687    -999.2500       0.9011       3.1618
   2548.7771       9.9832      14.0619       0.0424      54.6335      42.2880    -999.2500    -999.2500     181.1985      77.6686      42.9639       0.0159       4.5430       0.0062       2.6612    -999.2500       1.2769       3.2183
   2548.9294       9.9888      15.8472       0.0382      54.4836      42.0882    -999.2500    -999.2500     184.0070     102.8831      48.0721       0.0152       4.6572       0.0067       2.6678    -999.2500       1.4625       3.0252
   2549.0818      10.0014      17.3168       0.0357      54.4216      40.7315    -999.2500    -999.2500     205.7628     147.9451      58.4193       0.0142       4.7640       0.0070       2.6804    -999.2500       1.5683       2.7274
   2549.2341      10.0011      17.4169       0.0304      54.2029      37.7093    -999.2500    -999.2500     243.6576     144.5169      41.8672       0.0121       4.7836       0.0067       2.6773    -999.2500       1.8289       2.3401
   2549.3865       9.9956      16.9576       0.0239      53.9483      34.0069    -999.2500    -999.2500     288.1444     121.2829      14.3281       0.0098       4.7677       0.0062       2.6678    -999.2500       2.1528       1.9163
   2549.5391       9.9766      17.6817       0.0142      54.1096      33.9793    -999.2500    -999.2500     218.3936      91.0857       7.1364       0.0103       4.8597       0.0066       2.6427    -999.2500       2.1964       1.7565
   2549.6914       9.9522      18.8912       0.0032      54.5577      35.4590    -999.2500    -999.2500     101.7863      58.0325       8.2905       0.0125       4.9960       0.0075       2.6112    -999.2500       2.1249       1.7051
   2549.8438       9.9425      20.9353       0.0028      55.8239      40.2156    -999.2500    -999.2500      59.2903      41.6883      12.6224       0.0161       5.0607       0.0084       2.6084    -999.2500       2.4056       2.0633
   2549.9961       9.9390      23.3257       0.0068      57.5486      46.3325    -999.2500    -999.2500      47.5569      32.2799      18.2735       0.0204       5.0957       0.0095       2.6174    -999.2500       2.8324       2.5916
