#------------------------------------------------------------------------------
#
#   Created by  : [OpenWorks] Log Export Utility (LEXP)
#   Created on  : 2016-05-23 11:55:46
#   Project     : CANT971
#   User        : R5K
#   Interpreter : PEP
#
#------------------------------------------------------------------------------
~VERSION INFORMATION
VERS. 2.0 : CWLS Log ASCII Standard - version 2.0
WRAP.  NO : One line per depth step
~WELL INFORMATION
#MNEMONIC   .UNIT                                           VALUE :DESCRIPTION
#------------------------------------------------------------------------------
STRT        .M                                           292.5192 :START DEPTH
STOP        .M                                          2727.7188 :STOP DEPTH
STEP        .M                                             0.1524 :STEP
NULL        .                                           -999.2500 :NULL VALUE
COMP        .                                   PEMEX EXPL & PROD :COMPANY
WELL        .                                                  39 :WELL
FLD         .                                           CANTARELL :FIELD
LOC         .                                             UNKNOWN :LOCATION
CNTY        .                                      CD. DEL CARMEN :COUNTY
STAT        .                                            CAMPECHE :STATE
CTRY        .                                              MEXICO :COUNTRY
SRVC        .                                             UNKNOWN :SERVICE COMPANY
DATE        .                                             UNKNOWN :LOG DATE
UWI         .                                          3060000161 :UNIQUE WELL ID
XCOORD      .                                       603360.280000 :SURFACE X
YCOORD      .                                      2145098.760000 :SURFACE Y
LAT         .                                           19.398594 :LATITUDE
LON         .                                          -92.015639 :LONGITUDE
ELEV        .M                                            27.1400 :SURFACE ELEV
ELEV_TYPE   .                                                  KB :ELEV TYPE
~CURVE INFORMATION
#MNEMONIC.UNIT        API CODE       : CURVE DESCRIPTION
#------------------------------------------------------------------------------
DEPTH    .M                          : Measured Depth
CALI     .inches      UNKNOWN        : CALI:Import:rC:NONE:v0 (auto-composite)
DRHO     .g/cm3       UNKNOWN        : DRHO:Import:rC:NONE:v0 (auto-composite)
DT       .us/ft       UNKNOWN        : DT:Import:rC:NONE:v0 (auto-composite)
GR       .API         UNKNOWN        : GR:Import:rC:NONE:v0 (auto-composite)
ILD      .ohm.m       UNKNOWN        : ILD:Import:rC:NONE:v0 (auto-composite)
LLD      .ohm.m       UNKNOWN        : LLD:Import:rC:NONE:v0 (auto-composite)
LLS      .ohm.m       UNKNOWN        : LLS:Import:rC:NONE:v0 (auto-composite)
MSFL     .ohm.m       UNKNOWN        : MSFL:Import:rC:NONE:v0 (auto-composite)
NPHI     .v/v_decimal UNKNOWN        : NPHI:Import:rC:NONE:v0 (auto-composite)
RHOB     .g/cm3       UNKNOWN        : RHOB:Import:rC:NONE:v0 (auto-composite)
~A     DEPTH         CALI         DRHO           DT           GR          ILD          LLD          LLS         MSFL         NPHI         RHOB
# ...
   1265.4408       0.0000       0.0000      40.0000      49.7060       0.2000       0.2000       0.2000       0.2000      -0.1500       2.0000
   1265.5931       0.0000       0.0000      40.0000      50.2333       0.2000       0.2000       0.2000       0.2000      -0.1500       2.0000
   1265.7456       0.0000       0.0000      40.0000      50.3307       0.2000       0.2000       0.2000       0.2000      -0.1500       2.0000
   1265.8979       0.0000       0.0000      40.0000      49.6346       0.2000       0.2000       0.2000       0.2000      -0.1500       2.0000
   1266.0504       0.0000       0.0000      40.0000      47.5323       0.2000       0.2000       0.2000       0.2000      -0.1500       2.0000
   1266.2028       0.0000       0.0000      40.0000      45.5362       0.2000       0.2000       0.2000       0.2000      -0.1500       2.0000
   1266.3552       0.0000       0.0000      40.0000      43.7239       0.2000       0.2000       0.2000       0.2000      -0.1500       2.0000
   1266.5076       0.0000       0.0000      40.0000      43.4175       0.2000       0.2000       0.2000       0.2000      -0.1500       2.0000
   1266.6600       0.0000       0.0000      40.0000      45.6641       0.2000       0.2000       0.2000       0.2000      -0.1500       2.0000
   1266.8124       0.0000       0.0000      40.0000      47.4788       0.2000       0.2000       0.2000       0.2000      -0.1500       2.0000
   1266.9648       0.0000       0.0000      40.0000      48.5589       0.2000       0.2000       0.2000       0.2000      -0.1500       2.0000
   1267.1172       0.0000       0.0000      40.0000      47.2212       0.2000       0.2000       0.2000       0.2000      -0.1500       2.0000
   1267.2697       0.0000       0.0000      40.0000      41.8525       0.2000       0.2000       0.2000       0.2000      -0.1500       2.0000
   1267.4220       0.0000       0.0000      40.0000      38.5618       0.2000       0.2000       0.2000       0.2000      -0.1500       2.0000
   1267.5743       0.0000       0.0000      40.0000      38.7483       0.2000       0.2000       0.2000       0.2000      -0.1500       2.0000
   1267.7268       0.0000       0.0000      40.0000      39.7106       0.2000       0.2000       0.2000       0.2000      -0.1500       2.0000
   1267.8792       0.0000       0.0000      40.0000      41.9409       0.2000       0.2000       0.2000       0.2000      -0.1500       2.0000
   1268.0316       0.0000       0.0000      40.0000      43.6847       0.2000       0.2000       0.2000       0.2000      -0.1500       2.0000
   1268.1840       0.0000       0.0000      40.0000      44.6493       0.2000       0.2000       0.2000       0.2000      -0.1500       2.0000
   1268.3364       0.0000       0.0000      40.0000      45.1264       0.2000       0.2000       0.2000       0.2000      -0.1500       2.0000
   1268.4888       0.0000       0.0000      40.0000      44.8196       0.2000       0.2000       0.2000       0.2000      -0.1500       2.0000
   1268.6412       0.0000       0.0000      40.0000      44.9923       0.2000       0.2000       0.2000       0.2000      -0.1500       2.0000
   1268.7936       0.0000       0.0000      40.0000      45.9204       0.2000       0.2000       0.2000       0.2000      -0.1500       2.0000
   1268.9460       0.0000       0.0000      40.0000      46.1989       0.2000       0.2000       0.2000       0.2000      -0.1500       2.0000
   1269.0984       0.0000       0.0000      40.0000      45.4775       0.2000       0.2000       0.2000       0.2000      -0.1500       2.0000
   1269.2509       0.0000       0.0000      40.0000      45.0018       0.2000       0.2000       0.2000       0.2000      -0.1500       2.0000
   1269.4032       0.0000       0.0000      40.0000      44.9071       0.2000       0.2000       0.2000       0.2000      -0.1500       2.0000
   1269.5555       0.0000       0.0000      40.0000      46.1039       0.2000       0.2000       0.2000       0.2000      -0.1500       2.0000
   1269.7080       0.0000       0.0000      40.0000      49.2573       0.2000       0.2000       0.2000       0.2000      -0.1500       2.0000
   1269.8604       0.0000       0.0000      40.0000      51.4330       0.2000       0.2000       0.2000       0.2000      -0.1500       2.0000
   1270.0128       0.0000       0.0000      40.0000      52.1174       0.2000       0.2000       0.2000       0.2000      -0.1500       2.0000
   1270.1652       0.0000       0.0000      40.0000      51.7704       0.2000       0.2000       0.2000       0.2000      -0.1500       2.0000
   1270.3176       0.0000       0.0000      40.0000      49.8862       0.2000       0.2000       0.2000       0.2000      -0.1500       2.0000
   1270.4700       0.0000       0.0000      40.0000      47.8677       0.2000       0.2000       0.2000       0.2000      -0.1500       2.0000
   1270.6224       0.0000       0.0000      40.0000      45.6535       0.2000       0.2000       0.2000       0.2000      -0.1500       2.0000
   1270.7748       0.0000       0.0000      40.0000      45.0340       0.2000       0.2000       0.2000       0.2000      -0.1500       2.0000
   1270.9272       0.0000       0.0000      40.0000      46.7533       0.2000       0.2000       0.2000       0.2000      -0.1500       2.0000
   1271.0796       0.0000       0.0000      40.0000      47.8233       0.2000       0.2000       0.2000       0.2000      -0.1500       2.0000
   1271.2321       0.0000       0.0000      40.0000      47.9627       0.2000       0.2000       0.2000       0.2000      -0.1500       2.0000
   1271.3844       0.0000       0.0000      40.0000      48.5771       0.2000       0.2000       0.2000       0.2000      -0.1500       2.0000
   1271.5367       0.0000       0.0000      40.0000      49.8772       0.2000       0.2000       0.2000       0.2000      -0.1500       2.0000
   1271.6892       0.0000       0.0000      40.0000      51.7075       0.2000       0.2000       0.2000       0.2000      -0.1500       2.0000
   1271.8416       0.0000       0.0000      40.0000      54.2856       0.2000       0.2000       0.2000       0.2000      -0.1500       2.0000
   1271.9940       0.0000       0.0000      40.0000      56.0762       0.2000       0.2000       0.2000       0.2000      -0.1500       2.0000
   1272.1464       0.0000       0.0000      40.0000      56.7774       0.2000       0.2000       0.2000       0.2000      -0.1500       2.0000
   1272.2988       0.0000       0.0000      40.0000      57.1886       0.2000       0.2000       0.2000       0.2000      -0.1500       2.0000
   1272.4512       0.0000       0.0000      40.0000      57.1971       0.2000       0.2000       0.2000       0.2000      -0.1500       2.0000
   1272.6036       0.0000       0.0000      40.0000      58.3927       0.2000       0.2000       0.2000       0.2000      -0.1500       2.0000
   1272.7560       0.0000       0.0000      40.0000      61.1994       0.2000       0.2000       0.2000       0.2000      -0.1500       2.0000
   1272.9084       0.0000       0.0000      40.0000      61.5447       0.2000       0.2000       0.2000       0.2000      -0.1500       2.0000
   1273.0608       0.0000       0.0000      40.0000      58.5268       0.2000       0.2000       0.2000       0.2000      -0.1500       2.0000
   1273.2131       0.0000       0.0000      40.0000      55.7148       0.2000       0.2000       0.2000       0.2000      -0.1500       2.0000
   1273.3656       0.0000       0.0000      40.0000      53.1778       0.2000       0.2000       0.2000       0.2000      -0.1500       2.0000
   1273.5179       0.0000       0.0000      40.0000      50.4864       0.2000       0.2000       0.2000       0.2000      -0.1500       2.0000
   1273.6704       0.0000       0.0000      40.0000      47.5926       0.2000       0.2000       0.2000       0.2000      -0.1500       2.0000
   1273.8228       0.0000       0.0000      40.0000      45.0704       0.2000       0.2000       0.2000       0.2000      -0.1500       2.0000
