#------------------------------------------------------------------------------
#
#   Created by  : [OpenWorks] Log Export Utility (LEXP)
#   Created on  : 2016-05-23 11:50:53
#   Project     : CANT971
#   User        : R5K
#   Interpreter : PEP
#
#------------------------------------------------------------------------------
~VERSION INFORMATION
VERS. 2.0 : CWLS Log ASCII Standard - version 2.0
WRAP.  NO : One line per depth step
~WELL INFORMATION
#MNEMONIC   .UNIT                                           VALUE :DESCRIPTION
#------------------------------------------------------------------------------
STRT        .M                                           494.4622 :START DEPTH
STOP        .M                                          2707.4626 :STOP DEPTH
STEP        .M                                             0.1524 :STEP
NULL        .                                           -999.2500 :NULL VALUE
COMP        .                                   PEMEX EXPL & PROD :COMPANY
WELL        .                                                1042 :WELL
FLD         .                                           CANTARELL :FIELD
LOC         .                                             UNKNOWN :LOCATION
CNTY        .                                      CD. DEL CARMEN :COUNTY
STAT        .                                            CAMPECHE :STATE
CTRY        .                                              MEXICO :COUNTRY
SRVC        .                                             UNKNOWN :SERVICE COMPANY
DATE        .                                             UNKNOWN :LOG DATE
UWI         .                                          3060000495 :UNIQUE WELL ID
XCOORD      .                                       596162.680000 :SURFACE X
YCOORD      .                                      2150604.600000 :SURFACE Y
LAT         .                                           19.448706 :LATITUDE
LON         .                                          -92.083900 :LONGITUDE
ELEV        .M                                            30.0000 :SURFACE ELEV
ELEV_TYPE   .                                                  KB :ELEV TYPE
~CURVE INFORMATION
#MNEMONIC.UNIT        API CODE       : CURVE DESCRIPTION
#------------------------------------------------------------------------------
DEPTH    .M                          : Measured Depth
CALI     .inches      UNKNOWN        : CALI:litodensidad:rC:NONE:v0 (auto-composite)
DT       .us/ft       UNKNOWN        : DT:DT:rC:NONE:v0 (auto-composite)
GR       .API         UNKNOWN        : GR:GR-Load:rC:NONE:v0 (auto-composite)
ILD      .ohmm        UNKNOWN        : ILD:UNKNOWN:rC:NONE:v0 (auto-composite)
LLD      .ohmm        UNKNOWN        : LLD:UNKNOWN:rC:NONE:v0 (auto-composite)
LLS      .ohmm        UNKNOWN        : LLS:UNKNOWN:rC:NONE:v0 (auto-composite)
MSFL     .ohmm        UNKNOWN        : MSFL:UNKNOWN:rC:NONE:v0 (auto-composite)
NPHI     .v/v_decimal UNKNOWN        : NPHI:NPHI:rC:NONE:v0 (auto-composite)
~A     DEPTH         CALI           DT           GR          ILD          LLD          LLS         MSFL         NPHI
# ...
   2408.3015       7.9950    -999.2500      22.7403       0.2000     258.1083     201.4341      78.4958       0.1024
   2408.4539       7.9950    -999.2500      22.9253       0.2000     251.9866     198.1991      85.0908       0.0940
   2408.6062       7.9955    -999.2500      23.2359       0.2000     207.7825     161.7140      57.3253       0.0869
   2408.7585       7.9965    -999.2500      23.6731       0.2000     165.6277     127.2606      32.8493       0.0810
   2408.9111       7.9980    -999.2500      24.1533       0.2000     134.6895     103.9274      26.3779       0.0785
   2409.0635       8.0000    -999.2500      24.6765       0.2000     113.6942      87.6605      26.7382       0.0794
   2409.2158       7.9982    -999.2500      25.0985       0.2000     144.8912     108.4861      62.9596       0.0936
   2409.3682       7.9927    -999.2500      25.4187       0.2000     183.8712     133.8315      95.2210       0.1211
   2409.5208       7.9938    -999.2500      28.6464       0.2000     262.5363     182.2231     107.2910       0.1425
   2409.6731       8.0013    -999.2500      34.7918       0.2000     334.3056     224.4761     116.8189       0.1579
   2409.8254       8.0171    -999.2500      35.7234       0.2000     372.2899     236.6534     113.8923       0.1668
   2409.9778       8.0411    -999.2500      31.4053       0.2000     407.0674     247.0635     112.2067       0.1692
   2410.1304       8.0394    -999.2500      29.7315       0.2000     426.7324     249.1458     116.3698       0.1728
   2410.2827       8.0124    -999.2500      30.7123       0.2000     456.1870     256.1775     122.5275       0.1777
   2410.4351       7.9937    -999.2500      31.0724       0.2000     530.0587     285.6657     137.7357       0.1852
   2410.5874       7.9832    -999.2500      30.8110       0.2000     619.8660     320.3311     152.5912       0.1953
   2410.7397       7.9767    -999.2500      31.7949       0.2000     779.3484     377.6325     165.9050       0.1935
   2410.8923       7.9742    -999.2500      34.0298       0.2000     903.8604     420.5548     178.9637       0.1801
   2411.0447       7.9735    -999.2500      34.6351       0.2000     879.3680     402.2089     190.9359       0.1595
   2411.1970       7.9745    -999.2500      33.6085       0.2000     828.3582     374.1122     192.7193       0.1317
   2411.3494       7.9778    -999.2500      37.0662       0.2000     668.3140     305.9216     152.6086       0.1110
   2411.5020       7.9833    -999.2500      45.0301       0.2000     527.0919     245.8506     125.6007       0.0974
   2411.6543       7.9857    -999.2500      46.7555       0.2000     460.6100     218.0215     150.6225       0.0895
   2411.8066       7.9852    -999.2500      42.2299       0.2000     393.7584     189.5589     161.8013       0.0875
   2411.9590       7.9835    -999.2500      38.2203       0.2000     325.4871     158.6658     119.8560       0.0853
   2412.1113       7.9805    -999.2500      34.7296       0.2000     265.9814     132.2132      82.7350       0.0831
   2412.2639       7.9785    -999.2500      32.6516       0.2000     239.0066     122.2406      63.5177       0.0854
   2412.4163       7.9775    -999.2500      31.9898       0.2000     216.5177     114.6174      53.8897       0.0922
   2412.5686       7.9740    -999.2500      31.1017       0.2000     210.1392     115.4320      78.6996       0.1003
   2412.7209       7.9680    -999.2500      29.9858       0.2000     202.4823     114.6861      97.0373       0.1099
   2412.8735       7.9700    -999.2500      29.1296       0.2000     190.3392     108.4634      92.6597       0.1119
   2413.0259       7.9800    -999.2500      28.5338       0.2000     176.4465     101.1783      89.0152       0.1066
   2413.1782       7.9847    -999.2500      27.8376       0.2000     156.6060      90.2816      87.8635       0.1001
   2413.3306       7.9842    -999.2500      27.0403       0.2000     142.6285      83.1840      92.8957       0.0924
   2413.4832       7.9747    -999.2500      27.1319       0.2000     147.9693      88.6040     118.3031       0.0942
   2413.6355       7.9562    -999.2500      28.1155       0.2000     167.9092     103.0889     141.5279       0.1054
   2413.7878       7.9528    -999.2500      26.4577       0.2000     234.4938     146.5363     157.7789       0.1144
   2413.9402       7.9643    -999.2500      22.1401       0.2000     289.3191     182.9062     169.2359       0.1210
   2414.0925       7.9903    -999.2500      21.8382       0.2000     307.6943     197.3382     165.8327       0.1171
   2414.2451       8.0309    -999.2500      25.5681       0.2000     301.3185     195.5867     153.9630       0.1028
   2414.3975       8.0621    -999.2500      35.0216       0.2000     219.8361     144.7267     116.4019       0.0897
   2414.5498       8.0841    -999.2500      50.2045       0.2000     150.8736     101.2447      82.7649       0.0780
   2414.7021       8.0814    -999.2500      54.8149       0.2000     118.7972      79.4999      60.6892       0.0710
   2414.8547       8.0544    -999.2500      48.8052       0.2000      94.8519      63.2663      42.3092       0.0685
   2415.0071       8.0420    -999.2500      42.1107       0.2000      94.1755      62.8040      34.5056       0.0679
   2415.1594       8.0440    -999.2500      34.7304       0.2000      96.3189      64.2612      31.6103       0.0693
   2415.3118       8.0402    -999.2500      33.8298       0.2000     106.3036      71.0560      42.3641       0.0698
   2415.4644       8.0307    -999.2500      39.4414       0.2000     119.6249      80.0199      52.7165       0.0693
   2415.6167       8.0230    -999.2500      38.4880       0.2000     141.9659      94.8470      61.9837       0.0694
   2415.7690       8.0170    -999.2500      30.9562       0.2000     154.3708     102.9623      66.8160       0.0699
   2415.9214       8.0457    -999.2500      28.7939       0.2000     140.6572      93.4345      59.9906       0.0717
   2416.0737       8.1087    -999.2500      32.0306       0.2000     125.3704      82.6809      48.6621       0.0746
   2416.2263       8.1387    -999.2500      37.5598       0.2000     106.0283      68.7679      25.7270       0.0759
   2416.3787       8.1362    -999.2500      45.3875       0.2000      95.1900      60.4627      11.0542       0.0755
   2416.5310       8.1332    -999.2500      47.0375       0.2000     105.6786      66.2217      17.1024       0.0725
   2416.6833       8.1297    -999.2500      42.4728       0.2000     123.2434      76.5817      23.6594       0.0670
   2416.8359       8.1142    -999.2500      42.9007       0.2000     158.0815      98.1731      31.4580       0.0676
   2416.9883       8.0867    -999.2500      48.3363       0.2000     183.1624     114.0192      49.4851       0.0743
   2417.1406       8.0504    -999.2500      46.4102       0.2000     185.0547     116.2113      91.8210       0.0840
   2417.2930       8.0054    -999.2500      37.0742       0.2000     177.3247     112.5589     115.8701       0.0967
   2417.4456       7.9694    -999.2500      33.2925       0.2000     147.3241      95.3796      97.5941       0.1118
   2417.5979       7.9424    -999.2500      35.0848       0.2000     123.4676      82.6466      74.4009       0.1293
   2417.7502       7.9300    -999.2500      34.3080       0.2000     113.5692      80.0148      40.0371       0.1480
   2417.9026       7.9320    -999.2500      30.9443       0.2000     106.8658      78.8946      21.7434       0.1677
   2418.0549       7.9333    -999.2500      27.6928       0.2000     107.2349      81.1203      39.0203       0.1728
   2418.2075       7.9338    -999.2500      24.5542       0.2000     104.2875      80.3837      45.2029       0.1634
   2418.3599       7.9239    -999.2500      24.5100       0.2000      94.1860      73.2570      27.4527       0.1444
   2418.5122       7.9040    -999.2500      27.5637       0.2000      86.3063      67.1805      16.0296       0.1157
   2418.6646       7.9008    -999.2500      28.6768       0.2000      83.0989      63.3128      17.9118       0.0903
