#------------------------------------------------------------------------------
#
#   Created by  : [OpenWorks] Log Export Utility (LEXP)
#   Created on  : 2016-05-23 11:55:58
#   Project     : CANT971
#   User        : R5K
#   Interpreter : PEP
#
#------------------------------------------------------------------------------
~VERSION INFORMATION
VERS. 2.0 : CWLS Log ASCII Standard - version 2.0
WRAP.  NO : One line per depth step
~WELL INFORMATION
#MNEMONIC   .UNIT                                           VALUE :DESCRIPTION
#------------------------------------------------------------------------------
STRT        .M                                           646.6334 :START DEPTH
STOP        .M                                          2755.8494 :STOP DEPTH
STEP        .M                                             0.1524 :STEP
NULL        .                                           -999.2500 :NULL VALUE
COMP        .                                   PEMEX EXPL & PROD :COMPANY
WELL        .                                                  42 :WELL
FLD         .                                           CANTARELL :FIELD
LOC         .                                             UNKNOWN :LOCATION
CNTY        .                                      CD. DEL CARMEN :COUNTY
STAT        .                                            CAMPECHE :STATE
CTRY        .                                              MEXICO :COUNTRY
SRVC        .                                             UNKNOWN :SERVICE COMPANY
DATE        .                                             UNKNOWN :LOG DATE
UWI         .                                          3060000464 :UNIQUE WELL ID
XCOORD      .                                       599690.710000 :SURFACE X
YCOORD      .                                      2143036.470000 :SURFACE Y
LAT         .                                           19.380144 :LATITUDE
LON         .                                          -92.050691 :LONGITUDE
ELEV        .M                                            26.7400 :SURFACE ELEV
ELEV_TYPE   .                                                  KB :ELEV TYPE
~CURVE INFORMATION
#MNEMONIC.UNIT        API CODE       : CURVE DESCRIPTION
#------------------------------------------------------------------------------
DEPTH    .M                          : Measured Depth
CALI     .inches      UNKNOWN        : CALI:Import:rC:NONE:v0 (auto-composite)
DRHO     .g/cm3       UNKNOWN        : DRHO:Import:rC:NONE:v0 (auto-composite)
DT       .us/ft       UNKNOWN        : DT:Import:rC:NONE:v0 (auto-composite)
GR       .API         UNKNOWN        : GR:Import:rC:NONE:v0 (auto-composite)
ILD      .ohm.m       UNKNOWN        : ILD:Import:rC:NONE:v0 (auto-composite)
ILM      .ohm.m       UNKNOWN        : ILM:Import:rC:NONE:v0 (auto-composite)
LLD      .ohm.m       UNKNOWN        : LLD:Import:rC:NONE:v0 (auto-composite)
LLS      .ohm.m       UNKNOWN        : LLS:Import:rC:NONE:v0 (auto-composite)
MSFL     .ohm.m       UNKNOWN        : MSFL:Import:rC:NONE:v0 (auto-composite)
NPHI     .v/v_decimal UNKNOWN        : NPHI:Import:rC:NONE:v0 (auto-composite)
PEF      .b/elec      UNKNOWN        : PEF:Import:rC:NONE:v0 (auto-composite)
RHOB     .g/cm3       UNKNOWN        : RHOB:Import:rC:NONE:v0 (auto-composite)
~A     DEPTH         CALI         DRHO           DT           GR          ILD          ILM          LLD          LLS         MSFL         NPHI          PEF         RHOB
# ...
   2277.9229       8.9060      -0.0090      45.9881      35.3130    -999.2500    -999.2500    4091.5999    2622.6509    -999.2500       0.0065       4.9410       2.8120
   2278.0754       8.9060      -0.0080      46.8470      36.4790    -999.2500    -999.2500    4186.4092    2663.2981    -999.2500       0.0057       4.4760       2.8130
   2278.2278       8.9060      -0.0055      46.6655      36.3192    -999.2500    -999.2500    4294.1094    3144.0959    -999.2500       0.0057       4.4950       2.8215
   2278.3801       8.9060      -0.0030      46.4840      36.1590    -999.2500    -999.2500    4401.9331    3625.4441    -999.2500       0.0057       4.5140       2.8300
   2278.5325       8.9060      -0.0030      46.4850      33.2192    -999.2500    -999.2500    4948.9585    5954.0483    -999.2500       0.0060       4.6817       2.8300
   2278.6851       8.9060      -0.0030      46.4860      30.2710    -999.2500    -999.2500    5496.6792    8285.6133    -999.2500       0.0063       4.8490       2.8300
   2278.8374       8.9060      -0.0030      46.5440      30.5795    -999.2500    -999.2500    5478.2549    8166.5425    -999.2500       0.0070       5.1673       2.8290
   2278.9897       8.9060      -0.0030      46.6020      30.8890    -999.2500    -999.2500    5459.8052    8047.3052    -999.2500       0.0078       5.4850       2.8280
   2279.1421       8.9060      -0.0035      46.9955      33.0856    -999.2500    -999.2500    5248.7837    6789.9785    -999.2500       0.0101       6.0805       2.8250
   2279.2947       8.9060      -0.0040      47.3890      35.2890    -999.2500    -999.2500    5037.4409    5530.7368    -999.2500       0.0126       6.6750       2.8220
   2279.4470       8.9060      -0.0040      47.9070      37.6182    -999.2500    -999.2500    4263.0747    6174.9702    -999.2500       0.0126       6.5834       2.8140
   2279.5994       8.9060      -0.0040      48.4250      39.9550    -999.2500    -999.2500    3488.6741    6819.2329    -999.2500       0.0125       6.4920       2.8060
   2279.7517       8.9060       0.0025      48.8400      42.8995    -999.2500    -999.2500    3536.7839    6760.5205    -999.2500       0.0125       5.6084       2.8065
   2279.9041       8.9060       0.0090      49.2550      45.8540    -999.2500    -999.2500    3584.9021    6701.7979    -999.2500       0.0126       4.7260       2.8070
   2280.0566       8.9060       0.0090      50.2544      45.7721    -999.2500    -999.2500    4011.8992    5511.6587    -999.2500       0.0128       4.7485       2.8105
   2280.2090       8.9060       0.0090      51.2540      45.6900    -999.2500    -999.2500    4439.0229    4321.1670    -999.2500       0.0130       4.7710       2.8140
   2280.3613       8.9060       0.0085      51.1835      44.8954    -999.2500    -999.2500    4404.1343    6530.0347    -999.2500       0.0136       4.9643       2.8170
   2280.5137       8.9060       0.0080      51.1130      44.0980    -999.2500    -999.2500    4369.2310    8739.8330    -999.2500       0.0142       5.1570       2.8200
   2280.6663       8.9060       0.0055      50.7101      44.5971    -999.2500    -999.2500    4114.4893    6953.1753    -999.2500       0.0149       4.9557       2.8190
   2280.8186       8.9060       0.0030      50.3070      45.0980    -999.2500    -999.2500    3859.6079    5165.5391    -999.2500       0.0156       4.7550       2.8180
   2280.9709       8.9060      -0.0000      50.0106      48.3332    -999.2500    -999.2500    3885.6621    5278.3555    -999.2500       0.0169       4.7705       2.8115
   2281.1233       8.9060      -0.0030      49.7140      51.5810    -999.2500    -999.2500    3911.7339    5391.2480    -999.2500       0.0181       4.7860       2.8050
   2281.2759       8.9060      -0.0040      43.8194      54.4348    -999.2500    -999.2500    4086.6741    7271.8818    -999.2500       0.0196       5.2841       2.7975
   2281.4282       8.9060      -0.0050      37.9200      57.3000    -999.2500    -999.2500    4261.7539    9154.0186    -999.2500       0.0211       5.7810       2.7900
   2281.5806       8.9060      -0.0060      39.0045      56.1130    -999.2500    -999.2500    4708.9902    5297.0264    -999.2500       0.0243       5.7159       2.7850
   2281.7329       8.9060      -0.0070      40.0900      54.9210    -999.2500    -999.2500    5156.6401    1436.4700    -999.2500       0.0275       5.6510       2.7800
   2281.8853       8.9070      -0.0065      46.2882      55.2528    -999.2500    -999.2500    5137.8003    4293.2988    -999.2500       0.0315       5.8752       2.7755
   2282.0378       8.9080      -0.0060      52.4930      55.5860    -999.2500    -999.2500    5118.9409    7153.1289    -999.2500       0.0355       6.0990       2.7710
   2282.1902       8.9165      -0.0050      54.6940      57.4978    -999.2500    -999.2500    4936.5684    6900.8564    -999.2500       0.0411       7.8563       2.7655
   2282.3425       8.9250      -0.0040      56.8940      59.4150    -999.2500    -999.2500    4753.9810    6648.2871    -999.2500       0.0470       9.6100       2.7600
   2282.4949       8.9515      -0.0040      60.2620      61.2184    -999.2500    -999.2500    4829.4766    5467.0552    -999.2500       0.0583      12.9021       2.7340
   2282.6475       8.9780      -0.0040      63.6290      63.0270    -999.2500    -999.2500    4905.0708    4284.2852    -999.2500       0.0692      16.1880       2.7080
   2282.7998       9.0045      -0.0040      63.5865      62.2522    -999.2500    -999.2500    5868.7007    2406.5156    -999.2500       0.0625      15.7461       2.7200
   2282.9521       9.0310      -0.0040      63.5440      61.4750    -999.2500    -999.2500    6833.7051     526.0670    -999.2500       0.0555      15.3050       2.7320
   2283.1045       9.0305      -0.0055      63.2440      62.5393    -999.2500    -999.2500    6760.3965     655.3231    -999.2500       0.0555      12.8204       2.7305
   2283.2571       9.0300      -0.0070      62.9440      63.6070    -999.2500    -999.2500    6686.9741     784.7800    -999.2500       0.0559      10.3400       2.7290
   2283.4094       9.0265      -0.0135      62.4100      63.0519    -999.2500    -999.2500    5064.9150    3477.8416    -999.2500       0.0589       9.2757       2.7050
   2283.5618       9.0230      -0.0200      61.8760      62.4950    -999.2500    -999.2500    3442.7329    6171.1069    -999.2500       0.0618       8.2130       2.6810
   2283.7141       9.0165      -0.0280      60.7961      55.8633    -999.2500    -999.2500    3637.0608    6406.2637    -999.2500       0.0608       7.6396       2.6825
   2283.8665       9.0100      -0.0360      59.7160      49.2090    -999.2500    -999.2500    3831.4280    6641.4678    -999.2500       0.0593       7.0670       2.6840
   2284.0190       9.0070      -0.0390      55.3607      49.3897    -999.2500    -999.2500    3745.3071    7759.5464    -999.2500       0.0527       6.8372       2.6930
   2284.1714       9.0040      -0.0420      51.0040      49.5710    -999.2500    -999.2500    3659.1580    8877.9902    -999.2500       0.0462       6.6080       2.7020
   2284.3237       8.9950      -0.0400      51.0070      49.5605    -999.2500    -999.2500    3191.9836    6882.6328    -999.2500       0.0432       5.9576       2.7110
   2284.4761       8.9860      -0.0380      51.0100      49.5500    -999.2500    -999.2500    2724.5979    4886.3730    -999.2500       0.0402       5.3090       2.7200
   2284.6287       8.9459      -0.0260      50.9995      49.2186    -999.2500    -999.2500    2171.0554    4936.2310    -999.2500       0.0349       5.3290       2.7405
   2284.7810       8.9060      -0.0140      50.9890      48.8860    -999.2500    -999.2500    1617.1930    4986.1182    -999.2500       0.0296       5.3490       2.7610
   2284.9333       8.9060      -0.0105      50.7436      47.4877    -999.2500    -999.2500    1663.0889    6576.7529    -999.2500       0.0294       5.3465       2.7660
   2285.0857       8.9060      -0.0070      50.4980      46.0840    -999.2500    -999.2500    1709.0170    8168.5068    -999.2500       0.0295       5.3440       2.7710
