#------------------------------------------------------------------------------
#
#   Created by  : [OpenWorks] Log Export Utility (LEXP)
#   Created on  : 2016-05-23 11:56:46
#   Project     : CANT971
#   User        : R5K
#   Interpreter : PEP
#
#------------------------------------------------------------------------------
~VERSION INFORMATION
VERS. 2.0 : CWLS Log ASCII Standard - version 2.0
WRAP.  NO : One line per depth step
~WELL INFORMATION
#MNEMONIC   .UNIT                                           VALUE :DESCRIPTION
#------------------------------------------------------------------------------
STRT        .M                                           170.6880 :START DEPTH
STOP        .M                                          2221.8396 :STOP DEPTH
STEP        .M                                             0.1524 :STEP
NULL        .                                           -999.2500 :NULL VALUE
COMP        .                                   PEMEX EXPL & PROD :COMPANY
WELL        .                                                  51 :WELL
FLD         .                                           CANTARELL :FIELD
LOC         .                                             UNKNOWN :LOCATION
CNTY        .                                      CD. DEL CARMEN :COUNTY
STAT        .                                            CAMPECHE :STATE
CTRY        .                                              MEXICO :COUNTRY
SRVC        .                                             UNKNOWN :SERVICE COMPANY
DATE        .                                             UNKNOWN :LOG DATE
UWI         .                                          3060000165 :UNIQUE WELL ID
XCOORD      .                                       599727.990000 :SURFACE X
YCOORD      .                                      2147220.270000 :SURFACE Y
LAT         .                                           19.417949 :LATITUDE
LON         .                                          -92.050116 :LONGITUDE
ELEV        .M                                            27.8000 :SURFACE ELEV
ELEV_TYPE   .                                                  KB :ELEV TYPE
~CURVE INFORMATION
#MNEMONIC.UNIT        API CODE       : CURVE DESCRIPTION
#------------------------------------------------------------------------------
DEPTH    .M                          : Measured Depth
CAL      .inches      UNKNOWN        : CAL:CAL-Load:rC:NONE:v0 (auto-composite)
DRHO     .UNKNOWN     UNKNOWN        : DRHO:DRHO-Load:rC:NONE:v0 (auto-composite)
DT       .us/ft       UNKNOWN        : DT:DT:rC:NONE:v0 (auto-composite)
GR       .UNKNOWN     UNKNOWN        : GR:GR-Load:rC:NONE:v0 (auto-composite)
ILD      .UNKNOWN     UNKNOWN        : ILD:ILD-Load:rC:NONE:v0 (auto-composite)
NPHI     .v/v_decimal UNKNOWN        : NPHI:NPHI:rC:NONE:v0 (auto-composite)
RHOB     .UNKNOWN     UNKNOWN        : RHOB:RHOB-Load:rC:NONE:v0 (auto-composite)
SN       .UNKNOWN     UNKNOWN        : SN:SN-Load:rC:NONE:v0 (auto-composite)
~A     DEPTH          CAL         DRHO           DT           GR          ILD         NPHI         RHOB           SN
    170.6880      17.2240      -0.0400     179.2890    -999.2500       1.3090    -999.2500       2.2630       2.4060
    170.8404      17.2185      -0.0160     176.7204    -999.2500       1.3410    -999.2500       2.2715       2.3770
    170.9928      17.2130       0.0080     174.1520    -999.2500       1.3730    -999.2500       2.2800       2.3480
    171.1452      17.2020       0.0230     171.6840    -999.2500       1.3875    -999.2500       2.3125       2.3220
    171.2976      17.1910       0.0380     169.2160    -999.2500       1.4020    -999.2500       2.3450       2.2960
    171.4500      17.1915       0.0185     169.2665    -999.2500       1.4125    -999.2500       2.3365       2.3020
    171.6024      17.1920      -0.0010     169.3170    -999.2500       1.4230    -999.2500       2.3280       2.3080
    171.7548      17.1925      -0.0095     167.9960    -999.2500       1.4325    -999.2500       2.3225       2.3395
    171.9072      17.1930      -0.0180     166.6750    -999.2500       1.4420    -999.2500       2.3170       2.3710
    172.0596      17.1935      -0.0210     165.6020    -999.2500       1.4215    -999.2500       2.2845       2.3935
    172.2120      17.1940      -0.0240     164.5290    -999.2500       1.4010    -999.2500       2.2520       2.4160
    172.3644      17.1940      -0.0225     165.1170    -999.2500       1.3665    -999.2500       2.2545       2.4320
    172.5168      17.1940      -0.0210     165.7050    -999.2500       1.3320    -999.2500       2.2570       2.4480
    172.6692      17.1945      -0.0130     167.7725    -999.2500       1.2990    -999.2500       2.2675       2.4545
    172.8216      17.1950      -0.0050     169.8400    -999.2500       1.2660    -999.2500       2.2780       2.4610
    172.9740      17.1955      -0.0090     173.5449    -999.2500       1.2330    -999.2500       2.2675       2.4730
    173.1264      17.1960      -0.0130     177.2500    -999.2500       1.2000    -999.2500       2.2570       2.4850
    173.2788      17.1965      -0.0060     181.8081    -999.2500       1.1785    -999.2500       2.2495       2.5205
    173.4312      17.1970       0.0010     186.3660    -999.2500       1.1570    -999.2500       2.2420       2.5560
    173.5836      17.1975       0.0135     185.1445    -999.2500       1.1595    -999.2500       2.2445       2.6165
    173.7360      17.1980       0.0260     183.9230    -999.2500       1.1620    -999.2500       2.2470       2.6770
    173.8884      17.1985       0.0360     185.1480    -999.2500       1.1655    -999.2500       2.2575       2.6715
    174.0408      17.1990       0.0460     186.3730    -999.2500       1.1690    -999.2500       2.2680       2.6660
    174.1932      17.1920       0.0595     183.5134    -999.2500       1.1705    -999.2500       2.2745       2.6600
    174.3456      17.1850       0.0730     180.6540    -999.2500       1.1720    -999.2500       2.2810       2.6540
    174.4980      17.1730       0.0485     179.4435    -999.2500       1.1800    -999.2500       2.2420       2.6250
    174.6504      17.1610       0.0240     178.2330    -999.2500       1.1880    -999.2500       2.2030       2.5960
    174.8028      17.1615       0.0040     176.7775    -999.2500       1.2075    -999.2500       2.2035       2.5560
    174.9552      17.1620      -0.0160     175.3220    -999.2500       1.2270    -999.2500       2.2040       2.5160
    175.1076      17.1625      -0.0330     175.6180    -999.2500       1.2375    -999.2500       2.2255       2.4620
    175.2600      17.1630      -0.0500     175.9140    -999.2500       1.2480    -999.2500       2.2470       2.4080
    175.4124      17.1630      -0.0460     174.8510    -999.2500       1.2470    -999.2500       2.2655       2.3515
    175.5648      17.1630      -0.0420     173.7880    -999.2500       1.2460    -999.2500       2.2840       2.2950
    175.7172      17.1635      -0.0215     169.8779    -999.2500       1.2415    -999.2500       2.3010       2.2800
    175.8696      17.1640      -0.0010     165.9680    -999.2500       1.2370    -999.2500       2.3180       2.2650
    176.0220      17.1645       0.0340     161.1530    -999.2500       1.2215    -999.2500       2.3040       2.2740
    176.1744      17.1650       0.0690     156.3380    -999.2500       1.2060    -999.2500       2.2900       2.2830
    176.3268      17.1655       0.0630     152.8235    -999.2500       1.1840    -999.2500       2.2680       2.2905
    176.4792      17.1660       0.0570     149.3090    -999.2500       1.1620    -999.2500       2.2460       2.2980
    176.6316      17.1665       0.0495     151.7721    -999.2500       1.1340    -999.2500       2.2210       2.2595
    176.7840      17.1670       0.0420     154.2350    -999.2500       1.1060    -999.2500       2.1960       2.2210
    176.9364      17.1675       0.0375     165.7732    -999.2500       1.0785    -999.2500       2.1795       2.1620
    177.0888      17.1680       0.0330     177.3110    -999.2500       1.0510    -999.2500       2.1630       2.1030
    177.2412      17.1685       0.0395     187.9065    -999.2500       1.0285    -999.2500       2.1470       2.0675
    177.3936      17.1690       0.0460     198.5020    -999.2500       1.0060    -999.2500       2.1310       2.0320
    177.5460      17.1695       0.0605     198.1915    -999.2500       0.9805    -999.2500       2.1500       2.0065
    177.6984      17.1700       0.0750     197.8810    -999.2500       0.9550    -999.2500       2.1690       1.9810
    177.8508      17.1705       0.0640     196.6400    -999.2500       0.9375    -999.2500       2.1470       1.9515
    178.0032      17.1710       0.0530     195.3990    -999.2500       0.9200    -999.2500       2.1250       1.9220
    178.1556      17.1715       0.0465     194.3245    -999.2500       0.9080    -999.2500       2.0990       1.8680
    178.3080      17.1720       0.0400     193.2500    -999.2500       0.8960    -999.2500       2.0730       1.8140
    178.4604      17.1725       0.0565     192.2490    -999.2500       0.8860    -999.2500       2.0855       1.8215
    178.6128      17.1730       0.0730     191.2480    -999.2500       0.8760    -999.2500       2.0980       1.8290
    178.7652      17.1735       0.0670     189.9480    -999.2500       0.8680    -999.2500       2.0900       1.8640
    178.9176      17.1740       0.0610     188.6480    -999.2500       0.8600    -999.2500       2.0820       1.8990
    179.0700      17.1745       0.0530     187.7690    -999.2500       0.8530    -999.2500       2.0595       1.8910
    179.2224      17.1750       0.0450     186.8900    -999.2500       0.8460    -999.2500       2.0370       1.8830
    179.3748      17.1755       0.0260     186.1260    -999.2500       0.8420    -999.2500       2.0040       1.8635
    179.5272      17.1760       0.0070     185.3620    -999.2500       0.8380    -999.2500       1.9710       1.8440
    179.6796      17.1765       0.0075     184.6545    -999.2500       0.8435    -999.2500       1.9810       1.8500
    179.8320      17.1770       0.0080     183.9470    -999.2500       0.8490    -999.2500       1.9910       1.8560
    179.9844      17.1780       0.0255     183.4105    -999.2500       0.8575    -999.2500       2.0400       1.7530
    180.1368      17.1790       0.0430     182.8740    -999.2500       0.8660    -999.2500       2.0890       1.6500
    180.2892      17.1795       0.0375     182.0205    -999.2500       0.8780    -999.2500       2.1120       1.4655
    180.4416      17.1800       0.0320     181.1670    -999.2500       0.8900    -999.2500       2.1350       1.2810
    180.5940      17.1805       0.0125     180.5085    -999.2500       0.9040    -999.2500       2.1455       1.1855
    180.7464      17.1810      -0.0070     179.8500    -999.2500       0.9180    -999.2500       2.1560       1.0900
    180.8988      17.1815      -0.0020     179.3695    -999.2500       0.9400    -999.2500       2.1675       1.0490
    181.0512      17.1820       0.0030     178.8890    -999.2500       0.9620    -999.2500       2.1790       1.0080
