#------------------------------------------------------------------------------
#
#   Created by  : [OpenWorks] Log Export Utility (LEXP)
#   Created on  : 2016-05-23 11:56:14
#   Project     : CANT971
#   User        : R5K
#   Interpreter : PEP
#
#------------------------------------------------------------------------------
~VERSION INFORMATION
VERS. 2.0 : CWLS Log ASCII Standard - version 2.0
WRAP.  NO : One line per depth step
~WELL INFORMATION
#MNEMONIC   .UNIT                                           VALUE :DESCRIPTION
#------------------------------------------------------------------------------
STRT        .M                                          1862.0000 :START DEPTH
STOP        .M                                          3052.8535 :STOP DEPTH
STEP        .M                                             0.1524 :STEP
NULL        .                                           -999.2500 :NULL VALUE
COMP        .                                   PEMEX EXPL & PROD :COMPANY
WELL        .                                                446D :WELL
FLD         .                                           CANTARELL :FIELD
LOC         .                                             UNKNOWN :LOCATION
CNTY        .                                      CD. DEL CARMEN :COUNTY
STAT        .                                            CAMPECHE :STATE
CTRY        .                                              MEXICO :COUNTRY
SRVC        .                                             UNKNOWN :SERVICE COMPANY
DATE        .                                             UNKNOWN :LOG DATE
UWI         .                                            W-C-446D :UNIQUE WELL ID
XCOORD      .                                       598705.170000 :SURFACE X
YCOORD      .                                      2143305.170000 :SURFACE Y
LAT         .                                           19.382621 :LATITUDE
LON         .                                          -92.060061 :LONGITUDE
ELEV        .M                                            28.0000 :SURFACE ELEV
ELEV_TYPE   .                                                  KB :ELEV TYPE
~CURVE INFORMATION
#MNEMONIC.UNIT        API CODE       : CURVE DESCRIPTION
#------------------------------------------------------------------------------
DEPTH    .M                          : Measured Depth
CALI     .inches      UNKNOWN        : CALI:litodensidad:rC:NONE:v0 (auto-composite)
CGR      .API         UNKNOWN        : CGR:CGR-Load:rC:NONE:v0 (auto-composite)
DRHO     .g/cm3       UNKNOWN        : DRHO:litodensidad:rC:NONE:v0 (auto-composite)
DT       .us/ft       UNKNOWN        : DT:DT-Load:rC:NONE:v0 (auto-composite)
GR       .UNKNOWN     UNKNOWN        : GR:PETROWORKS:rC:NONE:v1 
LLD      .ohm.m       UNKNOWN        : LLD:PETROWORKS:rC:NONE:v1 
LLS      .UNKNOWN     UNKNOWN        : LLS:PETROWORKS:rC:NONE:v1 
MSFL     .UNKNOWN     UNKNOWN        : MSFL:PETROWORKS:rC:NONE:v1 
NPHI     .v/v_decimal UNKNOWN        : NPHI:PETROWORKS:rC:NONE:v2 
PEF      .UNKNOWN     UNKNOWN        : PEF:litodensidad:rC:NONE:v0 (auto-composite)
POTA     .UNKNOWN     UNKNOWN        : POTA:radioactividad:rC:NONE:v0 (auto-composite)
RHOB     .g/cm3       UNKNOWN        : RHOB:litodensidad:rC:NONE:v0 (auto-composite)
THOR     .ppm         UNKNOWN        : THOR:radioactividad:rC:NONE:v0 (auto-composite)
URAN     .ppm         UNKNOWN        : URAN:radioactividad:rC:NONE:v0 (auto-composite)
~A     DEPTH         CALI          CGR         DRHO           DT           GR          LLD          LLS         MSFL         NPHI          PEF         POTA         RHOB         THOR         URAN
# ...
   3046.1479       6.2313     125.4449       0.1885    -999.2500     113.0933       8.4008       7.8951      10.2253       0.0656       2.5186       0.0577       2.5523       5.4681      -1.4006
   3046.3003       6.2313     125.9435       0.1885    -999.2500     113.0933       8.3804       7.8701      10.2253       0.0655       2.5186       0.0578       2.5523       5.5479      -1.4571
   3046.4529       6.2313     126.4266       0.1885    -999.2500     113.0933       8.3739       7.8589      10.2253       0.0649       2.5186       0.0579       2.5523       5.6261      -1.5119
   3046.6052       6.2313     126.8389       0.1885    -999.2500     113.0933       8.3779       7.8587      10.2253       0.0651       2.5186       0.0580       2.5523       5.6931      -1.5587
   3046.7576       6.2313     127.6815       0.1885    -999.2500     113.0933       8.3763       7.8584      10.2253       0.0637       2.5186       0.0581       2.5523       5.8255      -1.6542
   3046.9099       6.2313     127.8215       0.1885    -999.2500     113.0933       8.3638       7.8634      10.2253       0.0636       2.5186       0.0581       2.5523       5.8475      -1.6700
   3047.0625       6.2313     127.8215       0.1885    -999.2500     113.0933       8.3633       7.8655      10.2253       0.0646       2.5186       0.0581       2.5523       5.8475      -1.6700
   3047.2148       6.2313     127.8214       0.1885    -999.2500     113.0933       8.3518       7.8558      10.2253       0.0656       2.5186       0.0581       2.5523       5.8475      -1.6700
   3047.3672       6.2313     127.8213       0.1885    -999.2500     113.0933       8.3453       7.8283      10.2253       0.0668       2.5186       0.0581       2.5523       5.8475      -1.6700
   3047.5195       6.2313     127.8212       0.1885    -999.2500     113.0933       8.3326       7.8090      10.2253       0.0670       2.5186       0.0581       2.5523       5.8474      -1.6700
   3047.6721       6.2313     127.8211       0.1885    -999.2500     113.0933       8.3388       7.8085      10.2253       0.0770       2.5186       0.0581       2.5523       5.8474      -1.6700
   3047.8245       6.2313     127.8209       0.1885    -999.2500     113.0933       8.3305       7.8066      10.2253       0.0876       2.5186       0.0581       2.5523       5.8474      -1.6700
   3047.9768       6.2313     127.8208       0.1885    -999.2500     113.0933       8.3196       7.8016      10.2253       0.0994       2.5186       0.0581       2.5523       5.8474      -1.6700
   3048.1292       6.2313     127.8207       0.1885    -999.2500     113.0933       8.3159       7.7990      10.2253       0.1012       2.5186       0.0581       2.5523       5.8473      -1.6699
   3048.2815       6.2313     127.8205       0.1885    -999.2500     113.0933       8.3106       7.7936      10.2253       0.1012       2.5186       0.0581       2.5523       5.8473      -1.6699
   3048.4341       6.2313     127.8204       0.1885    -999.2500     113.0933      13.2763      12.3073      10.2253       0.1012       2.5186       0.0581       2.5523       5.8473      -1.6699
   3048.5864       6.2313     127.8202       0.1885    -999.2500     113.0933      52.5287      26.7400      10.2253       0.1012       2.5186       0.0581       2.5523       5.8472      -1.6699
   3048.7388       6.2313     127.8200       0.1885    -999.2500     113.0933      60.5200      36.8890      10.2253       0.1012       2.5186       0.0581       2.5523       5.8472      -1.6699
   3048.8911       6.2313     127.8198       0.1885    -999.2500     113.0933      60.5200      36.8890      10.2253       0.1012       2.5186       0.0581       2.5523       5.8471      -1.6699
   3049.0437       6.2313     127.8196       0.1885    -999.2500     113.0933      60.5200      36.8890      10.2253       0.1012       2.5186       0.0581       2.5523       5.8471      -1.6698
   3049.1960       6.2313     127.8194       0.1885    -999.2500     113.0933      60.5200      36.8890      10.2253       0.1012       2.5186       0.0581       2.5523       5.8470      -1.6698
   3049.3484       6.2313     127.8191       0.1885    -999.2500     113.0932      60.5200      36.8890      10.2253       0.1012       2.5186       0.0581       2.5523       5.8470      -1.6698
   3049.5007       6.2313     127.8188       0.1885    -999.2500     113.0930      60.5200      36.8890      10.2253       0.1012       2.5186       0.0581       2.5523       5.8469      -1.6698
   3049.6533    -999.2500    -999.2500    -999.2500    -999.2500    -999.2500      60.5200      36.8890      10.2253    -999.2500    -999.2500    -999.2500    -999.2500    -999.2500    -999.2500
   3049.8057    -999.2500    -999.2500    -999.2500    -999.2500    -999.2500      60.5200      36.8890      10.2253    -999.2500    -999.2500    -999.2500    -999.2500    -999.2500    -999.2500
   3049.9580    -999.2500    -999.2500    -999.2500    -999.2500    -999.2500      60.5200      36.8890      10.2253    -999.2500    -999.2500    -999.2500    -999.2500    -999.2500    -999.2500
   3050.1104    -999.2500    -999.2500    -999.2500    -999.2500    -999.2500      60.5200      36.8890      10.2253    -999.2500    -999.2500    -999.2500    -999.2500    -999.2500    -999.2500
   3050.2627    -999.2500    -999.2500    -999.2500    -999.2500    -999.2500      60.5200      36.8890      10.2253    -999.2500    -999.2500    -999.2500    -999.2500    -999.2500    -999.2500
   3050.4153    -999.2500    -999.2500    -999.2500    -999.2500    -999.2500      60.5200      36.8890      10.2253    -999.2500    -999.2500    -999.2500    -999.2500    -999.2500    -999.2500
   3050.5676    -999.2500    -999.2500    -999.2500    -999.2500    -999.2500      60.5200      36.8890      10.2253    -999.2500    -999.2500    -999.2500    -999.2500    -999.2500    -999.2500
   3050.7200    -999.2500    -999.2500    -999.2500    -999.2500    -999.2500      60.5200      36.8890      10.2253    -999.2500    -999.2500    -999.2500    -999.2500    -999.2500    -999.2500
   3050.8723    -999.2500    -999.2500    -999.2500    -999.2500    -999.2500      60.5200      36.8890      10.2253    -999.2500    -999.2500    -999.2500    -999.2500    -999.2500    -999.2500
   3051.0249    -999.2500    -999.2500    -999.2500    -999.2500    -999.2500      60.5200      36.8890      10.2253    -999.2500    -999.2500    -999.2500    -999.2500    -999.2500    -999.2500
   3051.1772    -999.2500    -999.2500    -999.2500    -999.2500    -999.2500      60.5200      36.8890      10.2253    -999.2500    -999.2500    -999.2500    -999.2500    -999.2500    -999.2500
   3051.3296    -999.2500    -999.2500    -999.2500    -999.2500    -999.2500      60.5200      36.8890      10.2253    -999.2500    -999.2500    -999.2500    -999.2500    -999.2500    -999.2500
   3051.4819    -999.2500    -999.2500    -999.2500    -999.2500    -999.2500      60.5200      36.8890      10.2253    -999.2500    -999.2500    -999.2500    -999.2500    -999.2500    -999.2500
   3051.6345    -999.2500    -999.2500    -999.2500    -999.2500    -999.2500      60.5200      36.8890      10.2253    -999.2500    -999.2500    -999.2500    -999.2500    -999.2500    -999.2500
   3051.7869    -999.2500    -999.2500    -999.2500    -999.2500    -999.2500      60.5200      36.8890      10.2253    -999.2500    -999.2500    -999.2500    -999.2500    -999.2500    -999.2500
   3051.9392    -999.2500    -999.2500    -999.2500    -999.2500    -999.2500      60.5200      36.8890      10.2253    -999.2500    -999.2500    -999.2500    -999.2500    -999.2500    -999.2500
   3052.0916    -999.2500    -999.2500    -999.2500    -999.2500    -999.2500      60.5200      36.8890      10.2253    -999.2500    -999.2500    -999.2500    -999.2500    -999.2500    -999.2500
   3052.2439    -999.2500    -999.2500    -999.2500    -999.2500    -999.2500      60.5200      36.8890      10.2253    -999.2500    -999.2500    -999.2500    -999.2500    -999.2500    -999.2500
   3052.3965    -999.2500    -999.2500    -999.2500    -999.2500    -999.2500      60.5200      36.8890      10.2253    -999.2500    -999.2500    -999.2500    -999.2500    -999.2500    -999.2500
