#------------------------------------------------------------------------------
#
#   Created by  : [OpenWorks] Log Export Utility (LEXP)
#   Created on  : 2016-05-23 11:57:10
#   Project     : CANT971
#   User        : R5K
#   Interpreter : PEP
#
#------------------------------------------------------------------------------
~VERSION INFORMATION
VERS. 2.0 : CWLS Log ASCII Standard - version 2.0
WRAP.  NO : One line per depth step
~WELL INFORMATION
#MNEMONIC   .UNIT                                           VALUE :DESCRIPTION
#------------------------------------------------------------------------------
STRT        .M                                           345.0980 :START DEPTH
STOP        .M                                          2040.8528 :STOP DEPTH
STEP        .M                                             0.1524 :STEP
NULL        .                                           -999.2500 :NULL VALUE
COMP        .                                   PEMEX EXPL & PROD :COMPANY
WELL        .                                                  71 :WELL
FLD         .                                           CANTARELL :FIELD
LOC         .                                             UNKNOWN :LOCATION
CNTY        .                                      CD. DEL CARMEN :COUNTY
STAT        .                                            CAMPECHE :STATE
CTRY        .                                              MEXICO :COUNTRY
SRVC        .                                             UNKNOWN :SERVICE COMPANY
DATE        .                                             UNKNOWN :LOG DATE
UWI         .                                          3060000175 :UNIQUE WELL ID
XCOORD      .                                       599724.470000 :SURFACE X
YCOORD      .                                      2147216.900000 :SURFACE Y
LAT         .                                           19.417919 :LATITUDE
LON         .                                          -92.050150 :LONGITUDE
ELEV        .M                                            27.8000 :SURFACE ELEV
ELEV_TYPE   .                                                  KB :ELEV TYPE
~CURVE INFORMATION
#MNEMONIC.UNIT        API CODE       : CURVE DESCRIPTION
#------------------------------------------------------------------------------
DEPTH    .M                          : Measured Depth
DT       .us/ft       UNKNOWN        : DT:DT:rC:NONE:v0 (auto-composite)
GR       .UNKNOWN     UNKNOWN        : GR:GR-Load:rC:NONE:v0 (auto-composite)
ILD      .UNKNOWN     UNKNOWN        : ILD:ILD-Load:rC:NONE:v0 (auto-composite)
NPHI     .v/v_decimal UNKNOWN        : NPHI:NPHI:rC:NONE:v0 (auto-composite)
RG       .UNKNOWN     UNKNOWN        : RG:RG-Loader:rC:NONE:v0 (auto-composite)
RHOB     .UNKNOWN     UNKNOWN        : RHOB:RHOB-Load:rC:NONE:v0 (auto-composite)
~A     DEPTH           DT           GR          ILD         NPHI           RG         RHOB
# ...
    586.4996     127.1855      46.0496      81.5115    -999.2500    -999.2500    -999.2500
    586.6520     126.3470      45.9226      83.1768    -999.2500    -999.2500    -999.2500
    586.8044     125.9315      45.3280      84.1311    -999.2500    -999.2500    -999.2500
    586.9568     126.0935      44.0885      84.1101    -999.2500    -999.2500    -999.2500
    587.1093     131.2151      43.3708      84.0110    -999.2500    -999.2500    -999.2500
    587.2616     143.1097      43.3728      83.8045    -999.2500    -999.2500    -999.2500
    587.4140     149.6188      43.4709      83.4382    -999.2500    -999.2500    -999.2500
    587.5664     148.7713      43.7014      82.8528    -999.2500    -999.2500    -999.2500
    587.7188     148.3988      45.0046      82.1339    -999.2500    -999.2500    -999.2500
    587.8712     148.6753      47.7880      81.2319    -999.2500    -999.2500    -999.2500
    588.0236     149.5754      49.3844      79.9110    -999.2500    -999.2500    -999.2500
    588.1760     151.3277      49.3424      78.0145    -999.2500    -999.2500    -999.2500
    588.3284     152.9416      49.2176      76.0964    -999.2500    -999.2500    -999.2500
    588.4808     154.3665      48.9785      74.1486    -999.2500    -999.2500    -999.2500
    588.6332     156.3802      48.8242      72.4571    -999.2500    -999.2500    -999.2500
    588.7856     159.1976      48.7867      71.1171    -999.2500    -999.2500    -999.2500
    588.9380     154.6175      48.6244      70.3757    -999.2500    -999.2500    -999.2500
    589.0904     139.9359      48.2899      70.4557    -999.2500    -999.2500    -999.2500
    589.2428     131.7231      46.3685      70.7165    -999.2500    -999.2500    -999.2500
    589.3952     132.3456      42.2581      71.2255    -999.2500    -999.2500    -999.2500
    589.5476     134.9795      40.0504      71.7431    -999.2500    -999.2500    -999.2500
    589.7000     140.3613      40.4679      72.2726    -999.2500    -999.2500    -999.2500
    589.8524     148.0668      42.7567      72.9275    -999.2500    -999.2500    -999.2500
    590.0048     158.9476      47.6281      73.7544    -999.2500    -999.2500    -999.2500
    590.1572     165.4044      50.3706      74.5300    -999.2500    -999.2500    -999.2500
    590.3096     165.8239      50.1746      75.2350    -999.2500    -999.2500    -999.2500
    590.4620     165.7383      50.0698      75.9487    -999.2500    -999.2500    -999.2500
    590.6144     164.9633      50.0908      76.6743    -999.2500    -999.2500    -999.2500
    590.7668     162.5724      50.2091      77.3159    -999.2500    -999.2500    -999.2500
    590.9193     157.9750      50.4616      77.8424    -999.2500    -999.2500    -999.2500
    591.0716     153.9337      51.2668      78.6492    -999.2500    -999.2500    -999.2500
    591.2240     150.6518      52.8343      79.8407    -999.2500    -999.2500    -999.2500
    591.3764     148.0614      53.6445      80.5104    -999.2500    -999.2500    -999.2500
    591.5288     146.4154      53.4100      80.4639    -999.2500    -999.2500    -999.2500
    591.6812     146.2979      51.6314      80.3201    -999.2500    -999.2500    -999.2500
    591.8336     148.2688      47.7220      80.0426    -999.2500    -999.2500    -999.2500
    591.9860     149.3757      45.5061      79.7790    -999.2500    -999.2500    -999.2500
    592.1384     149.3017      45.6276      79.5345    -999.2500    -999.2500    -999.2500
    592.2908     148.5435      45.9896      79.4191    -999.2500    -999.2500    -999.2500
    592.4432     146.8516      46.6831      79.4811    -999.2500    -999.2500    -999.2500
    592.5956     146.1348      47.7559      79.6938    -999.2500    -999.2500    -999.2500
    592.7480     146.7493      49.3519      80.1133    -999.2500    -999.2500    -999.2500
    592.9005     146.2013      50.2598      80.6464    -999.2500    -999.2500    -999.2500
    593.0528     144.0659      50.2188      81.3354    -999.2500    -999.2500    -999.2500
    593.2052     142.8446      49.5243      82.0992    -999.2500    -999.2500    -999.2500
    593.3576     142.8721      47.9283      82.9657    -999.2500    -999.2500    -999.2500
    593.5100     143.5445      47.0343      83.4660    -999.2500    -999.2500    -999.2500
    593.6624     145.0979      47.1088      83.4634    -999.2500    -999.2500    -999.2500
    593.8148     145.9168      47.4629      83.4555    -999.2500    -999.2500    -999.2500
    593.9672     145.7318      48.2029      83.4400    -999.2500    -999.2500    -999.2500
    594.1196     145.2391      47.9192      83.3269    -999.2500    -999.2500    -999.2500
    594.2720     144.3267      46.2224      83.0799    -999.2500    -999.2500    -999.2500
    594.4244     143.0278      45.4166      82.9501    -999.2500    -999.2500    -999.2500
    594.5768     141.2013      45.8391      82.9811    -999.2500    -999.2500    -999.2500
    594.7292     140.1631      47.1544      83.1124    -999.2500    -999.2500    -999.2500
    594.8817     140.2011      49.7008      83.3814    -999.2500    -999.2500    -999.2500
    595.0340     140.7097      51.0702      83.8712    -999.2500    -999.2500    -999.2500
    595.1864     141.8612      50.8163      84.6642    -999.2500    -999.2500    -999.2500
    595.3388     142.4964      49.8803      86.0278    -999.2500    -999.2500    -999.2500
    595.4912     142.4264      48.0033      88.1747    -999.2500    -999.2500    -999.2500
    595.6436     142.0239      46.9291      89.3974    -999.2500    -999.2500    -999.2500
    595.7960     141.1669      46.9626      89.3509    -999.2500    -999.2500    -999.2500
    595.9484     140.7614      47.2835      89.1968    -999.2500    -999.2500    -999.2500
    596.1008     140.9729      48.0011      88.8948    -999.2500    -999.2500    -999.2500
    596.2532     141.5840      49.8527      88.3775    -999.2500    -999.2500    -999.2500
    596.4056     142.7405      53.2676      87.5643    -999.2500    -999.2500    -999.2500
    596.5580     144.4184      54.2512      86.2850    -999.2500    -999.2500    -999.2500
    596.7104     146.8083      51.8822      84.3661    -999.2500    -999.2500    -999.2500
    596.8628     148.1776      50.5727      82.6817    -999.2500    -999.2500    -999.2500
    597.0152     148.1532      50.7242      81.3192    -999.2500    -999.2500    -999.2500
    597.1676     147.3453      51.1215      80.4315    -999.2500    -999.2500    -999.2500
    597.3200     145.4673      51.8580      80.1955    -999.2500    -999.2500    -999.2500
    597.4724     144.4629      52.4650      79.9494    -999.2500    -999.2500    -999.2500
    597.6248     144.6519      52.8935      79.6895    -999.2500    -999.2500    -999.2500
    597.7772     145.3520      53.5201      79.1798    -999.2500    -999.2500    -999.2500
    597.9296     146.7507      54.4201      78.3274    -999.2500    -999.2500    -999.2500
    598.0820     147.3521      54.6456      77.5283    -999.2500    -999.2500    -999.2500
    598.2344     146.8651      53.9400      76.8027    -999.2500    -999.2500    -999.2500
    598.3868     146.6349      53.5991      76.0885    -999.2500    -999.2500    -999.2500
    598.5392     146.7554      53.7611      75.3900    -999.2500    -999.2500    -999.2500
    598.6917     147.2025      53.8373      74.7148    -999.2500    -999.2500    -999.2500
    598.8440     148.0955      53.7953      74.0713    -999.2500    -999.2500    -999.2500
    598.9964     148.5184      53.5520      73.7711    -999.2500    -999.2500    -999.2500
    599.1488     148.2994      53.0311      73.9421    -999.2500    -999.2500    -999.2500
    599.3012     147.0018      51.9210      74.3821    -999.2500    -999.2500    -999.2500
    599.4536     144.2304      49.9980      75.1916    -999.2500    -999.2500    -999.2500
    599.6060     142.7078      49.0506      75.9802    -999.2500    -999.2500    -999.2500
    599.7584     142.8918      49.4496      76.7402    -999.2500    -999.2500    -999.2500
