#------------------------------------------------------------------------------
#
#   Created by  : [OpenWorks] Log Export Utility (LEXP)
#   Created on  : 2016-05-11 12:45:47
#   Project     : CANT971
#   User        : R5K
#   Interpreter : PEP
#
#------------------------------------------------------------------------------
~VERSION INFORMATION
VERS. 2.0 : CWLS Log ASCII Standard - version 2.0
WRAP.  NO : One line per depth step
~WELL INFORMATION
#MNEMONIC   .UNIT                                           VALUE :DESCRIPTION
#------------------------------------------------------------------------------
STRT        .M                                           801.4664 :START DEPTH
STOP        .M                                          3402.1724 :STOP DEPTH
STEP        .M                                             0.1524 :STEP
NULL        .                                           -999.2500 :NULL VALUE
COMP        .                                   PEMEX EXPL & PROD :COMPANY
WELL        .                                        CANTARELL-85 :WELL
FLD         .                                           CANTARELL :FIELD
LOC         .                                             UNKNOWN :LOCATION
CNTY        .                                      CD. DEL CARMEN :COUNTY
STAT        .                                            CAMPECHE :STATE
CTRY        .                                              MEXICO :COUNTRY
SRVC        .                                             UNKNOWN :SERVICE COMPANY
DATE        .                                             UNKNOWN :LOG DATE
UWI         .                                          3060000185 :UNIQUE WELL ID
XCOORD      .                                       604541.690000 :SURFACE X
YCOORD      .                                      2141649.620000 :SURFACE Y
LAT         .                                           19.367365 :LATITUDE
LON         .                                          -92.004578 :LONGITUDE
ELEV        .M                                            30.0000 :SURFACE ELEV
ELEV_TYPE   .                                                  KB :ELEV TYPE
~CURVE INFORMATION
#MNEMONIC.UNIT        API CODE       : CURVE DESCRIPTION
#------------------------------------------------------------------------------
DEPTH    .M                          : Measured Depth
CALI     .inches      UNKNOWN        : CALI:Import:rC:NONE:v0 (auto-composite)
DRHO     .g/cm3       UNKNOWN        : DRHO:Import:rC:NONE:v0 (auto-composite)
DT       .us/ft       UNKNOWN        : DT:Import:rC:NONE:v0 (auto-composite)
GR       .API         UNKNOWN        : GR:Import:rC:NONE:v0 (auto-composite)
ILD      .ohm.m       UNKNOWN        : ILD:Import:rC:NONE:v0 (auto-composite)
ILM      .ohm.m       UNKNOWN        : ILM:Import:rC:NONE:v0 (auto-composite)
NPHI     .v/v_decimal UNKNOWN        : NPHI:Import:rC:NONE:v0 (auto-composite)
RHOB     .g/cm3       UNKNOWN        : RHOB:Import:rC:NONE:v0 (auto-composite)
SN       .ohm.m       UNKNOWN        : SN:Import:rC:NONE:v0 (auto-composite)
SP       .mV          UNKNOWN        : SP:Import:rC:NONE:v0 (auto-composite)
~A     DEPTH         CALI         DRHO           DT           GR          ILD          ILM         NPHI         RHOB           SN           SP
# ...
    997.7576    -999.2500    -999.2500    -999.2500      46.9053       0.6715       0.7200    -999.2500    -999.2500    -999.2500    -295.6512
    997.9100    -999.2500    -999.2500    -999.2500      45.7500       0.6680       0.7160    -999.2500    -999.2500    -999.2500    -270.8710
    998.0624    -999.2500    -999.2500    -999.2500      44.3911       0.6625       0.7105    -999.2500    -999.2500    -999.2500    -250.7844
    998.2148    -999.2500    -999.2500    -999.2500      43.0310       0.6570       0.7050    -999.2500    -999.2500    -999.2500    -230.6800
    998.3672    -999.2500    -999.2500    -999.2500      45.1739       0.6535       0.7035    -999.2500    -999.2500    -999.2500    -217.8954
    998.5196    -999.2500    -999.2500    -999.2500      47.3250       0.6500       0.7020    -999.2500    -999.2500    -999.2500    -205.0620
    998.6720    -999.2500    -999.2500    -999.2500      52.5697       0.6545       0.7040    -999.2500    -999.2500    -999.2500    -210.4793
    998.8243    -999.2500    -999.2500    -999.2500      57.8120       0.6590       0.7060    -999.2500    -999.2500    -999.2500    -215.8940
    998.9767    -999.2500    -999.2500    -999.2500      56.6064       0.6470       0.7010    -999.2500    -999.2500    -999.2500    -227.0978
    999.1292    -999.2500    -999.2500    -999.2500      55.4060       0.6350       0.6960    -999.2500    -999.2500    -999.2500    -238.2530
    999.2816    -999.2500    -999.2500    -999.2500      56.2036       0.6285       0.6855    -999.2500    -999.2500    -999.2500    -252.8828
    999.4340    -999.2500    -999.2500    -999.2500      57.0000       0.6220       0.6750    -999.2500    -999.2500    -999.2500    -267.4920
    999.5864    -999.2500    -999.2500    -999.2500      54.9661       0.6185       0.6725    -999.2500    -999.2500    -999.2500    -270.9316
    999.7388    -999.2500    -999.2500    -999.2500      52.9300       0.6150       0.6700    -999.2500    -999.2500    -999.2500    -274.3750
    999.8912    -999.2500    -999.2500    -999.2500      50.0468       0.6265       0.6810    -999.2500    -999.2500    -999.2500    -267.8868
   1000.0436    -999.2500    -999.2500    -999.2500      47.1530       0.6380       0.6920    -999.2500    -999.2500    -999.2500    -261.3750
   1000.1960    -999.2500    -999.2500    -999.2500      45.6233       0.6545       0.7050    -999.2500    -999.2500    -999.2500    -271.2812
   1000.3484    -999.2500    -999.2500    -999.2500      44.0940       0.6710       0.7180    -999.2500    -999.2500    -999.2500    -281.1850
   1000.5008    -999.2500    -999.2500    -999.2500      44.3916       0.6765       0.7275    -999.2500    -999.2500    -999.2500    -291.5513
   1000.6532    -999.2500    -999.2500    -999.2500      44.6880       0.6820       0.7370    -999.2500    -999.2500    -999.2500    -301.8750
   1000.8055    -999.2500    -999.2500    -999.2500      42.5099       0.6889       0.7439    -999.2500       2.0769       1.1100    -272.7178
   1000.9579    -999.2500    -999.2500    -999.2500      41.5620       0.6919       0.7469    -999.2500       2.0799       1.1100    -252.4087
   1001.1104    -999.2500    -999.2500    -999.2500      43.1449       0.6968       0.7480    -999.2500       2.0747       1.1100    -233.6748
   1001.2628    -999.2500    -999.2500    -999.2500      44.8134       0.7018       0.7490    -999.2500       2.0692       1.1100    -214.9941
   1001.4152    -999.2500    -999.2500    -999.2500      46.4613       0.6972       0.7538    -999.2500       2.0501       1.1100    -208.0412
   1001.5676    -999.2500    -999.2500    -999.2500      48.1086       0.6921       0.7589    -999.2500       2.0306       1.1100    -201.5004
   1001.7200    -999.2500    -999.2500    -999.2500      47.3834       0.6842       0.7469    -999.2500       2.0300       1.1100    -201.6158
   1001.8724    -999.2500    -999.2500    -999.2500      46.5879       0.6762       0.7344    -999.2500       2.0300       1.1100    -201.9286
   1002.0248    -999.2500    -999.2500    -999.2500      44.9428       0.6808       0.7311    -999.2500       2.0252       1.1100    -197.7302
   1002.1772    -999.2500    -999.2500    -999.2500      43.2714       0.6858       0.7281    -999.2500       2.0202       1.1100    -193.3919
   1002.3296    -999.2500    -999.2500    -999.2500      42.1904       0.6937       0.7386    -999.2500       2.0219       1.1100    -188.3218
   1002.4820    -999.2500    -999.2500    -999.2500      41.1286       0.7017       0.7496    -999.2500       2.0239       1.1100    -183.2280
   1002.6344    -999.2500    -999.2500    -999.2500      45.8975       0.7044       0.7592    -999.2500       2.0303       1.1100    -188.3736
   1002.7867    -999.2500    -999.2500    -999.2500      50.8629       0.7069       0.7687    -999.2500       2.0368       1.1100    -193.8641
   1002.9391    -999.2500    -999.2500    -999.2500      50.6527       0.7031       0.7569    -999.2500       2.0452       1.1100    -207.1934
   1003.0916    -999.2500    -999.2500    -999.2500      50.2612       0.6991       0.7444    -999.2500       2.0537       1.1100    -220.7974
   1003.2440    -999.2500    -999.2500    -999.2500      52.0244       0.6956       0.7324    -999.2500       2.0569       1.1100    -216.3152
   1003.3964    -999.2500    -999.2500    -999.2500      53.8512       0.6921       0.7204    -999.2500       2.0599       1.1100    -211.2984
   1003.5488    -999.2500    -999.2500    -999.2500      54.4212       0.6726       0.7190    -999.2500       2.0600       1.1100    -202.4902
   1003.7012    -999.2500    -999.2500    -999.2500      54.9524       0.6526       0.7180    -999.2500       2.0600       1.1100    -193.5648
   1003.8536    -999.2500    -999.2500    -999.2500      54.2729       0.6322       0.6982    -999.2500       2.0619       1.1100    -187.4897
   1004.0060    -999.2500    -999.2500    -999.2500      53.5544       0.6117       0.6777    -999.2500       2.0639       1.1100    -181.5065
   1004.1584    -999.2500    -999.2500    -999.2500      51.6881       0.6013       0.6543    -999.2500       2.0669       1.1100    -202.4442
   1004.3108    -999.2500    -999.2500    -999.2500      49.7833       0.5913       0.6308    -999.2500       2.0699       1.1100    -224.2864
   1004.4632    -999.2500    -999.2500    -999.2500      50.8388       0.5852       0.6271    -999.2500       2.0734       1.1100    -234.8773
   1004.6155    -999.2500    -999.2500    -999.2500      51.9978       0.5792       0.6241    -999.2500       2.0769       1.1100    -245.0751
   1004.7679    -999.2500    -999.2500    -999.2500      48.1329       0.5727       0.6308    -999.2500       2.0833       1.1100    -254.3378
   1004.9203    -999.2500    -999.2500    -999.2500      44.1199       0.5662       0.6378    -999.2500       2.0898       1.1100    -263.5730
   1005.0728    -999.2500    -999.2500    -999.2500      47.1029       0.5689       0.6312    -999.2500       2.0900       1.1100    -292.8825
   1005.2252    -999.2500    -999.2500    -999.2500      50.3014       0.5719       0.6242    -999.2500       2.0900       1.1100    -322.8106
   1005.3776    -999.2500    -999.2500    -999.2500      51.3717       0.5696       0.6206    -999.2500       2.0953       1.1100    -340.9930
   1005.5300    -999.2500    -999.2500    -999.2500      52.3735       0.5671       0.6171    -999.2500       2.1008       1.1100    -358.7978
   1005.6824    -999.2500    -999.2500    -999.2500      49.8532       0.5738       0.6247    -999.2500       2.1150       1.1100    -347.7737
   1005.8348    -999.2500    -999.2500    -999.2500      47.2149       0.5808       0.6327    -999.2500       2.1295       1.1100    -335.7837
   1005.9872    -999.2500    -999.2500    -999.2500      48.2045       0.5762       0.6393    -999.2500       2.1252       1.1100    -332.5806
   1006.1396    -999.2500    -999.2500    -999.2500      49.3221       0.5711       0.6458    -999.2500       2.1202       1.1100    -329.6876
