#------------------------------------------------------------------------------
#
#   Created by  : [OpenWorks] Log Export Utility (LEXP)
#   Created on  : 2016-05-12 17:01:16
#   Project     : CANT971
#   User        : R5K
#   Interpreter : PEP
#
#------------------------------------------------------------------------------
~VERSION INFORMATION
VERS. 2.0 : CWLS Log ASCII Standard - version 2.0
WRAP.  NO : One line per depth step
~WELL INFORMATION
#MNEMONIC   .UNIT                                           VALUE :DESCRIPTION
#------------------------------------------------------------------------------
STRT        .M                                          4907.2798 :START DEPTH
STOP        .M                                          5813.7549 :STOP DEPTH
STEP        .M                                             0.1524 :STEP
NULL        .                                           -999.2500 :NULL VALUE
COMP        .                                   PEMEX EXPL & PROD :COMPANY
WELL        .                                            3026D_ST :WELL
FLD         .                                           CANTARELL :FIELD
LOC         .                                             UNKNOWN :LOCATION
CNTY        .                                      CD. DEL CARMEN :COUNTY
STAT        .                                            CAMPECHE :STATE
CTRY        .                                              MEXICO :COUNTRY
SRVC        .                                             UNKNOWN :SERVICE COMPANY
DATE        .                                             UNKNOWN :LOG DATE
UWI         .                                      3060000820D_ST :UNIQUE WELL ID
XCOORD      .                                       601717.200000 :SURFACE X
YCOORD      .                                      2148573.570000 :SURFACE Y
LAT         .                                           19.430078 :LATITUDE
LON         .                                          -92.031099 :LONGITUDE
ELEV        .M                                            30.0000 :SURFACE ELEV
ELEV_TYPE   .                                                  KB :ELEV TYPE
~CURVE INFORMATION
#MNEMONIC.UNIT        API CODE       : CURVE DESCRIPTION
#------------------------------------------------------------------------------
DEPTH    .M                          : Measured Depth
CALI     .inches      UNKNOWN        : CALI:registros:rC:NONE:v0 (auto-composite)
CGR      .API         UNKNOWN        : CGR:registros:rC:NONE:v0 (auto-composite)
DRHO     .g/cm3       UNKNOWN        : DRHO:registros:rC:NONE:v0 (auto-composite)
DT       .us/ft       UNKNOWN        : DT:registros:rC:NONE:v0 (auto-composite)
GR       .API         UNKNOWN        : GR:registros:rC:NONE:v0 (auto-composite)
ILD      .ohm.m       UNKNOWN        : ILD:registros:rC:NONE:v0 (auto-composite)
ILM      .ohm.m       UNKNOWN        : ILM:registros:rC:NONE:v0 (auto-composite)
NPHI     .UNKNOWN     UNKNOWN        : NPHI:registros:rC:NONE:v0 (auto-composite)
PEF      .b/elec      UNKNOWN        : PEF:registros:rC:NONE:v0 (auto-composite)
POTA     .UNKNOWN     UNKNOWN        : POTA:registros:rC:NONE:v0 (auto-composite)
RHOB     .g/cm3       UNKNOWN        : RHOB:registros:rC:NONE:v0 (auto-composite)
THOR     .ppm         UNKNOWN        : THOR:registros:rC:NONE:v0 (auto-composite)
URAN     .ppm         UNKNOWN        : URAN:registros:rC:NONE:v0 (auto-composite)
~A     DEPTH         CALI          CGR         DRHO           DT           GR          ILD          ILM         NPHI          PEF         POTA         RHOB         THOR         URAN
# ...
   5262.6768       6.9130      81.2022       0.0086      66.5124     108.9862      11.2949      11.1500       0.1990       6.5617       0.0377       2.6672       8.4594       4.0495
   5262.8291       6.9417      80.7893       0.0087      67.3182     109.1152      10.3497      10.2235       0.1931       5.8575       0.0367       2.6674       8.7621       4.1285
   5262.9814       7.0492      78.9938       0.0096      66.7722     107.0414       9.6721       9.5580       0.1934       5.7053       0.0353       2.6675       8.8311       4.0879
   5263.1338       7.0133      77.5104       0.0067      66.3129     105.4589       9.4589       9.3589       0.1977       5.7420       0.0339       2.6668       8.9493       4.0735
   5263.2861       6.9569      76.9830       0.0041      66.5700     105.2553       9.3092       9.2156       0.1980       5.6786       0.0332       2.6734       9.1040       4.1207
   5263.4385       7.0196      75.8211       0.0006      66.4778     104.1186       9.6598       9.5660       0.1981       5.5221       0.0323       2.6688       9.1470       4.1244
   5263.5908       7.0539      73.0658      -0.0056      66.0506     100.6704      10.2287      10.1197       0.1957       5.7510       0.0307       2.6630       8.9778       4.0234
   5263.7432       7.0128      72.8261      -0.0108      65.4454     100.9793      10.1003      10.0295       0.1935       6.2444       0.0303       2.6513       9.0930       4.1033
   5263.8960       6.9606      72.1006      -0.0093      64.8401     100.7592       9.9338       9.8889       0.1919       6.4146       0.0296       2.6578       9.1474       4.1770
   5264.0483       6.9888      72.2831      -0.0078      65.5956     101.8485       9.7525       9.7325       0.1925       6.1914       0.0293       2.6592       9.3360       4.3092
   5264.2007       7.0270      67.7476      -0.0054      65.6444      96.7583       9.4379       9.4529       0.1904       6.2428       0.0266       2.6581       9.1091       4.2283
   5264.3530       6.9813      69.3064      -0.0006      66.0058      99.4537       9.2333       9.2692       0.1879       6.1450       0.0270       2.6607       9.4112       4.3940
   5264.5054       6.9447      71.0415       0.0028      66.1724     102.2731       8.6471       8.6811       0.1858       5.8286       0.0275       2.6659       9.7230       4.5520
   5264.6577       7.0044      71.5379       0.0037      67.4839     102.9860       8.4056       8.4538       0.1886       5.7801       0.0276       2.6747       9.8519       4.5836
   5264.8101       7.0212      67.8019       0.0043      65.3595      98.1251       8.4052       8.4548       0.1940       5.7663       0.0257       2.6731       9.5205       4.4196
   5264.9624       6.9629      71.2229       0.0081      64.7779     103.8512       8.4665       8.5392       0.1961       6.2417       0.0272       2.6837       9.9053       4.7556
   5265.1147       6.9652      70.3170       0.0079      64.7345     102.6891       8.5886       8.6743       0.2011       6.0123       0.0271       2.6828       9.6978       4.7182
   5265.2676       6.9964      71.9116       0.0107      64.6911     104.8907       8.6140       8.7194       0.2012       6.0769       0.0279       2.6947       9.8236       4.8067
   5265.4199       6.9717      72.4518       0.0116      65.1705     105.7397       8.0659       8.1121       0.1982       6.0749       0.0282       2.6819       9.8487       4.8517
   5265.5723       6.9380      71.9059       0.0123      65.5217     104.5752       7.8532       7.9178       0.1933       6.3783       0.0283       2.6786       9.6570       4.7616
   5265.7246       6.9471      71.9292       0.0095      65.2868     104.2344       7.6204       7.6679       0.1857       6.2203       0.0285       2.6707       9.5949       4.7085
   5265.8770       6.9562      73.5390       0.0101      65.2692     107.4322       7.5257       7.5543       0.1880       6.2894       0.0292       2.6765       9.7618       4.9399
   5266.0293       6.9160      72.6821       0.0074      65.4917     105.8466       7.4425       7.4579       0.1897       5.7875       0.0289       2.6780       9.6420       4.8337
   5266.1816       6.9053      71.0372       0.0008      65.9072     103.3337       7.9591       7.9703       0.1940       5.7394       0.0284       2.6764       9.3607       4.7072
   5266.3340       6.9438      68.9697      -0.0039      65.6653     100.4191       8.2457       8.2321       0.1926       5.5844       0.0278       2.6756       8.9932       4.5838
   5266.4868       6.9622      70.9595      -0.0060      65.4234     103.0616       8.7655       8.7375       0.1973       5.5431       0.0287       2.6702       9.1991       4.6789
   5266.6392       6.9516      71.9998      -0.0092      65.7984     104.3551       8.3017       8.2828       0.2010       5.8491       0.0293       2.6651       9.2718       4.7158
   5266.7915       6.9098      71.3568      -0.0117      66.4787     104.3907       8.1360       8.1056       0.2007       6.0695       0.0290       2.6467       9.1960       4.8147
   5266.9438       6.9247      67.8407      -0.0085      66.8071      99.3492       7.7986       7.7495       0.2018       6.3661       0.0276       2.6413       8.7444       4.5924
   5267.0962       6.9410      65.8820      -0.0048      66.9813      96.9413       7.4094       7.3617       0.2016       6.4450       0.0268       2.6321       8.4835       4.5269
   5267.2485       6.9174      65.1454      -0.0037      67.7084      95.9172       7.1726       7.1314       0.1970       6.1315       0.0263       2.6386       8.4532       4.4850
   5267.4009       6.9115      66.5987      -0.0024      67.6529      97.3759       7.5239       7.4814       0.1880       5.7194       0.0267       2.6497       8.7240       4.4858
   5267.5532       6.9355      71.5110      -0.0013      68.4073     103.7626       7.5806       7.5496       0.1829       5.7452       0.0284       2.6575       9.5010       4.7007
   5267.7056       6.9326      72.6915      -0.0006      68.9664     105.2046       7.3453       7.3318       0.1898       5.9373       0.0288       2.6553       9.6785       4.7388
   5267.8584       6.8605      70.6867      -0.0013      69.5254     102.9295       6.9785       6.9886       0.1979       6.2592       0.0281       2.6492       9.3735       4.6994
   5268.0107       6.8570      69.8350      -0.0014      70.1870     102.2264       6.8042       6.8152       0.2028       6.1049       0.0277       2.6386       9.2795       4.7210
   5268.1631       6.9124      71.4856       0.0026      69.7556     104.5246       7.4946       7.5311       0.2015       6.1418       0.0281       2.6504       9.5906       4.8154
   5268.3154       6.9512      73.8115       0.0057      69.8021     107.6291       8.4844       8.5376       0.1963       6.2203       0.0288       2.6574      10.0303       4.9289
   5268.4678       6.8981      72.9664       0.0070      67.3439     107.3392       7.9556       8.0103       0.1961       6.0512       0.0283       2.6630       9.9836       5.0098
   5268.6201       6.8487      73.9544       0.0023      68.7212     108.6012       7.8524       7.9438       0.1972       6.3715       0.0284       2.6315      10.2185       5.0498
   5268.7725       6.8510      75.7521       0.0004      68.8139     111.5440       8.6039       8.6686       0.2042       6.9436       0.0288       2.6153      10.6047       5.2167
   5268.9248       6.8751      76.2427       0.0029      69.4428     112.1467       9.5209       9.6432       0.2122       7.3801       0.0288       2.6249      10.7267       5.2330
   5269.0771       6.8104      72.3756       0.0054      69.7373     107.3271       9.6188       9.6787       0.2196       7.1804       0.0277       2.6350      10.0596       5.0942
   5269.2300       6.7347      69.0074       0.0048      70.0318     102.3468       9.0800       9.1038       0.2222       7.2505       0.0264       2.6319       9.5800       4.8592
