#------------------------------------------------------------------------------
#
#   Created by  : [OpenWorks] Log Export Utility (LEXP)
#   Created on  : 2016-05-23 11:55:56
#   Project     : CANT971
#   User        : R5K
#   Interpreter : PEP
#
#------------------------------------------------------------------------------
~VERSION INFORMATION
VERS. 2.0 : CWLS Log ASCII Standard - version 2.0
WRAP.  NO : One line per depth step
~WELL INFORMATION
#MNEMONIC   .UNIT                                           VALUE :DESCRIPTION
#------------------------------------------------------------------------------
STRT        .M                                          3767.4790 :START DEPTH
STOP        .M                                          5548.2729 :STOP DEPTH
STEP        .M                                             0.1524 :STEP
NULL        .                                           -999.2500 :NULL VALUE
COMP        .                                             UNKNOWN :COMPANY
WELL        .                                            418D-ST2 :WELL
FLD         .                                             UNKNOWN :FIELD
LOC         .                                             UNKNOWN :LOCATION
CNTY        .                                             UNKNOWN :COUNTY
STAT        .                                             UNKNOWN :STATE
CTRY        .                                             UNKNOWN :COUNTRY
SRVC        .                                             UNKNOWN :SERVICE COMPANY
DATE        .                                             UNKNOWN :LOG DATE
UWI         .                                            418D-ST2 :UNIQUE WELL ID
XCOORD      .                                       597130.010000 :SURFACE X
YCOORD      .                                      2144879.410000 :SURFACE Y
LAT         .                                           19.396924 :LATITUDE
LON         .                                          -92.074978 :LONGITUDE
ELEV        .M                                             0.0000 :SURFACE ELEV
ELEV_TYPE   .                                                  NA :ELEV TYPE
~CURVE INFORMATION
#MNEMONIC.UNIT        API CODE       : CURVE DESCRIPTION
#------------------------------------------------------------------------------
DEPTH    .M                          : Measured Depth
CALI     .inches      UNKNOWN        : CALI:PETROWORKS:rC:NONE:v1 
CGR      .API         UNKNOWN        : CGR:PETROWORKS:rC:NONE:v2 
DRHO     .g/cm3       UNKNOWN        : DRHO:PETROWORKS:rC:NONE:v1 
DT       .us/ft       UNKNOWN        : DT:PETROWORKS:rC:NONE:v2 
GR       .API         UNKNOWN        : GR:PETROWORKS:rC:NONE:v2 
ILD      .ohm.m       UNKNOWN        : ILD:PETROWORKS:rC:NONE:v2 
ILM      .ohm.m       UNKNOWN        : ILM:PETROWORKS:rC:NONE:v2 
NPHI     .v/v_decimal UNKNOWN        : NPHI:PETROWORKS:rC:NONE:v3 
PEF      .b/elec      UNKNOWN        : PEF:PETROWORKS:rC:NONE:v1 
POTA     .wtpercent   UNKNOWN        : POTA:PETROWORKS:rC:NONE:v2 
RHOB     .UNKNOWN     UNKNOWN        : RHOB:PETROWORKS:rC:NONE:v1 
THOR     .ppm         UNKNOWN        : THOR:PETROWORKS:rC:NONE:v2 
URAN     .ppm         UNKNOWN        : URAN:PETROWORKS:rC:NONE:v2 
~A     DEPTH         CALI          CGR         DRHO           DT           GR          ILD          ILM         NPHI          PEF         POTA         RHOB         THOR         URAN
# ...
   5470.7012       6.2699      13.7859       0.0260      46.2882      25.6306     102.8951     170.8084       0.0362       5.4475       0.0047       2.7852       1.9881       1.6273
   5470.8540       6.2693      14.9000       0.0228      46.4551      26.4146      80.1269     141.9888       0.0359       5.5331       0.0053       2.7942       2.0011       1.5970
   5471.0063       6.2724      16.4763       0.0163      47.0506      27.6608      76.4690     132.9464       0.0365       5.6967       0.0062       2.7926       2.0396       1.5454
   5471.1587       6.3060      17.3915       0.0090      47.5243      28.6224      87.5586     137.9811       0.0379       5.8351       0.0069       2.7874       2.0600       1.5047
   5471.3110       6.3355      17.9237       0.0081      47.8916      29.0762     181.9800     216.6470       0.0403       5.7911       0.0072       2.7833       2.0706       1.4771
   5471.4634       6.3416      18.3696       0.0113      48.0973      29.2785     345.9383     333.4169       0.0420       5.7002       0.0073       2.7792       2.0875       1.4728
   5471.6157       6.3382      17.7996       0.0165      48.0862      29.5365    1530.0775     919.5200       0.0440       5.8013       0.0069       2.7711       1.9876       1.5988
   5471.7681       6.3431      17.0681       0.0214      47.8919      29.7920    4226.9092    2170.6628       0.0459       6.0347       0.0065       2.7672       1.9247       1.7335
   5471.9204       6.3415      16.5464       0.0317      47.1249      29.5034    4407.9038   14252.7393       0.0443       6.2578       0.0064       2.7845       1.9326       1.7652
   5472.0732       6.3184      16.4762       0.0416      46.4514      29.0072    2596.0396   19909.5137       0.0416       6.2754       0.0066       2.8078       1.9386       1.7072
   5472.2256       6.2835      17.0051       0.0397      45.9948      28.5332    1055.9866   11371.7461       0.0395       5.8921       0.0069       2.8224       1.9155       1.5706
   5472.3779       6.2655      17.3317       0.0324      45.9512      28.1855     505.8630    4536.4946       0.0389       5.5163       0.0070       2.8270       1.8808       1.4787
   5472.5303       6.2552      17.2117       0.0251      46.3726      27.9592     336.6714    1734.5842       0.0385       5.4850       0.0068       2.8184       1.8943       1.4643
   5472.6826       6.2527      17.2805       0.0250      46.7270      28.2203     276.3966     836.6083       0.0393       5.6712       0.0071       2.8058       1.9256       1.4905
   5472.8350       6.2557      17.8001       0.0304      47.0211      29.0125     265.6355     514.1057       0.0413       5.7822       0.0075       2.8021       1.9460       1.5276
   5472.9873       6.2471      18.7891       0.0326      47.3342      30.6120     522.2478     591.7130       0.0446       5.5967       0.0079       2.8010       2.0089       1.6107
   5473.1396       6.2409      20.1160       0.0280      48.1913      32.6187    1178.5341    1565.6602       0.0480       5.3352       0.0080       2.7934       2.2856       1.7034
   5473.2920       6.2375      21.3611       0.0139      48.9017      35.1138    2664.8105    3477.0452       0.0503       5.1957       0.0079       2.7700       2.7121       1.8737
   5473.4448       6.2373      22.0002       0.0014      49.4561      37.0195   14416.6865   14728.3398       0.0521       5.2016       0.0079       2.7465       2.9421       2.0462
   5473.5972       6.2409      22.3348      -0.0020      49.8314      39.4013   19914.5391   19919.3477       0.0543       5.3196       0.0079       2.7297       3.0810       2.3251
   5473.7495       6.2406      22.6908       0.0032      50.5191      41.4475   20000.0000   20000.0000       0.0569       5.4039       0.0086       2.7224       3.1805       2.5554
   5473.9019       6.2393      27.4825       0.0181      51.4290      46.1837   20000.0000   11756.7988       0.0619       5.3648       0.0125       2.7286       3.3579       2.5479
   5474.0542       6.2385      34.1403       0.0301      52.0669      52.1955   10641.2227    4165.0684       0.0661       5.2737       0.0167       2.7358       3.6379       2.4598
   5474.2065       6.2403      39.5656       0.0288      52.9445      57.9028    2521.0159    1042.8475       0.0677       5.2751       0.0187       2.7324       3.7729       2.4983
   5474.3589       6.2423      42.6211       0.0224      53.6628      62.1955     457.5870     247.4897       0.0682       5.3710       0.0198       2.7257       3.7379       2.6669
   5474.5112       6.2406      43.7512       0.0177      54.3790      65.3681     175.6304     106.3187       0.0684       5.4622       0.0204       2.7312       3.5704       2.9450
   5474.6636       6.2369      44.1309       0.0150      54.6478      67.1718      78.3459      53.2517       0.0680       5.4259       0.0207       2.7444       3.3879       3.1391
   5474.8164       6.2348      44.0938       0.0129      53.9132      67.0621      41.6711      32.0808       0.0643       5.2360       0.0206       2.7618       3.3604       3.1292
   5474.9688       6.2348      44.0336       0.0102      52.9536      66.2047      30.3587      24.9406       0.0604       5.1143       0.0203       2.7710       3.5116       3.0205
   5475.1211       6.2315      44.3823       0.0059      51.6069      63.3244      30.5027      24.9985       0.0587       5.1757       0.0192       2.7644       4.2168       2.5806
   5475.2734       6.2280      42.6173       0.0035      50.8046      58.4314      33.5602      26.8699       0.0571       5.2749       0.0178       2.7576       4.3657       2.1545
   5475.4258       6.2272      31.2925       0.0053      50.1273      48.8912      49.1495      35.0581       0.0548       5.3903       0.0141       2.7562       2.6538       2.3976
   5475.5781       6.2338      22.6553       0.0047      49.6492      41.8607      72.5827      43.5341       0.0542       5.5589       0.0109       2.7537       1.5549       2.6166
   5475.7305       6.2416      21.4975      -0.0071      49.3584      39.8623     138.4472      49.2975       0.0565       6.0595       0.0100       2.7387       1.6427       2.5021
   5475.8828       6.2652      21.3529      -0.0227      49.3009      38.9015     217.5082      50.6051       0.0589       6.7413       0.0099       2.7187       1.6885       2.3908
   5476.0356       6.2821      21.7507      -0.0272      49.4182      38.8903     225.6534      44.8148       0.0593       7.0244       0.0101       2.7135       1.7059       2.3351
   5476.1880       6.2759      22.7193      -0.0195      49.4228      39.4401     172.4331      39.0192       0.0563       6.8493       0.0106       2.7255       1.7310       2.2780
   5476.3403       6.2613      23.7935      -0.0099      49.0780      40.1387     102.9909      33.7580       0.0526       6.6280       0.0113       2.7403       1.7073       2.2269
   5476.4927       6.2448      25.0159       0.0036      48.7203      40.7143      67.0796      30.3518       0.0488       6.3713       0.0121       2.7579       1.7009       2.1387
   5476.6450       6.2363      26.2204       0.0153      48.1827      40.9719      50.5605      30.2888       0.0444       6.0381       0.0127       2.7716       1.7812       2.0098
   5476.7974       6.2339      26.5465       0.0218      47.7838      40.7601      45.8451      32.2690       0.0399       5.6053       0.0127       2.7778       1.8915       1.9364
   5476.9497       6.2365      26.5280       0.0234      47.5916      40.5628      55.7444      38.9617       0.0374       5.3299       0.0125       2.7808       1.9458       1.9121
   5477.1021       6.2409      26.3649       0.0185      47.6933      40.4578      79.8223      55.6698       0.0365       5.3246       0.0126       2.7868       1.8475       1.9200
   5477.2544       6.2423      26.1204       0.0132      47.8271      40.2741     101.4320      76.4482       0.0355       5.3459       0.0128       2.7912       1.6890       1.9283
