#------------------------------------------------------------------------------
#
#   Created by  : [OpenWorks] Log Export Utility (LEXP)
#   Created on  : 2016-05-11 12:45:43
#   Project     : CANT971
#   User        : R5K
#   Interpreter : PEP
#
#------------------------------------------------------------------------------
~VERSION INFORMATION
VERS. 2.0 : CWLS Log ASCII Standard - version 2.0
WRAP.  NO : One line per depth step
~WELL INFORMATION
#MNEMONIC   .UNIT                                           VALUE :DESCRIPTION
#------------------------------------------------------------------------------
STRT        .M                                            80.3144 :START DEPTH
STOP        .M                                          1350.4160 :STOP DEPTH
STEP        .M                                             0.1524 :STEP
NULL        .                                           -999.2500 :NULL VALUE
COMP        .                                   PEMEX EXPL & PROD :COMPANY
WELL        .                                         CANTARELL-3 :WELL
FLD         .                                           CANTARELL :FIELD
LOC         .                                             UNKNOWN :LOCATION
CNTY        .                                      CD. DEL CARMEN :COUNTY
STAT        .                                            CAMPECHE :STATE
CTRY        .                                              MEXICO :COUNTRY
SRVC        .                                             UNKNOWN :SERVICE COMPANY
DATE        .                                             UNKNOWN :LOG DATE
UWI         .                                          3060000139 :UNIQUE WELL ID
XCOORD      .                                       600825.370000 :SURFACE X
YCOORD      .                                      2145118.460000 :SURFACE Y
LAT         .                                           19.398901 :LATITUDE
LON         .                                          -92.039777 :LONGITUDE
ELEV        .M                                            27.7000 :SURFACE ELEV
ELEV_TYPE   .                                                  KB :ELEV TYPE
~CURVE INFORMATION
#MNEMONIC.UNIT        API CODE       : CURVE DESCRIPTION
#------------------------------------------------------------------------------
DEPTH    .M                          : Measured Depth
CALI     .inches      UNKNOWN        : CALI:Import:rC:NONE:v0 (auto-composite)
DRHO     .g/cm3       UNKNOWN        : DRHO:Import:rC:NONE:v0 (auto-composite)
DT       .us/ft       UNKNOWN        : DT:Import:rC:NONE:v0 (auto-composite)
GR       .API         UNKNOWN        : GR:Import:rC:NONE:v0 (auto-composite)
ILD      .ohm.m       UNKNOWN        : ILD:Import:rC:NONE:v0 (auto-composite)
NPHI     .v/v_decimal UNKNOWN        : NPHI:Import:rC:NONE:v0 (auto-composite)
RHOB     .g/cm3       UNKNOWN        : RHOB:Import:rC:NONE:v0 (auto-composite)
SP       .mV          UNKNOWN        : SP:Import:rC:NONE:v0 (auto-composite)
~A     DEPTH         CALI         DRHO           DT           GR          ILD         NPHI         RHOB           SP
# ...
   1026.7184      16.2389       0.0230     118.5420      24.0233       1.1895       0.2669       2.4015     134.2567
   1026.8708      16.1560       0.0320     119.0816      24.2430       1.2390       0.2701       2.4100     135.2180
   1027.0232      15.8897       0.0320     119.6190      24.9574       1.2900       0.2754       2.4070     135.1365
   1027.1757      15.6240       0.0320     119.2733      25.6700       1.3410       0.2808       2.4040     135.0550
   1027.3280      15.5599       0.0310     118.9290      26.0134       1.3270       0.2875       2.3905     134.6647
   1027.4803      15.4960       0.0300     119.2577      26.3560       1.3130       0.2946       2.3770     134.2740
   1027.6328      15.6442       0.0200     119.5850      26.3560       1.2610       0.3055       2.3630     133.7063
   1027.7852      15.7920       0.0100     123.1379      26.3560       1.2090       0.3158       2.3490     133.1380
   1027.9376      15.7795       0.0100     126.6770      26.2554       1.1655       0.3151       2.3370     133.1775
   1028.0900      15.7670       0.0100     126.5788      26.1550       1.1220       0.3133       2.3250     133.2170
   1028.2424      15.5627       0.0100     126.4810      26.3747       1.0505       0.3086       2.3190     133.3869
   1028.3948      15.3590       0.0100     124.1177      26.5940       0.9790       0.3039       2.3130     133.5570
   1028.5472      15.3710       0.0100     121.7630      27.3572       0.9795       0.3021       2.3080     133.7754
   1028.6996      15.3830       0.0100     122.5694      28.1190       0.9800       0.3009       2.3030     133.9940
   1028.8521      15.4721       0.0185     123.3730      27.9458       0.9865       0.3013       2.3050     134.4886
   1029.0044      15.5610       0.0270     128.9053      27.7730       0.9930       0.3020       2.3070     134.9840
   1029.1569      15.7358       0.0265     134.4190      27.1815       1.0120       0.3047       2.3155     134.9505
   1029.3092      15.9100       0.0260     133.4360      26.5910       1.0310       0.3078       2.3240     134.9170
   1029.4615      16.2360       0.0200     132.4570      26.1225       1.0405       0.3145       2.3496     134.4859
   1029.6140      16.5610       0.0140     123.7946      25.6550       1.0500       0.3208       2.3750     134.0540
   1029.7664      16.4724       0.0140     115.1730      24.5183       1.0550       0.3213       2.3725     134.1644
   1029.9188      16.3840       0.0140     116.2490      23.3850       1.0600       0.3210       2.3700     134.2750
   1030.0712      16.4236       0.0150     117.3200      23.5072       1.0765       0.3198       2.3429     134.1871
   1030.2236      16.4630       0.0160     121.8491      23.6290       1.0930       0.3183       2.3160     134.0990
   1030.3760      16.3994       0.0180     126.3580      24.6869       1.0905       0.3148       2.3175     134.1864
   1030.5284      16.3360       0.0200     124.5857      25.7420       1.0880       0.3119       2.3190     134.2740
   1030.6808      16.1307       0.0210     122.8210      25.7410       1.0770       0.3162       2.3295     135.0398
   1030.8333      15.9260       0.0220     123.0665      25.7400       1.0660       0.3208       2.3400     135.8060
   1030.9856      15.8799       0.0210     123.3110      25.8872       1.0535       0.3203       2.3385     135.6506
   1031.1379      15.8340       0.0200     124.6112      26.0340       1.0410       0.3188       2.3370     135.4950
   1031.2904      15.9722       0.0240     125.9060      26.6973       1.0285       0.3116       2.3325     134.8728
   1031.4427      16.1100       0.0280     130.3062      27.3590       1.0160       0.3048       2.3280     134.2500
   1031.5952      16.0880       0.0275     134.6890      28.5158       1.0035       0.3053       2.3090     133.4499
   1031.7476      16.0660       0.0270     134.1890      29.6700       0.9910       0.3074       2.2900     132.6490
   1031.9000      15.9784       0.0250     133.6910      29.5233       0.9790       0.3172       2.3005     132.6765
   1032.0524      15.8910       0.0230     128.7789      29.3770       0.9670       0.3269       2.3110     132.7040
   1032.2048      15.8269       0.0200     123.8850      28.1423       0.9580       0.3276       2.2864     132.8504
   1032.3572      15.7630       0.0170     125.5545      26.9100       0.9490       0.3274       2.2620     132.9970
   1032.5096      15.7400       0.0105     127.2180      27.0566       0.9520       0.3285       2.2655     133.2883
   1032.6620      15.7170       0.0040     132.4285      27.2030       0.9550       0.3295       2.2690     133.5800
   1032.8145      15.9834       0.0155     137.6210      27.8421       0.9655       0.3290       2.3091     133.9822
   1032.9668      16.2490       0.0270     135.9713      28.4800       0.9760       0.3279       2.3490     134.3850
   1033.1191      16.2370       0.0270     134.3270      28.2347       0.9825       0.3232       2.3460     134.6973
   1033.2716      16.2250       0.0270     128.2533      27.9900       0.9890       0.3188       2.3430     135.0100
   1033.4240      16.1238       0.0250     122.2040      26.5568       0.9935       0.3195       2.3295     134.8541
   1033.5764      16.0230       0.0230     123.1031      25.1280       0.9980       0.3212       2.3160     134.6980
   1033.7288      15.8062       0.0190     123.9980      25.2507       1.0085       0.3270       2.2990     133.6560
   1033.8812      15.5900       0.0150     130.1300      25.3730       1.0190       0.3324       2.2820     132.6120
   1034.0336      15.2495       0.0135     136.2340      25.9138       1.0155       0.3308       2.2690     132.8098
   1034.1860      14.9100       0.0120     135.3876      26.4530       1.0120       0.3271       2.2560     133.0080
   1034.3384      15.2064       0.0065     134.5450      27.1660       0.9945       0.3145       2.2615     134.3456
   1034.4908      15.5020       0.0010     131.8978      27.8770       0.9770       0.3022       2.2670     135.6850
   1034.6432      15.3638       0.0020     129.2620      27.7298       0.9810       0.3013       2.2885     135.6640
   1034.7957      15.2260       0.0030     128.1958      27.5830       0.9850       0.3021       2.3100     135.6430
   1034.9480      15.2951       0.0095     127.1340      26.3480       1.0040       0.3057       2.3265     135.4446
   1035.1003      15.3640       0.0160     124.1134      25.1160       1.0230       0.3084       2.3430     135.2460
   1035.2528      15.3540       0.0155     121.1050      25.4103       1.0620       0.3019       2.3415     134.7347
   1035.4052      15.3440       0.0150     122.2838      25.7040       1.1010       0.2951       2.3400     134.2230
   1035.5576      15.2359       0.0090     123.4580      25.6044       1.0995       0.2947       2.3320     133.7957
   1035.7100      15.1280       0.0030     123.3839      25.5050       1.0980       0.2952       2.3240     133.3680
   1035.8624      15.1876       0.0035     123.3100      25.6021       1.0880       0.2946       2.3245     133.4879
   1036.0148      15.2470       0.0040     121.8553      25.6990       1.0780       0.2928       2.3250     133.6080
   1036.1672      15.2370       0.0030     120.4060      25.5013       1.0820       0.2824       2.3190     134.0317
   1036.3196      15.2270       0.0020     121.4373      25.3040       1.0860       0.2724       2.3130     134.4560
   1036.4720      15.2295       0.0030     122.4650      25.3771       1.0850       0.2730       2.3140     134.1242
   1036.6244      15.2320       0.0040     122.0207      25.4500       1.0840       0.2756       2.3150     133.7920
   1036.7769      15.2641       0.0105     121.5780      26.3593       1.0775       0.2822       2.3205     133.8685
   1036.9292      15.2960       0.0170     121.6146      27.2670       1.0710       0.2885       2.3260     133.9450
   1037.0815      15.3726       0.0165     121.6510      27.1674       1.0730       0.2891       2.3315     134.3307
