#------------------------------------------------------------------------------
#
#   Created by  : [OpenWorks] Log Export Utility (LEXP)
#   Created on  : 2016-05-23 11:56:14
#   Project     : CANT971
#   User        : R5K
#   Interpreter : PEP
#
#------------------------------------------------------------------------------
~VERSION INFORMATION
VERS. 2.0 : CWLS Log ASCII Standard - version 2.0
WRAP.  NO : One line per depth step
~WELL INFORMATION
#MNEMONIC   .UNIT                                           VALUE :DESCRIPTION
#------------------------------------------------------------------------------
STRT        .M                                          2395.2905 :START DEPTH
STOP        .M                                          2859.1960 :STOP DEPTH
STEP        .M                                             0.1524 :STEP
NULL        .                                           -999.2500 :NULL VALUE
COMP        .                                             UNKNOWN :COMPANY
WELL        .                                               446-V :WELL
FLD         .                                             UNKNOWN :FIELD
LOC         .                                             UNKNOWN :LOCATION
CNTY        .                                             UNKNOWN :COUNTY
STAT        .                                             UNKNOWN :STATE
CTRY        .                                             UNKNOWN :COUNTRY
SRVC        .                                             UNKNOWN :SERVICE COMPANY
DATE        .                                             UNKNOWN :LOG DATE
UWI         .                                               446-V :UNIQUE WELL ID
XCOORD      .                                       596708.730000 :SURFACE X
YCOORD      .                                      2143311.960000 :SURFACE Y
LAT         .                                           19.382780 :LATITUDE
LON         .                                          -92.079070 :LONGITUDE
ELEV        .M                                             0.0000 :SURFACE ELEV
ELEV_TYPE   .                                                  NA :ELEV TYPE
~CURVE INFORMATION
#MNEMONIC.UNIT        API CODE       : CURVE DESCRIPTION
#------------------------------------------------------------------------------
DEPTH    .M                          : Measured Depth
CALI     .inches      UNKNOWN        : CALI:litodensidad:rC:NONE:v0 (auto-composite)
CGR      .API         UNKNOWN        : CGR:Espectrometria:rC:NONE:v0 (auto-composite)
DRHO     .g/cm3       UNKNOWN        : DRHO:litodensidad:rC:NONE:v0 (auto-composite)
DT       .us/ft       UNKNOWN        : DT:sonico:rC:NONE:v0 (auto-composite)
GR       .API         UNKNOWN        : GR:GR-Load:rC:NONE:v0 (auto-composite)
GR-LWD   .API         UNKNOWN        : GR-LWD:resistivos-LWD:rC:NONE:v0 (auto-composite)
ILD-LWD  .ohm.m       UNKNOWN        : ILD-LWD:resistivos-LWD:rC:NONE:v0 (auto-composite)
ILM-LWD  .UNKNOWN     UNKNOWN        : ILM-LWD:resistivos-LWD:rC:NONE:v0 (auto-composite)
LLD      .ohm.m       UNKNOWN        : LLD:resistivos:rC:NONE:v0 (auto-composite)
LLS      .ohm.m       UNKNOWN        : LLS:resistivos:rC:NONE:v0 (auto-composite)
MSFL     .ohm.m       UNKNOWN        : MSFL:resistivos:rC:NONE:v0 (auto-composite)
NPHI     .UNKNOWN     UNKNOWN        : NPHI:porosidad:rC:NONE:v0 (auto-composite)
PEF      .UNKNOWN     UNKNOWN        : PEF:litodensidad:rC:NONE:v0 (auto-composite)
POTA     .wtpercent   UNKNOWN        : POTA:Espectrometria:rC:NONE:v0 (auto-composite)
RHOB     .g/cm3       UNKNOWN        : RHOB:litodensidad:rC:NONE:v0 (auto-composite)
THOR     .ppm         UNKNOWN        : THOR:Espectrometria:rC:NONE:v0 (auto-composite)
URAN     .ppm         UNKNOWN        : URAN:Espectrometria:rC:NONE:v0 (auto-composite)
~A     DEPTH         CALI          CGR         DRHO           DT           GR       GR-LWD      ILD-LWD      ILM-LWD          LLD          LLS         MSFL         NPHI          PEF         POTA         RHOB         THOR         URAN
# ...
   2592.6484      10.6672       6.0025       0.0397      53.6202      24.9275    -999.2500    -999.2500    -999.2500      91.4373     115.4052      57.8028       0.0348       3.3612       0.0038       2.8185       0.1969       2.1070
   2592.8010      10.6597       5.2941       0.0422      51.1821      21.2897    -999.2500    -999.2500    -999.2500     144.6494     150.0129      19.4292       0.0320       3.4338       0.0030       2.8405       0.3005       1.7808
   2592.9534      10.6546       6.2495       0.0443      48.5630      19.9466    -999.2500    -999.2500    -999.2500     173.3528     173.6935      17.4080       0.0285       3.4430       0.0035       2.8478       0.3713       1.5249
   2593.1057      10.6629       8.2515       0.0479      47.6566      18.7395    -999.2500    -999.2500    -999.2500     216.7313     210.0224      32.7521       0.0262       3.4318       0.0039       2.8496       0.7847       1.1677
   2593.2581      10.6689       9.8606       0.0507      47.5740      18.3918    -999.2500    -999.2500    -999.2500     231.6477     223.3184      62.3620       0.0253       3.4386       0.0041       2.8514       1.1801       0.9498
   2593.4106      10.6473       9.3508       0.0531      47.4644      18.0986    -999.2500    -999.2500    -999.2500     262.0846     259.5434     108.0290       0.0221       3.4697       0.0038       2.8568       1.1628       0.9739
   2593.5630      10.6050       7.1694       0.0532      47.3625      18.1543    -999.2500    -999.2500    -999.2500     262.0766     261.7411      98.2442       0.0205       3.4846       0.0032       2.8619       0.7501       1.2230
   2593.7153      10.4611       4.0631       0.0519      47.2731      19.0623    -999.2500    -999.2500    -999.2500     233.7186     238.1727      76.4564       0.0144       3.4972       0.0025       2.8665       0.1558       1.6699
   2593.8677      10.3883       3.0180       0.0513      47.1023      20.1898    -999.2500    -999.2500    -999.2500     209.4971     213.2428      60.4669       0.0141       3.5067       0.0020       2.8650       0.0552       1.9118
   2594.0200      10.3324       2.5424       0.0519      47.0448      21.2846    -999.2500    -999.2500    -999.2500     183.3105     183.2330      60.0282       0.0154       3.5145       0.0017       2.8644       0.0633       2.0866
   2594.1726      10.3553       2.3423       0.0508      47.0602      22.3390    -999.2500    -999.2500    -999.2500     156.8848     159.6452      63.7430       0.0174       3.4962       0.0015       2.8575       0.0678       2.2263
   2594.3250      10.3762       3.0091       0.0467      47.2518      23.9978    -999.2500    -999.2500    -999.2500     132.8197     136.0825      69.7089       0.0198       3.4651       0.0018       2.8496       0.1312       2.3368
   2594.4773      10.4200       6.4003       0.0405      47.6550      27.6135    -999.2500    -999.2500    -999.2500     112.3926     115.5732      59.4699       0.0245       3.4850       0.0033       2.8391       0.4945       2.3618
   2594.6296      10.4191       9.0688       0.0376      48.2995      30.7111    -999.2500    -999.2500    -999.2500     106.5062     111.5130      56.8577       0.0259       3.6045       0.0051       2.8363       0.5476       2.4095
   2594.7822      10.3988      10.9895       0.0363      48.5044      32.2563    -999.2500    -999.2500    -999.2500     113.6274     122.8840      64.1407       0.0341       3.7363       0.0063       2.8390       0.6149       2.3677
   2594.9346      10.3784      11.6723       0.0389      48.2234      29.8743    -999.2500    -999.2500    -999.2500     130.6198     147.8809      94.4426       0.0377       3.6699       0.0061       2.8450       0.8969       2.0265
   2595.0869      10.4070       9.0518       0.0467      47.4320      25.6399    -999.2500    -999.2500    -999.2500     162.0163     184.8346      99.3015       0.0307       3.5042       0.0045       2.8543       0.7824       1.8469
   2595.2393      10.3465       6.5750       0.0530      47.0374      22.6448    -999.2500    -999.2500    -999.2500     194.7823     223.5616      96.7418       0.0234       3.4020       0.0037       2.8575       0.4161       1.7891
   2595.3918      10.2630       5.0894       0.0554      46.4240      21.8316    -999.2500    -999.2500    -999.2500     206.9066     234.1035      97.5252       0.0212       3.3520       0.0033       2.8579       0.1175       1.8640
   2595.5442      10.2158       4.2534       0.0521      46.3211      24.8921    -999.2500    -999.2500    -999.2500     180.1217     196.1464      98.6476       0.0213       3.3216       0.0028       2.8539       0.0849       2.2977
   2595.6965      10.1893       2.0172       0.0490      46.2737      26.9821    -999.2500    -999.2500    -999.2500     135.5687     143.6617      94.4631       0.0211       3.2715       0.0012       2.8506       0.0906       2.7794
   2595.8489      10.1792       1.5220       0.0502      46.2707      25.0524    -999.2500    -999.2500    -999.2500     117.6770     114.9360      91.9992       0.0221       3.2668       0.0006       2.8491       0.2086       2.6197
   2596.0012      10.1661       7.3675       0.0483      46.2709      27.9624    -999.2500    -999.2500    -999.2500     118.0900     112.6423      68.5861       0.0234       3.2834       0.0022       2.8376       1.2251       2.2929
   2596.1538      10.1668      10.0684       0.0430      46.2862      28.9435    -999.2500    -999.2500    -999.2500     139.7605     142.1496      67.7942       0.0238       3.2911       0.0039       2.8291       1.3053       2.1014
   2596.3062      10.1669      10.1126       0.0395      46.3174      28.2413    -999.2500    -999.2500    -999.2500     200.7508     209.5847      68.5583       0.0236       3.2987       0.0045       2.8375       1.0708       2.0183
   2596.4585      10.1848       8.0920       0.0440      46.4306      27.5316    -999.2500    -999.2500    -999.2500     273.9128     276.3166      83.1703       0.0222       3.3193       0.0037       2.8555       0.8366       2.1643
   2596.6108      10.2082       5.1359       0.0517      46.5799      26.2331    -999.2500    -999.2500    -999.2500     369.8708     339.6732      72.3221       0.0204       3.3748       0.0024       2.8728       0.5208       2.3488
   2596.7634      10.1983       4.0406       0.0541      46.6205      25.6741    -999.2500    -999.2500    -999.2500     355.2285     324.2458      68.0148       0.0198       3.4112       0.0023       2.8713       0.2410       2.4085
   2596.9158      10.1915       5.0643       0.0540      46.5807      24.9570    -999.2500    -999.2500    -999.2500     288.6400     265.2214      46.0986       0.0206       3.4178       0.0034       2.8610       0.1016       2.2147
   2597.0681      10.1708       5.8660       0.0509      46.4454      23.6072    -999.2500    -999.2500    -999.2500     246.5968     225.2156      47.6994       0.0212       3.3704       0.0038       2.8517       0.1745       1.9752
   2597.2205      10.1778       6.5147       0.0475      46.3466      22.9888    -999.2500    -999.2500    -999.2500     212.9168     186.4326      53.4217       0.0217       3.2950       0.0042       2.8469       0.1815       1.8341
   2597.3730      10.1866       6.4499       0.0465      46.2210      22.9791    -999.2500    -999.2500    -999.2500     185.8509     154.3772      80.9917       0.0232       3.2378       0.0040       2.8451       0.2375       1.8402
   2597.5254      10.1966       6.9386       0.0500      46.2038      24.5422    -999.2500    -999.2500    -999.2500     177.1208     145.9034      88.3220       0.0257       3.2802       0.0037       2.8446       0.5098       1.9599
   2597.6777      10.1755       8.5052       0.0542      46.2606      27.6830    -999.2500    -999.2500    -999.2500     176.5148     146.0584      75.4241       0.0277       3.3814       0.0034       2.8421       1.0514       2.1351
   2597.8301      10.1580       9.3721       0.0539      46.5869      30.2302    -999.2500    -999.2500    -999.2500     183.8227     155.6874      63.9008       0.0302       3.4542       0.0033       2.8389       1.3422       2.3222
