#------------------------------------------------------------------------------
#
#   Created by  : [OpenWorks] Log Export Utility (LEXP)
#   Created on  : 2016-05-23 11:56:16
#   Project     : CANT971
#   User        : R5K
#   Interpreter : PEP
#
#------------------------------------------------------------------------------
~VERSION INFORMATION
VERS. 2.0 : CWLS Log ASCII Standard - version 2.0
WRAP.  NO : One line per depth step
~WELL INFORMATION
#MNEMONIC   .UNIT                                           VALUE :DESCRIPTION
#------------------------------------------------------------------------------
STRT        .M                                           785.0543 :START DEPTH
STOP        .M                                          3464.0940 :STOP DEPTH
STEP        .M                                             0.1524 :STEP
NULL        .                                           -999.2500 :NULL VALUE
COMP        .                                   PEMEX EXPL & PROD :COMPANY
WELL        .                                                448D :WELL
FLD         .                                           CANTARELL :FIELD
LOC         .                                             UNKNOWN :LOCATION
CNTY        .                                      CD. DEL CARMEN :COUNTY
STAT        .                                            CAMPECHE :STATE
CTRY        .                                              MEXICO :COUNTRY
SRVC        .                                             UNKNOWN :SERVICE COMPANY
DATE        .                                             UNKNOWN :LOG DATE
UWI         .                                          3060000822 :UNIQUE WELL ID
XCOORD      .                                       598710.240000 :SURFACE X
YCOORD      .                                      2143307.000000 :SURFACE Y
LAT         .                                           19.382637 :LATITUDE
LON         .                                          -92.060012 :LONGITUDE
ELEV        .M                                            28.0000 :SURFACE ELEV
ELEV_TYPE   .                                                  KB :ELEV TYPE
~CURVE INFORMATION
#MNEMONIC.UNIT        API CODE       : CURVE DESCRIPTION
#------------------------------------------------------------------------------
DEPTH    .M                          : Measured Depth
CALI     .inches      UNKNOWN        : CALI:registros:rC:NONE:v0 (auto-composite)
DRHO     .g/cm3       UNKNOWN        : DRHO:registros:rC:NONE:v0 (auto-composite)
DT       .us/ft       UNKNOWN        : DT:registros:rC:NONE:v0 (auto-composite)
GR       .API         UNKNOWN        : GR:registros:rC:NONE:v0 (auto-composite)
LLD      .ohm.m       UNKNOWN        : LLD:registros:rC:NONE:v0 (auto-composite)
LLS      .ohm.m       UNKNOWN        : LLS:registros:rC:NONE:v0 (auto-composite)
MSFL     .ohm.m       UNKNOWN        : MSFL:registros:rC:NONE:v0 (auto-composite)
NPHI     .v/v_decimal UNKNOWN        : NPHI:registros:rC:NONE:v0 (auto-composite)
PEF      .b/elec      UNKNOWN        : PEF:registros:rC:NONE:v0 (auto-composite)
RHOB     .g/cm3       UNKNOWN        : RHOB:registros:rC:NONE:v0 (auto-composite)
~A     DEPTH         CALI         DRHO           DT           GR          LLD          LLS         MSFL         NPHI          PEF         RHOB
# ...
   3191.7551      15.3569       0.0325      52.3612      24.5382     190.6674     140.9352      65.4058       0.0238       3.6057       2.8034
   3191.9075      15.3233       0.0310      52.9512      22.9580     185.0437     136.8768     161.4791       0.0250       3.6968       2.8079
   3192.0598      15.3292       0.0296      53.1790      21.4738     177.4358     131.2340     496.8322       0.0248       3.7538       2.8139
   3192.2124      15.3586       0.0337      52.8803      20.4388     176.2481     130.6391     949.9125       0.0259       3.8082       2.8358
   3192.3647      15.4020       0.0257      51.8421      20.4532     171.3095     127.7052    1381.1820       0.0249       3.7495       2.8287
   3192.5171      15.3785       0.0154      51.0901      21.3581     149.6060     114.8664     387.4857       0.0229       3.8632       2.8079
   3192.6694      15.3516       0.0157      51.1651      22.0412     127.6081     101.4143     279.4971       0.0218       4.0917       2.7888
   3192.8220      15.3364       0.0180      51.0363      21.3837     123.5666      98.1665     121.8933       0.0212       4.1750       2.7808
   3192.9744      15.3292       0.0179      50.5098      19.4197     127.7086     100.3785      83.8724       0.0209       3.9953       2.7854
   3193.1267      15.3433       0.0195      49.5440      17.0082     140.0442     108.9657     288.4427       0.0217       3.8906       2.8071
   3193.2791      15.3152       0.0204      50.0179      15.1098     162.6919     124.9217     710.6469       0.0236       3.8797       2.8388
   3193.4316      15.2931       0.0149      51.9216      14.7042     178.4646     136.3575     674.5065       0.0236       3.8359       2.8459
   3193.5840      15.2418       0.0095      51.1390      16.3447     182.7832     140.3089     523.2217       0.0201       3.6024       2.8360
   3193.7363      15.2316       0.0084      49.4923      19.4055     185.6434     143.1219     104.1986       0.0197       3.6312       2.8241
   3193.8887      15.2444       0.0096      49.8653      21.9804     186.5957     145.2830      86.4756       0.0217       3.7857       2.8216
   3194.0410      15.2401       0.0103      51.1430      22.3439     181.7546     143.0785     124.7325       0.0260       4.0031       2.8053
   3194.1936      15.2480       0.0106      51.9100      20.6389     179.1621     142.5945      80.2018       0.0254       3.9241       2.7936
   3194.3459      15.2113       0.0136      51.9725      19.0416     186.9054     149.6772     116.3083       0.0232       3.7728       2.7991
   3194.4983      15.1371       0.0179      51.4021      18.6561     184.6637     149.0150     229.5726       0.0195       3.5572       2.8212
   3194.6506      15.1129       0.0238      50.5556      20.2702     134.8667     114.2920     646.3162       0.0157       3.6046       2.8446
   3194.8032      15.1240       0.0258      49.9626      23.4279     121.6895     106.5213    1125.7158       0.0142       3.6554       2.8559
   3194.9556      15.1184       0.0314      49.9762      25.8860     116.7076     104.5744    1301.9104       0.0148       3.6563       2.8591
   3195.1079      15.1220       0.0344      50.4289      27.6895     103.9246      96.1745     799.8715       0.0165       3.4432       2.8516
   3195.2603      15.1435       0.0348      50.6464      29.4336      97.4986      91.8557     109.2105       0.0176       3.3553       2.8374
   3195.4128      15.1286       0.0371      50.7344      31.2994     103.9455      98.2528     176.2108       0.0192       3.2312       2.8401
   3195.5652      15.1019       0.0399      51.1996      30.7815     107.8414     101.2227     307.1214       0.0201       3.3593       2.8470
   3195.7175      15.0952       0.0397      51.0788      26.1648     125.4335     114.9185     106.7423       0.0190       3.5771       2.8610
   3195.8699      15.0900       0.0342      49.9015      19.6650     165.2905     142.9446     190.9043       0.0153       3.8695       2.8525
   3196.0222      15.0983       0.0280      48.3321      14.5286     247.2401     193.6180     426.2369       0.0115       3.9518       2.8430
   3196.1748      15.0996       0.0211      47.2486      13.9610     291.3044     213.7443     590.5894       0.0092       3.9771       2.8330
   3196.3271      15.0936       0.0144      47.5965      16.7844     249.1289     185.0742     997.7092       0.0084       4.1270       2.8247
   3196.4795      15.0670       0.0136      48.4597      19.4814     222.9736     169.2006    1692.4622       0.0081       4.1413       2.8204
   3196.6318      15.0641       0.0142      48.8085      20.5358     147.1333     121.7924    1413.6177       0.0077       4.0460       2.8031
   3196.7844      15.0632       0.0185      49.0470      20.3667     111.5987      96.5164      71.2203       0.0090       3.7447       2.8033
   3196.9368      15.0526       0.0199      49.4880      20.7648     116.7997     101.0885      57.7217       0.0122       3.7503       2.7971
   3197.0891      15.0434       0.0283      49.6327      21.0207     124.6130     108.2761      45.7288       0.0145       3.8238       2.8180
   3197.2415      15.0441       0.0330      49.9316      19.6226     192.3170     154.1276      48.5777       0.0140       3.9297       2.8269
   3197.3940      15.0486       0.0322      50.3795      17.2059     342.5179     245.5336      77.0920       0.0125       3.8867       2.8322
   3197.5464      15.0552       0.0278      50.5212      15.7115     419.9544     284.6054     259.1868       0.0108       3.8346       2.8286
   3197.6987      15.0589       0.0263      50.3134      17.3593     294.5280     214.1261     500.0583       0.0101       3.7722       2.8226
   3197.8511      15.0625       0.0215      50.5665      20.0782     175.1948     141.5411     159.4238       0.0094       3.7055       2.8123
   3198.0034      15.0328       0.0122      51.4554      22.9433     104.9364      90.9190     149.7233       0.0120       3.6698       2.7942
   3198.1560      15.0270       0.0103      52.0054      27.2648      61.0642      55.6641     175.9240       0.0185       3.8625       2.7921
   3198.3083      15.0197       0.0088      52.3160      32.1825      51.9876      47.4165     342.2729       0.0274       3.9292       2.7902
   3198.4607      15.0312       0.0100      52.6250      34.5014      54.4874      49.6638     309.1487       0.0303       3.8486       2.7812
   3198.6130      15.0556       0.0105      52.2814      32.3235      56.0038      50.8586     333.5851       0.0268       3.5609       2.7804
   3198.7656      15.1015       0.0133      51.7007      27.9764      62.5548      55.9355     347.4632       0.0217       3.3907       2.7987
   3198.9180      15.1032       0.0146      51.5698      23.4198      84.1382      71.6335     155.6081       0.0196       3.3996       2.8246
   3199.0703      15.1067       0.0141      51.1776      19.0829     114.0183      91.4851     164.1989       0.0180       3.4541       2.8350
   3199.2227      15.1150       0.0085      50.8553      15.9763     136.8151     105.4687     139.2189       0.0163       3.4866       2.8236
   3199.3750      15.1152       0.0068      50.8662      14.7477     147.8483     111.5601      44.7032       0.0151       3.5573       2.8152
   3199.5276      15.1171       0.0081      50.7845      14.8624     147.8483     111.5601      28.5363       0.0155       3.5788       2.8169
   3199.6799      15.1116       0.0141      50.4343      15.4617     157.3431     116.6881      52.1844       0.0161       3.7626       2.8294
   3199.8323      15.1139       0.0218      49.8868      16.2208     182.3030     130.1687      44.9927       0.0174       3.8431       2.8361
   3199.9846      15.0960       0.0243      49.9447      16.8015     187.3143     133.9838     572.7294       0.0193       3.9759       2.8252
   3200.1372      15.0939       0.0238      50.8455      16.2766     194.8746     140.8396    1969.5300       0.0212       3.9414       2.7972
