#------------------------------------------------------------------------------
#
#   Created by  : [OpenWorks] Log Export Utility (LEXP)
#   Created on  : 2016-05-23 11:52:48
#   Project     : CANT971
#   User        : R5K
#   Interpreter : PEP
#
#------------------------------------------------------------------------------
~VERSION INFORMATION
VERS. 2.0 : CWLS Log ASCII Standard - version 2.0
WRAP.  NO : One line per depth step
~WELL INFORMATION
#MNEMONIC   .UNIT                                           VALUE :DESCRIPTION
#------------------------------------------------------------------------------
STRT        .M                                           688.5826 :START DEPTH
STOP        .M                                          3180.0178 :STOP DEPTH
STEP        .M                                             0.1524 :STEP
NULL        .                                           -999.2500 :NULL VALUE
COMP        .                                   PEMEX EXPL & PROD :COMPANY
WELL        .                                               2092D :WELL
FLD         .                                           CANTARELL :FIELD
LOC         .                                             UNKNOWN :LOCATION
CNTY        .                                      CD. DEL CARMEN :COUNTY
STAT        .                                            CAMPECHE :STATE
CTRY        .                                              MEXICO :COUNTRY
SRVC        .                                             UNKNOWN :SERVICE COMPANY
DATE        .                                             UNKNOWN :LOG DATE
UWI         .                                          3060000657 :UNIQUE WELL ID
XCOORD      .                                       601715.500000 :SURFACE X
YCOORD      .                                      2142373.650000 :SURFACE Y
LAT         .                                           19.374053 :LATITUDE
LON         .                                          -92.031447 :LONGITUDE
ELEV        .M                                            30.0000 :SURFACE ELEV
ELEV_TYPEF  .b/elec                                            KB :ELEV TYPE
~CURVE INFORMATION
#MNEMONIC.UNIT        API CODE       : CURVE DESCRIPTION
#------------------------------------------------------------------------------
DEPTH    .M                          : Measured Depth
CALI     .in          UNKNOWN        : CALI:UNKNOWN:rC:NONE:v0 (auto-composite)
CGR      .API         UNKNOWN        : CGR:UNKNOWN:rC:NONE:v0 (auto-composite)
DRHO     .g/cm3       UNKNOWN        : DRHO:UNKNOWN:rC:NONE:v0 (auto-composite)
DT       .us/ft       UNKNOWN        : DT:DT:rC:NONE:v0 (auto-composite)
GR       .API         UNKNOWN        : GR:UNKNOWN:rC:NONE:v0 (auto-composite)
ILD      .ohmm        UNKNOWN        : ILD:UNKNOWN:rC:NONE:v0 (auto-composite)
ILM      .ohmm        UNKNOWN        : ILM:UNKNOWN:rC:NONE:v0 (auto-composite)
LLD      .ohmm        UNKNOWN        : LLD:UNKNOWN:rC:NONE:v0 (auto-composite)
LLS      .ohmm        UNKNOWN        : LLS:UNKNOWN:rC:NONE:v0 (auto-composite)
MSFL     .ohmm        UNKNOWN        : MSFL:UNKNOWN:rC:NONE:v0 (auto-composite)
NPHI     .v/v_decimal UNKNOWN        : NPHI:PETROWORKS:rC:NONE:v1 
PEF      .b/elec      UNKNOWN        : PEF:UNKNOWN:rC:NONE:v0 (auto-composite)
POTA     .wtpercent   UNKNOWN        : POTA:UNKNOWN:rC:NONE:v0 (auto-composite)
RHOB     .g/cm3       UNKNOWN        : RHOB:UNKNOWN:rC:NONE:v0 (auto-composite)
SFLU     .ohmm       UNKNOWN        : SFLU:induccion:rC:NONE:v0 (auto-composite)
THOR     .ppm         UNKNOWN        : THOR:UNKNOWN:rC:NONE:v0 (auto-composite)
URAN     .ppm         UNKNOWN        : URAN:UNKNOWN:rC:NONE:v0 (auto-composite)
~A     DEPTH         CALI          CGR         DRHO           DT           GR          ILD          ILM          LLD          LLS         MSFL         NPHI          PEF         POTA         RHOB         SFLU         THOR         URAN
# ...
   3019.5405       8.3699       9.2338    -999.2500      58.2217      27.2648    -999.2500    -999.2500    3411.3193    1593.3459      80.8256       0.0814       3.3570       0.0034       2.7515    -999.2500       1.2477       2.0592
   3019.6929       8.5093       8.4712    -999.2500      58.0284      25.0422    -999.2500    -999.2500    4058.8762    1831.7659     116.1490       0.0755       3.3370       0.0032       2.7911    -999.2500       1.5857       1.8251
   3019.8455       8.5460       8.2018    -999.2500      60.2958      24.6216    -999.2500    -999.2500    6466.7583    2679.1211     175.7170       0.0610       3.3539       0.0032       2.7788    -999.2500       1.2982       1.8124
   3019.9978       8.5715       7.9864    -999.2500      63.5794      24.3982    -999.2500    -999.2500    9067.2031    3593.0879     237.9371       0.0430       3.3749       0.0032       2.7608    -999.2500       0.9424       1.8239
   3020.1501       8.4733       9.0191    -999.2500      67.7546      25.3919    -999.2500    -999.2500   10496.8398    4000.4592     197.8759       0.0384       3.3833       0.0038       2.7482    -999.2500       0.9646       1.7922
   3020.3025       8.3614      10.1897    -999.2500      70.1591      26.5200    -999.2500    -999.2500   11797.1553    4351.8750     146.5172       0.0363       3.3903       0.0045       2.7362    -999.2500       1.0285       1.7557
   3020.4551       8.4070      12.6865    -999.2500      65.6102      29.7594    -999.2500    -999.2500    9497.5801    4127.4248     101.4174       0.0378       3.4036       0.0062       2.7408    -999.2500       0.9026       1.8602
   3020.6074       8.4705      15.3339    -999.2500      58.0131      33.2384    -999.2500    -999.2500    6789.4043    3837.6121      57.0281       0.0410       3.4176       0.0079       2.7473    -999.2500       0.7552       1.9806
   3020.7598       8.4307      17.1949    -999.2500      53.1643      37.9249    -999.2500    -999.2500    4403.9795    2767.2642     123.4340       0.0443       3.3551       0.0083       2.7431    -999.2500       1.2294       2.3902
   3020.9121       8.3790      18.9658    -999.2500      49.5076      42.7498    -999.2500    -999.2500    2055.5339    1607.4861     202.5343       0.0468       3.2839       0.0085       2.7375    -999.2500       1.7749       2.8329
   3021.0647       8.2955      16.5261    -999.2500      49.4704      44.3266    -999.2500    -999.2500    1472.2295    1216.0055     159.7040       0.0455       3.2666       0.0066       2.7474    -999.2500       1.9200       3.1878
   3021.2170       8.2085      13.6329    -999.2500      50.6531      45.5536    -999.2500    -999.2500    1079.0842     907.2939     103.7382       0.0428       3.2551       0.0045       2.7589    -999.2500       2.0220       3.5331
   3021.3694       8.3383      10.9421    -999.2500      50.2956      44.6021    -999.2500    -999.2500    1190.6201     979.3196      67.1159       0.0404       3.2707       0.0033       2.7686    -999.2500       1.7663       3.7305
   3021.5217       8.4916       8.2734    -999.2500      49.5514      43.4135    -999.2500    -999.2500    1357.0609    1092.7662      32.5979       0.0387       3.2891       0.0023       2.7780    -999.2500       1.4716       3.9118
   3021.6741       8.4355       6.4924    -999.2500      48.8488      44.9082    -999.2500    -999.2500    1339.1796    1187.3903     109.8237       0.0419       3.3400       0.0017       2.7682    -999.2500       1.2141       4.2581
   3021.8267       8.3561       4.8106    -999.2500      48.2830      46.7029    -999.2500    -999.2500    1300.6852    1279.9093     199.5460       0.0457       3.3945       0.0011       2.7562    -999.2500       0.9607       4.6230
   3021.9790       8.2883       3.7984    -999.2500      48.3144      46.3030    -999.2500    -999.2500    1077.0272    1042.1791     156.9559       0.0456       3.4391       0.0008       2.7550    -999.2500       0.8546       4.7363
   3022.1313       8.2218       2.8618    -999.2500      48.5056      45.6553    -999.2500    -999.2500     832.4643     767.1639      99.4277       0.0441       3.4826       0.0005       2.7550    -999.2500       0.7652       4.8213
   3022.2837       8.3734       2.9001    -999.2500      47.2399      47.0180    -999.2500    -999.2500     887.0131     816.3479      73.4539       0.0417       3.4474       0.0003       2.7649    -999.2500       0.8078       4.9371
   3022.4363       8.5499       3.0495    -999.2500      46.0807      48.6100    -999.2500    -999.2500     975.6518     902.4812      51.0764       0.0406       3.4033       0.0002       2.7759    -999.2500       0.8654       5.0565
   3022.5886       8.4957       3.3707    -999.2500      46.2159      48.4307    -999.2500    -999.2500    1119.3258    1107.8641     174.7249       0.0445       3.2894       0.0002       2.7369    -999.2500       0.9675       5.0017
   3022.7410       8.4168       3.7103    -999.2500      46.9111      48.0616    -999.2500    -999.2500    1268.8959    1326.0227     314.0177       0.0507       3.1680       0.0002       2.6924    -999.2500       1.0744       4.9283
   3022.8933       8.3487       3.0890    -999.2500      49.5181      51.6490    -999.2500    -999.2500     923.5845     983.8602     220.0853       0.0555       3.1758       0.0008       2.6767    -999.2500       0.6357       5.3676
   3023.0459       8.2817       2.3618    -999.2500      52.0809      55.6723    -999.2500    -999.2500     523.7552     579.9706     100.4600       0.0590       3.1978       0.0015       2.6643    -999.2500       0.1369       5.8634
   3023.1982       8.3227       5.7661    -999.2500      53.6605      57.9114    -999.2500    -999.2500     410.8944     440.4996      76.7172       0.0579       3.2247       0.0036       2.7003    -999.2500       0.0883       5.5712
   3023.3506       8.3757       9.6299    -999.2500      54.6317      59.9520    -999.2500    -999.2500     329.9528     330.4396      63.6393       0.0549       3.2522       0.0057       2.7418    -999.2500       0.0898       5.1913
   3023.5029       8.4345      11.2709    -999.2500      52.4458      48.3848    -999.2500    -999.2500     387.5269     394.2635     186.1744       0.0508       3.2959       0.0052       2.7568    -999.2500       0.5874       3.8455
   3023.6553       8.4939      12.6623    -999.2500      49.9359      35.2894    -999.2500    -999.2500     460.6558     477.6140     323.9384       0.0467       3.3414       0.0043       2.7688    -999.2500       1.1407       2.3911
   3023.8079       8.4157      13.2655    -999.2500      48.7562      34.3543    -999.2500    -999.2500     911.9861     899.2411     238.7038       0.0431       3.3186       0.0052       2.7525    -999.2500       1.1203       2.2986
   3023.9602       8.3218      13.7794    -999.2500      48.4521      34.7978    -999.2500    -999.2500    1406.1918    1359.2175     128.1885       0.0399       3.2882       0.0064       2.7330    -999.2500       1.0349       2.3605
   3024.1125       8.4229      13.3111    -999.2500      50.7348      35.6874    -999.2500    -999.2500    1692.6627    1549.9745      77.5895       0.0383       3.3807       0.0061       2.7615    -999.2500       1.1814       2.4649
   3024.2649       8.5468      12.7285    -999.2500      53.5597      36.6290    -999.2500    -999.2500    1954.9468    1709.3859      33.9665       0.0375       3.4875       0.0056       2.7956    -999.2500       1.3549       2.5742
   3024.4175       8.5221      12.5156    -999.2500      53.7700      37.3071    -999.2500    -999.2500    1644.5599    1428.3651      95.2767       0.0412       3.4791       0.0052       2.7891    -999.2500       1.4918       2.6936
   3024.5698       8.4811      12.3432    -999.2500      53.2639      37.9563    -999.2500    -999.2500    1271.4291    1099.0889     168.0838       0.0454       3.4581       0.0048       2.7781    -999.2500       1.6248       2.8140
   3024.7222       8.4297      11.8094    -999.2500      52.2891      37.3334    -999.2500    -999.2500     820.5817     759.7982     136.3015       0.0474       3.4439       0.0044       2.7829    -999.2500       1.5507       2.7931
