#------------------------------------------------------------------------------
#
#   Created by  : [OpenWorks] Log Export Utility (LEXP)
#   Created on  : 2016-05-23 11:56:14
#   Project     : CANT971
#   User        : R5K
#   Interpreter : PEP
#
#------------------------------------------------------------------------------
~VERSION INFORMATION
VERS. 2.0 : CWLS Log ASCII Standard - version 2.0
WRAP.  NO : One line per depth step
~WELL INFORMATION
#MNEMONIC   .UNIT                                           VALUE :DESCRIPTION
#------------------------------------------------------------------------------
STRT        .M                                          2395.2905 :START DEPTH
STOP        .M                                          2859.1960 :STOP DEPTH
STEP        .M                                             0.1524 :STEP
NULL        .                                           -999.2500 :NULL VALUE
COMP        .                                             UNKNOWN :COMPANY
WELL        .                                               446-V :WELL
FLD         .                                             UNKNOWN :FIELD
LOC         .                                             UNKNOWN :LOCATION
CNTY        .                                             UNKNOWN :COUNTY
STAT        .                                             UNKNOWN :STATE
CTRY        .                                             UNKNOWN :COUNTRY
SRVC        .                                             UNKNOWN :SERVICE COMPANY
DATE        .                                             UNKNOWN :LOG DATE
UWI         .                                               446-V :UNIQUE WELL ID
XCOORD      .                                       596708.730000 :SURFACE X
YCOORD      .                                      2143311.960000 :SURFACE Y
LAT         .                                           19.382780 :LATITUDE
LON         .                                          -92.079070 :LONGITUDE
ELEV        .M                                             0.0000 :SURFACE ELEV
ELEV_TYPE   .                                                  NA :ELEV TYPE
~CURVE INFORMATION
#MNEMONIC.UNIT        API CODE       : CURVE DESCRIPTION
#------------------------------------------------------------------------------
DEPTH    .M                          : Measured Depth
CALI     .inches      UNKNOWN        : CALI:litodensidad:rC:NONE:v0 (auto-composite)
CGR      .API         UNKNOWN        : CGR:Espectrometria:rC:NONE:v0 (auto-composite)
DRHO     .g/cm3       UNKNOWN        : DRHO:litodensidad:rC:NONE:v0 (auto-composite)
DT       .us/ft       UNKNOWN        : DT:sonico:rC:NONE:v0 (auto-composite)
GR       .API         UNKNOWN        : GR:GR-Load:rC:NONE:v0 (auto-composite)
GR-LWD   .API         UNKNOWN        : GR-LWD:resistivos-LWD:rC:NONE:v0 (auto-composite)
ILD-LWD  .ohm.m       UNKNOWN        : ILD-LWD:resistivos-LWD:rC:NONE:v0 (auto-composite)
ILM-LWD  .UNKNOWN     UNKNOWN        : ILM-LWD:resistivos-LWD:rC:NONE:v0 (auto-composite)
LLD      .ohm.m       UNKNOWN        : LLD:resistivos:rC:NONE:v0 (auto-composite)
LLS      .ohm.m       UNKNOWN        : LLS:resistivos:rC:NONE:v0 (auto-composite)
MSFL     .ohm.m       UNKNOWN        : MSFL:resistivos:rC:NONE:v0 (auto-composite)
NPHI     .UNKNOWN     UNKNOWN        : NPHI:porosidad:rC:NONE:v0 (auto-composite)
PEF      .UNKNOWN     UNKNOWN        : PEF:litodensidad:rC:NONE:v0 (auto-composite)
POTA     .wtpercent   UNKNOWN        : POTA:Espectrometria:rC:NONE:v0 (auto-composite)
RHOB     .g/cm3       UNKNOWN        : RHOB:litodensidad:rC:NONE:v0 (auto-composite)
THOR     .ppm         UNKNOWN        : THOR:Espectrometria:rC:NONE:v0 (auto-composite)
URAN     .ppm         UNKNOWN        : URAN:Espectrometria:rC:NONE:v0 (auto-composite)
~A     DEPTH         CALI          CGR         DRHO           DT           GR       GR-LWD      ILD-LWD      ILM-LWD          LLD          LLS         MSFL         NPHI          PEF         POTA         RHOB         THOR         URAN
# ...
   2533.9746       9.6047       2.7169       0.0579      54.6035      13.0123    -999.2500    -999.2500    -999.2500     233.1728     339.9491      87.1709       0.0277       3.4204       0.0019       2.8213       0.0356       1.1463
   2534.1270       9.6463       2.7098       0.0426      54.4711      14.3096    -999.2500    -999.2500    -999.2500     294.3906     377.3400      31.8589       0.0274       3.3835       0.0018       2.8188       0.0416       1.2915
   2534.2793       9.6937       1.9794       0.0391      54.5164      15.3711    -999.2500    -999.2500    -999.2500     395.0379     364.5699      11.0138       0.0264       3.3641       0.0013       2.8239       0.0338       1.4909
   2534.4316       9.6988       1.8085       0.0481      54.6924      15.9454    -999.2500    -999.2500    -999.2500     447.4239     390.3179       8.2570       0.0265       3.3549       0.0012       2.8403       0.0385       1.5739
   2534.5842       9.7048       2.2636       0.0580      54.8188      16.5917    -999.2500    -999.2500    -999.2500     472.1483     428.5151       5.7166       0.0259       3.3402       0.0015       2.8595       0.0537       1.5952
   2534.7366       9.7149       2.8113       0.0632      54.8687      15.4403    -999.2500    -999.2500    -999.2500     487.8972     451.7312       3.8219       0.0244       3.3404       0.0019       2.8671       0.0554       1.4061
   2534.8889       9.7191       2.3245       0.0648      54.7442      14.1366    -999.2500    -999.2500    -999.2500     433.4842     403.3904       7.3591       0.0230       3.3718       0.0015       2.8594       0.0563       1.3151
   2535.0413       9.7162       1.9513       0.0568      54.5796      13.8726    -999.2500    -999.2500    -999.2500     356.3198     322.6205      13.9875       0.0225       3.4306       0.0013       2.8295       0.0530       1.3272
   2535.1938       9.7074       1.8905       0.0447      54.3295      14.3845    -999.2500    -999.2500    -999.2500     299.3677     266.2328      18.3898       0.0227       3.4856       0.0012       2.7986       0.0458       1.3910
   2535.3462       9.7088       3.1767       0.0390      53.7242      14.4279    -999.2500    -999.2500    -999.2500     281.8295     249.2036      13.9562       0.0229       3.4718       0.0022       2.7953       0.0297       1.2526
   2535.4985       9.7423       3.8980       0.0404      53.1711      14.9562    -999.2500    -999.2500    -999.2500     284.7084     256.9099      13.8946       0.0217       3.3609       0.0027       2.8264       0.0295       1.2311
   2535.6509       9.7749       3.1178       0.0408      52.5407      15.2577    -999.2500    -999.2500    -999.2500     305.2348     278.5336      14.1567       0.0203       3.2702       0.0021       2.8431       0.0467       1.3516
   2535.8032       9.7818       2.5259       0.0364      52.2454      13.7982    -999.2500    -999.2500    -999.2500     321.7930     310.2433      16.1358       0.0208       3.1786       0.0016       2.8509       0.0787       1.2550
   2535.9558       9.7641       2.7781       0.0333      52.0835      13.2992    -999.2500    -999.2500    -999.2500     266.8053     262.2586      23.7528       0.0210       3.1817       0.0017       2.8464       0.1007       1.1714
   2536.1082       9.7693       3.7007       0.0331      51.7867      14.8814    -999.2500    -999.2500    -999.2500     193.3436     190.6114      29.4303       0.0224       3.2349       0.0023       2.8416       0.1174       1.2448
   2536.2605       9.7996       4.4377       0.0351      51.3756      16.0261    -999.2500    -999.2500    -999.2500     160.2877     151.0627      29.0057       0.0224       3.2769       0.0024       2.8404       0.2961       1.2902
   2536.4128       9.8262       5.5354       0.0420      50.3747      17.3317    -999.2500    -999.2500    -999.2500     137.0357     119.5732      17.3705       0.0257       3.3320       0.0023       2.8427       0.6464       1.3133
   2536.5654       9.8264       4.8952       0.0486      49.9178      16.8326    -999.2500    -999.2500    -999.2500     126.9184     112.6735      19.6867       0.0270       3.3272       0.0025       2.8487       0.4112       1.3290
   2536.7178       9.8024       4.5389       0.0601      49.7814      15.1246    -999.2500    -999.2500    -999.2500     124.5344     109.4191      35.6024       0.0287       3.2850       0.0026       2.8563       0.2688       1.1785
   2536.8701       9.8137       4.0876       0.0649      50.7991      14.4120    -999.2500    -999.2500    -999.2500     126.6037     110.8095      40.1585       0.0290       3.2741       0.0019       2.8574       0.4016       1.1494
   2537.0225       9.8385       3.2624       0.0637      51.9704      13.8543    -999.2500    -999.2500    -999.2500     133.9857     116.8392      43.7038       0.0270       3.2828       0.0010       2.8563       0.5375       1.1793
   2537.1750       9.8605       2.1638       0.0505      52.8813      13.2473    -999.2500    -999.2500    -999.2500     153.9900     135.9408      61.0289       0.0252       3.2786       0.0004       2.8517       0.4577       1.2340
   2537.3274       9.8905       2.9630       0.0372      53.6419      13.4566    -999.2500    -999.2500    -999.2500     178.2203     163.7557      95.1008       0.0238       3.2517       0.0010       2.8453       0.4536       1.1683
   2537.4797       9.9027       4.3028       0.0295      54.3494      14.0996    -999.2500    -999.2500    -999.2500     212.6788     199.1504     104.2520       0.0219       3.2427       0.0020       2.8413       0.4312       1.0907
   2537.6321       9.8984       3.1994       0.0318      54.9791      14.9633    -999.2500    -999.2500    -999.2500     211.3310     205.9057      72.4709       0.0209       3.2844       0.0018       2.8417       0.1778       1.3097
   2537.7844       9.9019       3.2012       0.0348      55.2389      14.6399    -999.2500    -999.2500    -999.2500     175.5602     171.5153      53.1898       0.0220       3.3262       0.0017       2.8421       0.2459       1.2735
   2537.9370       9.9336       4.6690       0.0354      54.8895      14.4389    -999.2500    -999.2500    -999.2500     142.9922     137.7013      37.5846       0.0214       3.3080       0.0016       2.8432       0.6780       1.0877
   2538.0894       9.9603       6.1054       0.0377      53.8275      14.4719    -999.2500    -999.2500    -999.2500     123.2664     115.4986      19.1615       0.0211       3.2554       0.0016       2.8490       1.0833       0.9315
   2538.2417       9.9672       7.2270       0.0418      52.8569      14.3373    -999.2500    -999.2500    -999.2500     103.9457     103.2808      11.9381       0.0229       3.1993       0.0020       2.8573       1.2695       0.7917
   2538.3940       9.9698       8.5303       0.0450      51.3401      13.8023    -999.2500    -999.2500    -999.2500      63.3212      73.3692       9.0419       0.0253       3.1470       0.0025       2.8615       1.4293       0.5870
   2538.5466       9.9657       7.8222       0.0498      51.2884      13.2234    -999.2500    -999.2500    -999.2500      43.0032      51.9411       7.8444       0.0291       3.1365       0.0026       2.8401       1.1736       0.6013
   2538.6990      10.1290       6.1967       0.1083      51.8065      13.6258    -999.2500    -999.2500    -999.2500      23.9174      24.9988       5.7705       0.0399       3.2897       0.0029       2.7892       0.6252       0.8271
   2538.8513      10.3026       5.8245       0.1894      53.6955      15.0221    -999.2500    -999.2500    -999.2500      20.2153      18.5659       3.0280       0.0414       3.5513       0.0029       2.7939       0.4827       1.0240
   2539.0037      10.3835       7.1249       0.3029      54.9462      18.4414    -999.2500    -999.2500    -999.2500      20.6473      18.5594       0.9481       0.0584       4.0013       0.0037       2.8841       0.5533       1.2599
   2539.1560      10.2210       8.0811       0.2838      55.4734      20.2075    -999.2500    -999.2500    -999.2500      27.1848      29.6290       3.2188       0.0652       4.0767       0.0041       2.9210       0.6828       1.3500
