#------------------------------------------------------------------------------
#
#   Created by  : [OpenWorks] Log Export Utility (LEXP)
#   Created on  : 2016-05-23 11:56:05
#   Project     : CANT971
#   User        : R5K
#   Interpreter : PEP
#
#------------------------------------------------------------------------------
~VERSION INFORMATION
VERS. 2.0 : CWLS Log ASCII Standard - version 2.0
WRAP.  NO : One line per depth step
~WELL INFORMATION
#MNEMONIC   .UNIT                                           VALUE :DESCRIPTION
#------------------------------------------------------------------------------
STRT        .M                                          1100.3549 :START DEPTH
STOP        .M                                          2766.5439 :STOP DEPTH
STEP        .M                                             0.1524 :STEP
NULL        .                                           -999.2500 :NULL VALUE
COMP        .                                   PEMEX EXPL & PROD :COMPANY
WELL        .                                                  43 :WELL
FLD         .                                           CANTARELL :FIELD
LOC         .                                             UNKNOWN :LOCATION
CNTY        .                                      CD. DEL CARMEN :COUNTY
STAT        .                                            CAMPECHE :STATE
CTRY        .                                              MEXICO :COUNTRY
SRVC        .                                             UNKNOWN :SERVICE COMPANY
DATE        .                                             UNKNOWN :LOG DATE
UWI         .                                          3060000465 :UNIQUE WELL ID
XCOORD      .                                       601717.960000 :SURFACE X
YCOORD      .                                      2142346.560000 :SURFACE Y
LAT         .                                           19.373808 :LATITUDE
LON         .                                          -92.031425 :LONGITUDE
ELEV        .M                                            24.0000 :SURFACE ELEV
ELEV_TYPE   .                                                  KB :ELEV TYPE
~CURVE INFORMATION
#MNEMONIC.UNIT        API CODE       : CURVE DESCRIPTION
#------------------------------------------------------------------------------
DEPTH    .M                          : Measured Depth
CAL      .inches      UNKNOWN        : CAL:UNKNOWN:rC:NONE:v0 (auto-composite)
CALI     .in          UNKNOWN        : CALI:UNKNOWN:rC:NONE:v0 (auto-composite)
CNL      .v/v_decimal UNKNOWN        : CNL:UNKNOWN:rC:NONE:v0 (auto-composite)
DT       .us/ft       UNKNOWN        : DT:DT:rC:NONE:v0 (auto-composite)
GR       .API         UNKNOWN        : GR:UNKNOWN:rC:NONE:v0 (auto-composite)
ILD      .ohmm        UNKNOWN        : ILD:UNKNOWN:rC:NONE:v0 (auto-composite)
ILM      .ohmm        UNKNOWN        : ILM:UNKNOWN:rC:NONE:v0 (auto-composite)
LLD      .ohmm        UNKNOWN        : LLD:UNKNOWN:rC:NONE:v0 (auto-composite)
LLS      .ohmm        UNKNOWN        : LLS:UNKNOWN:rC:NONE:v0 (auto-composite)
NPHI     .v/v_decimal UNKNOWN        : NPHI:UNKNOWN:rC:NONE:v0 (auto-composite)
PEF      .b/elec      UNKNOWN        : PEF:UNKNOWN:rC:NONE:v0 (auto-composite)
RHOB     .g/cm3       UNKNOWN        : RHOB:UNKNOWN:rC:NONE:v0 (auto-composite)
~A     DEPTH          CAL         CALI          CNL           DT           GR          ILD          ILM          LLD          LLS         NPHI          PEF         RHOB
# ...
   2248.8413      10.2220      10.2938       3.1746      58.8890      69.6457    -999.2500    -999.2500      85.1864      91.0369       3.5738       3.3331       2.8012
   2248.9937      10.2220      10.3762       3.9689      58.8890      68.0584    -999.2500    -999.2500      91.1189      62.5373       4.7228       3.3336       2.7797
   2249.1460      10.3517      10.4439       4.7650      58.8871      65.5030    -999.2500    -999.2500     101.3585      39.5748       5.7829       3.3636       2.7585
   2249.2983      10.4440      10.4434       5.5784      58.8741      58.4842    -999.2500    -999.2500     131.4574      42.1437       6.4331       3.5299       2.7391
   2249.4509      10.4440      10.4238       6.4288      58.2193      50.2153    -999.2500    -999.2500     170.1597      54.5748       6.9161       3.6668       2.7239
   2249.6033      10.4428      10.3143       6.8129      53.7897      36.0844    -999.2500    -999.2500     249.2081     113.2555       6.6152       3.6658       2.7289
   2249.7556      10.4361      10.2430       6.9166      50.0000      24.7092    -999.2500    -999.2500     296.8892     153.2581       6.0467       3.6651       2.7362
   2249.9080      10.3038      10.3518       5.5047      50.0000      26.3342    -999.2500    -999.2500     196.5922     105.1453       4.2157       3.6656       2.7548
   2250.0605      10.2508      10.4385       4.0150      50.0753      27.5636    -999.2500    -999.2500     114.9171      66.4156       2.7643       3.6662       2.7725
   2250.2129      10.3185      10.4245       2.4069      50.5935      26.9958    -999.2500    -999.2500     117.8219      70.3039       3.0377       3.6672       2.7865
   2250.3652      10.3839      10.4057       2.3377      51.0364      26.2398    -999.2500    -999.2500     124.9654      77.7526       3.2316       3.6779       2.7994
   2250.5176      10.4334      10.3653       2.7536      51.0318      24.6238    -999.2500    -999.2500     151.4742     101.4668       3.0623       3.7328       2.8074
   2250.6702      10.3675      10.3292       3.0871      50.7118      23.1818    -999.2500    -999.2500     191.7321     132.9461       2.7793       3.7779       2.8159
   2250.8225      10.3318      10.3132       2.8896      48.5322      22.5486    -999.2500    -999.2500     295.8696     200.5024       1.9682       3.7774       2.8269
   2250.9749      10.3294      10.2838       2.1062      46.6677      21.6932    -999.2500    -999.2500     414.5358     251.4160       1.3014       3.7673       2.8377
   2251.1272      10.2725      10.1918       1.6324      46.6727      19.7990    -999.2500    -999.2500     601.1057     224.5446       1.3094       3.7123       2.8472
   2251.2795      10.2059      10.1212       1.3019      46.7213      18.0060    -999.2500    -999.2500     750.3597     210.6396       1.3146       3.6696       2.8541
   2251.4321      10.1437      10.1508       1.3117      47.0266      16.6888    -999.2500    -999.2500     724.1641     257.6996       1.3066       3.6847       2.8491
   2251.5845      10.1535      10.1993       1.4396      47.4050      15.6398    -999.2500    -999.2500     686.4523     293.4688       1.3000       3.7043       2.8419
   2251.7368      10.2212      10.3336       1.6628      48.2168      15.8046    -999.2500    -999.2500     596.6065     278.1247       1.3000       3.7448       2.8249
   2251.8892      10.2888      10.4438       1.4692      48.9384      16.2909    -999.2500    -999.2500     505.9475     257.7910       1.3010       3.7778       2.8110
   2252.0417      10.3557      10.4428       1.3000      49.1278      18.2570    -999.2500    -999.2500     411.5448     214.4882       1.3065       3.7768       2.8110
   2252.1941      10.4203      10.4329       1.3000      49.3980      19.8206    -999.2500    -999.2500     320.4781     174.3829       1.3298       3.7730       2.8114
   2252.3464      10.4417      10.3820       1.3154      50.1483      19.5197    -999.2500    -999.2500     244.8593     149.0838       1.4358       3.7560       2.8139
   2252.4988      10.4380      10.3492       1.3400      51.4450      18.9692    -999.2500    -999.2500     177.6249     124.8308       1.5741       3.7319       2.8156
   2252.6514      10.3787      10.4011       1.7502      55.9717      17.2558    -999.2500    -999.2500     149.4466     105.4507       1.8632       3.6750       2.8131
   2252.8037      10.3623      10.4438       2.0841      59.8392      17.4175    -999.2500    -999.2500     123.9560      85.8354       2.2029       3.6153       2.8081
   2252.9561      10.4257      10.4428       2.2719      59.8337      26.4641    -999.2500    -999.2500     111.2002      65.1054       2.7820       3.5426       2.7916
   2253.1084      10.4440      10.4329       2.5060      59.7809      33.6957    -999.2500    -999.2500     101.6487      48.2374       3.2069       3.4611       2.7721
   2253.2607      10.4437      10.3824       2.7634      59.4483      32.6487    -999.2500    -999.2500     106.7135      48.9851       2.9286       3.3391       2.7391
   2253.4133      10.4388      10.3436       3.0780      58.7270      30.8340    -999.2500    -999.2500     117.1033      50.2467       2.7012       3.2573       2.7125
   2253.5657      10.4110      10.3581       3.1107      55.7198      25.4973    -999.2500    -999.2500     151.9248      53.8661       2.7077       3.3598       2.7155
   2253.7180      10.3531      10.3770       2.7712      53.1474      21.1178    -999.2500    -999.2500     180.5264      57.8876       2.7305       3.4437       2.7201
   2253.8704      10.3906      10.4165       2.7231      53.1504      21.1563    -999.2500    -999.2500     180.4220      63.7643       2.8289       3.4422       2.7321
   2254.0229      10.4457      10.4527       2.8015      53.1824      21.2520    -999.2500    -999.2500     179.7124      69.5436       2.9737       3.4324       2.7447
   2254.1753      10.4573      10.4737       3.1581      53.3848      21.6163    -999.2500    -999.2500     176.1614      74.8653       3.3366       3.3834       2.7602
   2254.3276      10.5233      10.5006       3.4470      53.8467      21.6517    -999.2500    -999.2500     173.6726      78.9742       3.6204       3.3460       2.7769
   2254.4800      10.6415      10.5552       3.6707      55.8469      20.1335    -999.2500    -999.2500     176.1996      77.3557       3.5312       3.3630       2.7989
   2254.6326      10.6088      10.6132       3.6661      57.5563      18.8890    -999.2500    -999.2500     181.1752      76.1388       3.4160       3.3901       2.8169
   2254.7849      10.5830      10.6867       3.5473      57.5513      18.8890    -999.2500    -999.2500     197.2828      76.7481       3.1831       3.4625       2.8164
   2254.9373      10.6574      10.7687       3.1596      57.4998      18.8832    -999.2500    -999.2500     210.3330      77.7256       2.9822       3.5350       2.8153
   2255.0896      10.7640      10.8895       2.9892      57.1727      18.8507    -999.2500    -999.2500     209.4021      80.3873       2.9278       3.6074       2.8113
   2255.2419      10.8933      10.9862       2.9710      56.5297      18.6648    -999.2500    -999.2500     206.5004      83.0753       2.8314       3.6670       2.8061
   2255.3945      10.9514      10.9702       2.7903      54.0228      17.7652    -999.2500    -999.2500     194.4326      85.8856       2.5401       3.6670       2.7951
   2255.5469      10.9680      10.9337       2.5917      51.8792      17.3429    -999.2500    -999.2500     176.6107      87.3888       2.3379       3.6674       2.7835
   2255.6992      10.8997      10.8013       2.3729      51.8942      19.1540    -999.2500    -999.2500     131.8697      82.7770       2.5530       3.6694       2.7695
   2255.8516      10.8319      10.6984       2.3630      52.0381      22.0914    -999.2500    -999.2500      95.7771      76.0906       2.8514       3.6754       2.7592
   2256.0042      10.7648      10.7278       2.4771      52.9437      30.1034    -999.2500    -999.2500      98.6459      60.0575       3.5251       3.6993       2.7657
