#------------------------------------------------------------------------------
#
#   Created by  : [OpenWorks] Log Export Utility (LEXP)
#   Created on  : 2016-05-23 11:51:58
#   Project     : CANT971
#   User        : R5K
#   Interpreter : PEP
#
#------------------------------------------------------------------------------
~VERSION INFORMATION
VERS. 2.0 : CWLS Log ASCII Standard - version 2.0
WRAP.  NO : One line per depth step
~WELL INFORMATION
#MNEMONIC   .UNIT                                           VALUE :DESCRIPTION
#------------------------------------------------------------------------------
STRT        .M                                           695.7060 :START DEPTH
STOP        .M                                          3054.7056 :STOP DEPTH
STEP        .M                                             0.1524 :STEP
NULL        .                                           -999.2500 :NULL VALUE
COMP        .                                   PEMEX EXPL & PROD :COMPANY
WELL        .                                                 17D :WELL
FLD         .                                           CANTARELL :FIELD
LOC         .                                             UNKNOWN :LOCATION
CNTY        .                                      CD. DEL CARMEN :COUNTY
STAT        .                                            CAMPECHE :STATE
CTRY        .                                              MEXICO :COUNTRY
SRVC        .                                             UNKNOWN :SERVICE COMPANY
DATE        .                                             UNKNOWN :LOG DATE
UWI         .                                          3060000460 :UNIQUE WELL ID
XCOORD      .                                       603362.626000 :SURFACE X
YCOORD      .                                      2145093.910000 :SURFACE Y
LAT         .                                           19.398550 :LATITUDE
LON         .                                          -92.015617 :LONGITUDE
ELEV        .M                                            27.1400 :SURFACE ELEV
ELEV_TYPE   .                                                  KB :ELEV TYPE
~CURVE INFORMATION
#MNEMONIC.UNIT        API CODE       : CURVE DESCRIPTION
#------------------------------------------------------------------------------
DEPTH    .M                          : Measured Depth
CALI     .in          UNKNOWN        : CALI:UNKNOWN:rC:NONE:v0 (auto-composite)
DT       .us/ft       UNKNOWN        : DT:DT:rC:NONE:v0 (auto-composite)
GR       .API         UNKNOWN        : GR:UNKNOWN:rC:NONE:v0 (auto-composite)
ILD      .ohmm        UNKNOWN        : ILD:UNKNOWN:rC:NONE:v0 (auto-composite)
LLD      .ohmm        UNKNOWN        : LLD:UNKNOWN:rC:NONE:v0 (auto-composite)
LLS      .ohmm        UNKNOWN        : LLS:UNKNOWN:rC:NONE:v0 (auto-composite)
MSFL     .ohmm        UNKNOWN        : MSFL:UNKNOWN:rC:NONE:v0 (auto-composite)
NPHI     .v/v_decimal UNKNOWN        : NPHI:UNKNOWN:rC:NONE:v0 (auto-composite)
PEF      .b/elec      UNKNOWN        : PEF:UNKNOWN:rC:NONE:v0 (auto-composite)
RHOB     .g/cm3       UNKNOWN        : RHOB:UNKNOWN:rC:NONE:v0 (auto-composite)
~A     DEPTH         CALI           DT           GR          ILD          LLD          LLS         MSFL         NPHI          PEF         RHOB
# ...
   2735.4275       9.2417      90.1498      71.2020    -999.2500      20.5567      23.1940      21.8975       0.2171       3.4555       2.3256
   2735.5801      10.3040      87.7605      83.8790    -999.2500      15.9040      18.2900      13.7890       0.2801       3.4470       2.2880
   2735.7324      11.2139      80.4666      95.7858    -999.2500      11.3565      13.1800       8.7834       0.2694       3.4894       2.3370
   2735.8848      12.1270      72.0545     107.7160    -999.2500       6.8000       8.0600       3.7680       0.2586       3.5320       2.3860
   2736.0371      12.8302      69.1981     111.0982    -999.2500       5.8707       6.9272       3.0178       0.2621       3.5744       2.4015
   2736.1897      13.5360      69.2927     114.4930    -999.2500       4.9380       5.7920       2.2660       0.2656       3.6170       2.4170
   2736.3420      13.8793      76.8359     111.5942    -999.2500       5.9011       6.9762       2.1976       0.2944       3.5711       2.3926
   2736.4944      14.2240      86.6413     108.6750    -999.2500       6.8710       8.1630       2.1290       0.3235       3.5250       2.3680
   2736.6467      13.7874      86.2038     107.4280    -999.2500       7.9812       9.8745       2.0841       0.3202       3.4282       2.3302
   2736.7991      13.3490      85.0157     106.1680    -999.2500       9.1030      11.5900       2.0390       0.3169       3.3310       2.2920
   2736.9517      11.9913      82.6892     109.4596    -999.2500       8.7465      11.3443       1.9371       0.2717       3.2472       2.2227
   2737.1040      10.6280      79.7063     112.7700    -999.2500       8.3880      11.0980       1.8350       0.2260       3.1630       2.1530
   2737.2563       9.5363      74.8211     115.4786    -999.2500       8.4790      11.1829       1.7087       0.1685       3.1166       2.0206
   2737.4087       8.4400      71.3898     118.1900    -999.2500       8.5700      11.2680       1.5820       0.1106       3.0700       1.8880
   2737.5613       8.6096      75.2274     114.9051    -999.2500      10.5133      13.4805       1.8486       0.1128       3.0206       1.8980
   2737.7136       8.7800      80.1715     111.6060    -999.2500      12.4650      15.6990       2.1160       0.1151       2.9710       1.9080
   2737.8660       8.6931      82.5718     104.3877    -999.2500      18.1322      20.5646       3.2404       0.1450       2.9121       1.9787
   2738.0183       8.6060      83.6300      97.1140    -999.2500      23.8430      25.4440       4.3680       0.1751       2.8530       2.0500
   2738.1709       8.3778      79.3639      95.3921    -999.2500      23.0696      23.6512       4.8278       0.2050       2.9214       2.1346
   2738.3232       8.1490      74.6573      93.6540    -999.2500      22.2890      21.8530       5.2890       0.2351       2.9900       2.2200
   2738.4756       8.0831      70.8014     100.6789    -999.2500      17.1242      16.1968       3.7699       0.2164       3.0574       2.2958
   2738.6279       8.0170      67.3346     107.7370    -999.2500      11.9350      10.5230       2.2460       0.1976       3.1250       2.3720
   2738.7803       8.3644      69.1374     112.8094    -999.2500      10.6116      10.7441       2.2695       0.1636       3.0451       2.4290
   2738.9329       8.7130      70.4142     117.8900    -999.2500       9.2860      10.9660       2.2930       0.1293       2.9650       2.4860
   2739.0852       9.1553      69.8565     114.6191    -999.2500      10.2531      12.5399       2.4817       0.1416       2.9321       2.4641
   2739.2375       9.5990      68.4525     111.3320    -999.2500      11.2250      14.1190       2.6710       0.1540       2.8990       2.4420
   2739.3899       9.7787      64.4945     104.9359    -999.2500      12.4838      16.0702       2.7969       0.1998       2.9564       2.4026
   2739.5425       9.9590      60.3531      98.4970    -999.2500      13.7510      18.0250       2.9230       0.2459       3.0140       2.3630
   2739.6948       9.6625      56.3372      96.5258    -999.2500      13.0355      17.0824       2.7172       0.2890       3.0919       2.3630
   2739.8472       9.3650      53.2291      94.5380    -999.2500      12.3140      16.1380       2.5110       0.3323       3.1700       2.3630
   2739.9995       8.5705      54.6540      99.0429    -999.2500      10.7297      13.7685       2.3357       0.2978       3.3756       2.4009
   2740.1521       7.7730      57.2319     103.5720    -999.2500       9.1370      11.3940       2.1600       0.2629       3.5820       2.4390
   2740.3044       7.1642      61.1977     107.3382    -999.2500       9.8013      11.6892       2.5201       0.2021       3.6783       2.4989
   2740.4568       6.5530      64.6351     111.1130    -999.2500      10.4670      11.9850       2.8810       0.1408       3.7750       2.5590
   2740.6091       6.4427      65.3592     106.8131    -999.2500      12.9855      14.7362       5.0689       0.1104       3.7710       2.5989
   2740.7615       6.3320      64.8230     102.4960    -999.2500      15.5140      17.4940       7.2620       0.0797       3.7670       2.6390
   2740.9141       6.3320      58.5587      97.3602    -999.2500      17.4644      20.6765      10.4265       0.0691       4.0554       2.7023
   2741.0664       6.3320      53.2388      92.1950    -999.2500      19.4260      23.8670      13.5990       0.0585       4.3450       2.7660
   2741.2188       6.3320      52.0638      92.5076    -999.2500      21.4389      27.8577      59.8705       0.0431       4.6718       2.8212
   2741.3711       6.3320      52.4146      92.8230    -999.2500      23.4700      31.8590     106.2640       0.0277       5.0000       2.8770
   2741.5237       6.3320      57.0834      87.3774    -999.2500      31.0270      43.0620     281.5287       0.0192       4.9810       2.8571
   2741.6760       6.3320      60.7134      81.8640    -999.2500      38.6780      54.2960     457.2770       0.0107       4.9620       2.8370
   2741.8284       6.3320      60.8002      72.0470    -999.2500      49.4742      70.0398     416.4599       0.0126       4.7947       2.8559
   2741.9807       6.3320      59.5087      62.1540    -999.2500      60.3540      85.8290     375.5250       0.0145       4.6270       2.8750
   2742.1333       6.3355      56.7989      53.3907    -999.2500      68.1972      98.5853     212.6337       0.0190       4.3319       2.9030
   2742.2856       6.3390      54.7095      44.6010    -999.2500      76.0640     111.3800      49.2520       0.0236       4.0360       2.9310
   2742.4380       6.3610      55.8672      40.0579    -999.2500      79.7010     110.4455      56.6319       0.0273       3.7604       2.8772
   2742.5903       6.3830      58.0137      35.4860    -999.2500      83.3610     109.5080      64.0350       0.0310       3.4840       2.8230
   2742.7427       6.4169      60.8564      40.6733    -999.2500      76.7710      95.5253     158.9257       0.0348       3.3931       2.7066
   2742.8953       6.4510      63.7779      45.9110    -999.2500      70.1170      81.4970     254.1260       0.0386       3.3020       2.5890
   2743.0476       6.4640      66.0516      56.3488    -999.2500      56.8049      62.6475     399.8793       0.0477       3.3145       2.5376
   2743.2000       6.4770      68.3862      66.8390    -999.2500      43.4260      43.7340     546.1270       0.0569       3.3270       2.4860
   2743.3523       6.4680      71.2056      77.9068    -999.2500      33.6445      33.5947     435.5142       0.0683       3.3415       2.4765
   2743.5049       6.4590      73.8152      88.9780    -999.2500      23.8600      23.4360     324.6900       0.0798       3.3560       2.4670
   2743.6572       6.4899      65.0237      98.3120    -999.2500      19.7674      19.8966     164.6354       0.0885       3.3869       2.4725
   2743.8096       6.5210      57.8916     107.6800    -999.2500      15.6600      16.3500       4.2550       0.0972       3.4180       2.4780
