#------------------------------------------------------------------------------
#
#   Created by  : [OpenWorks] Log Export Utility (LEXP)
#   Created on  : 2016-05-23 11:50:40
#   Project     : CANT971
#   User        : R5K
#   Interpreter : PEP
#
#------------------------------------------------------------------------------
~VERSION INFORMATION
VERS. 2.0 : CWLS Log ASCII Standard - version 2.0
WRAP.  NO : One line per depth step
~WELL INFORMATION
#MNEMONIC   .UNIT                                           VALUE :DESCRIPTION
#------------------------------------------------------------------------------
STRT        .M                                           697.2303 :START DEPTH
STOP        .M                                          3650.8948 :STOP DEPTH
STEP        .M                                             0.1524 :STEP
NULL        .                                           -999.2500 :NULL VALUE
COMP        .                                   PEMEX EXPL & PROD :COMPANY
WELL        .                                                1026 :WELL
FLD         .                                           CANTARELL :FIELD
LOC         .                                             UNKNOWN :LOCATION
CNTY        .                                      CD. DEL CARMEN :COUNTY
STAT        .                                            CAMPECHE :STATE
CTRY        .                                              MEXICO :COUNTRY
SRVC        .                                             UNKNOWN :SERVICE COMPANY
DATE        .                                             UNKNOWN :LOG DATE
UWI         .                                          3060000491 :UNIQUE WELL ID
XCOORD      .                                       596159.330000 :SURFACE X
YCOORD      .                                      2150607.710000 :SURFACE Y
LAT         .                                           19.448735 :LATITUDE
LON         .                                          -92.083932 :LONGITUDE
ELEV        .M                                            30.0000 :SURFACE ELEV
ELEV_TYPE   .                                                  KB :ELEV TYPE
~CURVE INFORMATION
#MNEMONIC.UNIT        API CODE       : CURVE DESCRIPTION
#------------------------------------------------------------------------------
DEPTH    .M                          : Measured Depth
CALI     .inches      UNKNOWN        : CALI:registros:rC:NONE:v0 (auto-composite)
DRHO     .g/cm3       UNKNOWN        : DRHO:registros:rC:NONE:v0 (auto-composite)
DT       .us/ft       UNKNOWN        : DT:registros:rC:NONE:v0 (auto-composite)
GR       .API         UNKNOWN        : GR:registros:rC:NONE:v0 (auto-composite)
ILD      .ohm.m       UNKNOWN        : ILD:registros:rC:NONE:v0 (auto-composite)
ILM      .ohm.m       UNKNOWN        : ILM:registros:rC:NONE:v0 (auto-composite)
LLD      .ohm.m       UNKNOWN        : LLD:registros:rC:NONE:v0 (auto-composite)
LLS      .ohm.m       UNKNOWN        : LLS:registros:rC:NONE:v0 (auto-composite)
MSFL     .ohm.m       UNKNOWN        : MSFL:registros:rC:NONE:v0 (auto-composite)
NPHI     .v/v_decimal UNKNOWN        : NPHI:registros:rC:NONE:v0 (auto-composite)
PEF      .b/elec      UNKNOWN        : PEF:registros:rC:NONE:v0 (auto-composite)
RHOB     .g/cm3       UNKNOWN        : RHOB:registros:rC:NONE:v0 (auto-composite)
~A     DEPTH         CALI         DRHO           DT           GR          ILD          ILM          LLD          LLS         MSFL         NPHI          PEF         RHOB
# ...
   2994.2031       9.8710      -0.9212      45.2804      28.5872    -999.2500    -999.2500       1.0945       0.7087     999.1196       0.4797    -999.2500       1.1120
   2994.3555       9.9110      -0.7670      35.3750      28.0600    -999.2500    -999.2500       1.8240       1.2040       0.3630       0.5299    -999.2500       1.0680
   2994.5078       9.9125      -0.6172      76.5359      24.8046    -999.2500    -999.2500       3.2298       3.4103       0.3770       0.5265    -999.2500       1.1395
   2994.6604       9.9140      -0.4670     117.6600      21.5470    -999.2500    -999.2500       4.6320       5.6110       0.3910       0.5171    -999.2500       1.2110
   2994.8127      10.9289      -0.2952     125.5986      23.8670    -999.2500    -999.2500       2.7337       5.6080       0.4025       0.5149    -999.2500       1.3115
   2994.9651      11.9430      -0.1230     133.5310      26.1890    -999.2500    -999.2500       0.8430       5.6050       0.4140       0.5089    -999.2500       1.4120
   2995.1174      15.1755      -0.0661     133.7971      32.7733    -999.2500    -999.2500       0.8766       3.8887       0.4045       0.4640    -999.2500       1.6221
   2995.2698      18.4060      -0.0090     134.0630      39.3640    -999.2500    -999.2500       0.9100       2.1790       0.3950       0.4198     -40.0660       1.8320
   2995.4224      18.9591       0.0334     134.1880      41.5853    -999.2500    -999.2500       1.0583       2.3368       0.4451       0.4219     -18.6114       1.9925
   2995.5747      19.5120       0.0760     134.3130      43.8090    -999.2500    -999.2500       1.2060       2.4940       0.4950       0.4287       2.8320       2.1530
   2995.7271      19.5295       0.0630     126.6969      45.0308    -999.2500    -999.2500       1.2661       2.6312       0.4669       0.4262       2.8010       2.1375
   2995.8794      19.5470       0.0500     119.0960      46.2540    -999.2500    -999.2500       1.3260       2.7680       0.4390       0.4227       2.7700       2.1220
   2996.0320      20.0081       0.0595     118.7352      49.3749    -999.2500    -999.2500       1.3385       2.8121       0.4500       0.4190       2.7100       2.0555
   2996.1843      20.4690       0.0690     118.3750      52.5000    -999.2500    -999.2500       1.3510       2.8560       0.4610       0.4141       2.6500       1.9890
   2996.3367      20.2190       0.1084     118.4356      46.7762    -999.2500    -999.2500       1.3936       2.8855       0.4490       0.3987       2.6620       1.9915
   2996.4890      19.9690       0.1480     118.4960      41.0440    -999.2500    -999.2500       1.4360       2.9150       0.4370       0.3842       2.6740       1.9940
   2996.6416      20.0625       0.1849     118.7397      38.6019    -999.2500    -999.2500       1.3093       2.7342       0.4145       0.3889       2.5965       2.0440
   2996.7939      20.1560       0.2220     118.9830      36.1560    -999.2500    -999.2500       1.1830       2.5540       0.3920       0.3963       2.5190       2.0940
   2996.9463      20.1250       0.1910     119.0821      40.6057    -999.2500    -999.2500       1.1484       2.4543       0.3960       0.4062       2.4510       1.9844
   2997.0986      20.0940       0.1600     119.1810      45.0630    -999.2500    -999.2500       1.1140       2.3550       0.4000       0.4141       2.3830       1.8750
   2997.2510      20.8130       0.1235     127.3566      42.2348    -999.2500    -999.2500       1.1010       2.3295       0.4025       0.4005       2.4130       1.8385
   2997.4036      21.5310       0.0870     135.5210      39.4060    -999.2500    -999.2500       1.0880       2.3040       0.4050       0.3851       2.4430       1.8020
   2997.5559      22.0158       0.0860     135.9793      40.9512    -999.2500    -999.2500       1.1526       2.4532       0.4225       0.3750       2.5885       1.8375
   2997.7083      22.5000       0.0850     136.4370      42.4970    -999.2500    -999.2500       1.2170       2.6020       0.4400       0.3667       2.7340       1.8730
   2997.8606      21.4214       0.1010     122.2106      47.6223    -999.2500    -999.2500       1.2340       2.6300       0.4100       0.3699       2.7315       1.9305
   2998.0132      20.3440       0.1170     108.0000      52.7500    -999.2500    -999.2500       1.2510       2.6580       0.3800       0.3721       2.7290       1.9880
   2998.1655      20.4220       0.1235     113.5913      50.7611    -999.2500    -999.2500       1.2550       2.6795       0.3750       0.3527       2.6575       1.9165
   2998.3179      20.5000       0.1300     119.1770      48.7710    -999.2500    -999.2500       1.2590       2.7010       0.3700       0.3334       2.5860       1.8450
   2998.4702      18.8823       0.1260     123.4028      47.9843    -999.2500    -999.2500       1.2420       2.6384       0.3850       0.3378       2.5275       1.8155
   2998.6228      17.2660       0.1220     127.6250      47.1970    -999.2500    -999.2500       1.2250       2.5760       0.4000       0.3410       2.4690       1.7860
   2998.7751      17.7502       0.1240     119.1529      45.8646    -999.2500    -999.2500       1.6213       2.7128       0.6430       0.3091       2.7124       1.8015
   2998.9275      18.2340       0.1260     110.6870      44.5310    -999.2500    -999.2500       2.0160       2.8490       0.8850       0.2752       2.9560       1.8170
   2999.0798      16.3779       0.1480     118.2523      47.0922    -999.2500    -999.2500       2.7494       3.1706       0.7032       0.2587       3.1449       1.9135
   2999.2322      14.5230       0.1700     125.8130      49.6560    -999.2500    -999.2500       3.4800       3.4910       0.5220       0.2455       3.3340       2.0100
   2999.3848      15.3712       0.2045     117.4845      48.4367    -999.2500    -999.2500       3.3758       3.5241       0.4774       0.2469       3.1340       2.0590
   2999.5371      16.2190       0.2390     109.1600      47.2160    -999.2500    -999.2500       3.2720       3.5570       0.4330       0.2514       2.9340       2.1080
   2999.6895      16.0775       0.2325     104.4819      45.3906    -999.2500    -999.2500       3.0872       3.4443       0.4220       0.2726       3.0085       2.0830
   2999.8418      15.9360       0.2260      99.8130      43.5630    -999.2500    -999.2500       2.9030       3.3320       0.4110       0.2896       3.0830       2.0580
   2999.9944      15.7915       0.2270     107.0381      50.7296    -999.2500    -999.2500       3.0903       3.5459       0.4856       0.2447       3.3395       2.0795
   3000.1467      15.6470       0.2280     114.2500      57.9060    -999.2500    -999.2500       3.2770       3.7590       0.5600       0.1969       3.5960       2.1010
   3000.2991      15.5135       0.2530     108.8559      55.6417    -999.2500    -999.2500       3.6366       4.2729       0.5570       0.1854       3.6125       2.2220
   3000.4514      15.3800       0.2780     103.4710      53.3740    -999.2500    -999.2500       3.9950       4.7850       0.5540       0.1808       3.6290       2.3430
   3000.6040      14.9560       0.2880      92.1650      45.6462    -999.2500    -999.2500       3.4622       4.1860       0.4864       0.2119       3.6015       2.3230
   3000.7563      14.5320       0.2980      80.8770      37.9060    -999.2500    -999.2500       2.9310       3.5890       0.4190       0.2456       3.5740       2.3030
   3000.9087      14.0702       0.2830      80.4382      38.4211    -999.2500    -999.2500       2.7758       3.4908       0.4445       0.2705       3.8220       2.2510
   3001.0610      13.6090       0.2680      80.0000      38.9370    -999.2500    -999.2500       2.6210       3.3930       0.4700       0.2922       4.0700       2.1990
   3001.2134      13.7861       0.2725      84.2118      37.9216    -999.2500    -999.2500       2.6030       3.3850       0.4354       0.2882       3.8810       2.2185
   3001.3660      13.9630       0.2770      88.4180      36.9060    -999.2500    -999.2500       2.5850       3.3770       0.4010       0.2804       3.6920       2.2380
