#------------------------------------------------------------------------------
#
#   Created by  : [OpenWorks] Log Export Utility (LEXP)
#   Created on  : 2016-05-23 11:57:21
#   Project     : CANT971
#   User        : R5K
#   Interpreter : PEP
#
#------------------------------------------------------------------------------
~VERSION INFORMATION
VERS. 2.0 : CWLS Log ASCII Standard - version 2.0
WRAP.  NO : One line per depth step
~WELL INFORMATION
#MNEMONIC   .UNIT                                           VALUE :DESCRIPTION
#------------------------------------------------------------------------------
STRT        .M                                           117.7290 :START DEPTH
STOP        .M                                          2309.5459 :STOP DEPTH
STEP        .M                                             0.1524 :STEP
NULL        .                                           -999.2500 :NULL VALUE
COMP        .                                   PEMEX EXPL & PROD :COMPANY
WELL        .                                                  7A :WELL
FLD         .                                           CANTARELL :FIELD
LOC         .                                             UNKNOWN :LOCATION
CNTY        .                                      CD. DEL CARMEN :COUNTY
STAT        .                                            CAMPECHE :STATE
CTRY        .                                              MEXICO :COUNTRY
SRVC        .                                             UNKNOWN :SERVICE COMPANY
DATE        .                                             UNKNOWN :LOG DATE
UWI         .                                          3060000143 :UNIQUE WELL ID
XCOORD      .                                       603360.310000 :SURFACE X
YCOORD      .                                      2145096.320000 :SURFACE Y
LAT         .                                           19.398572 :LATITUDE
LON         .                                          -92.015639 :LONGITUDE
ELEV        .M                                            27.1400 :SURFACE ELEV
ELEV_TYPE   .                                                  KB :ELEV TYPE
~CURVE INFORMATION
#MNEMONIC.UNIT        API CODE       : CURVE DESCRIPTION
#------------------------------------------------------------------------------
DEPTH    .M                          : Measured Depth
CALI     .in          UNKNOWN        : CALI:resistivos:rC:NONE:v0 (auto-composite)
DRHO     .g/cm3       UNKNOWN        : DRHO:PETROWORKS:rC:NONE:v2 
DT       .us/ft       UNKNOWN        : DT:DT:rC:NONE:v0 (auto-composite)
GR       .API         UNKNOWN        : GR:UNKNOWN:rC:NONE:v0 (auto-composite)
ILD      .ohmm        UNKNOWN        : ILD:resistivos:rC:NONE:v0 (auto-composite)
LLD      .ohm.m       UNKNOWN        : LLD:UNKNOWN:rC:NONE:v0 (auto-composite)
LLS      .ohm.m       UNKNOWN        : LLS:UNKNOWN:rC:NONE:v0 (auto-composite)
MSFL     .ohm.m       UNKNOWN        : MSFL:UNKNOWN:rC:NONE:v0 (auto-composite)
NPHI     .v/v_decimal     UNKNOWN        : NPHI:PETROWORKS:rC:NONE:v1 
RHOB     .g/cm3       UNKNOWN        : RHOB:UNKNOWN:rC:NONE:v0 (auto-composite)
SN       .ohm.m       UNKNOWN        : SN:UNKNOWN:rC:NONE:v0 (auto-composite)
~A     DEPTH         CALI         DRHO           DT           GR          ILD          LLD          LLS         MSFL         NPHI         RHOB           SN
# ...
   1647.2155       7.0751       0.0571      66.1080      27.6925    -999.2500     152.1993     200.0869     198.2005       0.0536       2.6928    -999.2500
   1647.3678       7.0251       0.0572      63.0506      24.8357    -999.2500     162.5873     186.7796     161.1960       0.0546       2.7163    -999.2500
   1647.5203       7.0000       0.0574      62.0303      22.4471    -999.2500     174.0251     175.4593     145.2250       0.0603       2.7330    -999.2500
   1647.6726       7.0000       0.0576      63.0387      20.5262    -999.2500     186.5117     166.1241     150.2688       0.0648       2.7430    -999.2500
   1647.8250       7.0000       0.0578      62.4011      19.1182    -999.2500     197.1901     170.1874     176.8000       0.0673       2.7502    -999.2500
   1647.9774       7.0000       0.0589      60.1237      18.2261    -999.2500     206.0497     187.7269     224.9427       0.0681       2.7547    -999.2500
   1648.1298       7.0000       0.0600      56.4813      17.9284    -999.2500     231.4798     206.8889     279.5208       0.0661       2.7602    -999.2500
   1648.2822       7.0000       0.0610      51.4790      18.2307    -999.2500     273.6337     227.6886     340.5940       0.0641       2.7667    -999.2500
   1648.4346       6.9815       0.0620      50.1489      18.5049    -999.2500     330.6020     251.2865     375.7499       0.0622       2.7740    -999.2500
   1648.5870       6.9445       0.0627      52.4788      18.7505    -999.2500     402.6216     277.7273     384.5739       0.0604       2.7820    -999.2500
   1648.7394       6.8891       0.0634      55.1848      18.8770    -999.2500     459.5536     282.1713     387.8627       0.0588       2.7903    -999.2500
   1648.8918       6.8151       0.0635      58.2657      18.8850    -999.2500     501.4927     264.7568     385.6510       0.0570       2.7988    -999.2500
   1649.0442       6.7780       0.0636      60.8204      18.9864    -999.2500     551.7261     262.0338     350.1640       0.0550       2.8050    -999.2500
   1649.1967       6.7780       0.0629      62.8503      19.1814    -999.2500     610.2568     274.0077     281.3897       0.0530       2.8090    -999.2500
   1649.3490       6.7780       0.0623      63.5891      19.5450    -999.2500     687.3514     287.3456     253.2532       0.0511       2.8110    -999.2500
   1649.5015       6.7780       0.0620      63.0402      20.0781    -999.2500     783.0807     302.0529     265.9096       0.0494       2.8110    -999.2500
   1649.6538       6.7780       0.0617      63.0165      20.8313    -999.2500     805.4667     311.8705     322.8999       0.0482       2.8108    -999.2500
   1649.8062       6.7780       0.0617      63.5170      21.8070    -999.2500     753.7373     316.7469     424.6906       0.0473       2.8103    -999.2500
   1649.9586       6.7780       0.0616      66.1877      22.5560    -999.2500     755.6787     328.8869     467.3139       0.0469       2.8045    -999.2500
   1650.1110       6.7780       0.0613      71.0241      23.0744    -999.2500     812.2184     348.4161     449.7472       0.0465       2.7935    -999.2500
   1650.2634       6.7780       0.0610      72.0227      23.3330    -999.2500     882.1315     365.8761     415.0266       0.0460       2.7785    -999.2500
   1650.4158       6.7780       0.0604      69.1906      23.3330    -999.2500     965.3505     381.2774     363.2385       0.0458       2.7595    -999.2500
   1650.5682       6.7780       0.0599      69.5853      23.3330    -999.2500     953.6818     379.7388     319.3139       0.0459       2.7527    -999.2500
   1650.7206       6.7780       0.0597      73.1911      23.3330    -999.2500     847.2758     361.2872     283.2404       0.0470       2.7582    -999.2500
   1650.8730       6.7780       0.0595      77.8947      23.3330    -999.2500     707.8536     332.2343     255.8427       0.0495       2.7652    -999.2500
   1651.0254       6.7780       0.0591      83.6911      23.3330    -999.2500     535.2473     292.5264     237.1647       0.0523       2.7737    -999.2500
   1651.1779       6.7780       0.0588      82.6272      23.8460    -999.2500     401.8451     263.5577     219.3392       0.0554       2.7750    -999.2500
   1651.3302       6.7780       0.0585      74.7324      24.8781    -999.2500     308.1096     245.4551     202.3760       0.0580       2.7690    -999.2500
   1651.4825       6.7780       0.0582      71.9258      25.2602    -999.2500     244.9759     223.1553     166.1519       0.0596       2.7613    -999.2500
   1651.6350       6.7780       0.0577      74.1867      24.9826    -999.2500     212.9124     196.5943     110.3721       0.0614       2.7518    -999.2500
   1651.7874       6.7965       0.0573      78.8323      25.4123    -999.2500     192.5524     172.5052      87.3428       0.0634       2.7432    -999.2500
   1651.9398       6.8335       0.0569      85.8536      26.5468    -999.2500     183.8516     150.8785      96.9401       0.0662       2.7357    -999.2500
   1652.0922       6.9331       0.0566      87.4925      28.3789    -999.2500     178.3235     136.0981      86.4719       0.0706       2.7293    -999.2500
   1652.2446       7.0956       0.0564      83.7681      30.9083    -999.2500     175.9670     128.1617      55.9448       0.0752       2.7238    -999.2500
   1652.3970       7.1670       0.0562      79.6474      33.4088    -999.2500     161.2027     116.6713      51.2318       0.0799       2.7235    -999.2500
   1652.5494       7.1470       0.0561      75.1315      35.8802    -999.2500     133.9520     101.6043      72.4966       0.0826       2.7285    -999.2500
   1652.7018       7.0943       0.0559      74.1837      37.7606    -999.2500     106.4924      84.4906      71.0373       0.0817       2.7335    -999.2500
   1652.8542       7.0088       0.0559      76.7931      39.0440    -999.2500      78.8220      65.3101      46.6307       0.0785       2.7385    -999.2500
   1653.0066       6.9191       0.0559      80.2895      39.9202    -999.2500      70.8283      59.7477      34.5443       0.0712       2.7457    -999.2500
   1653.1591       6.8251       0.0559      84.6703      40.3825    -999.2500      82.8376      68.0291      34.9825       0.0651       2.7553    -999.2500
   1653.3114       6.7887       0.0559      85.4220      40.3064    -999.2500     109.4804      83.6348      43.3859       0.0611       2.7630    -999.2500
   1653.4637       6.8102       0.0557      82.5536      39.6949    -999.2500     150.6731     106.5227      59.7088       0.0589       2.7690    -999.2500
   1653.6162       6.8624       0.0557      78.6320      38.7416    -999.2500     207.5818     136.8913      94.2679       0.0597       2.7705    -999.2500
   1653.7686       6.9454       0.0557      73.6597      37.4461    -999.2500     280.2209     174.7475     147.0801       0.0612       2.7675    -999.2500
   1653.9210       6.9653       0.0558      73.0629      37.0136    -999.2500     363.2640     206.4096     203.0776       0.0639       2.7540    -999.2500
   1654.0734       6.9218       0.0562      76.8327      37.4477    -999.2500     456.7567     231.8504     262.2743       0.0653       2.7301    -999.2500
   1654.2258       6.9072       0.0567      75.4786      37.5196    -999.2500     553.2275     254.6921     272.7735       0.0644       2.7200    -999.2500
   1654.3782       6.9217       0.0587      69.0258      37.2253    -999.2500     652.7095     274.9059     234.0347       0.0632       2.7240    -999.2500
   1654.5306       6.9061       0.0607      66.0197      36.7125    -999.2500     752.7388     304.5395     194.7434       0.0612       2.7275    -999.2500
   1654.6830       6.8601       0.0626      66.4442      35.9783    -999.2500     853.3234     343.7304     154.8914       0.0600       2.7305    -999.2500
   1654.8354       6.8572       0.0642      68.2966      34.9511    -999.2500     876.9871     358.9772     149.5297       0.0600       2.7328    -999.2500
   1654.9878       6.8977       0.0633      71.5705      33.6321    -999.2500     824.0740     350.3869     178.5042       0.0598       2.7343    -999.2500
