#------------------------------------------------------------------------------
#
#   Created by  : [OpenWorks] Log Export Utility (LEXP)
#   Created on  : 2016-05-12 17:01:19
#   Project     : CANT971
#   User        : R5K
#   Interpreter : PEP
#
#------------------------------------------------------------------------------
~VERSION INFORMATION
VERS. 2.0 : CWLS Log ASCII Standard - version 2.0
WRAP.  NO : One line per depth step
~WELL INFORMATION
#MNEMONIC   .UNIT                                           VALUE :DESCRIPTION
#------------------------------------------------------------------------------
STRT        .M                                           300.0760 :START DEPTH
STOP        .M                                          2081.9368 :STOP DEPTH
STEP        .M                                             0.1524 :STEP
NULL        .                                           -999.2500 :NULL VALUE
COMP        .                                   PEMEX EXPL & PROD :COMPANY
WELL        .                                                  37 :WELL
FLD         .                                           CANTARELL :FIELD
LOC         .                                             UNKNOWN :LOCATION
CNTY        .                                      CD. DEL CARMEN :COUNTY
STAT        .                                            CAMPECHE :STATE
CTRY        .                                              MEXICO :COUNTRY
SRVC        .                                             UNKNOWN :SERVICE COMPANY
DATE        .                                             UNKNOWN :LOG DATE
UWI         .                                          3060000160 :UNIQUE WELL ID
XCOORD      .                                       602154.560000 :SURFACE X
YCOORD      .                                      2147169.070000 :SURFACE Y
LAT         .                                           19.417364 :LATITUDE
LON         .                                          -92.027009 :LONGITUDE
ELEV        .M                                            28.1700 :SURFACE ELEV
ELEV_TYPE   .                                                  KB :ELEV TYPE
~CURVE INFORMATION
#MNEMONIC.UNIT        API CODE       : CURVE DESCRIPTION
#------------------------------------------------------------------------------
DEPTH    .M                          : Measured Depth
CALI     .inches      UNKNOWN        : CALI:Import:rC:NONE:v0 (auto-composite)
DRHO     .g/cm3       UNKNOWN        : DRHO:Import:rC:NONE:v0 (auto-composite)
DT       .us/ft       UNKNOWN        : DT:Import:rC:NONE:v0 (auto-composite)
GR       .API         UNKNOWN        : GR:Import:rC:NONE:v0 (auto-composite)
ILD      .ohm.m       UNKNOWN        : ILD:Import:rC:NONE:v0 (auto-composite)
NPHI     .v/v_decimal UNKNOWN        : NPHI:Import:rC:NONE:v0 (auto-composite)
RHOB     .g/cm3       UNKNOWN        : RHOB:Import:rC:NONE:v0 (auto-composite)
~A     DEPTH         CALI         DRHO           DT           GR          ILD         NPHI         RHOB
# ...
   2048.5613       6.1911      -0.0055      57.1244      22.3445    1420.0022       5.9793       2.6935
   2048.7136       6.2430       0.0020      56.6300      22.7990    1264.1429       5.2600       2.7230
   2048.8660       6.1910       0.0100      55.5528      24.6457    1405.9603       5.3005       2.7275
   2049.0183       6.1390       0.0180      54.4760      26.4890    1547.5100       5.3410       2.7320
   2049.1709       6.1910       0.0140      55.2426      27.1881    1561.8557       5.4506       2.7370
   2049.3232       6.2430       0.0100      56.0090      27.8860    1576.1760       5.5600       2.7420
   2049.4756       6.2430       0.0065      55.9855      27.2360    1343.4656       5.5805       2.7375
   2049.6279       6.2430       0.0030      55.9620      26.5870    1111.1360       5.6010       2.7330
   2049.7803       6.2430      -0.0010      57.0363      26.8392     965.7961       5.7621       2.7320
   2049.9329       6.2430      -0.0050      58.1090      27.0910     820.6760       5.9230       2.7310
   2050.0852       6.2430       0.0025      64.7511      29.3921     913.0535       6.5224       2.7255
   2050.2375       6.2430       0.0100      71.3840      31.6900    1005.3030       7.1210       2.7200
   2050.3899       6.2430       0.0095      76.4587      35.1397    1276.5547       7.4722       2.7175
   2050.5425       6.2430       0.0090      81.5270      38.5850    1547.4640       7.8230       2.7150
   2050.6948       6.2430       0.0130      84.1095      40.6917    1199.2402       8.6525       2.6950
   2050.8472       6.2430       0.0170      86.6890      42.7960     851.4120       9.4810       2.6750
   2050.9995       6.2430       0.0230      84.4574      46.7875    1213.9773       9.0673       2.6905
   2051.1521       6.2430       0.0290      82.2280      50.7750    1576.1760       8.6540       2.7060
   2051.3044       6.1909       0.0225      76.1423      45.6682    1183.4387       7.5665       2.7355
   2051.4568       6.1390       0.0160      70.0620      40.5660     791.0490       6.4800       2.7650
   2051.6091       6.1390       0.0110      67.3525      34.8228    1027.6859       6.4805       2.7585
   2051.7615       6.1390       0.0060      64.6450      29.0840    1264.1429       6.4810       2.7520
   2051.9141       6.1911       0.0115      59.5094      27.4837    1057.5466       6.6307       2.7580
   2052.0664       6.2430       0.0170      54.3770      25.8870     851.4120       6.7800       2.7640
   2052.2188       6.1909       0.0105      54.5760      26.3880    1199.8052       6.3596       2.7580
   2052.3711       6.1390       0.0040      54.7750      26.8880    1547.4640       5.9400       2.7520
   2052.5237       6.1911       0.0070      55.3421      28.0376    1545.5560       5.9400       2.7375
   2052.6760       6.2430       0.0100      55.9090      29.1850    1543.6520       5.9400       2.7230
   2052.8284       6.2430       0.0145      54.8034      28.6350    1085.7218       5.7999       2.7265
   2052.9807       6.2430       0.0190      53.6980      28.0860     628.6420       5.6600       2.7300
   2053.1333       6.1910       0.0045      52.3964      28.5859    1088.4514       5.1691       2.7470
   2053.2856       6.1390      -0.0100      51.0950      29.0850    1547.4640       4.6790       2.7640
   2053.4380       6.1910      -0.0065      50.2130      27.6348    1087.6837       4.4293       2.7650
   2053.5903       6.2430      -0.0030      49.3310      26.1870     628.6420       4.1800       2.7660
   2053.7427       6.1910       0.0030      49.3335      26.2881     662.1108       4.1695       2.7865
   2053.8953       6.1390       0.0090      49.3360      26.3890     695.5300       4.1590       2.8070
   2054.0476       6.1910       0.0090      49.5581      27.4382     676.8564       3.9894       2.7965
   2054.2000       6.2430       0.0090      49.7800      28.4860     658.2080       3.8200       2.7860
   2054.3523       6.1910       0.0200      49.8816      28.7857     817.8433       3.9005       2.8055
   2054.5049       6.1390       0.0310      49.9830      29.0850     977.2820       3.9810       2.8250
   2054.6572       6.1910       0.0155      50.1326      26.6852     951.0480       4.1911       2.8010
   2054.8096       6.2430       0.0000      50.2820      24.2880     924.8430       4.4010       2.7770
   2054.9619       6.1910       0.0000      50.6062      24.8888    1236.3062       4.7512       2.7500
   2055.1145       6.1390       0.0000      50.9300      25.4890    1547.4640       5.1010       2.7230
   2055.2668       6.1911       0.0050      51.7924      26.7896    1068.2604       5.3011       2.7380
   2055.4192       6.2430       0.0100      52.6540      28.0890     589.4660       5.5010       2.7530
   2055.5715       6.1909       0.0070      53.2217      29.5870     820.7453       5.6110       2.7580
   2055.7239       6.1390       0.0040      53.7890      31.0840    1051.8560       5.7210       2.7630
   2055.8765       6.1911       0.0070      53.2243      27.7824    1014.5278       5.8311       2.7535
   2056.0288       6.2430       0.0100      52.6600      24.4880     977.2820       5.9410       2.7440
   2056.1812       6.1909       0.0055      52.0474      24.7878     938.1658       6.0912       2.7320
   2056.3335       6.1390       0.0010      51.4350      25.0870     899.1310       6.2410       2.7200
   2056.4861       6.1911       0.0020      51.0434      23.7367     778.5518       6.3006       2.7215
   2056.6384       6.2430       0.0030      50.6520      22.3890     658.2080       6.3600       2.7230
   2056.7908       6.1910       0.0065      50.4340      23.0401    1103.2424       6.2299       2.7375
   2056.9431       6.1390       0.0100      50.2160      23.6900    1547.4640       6.1000       2.7520
   2057.0957       6.1390       0.0175      50.0460      24.4892    1199.1415       6.3602       2.7435
   2057.2480       6.1390       0.0250      49.8760      25.2870     851.4120       6.6200       2.7350
   2057.4004       6.1910       0.0185      50.2975      25.4897    1199.7124       6.6100       2.7375
   2057.5527       6.2430       0.0120      50.7190      25.6920    1547.4640       6.6000       2.7400
   2057.7051       6.1910       0.0140      51.0893      26.5436    1199.1852       6.6200       2.7320
   2057.8577       6.1390       0.0160      51.4590      27.3940     851.4120       6.6400       2.7240
   2058.0100       6.1390       0.0075      50.9211      28.3902    1199.6687       6.5900       2.7140
   2058.1624       6.1390      -0.0010      50.3840      29.3850    1547.4640       6.5400       2.7040
   2058.3147       6.1910       0.0045      50.6326      28.7351    1087.7771       6.9312       2.7080
   2058.4673       6.2430       0.0100      50.8810      28.0860     628.6420       7.3220       2.7120
   2058.6196       6.1910       0.0110      51.7935      29.1861     695.6035       7.8218       2.7170
   2058.7720       6.1390       0.0120      52.7050      30.2850     762.4930       8.3210       2.7220
   2058.9243       6.1390       0.0030      52.8791      30.0849     695.5357       8.0309       2.7135
   2059.0769       6.1390      -0.0060      53.0530      29.8850     628.6420       7.7410       2.7050
   2059.2292       6.1390      -0.0025      53.1055      31.2361     675.8134       7.8126       2.6960
   2059.3816       6.1390       0.0010      53.1580      32.5840     722.9460       7.8840       2.6870
   2059.5339       6.1390      -0.0160      53.8487      31.3331    1135.3490       8.5933       2.6450
   2059.6863       6.1390      -0.0330      54.5390      30.0850    1547.4640       9.3010       2.6030
   2059.8389       6.2166      -0.0225      54.8851      29.2766    1561.8356       9.4311       2.5965
   2059.9912       6.2940      -0.0120      55.2310      28.4700    1576.1760       9.5610       2.5900
   2060.1436       6.2164      -0.0125      54.8879      25.4264    1540.7393       9.4599       2.5880
