#------------------------------------------------------------------------------
#
#   Created by  : [OpenWorks] Log Export Utility (LEXP)
#   Created on  : 2016-05-23 11:56:12
#   Project     : CANT971
#   User        : R5K
#   Interpreter : PEP
#
#------------------------------------------------------------------------------
~VERSION INFORMATION
VERS. 2.0 : CWLS Log ASCII Standard - version 2.0
WRAP.  NO : One line per depth step
~WELL INFORMATION
#MNEMONIC   .UNIT                                           VALUE :DESCRIPTION
#------------------------------------------------------------------------------
STRT        .M                                           365.7604 :START DEPTH
STOP        .M                                          2883.8655 :STOP DEPTH
STEP        .M                                             0.1524 :STEP
NULL        .                                           -999.2500 :NULL VALUE
COMP        .                                   PEMEX EXPL & PROD :COMPANY
WELL        .                                                  44 :WELL
FLD         .                                           CANTARELL :FIELD
LOC         .                                             UNKNOWN :LOCATION
CNTY        .                                      CD. DEL CARMEN :COUNTY
STAT        .                                            CAMPECHE :STATE
CTRY        .                                              MEXICO :COUNTRY
SRVC        .                                             UNKNOWN :SERVICE COMPANY
DATE        .                                             UNKNOWN :LOG DATE
UWI         .                                          3060000162 :UNIQUE WELL ID
XCOORD      .                                       599695.380000 :SURFACE X
YCOORD      .                                      2143038.730000 :SURFACE Y
LAT         .                                           19.380164 :LATITUDE
LON         .                                          -92.050646 :LONGITUDE
ELEV        .M                                            26.7400 :SURFACE ELEV
ELEV_TYPE   .                                                  KB :ELEV TYPE
~CURVE INFORMATION
#MNEMONIC.UNIT        API CODE       : CURVE DESCRIPTION
#------------------------------------------------------------------------------
DEPTH    .M                          : Measured Depth
CALI     .inches      UNKNOWN        : CALI:registros:rC:NONE:v0 (auto-composite)
CGR      .API         UNKNOWN        : CGR:registros:rC:NONE:v0 (auto-composite)
DRHO     .g/cm3       UNKNOWN        : DRHO:registros:rC:NONE:v0 (auto-composite)
DT       .UNKNOWN     UNKNOWN        : DT:registros:rC:NONE:v0 (auto-composite)
GR       .API         UNKNOWN        : GR:registros:rC:NONE:v0 (auto-composite)
ILD      .ohm.m       UNKNOWN        : ILD:registros:rC:NONE:v0 (auto-composite)
LLD      .ohm.m       UNKNOWN        : LLD:registros:rC:NONE:v0 (auto-composite)
LLS      .ohm.m       UNKNOWN        : LLS:registros:rC:NONE:v0 (auto-composite)
MSFL     .ohm.m       UNKNOWN        : MSFL:registros:rC:NONE:v0 (auto-composite)
NPHI     .UNKNOWN     UNKNOWN        : NPHI:registros:rC:NONE:v0 (auto-composite)
PEF      .b/elec      UNKNOWN        : PEF:registros:rC:NONE:v0 (auto-composite)
POTA     .wtpercent   UNKNOWN        : POTA:registros:rC:NONE:v0 (auto-composite)
RHOB     .g/cm3       UNKNOWN        : RHOB:registros:rC:NONE:v0 (auto-composite)
THOR     .ppm         UNKNOWN        : THOR:registros:rC:NONE:v0 (auto-composite)
URAN     .ppm         UNKNOWN        : URAN:registros:rC:NONE:v0 (auto-composite)
~A     DEPTH         CALI          CGR         DRHO           DT           GR          ILD          LLD          LLS         MSFL         NPHI          PEF         POTA         RHOB         THOR         URAN
# ...
   2214.2200       9.8505    -999.2500       0.0274      48.4030      12.6643    -999.2500    1257.1344     297.6241      82.2919       0.0208    -999.2500    -999.2500       2.7213    -999.2500    -999.2500
   2214.3723       9.6850    -999.2500       0.0160      47.9730      12.7580    -999.2500    1132.0850     303.5690      39.5380       0.0265    -999.2500    -999.2500       2.6860    -999.2500    -999.2500
   2214.5247       9.7418    -999.2500       0.0115      48.8245      12.8507    -999.2500    1168.9233     310.1883      28.3789       0.0245    -999.2500    -999.2500       2.6966    -999.2500    -999.2500
   2214.6772       9.7980    -999.2500       0.0070      49.6730      12.9430    -999.2500    1205.6360     316.7850      17.2580       0.0224    -999.2500    -999.2500       2.7070    -999.2500    -999.2500
   2214.8296       9.7457    -999.2500       0.0120      51.3091      14.0329    -999.2500    1181.1163     304.0495      12.2829       0.0239    -999.2500    -999.2500       2.7125    -999.2500    -999.2500
   2214.9819       9.6940    -999.2500       0.0170      52.9320      15.1140    -999.2500    1156.7950     291.4170       7.3480       0.0256    -999.2500    -999.2500       2.7180    -999.2500    -999.2500
   2215.1343       9.6719    -999.2500       0.0386      53.4443      16.3569    -999.2500    1122.3665     271.2283       5.5742       0.0298    -999.2500    -999.2500       2.7130    -999.2500    -999.2500
   2215.2869       9.6500    -999.2500       0.0600      53.9500      17.5840    -999.2500    1088.3750     251.2960       3.8230       0.0340    -999.2500    -999.2500       2.7080    -999.2500    -999.2500
   2215.4392       9.6686    -999.2500       0.0504      53.0161      18.0256    -999.2500    1145.7928     259.0484      13.3181       0.0363    -999.2500    -999.2500       2.7100    -999.2500    -999.2500
   2215.5916       9.6870    -999.2500       0.0410      52.0910      18.4630    -999.2500    1202.6710     266.7280      22.7240       0.0383    -999.2500    -999.2500       2.7120    -999.2500    -999.2500
   2215.7439       9.7051    -999.2500       0.0179      51.2695      18.2724    -999.2500    1238.0214     242.0327      35.6123       0.0346    -999.2500    -999.2500       2.7165    -999.2500    -999.2500
   2215.8965       9.7230    -999.2500      -0.0050      50.4530      18.0830    -999.2500    1273.1560     217.4880      48.4220       0.0307    -999.2500    -999.2500       2.7210    -999.2500    -999.2500
   2216.0488       9.7275    -999.2500       0.0015      50.0897      17.6255    -999.2500    1385.7939     266.5406      43.6761       0.0260    -999.2500    -999.2500       2.7290    -999.2500    -999.2500
   2216.2012       9.7320    -999.2500       0.0080      49.7280      17.1700    -999.2500    1497.9380     315.3780      38.9510       0.0212    -999.2500    -999.2500       2.7370    -999.2500    -999.2500
   2216.3535       9.7617    -999.2500       0.0201      49.7717      17.3885    -999.2500    1447.8425     305.4430      31.4596       0.0174    -999.2500    -999.2500       2.7435    -999.2500    -999.2500
   2216.5059       9.7910    -999.2500       0.0320      49.8150      17.6050    -999.2500    1398.2010     295.5980      24.0360       0.0138    -999.2500    -999.2500       2.7500    -999.2500    -999.2500
   2216.6584       9.7548    -999.2500       0.0441      50.1163      17.4722    -999.2500    1273.4816     260.9112      53.7100       0.0142    -999.2500    -999.2500       2.7440    -999.2500    -999.2500
   2216.8108       9.7190    -999.2500       0.0560      50.4140      17.3410    -999.2500    1150.2670     226.6430      83.0260       0.0148    -999.2500    -999.2500       2.7380    -999.2500    -999.2500
   2216.9631       9.7331    -999.2500       0.0751      50.7952      16.7112    -999.2500    1058.7787     236.5068      59.0798       0.0194    -999.2500    -999.2500       2.7521    -999.2500    -999.2500
   2217.1155       9.7470    -999.2500       0.0940      51.1730      16.0870    -999.2500     968.0940     246.2840      35.3440       0.0238    -999.2500    -999.2500       2.7660    -999.2500    -999.2500
   2217.2681       9.8929    -999.2500       0.0709      51.6186      15.7142    -999.2500     934.0206     231.6172      43.1656       0.0232    -999.2500    -999.2500       2.7655    -999.2500    -999.2500
   2217.4204      10.0370    -999.2500       0.0480      52.0610      15.3440    -999.2500     900.1880     217.0540      50.9320       0.0224    -999.2500    -999.2500       2.7650    -999.2500    -999.2500
   2217.5728      10.0083    -999.2500       0.0379      52.5740      14.0506    -999.2500     915.7738     252.6243      46.9676       0.0219    -999.2500    -999.2500       2.7590    -999.2500    -999.2500
   2217.7251       9.9800    -999.2500       0.0280      53.0850      12.7620    -999.2500     931.3010     288.0610      43.0180       0.0215    -999.2500    -999.2500       2.7530    -999.2500    -999.2500
   2217.8777       9.9408    -999.2500       0.0245      53.8627      12.7836    -999.2500     830.6557     256.8266      38.2402       0.0227    -999.2500    -999.2500       2.7570    -999.2500    -999.2500
   2218.0300       9.9020    -999.2500       0.0210      54.6350      12.8050    -999.2500     730.6990     225.8060      33.4950       0.0239    -999.2500    -999.2500       2.7610    -999.2500    -999.2500
   2218.1824       9.9035    -999.2500       0.0155      55.3828      13.0655    -999.2500     660.2032     229.4026      29.6354       0.0269    -999.2500    -999.2500       2.7449    -999.2500    -999.2500
   2218.3347       9.9050    -999.2500       0.0100      56.1220      13.3230    -999.2500     590.5150     232.9580      25.8200       0.0300    -999.2500    -999.2500       2.7290    -999.2500    -999.2500
   2218.4871       9.9075    -999.2500       0.0075      55.9642      13.4948    -999.2500     502.0111     203.7029      27.5127       0.0345    -999.2500    -999.2500       2.7049    -999.2500    -999.2500
   2218.6396       9.9100    -999.2500       0.0050      55.8080      13.6650    -999.2500     414.3700     174.7330      29.1890       0.0389    -999.2500    -999.2500       2.6810    -999.2500    -999.2500
   2218.7920       9.9045    -999.2500       0.0075      55.5261      13.9780    -999.2500     433.1274     190.8941      33.0600       0.0365    -999.2500    -999.2500       2.6931    -999.2500    -999.2500
   2218.9443       9.8990    -999.2500       0.0100      55.2460      14.2890    -999.2500     451.7640     206.9510      36.9060       0.0339    -999.2500    -999.2500       2.7050    -999.2500    -999.2500
   2219.0967       9.8452    -999.2500       0.0110      54.2034      14.7117    -999.2500     448.1098     201.2961      35.7642       0.0300    -999.2500    -999.2500       2.7216    -999.2500    -999.2500
   2219.2493       9.7920    -999.2500       0.0120      53.1640      15.1330    -999.2500     444.4670     195.6590      34.6260       0.0262    -999.2500    -999.2500       2.7380    -999.2500    -999.2500
   2219.4016       9.7709    -999.2500       0.0135      51.9713      15.0903    -999.2500     462.6259     215.6250      40.4106       0.0265    -999.2500    -999.2500       2.7430    -999.2500    -999.2500
   2219.5540       9.7500    -999.2500       0.0150      50.7880      15.0480    -999.2500     480.6430     235.4350      46.1500       0.0269    -999.2500    -999.2500       2.7480    -999.2500    -999.2500
   2219.7063       9.8249    -999.2500       0.0210      50.3146      14.9911    -999.2500     431.1326     207.2908      56.6351       0.0282    -999.2500    -999.2500       2.7596    -999.2500    -999.2500
   2219.8589       9.8990    -999.2500       0.0270      49.8470      14.9350    -999.2500     382.2370     179.4960      66.9900       0.0295    -999.2500    -999.2500       2.7710    -999.2500    -999.2500
   2220.0112       9.9458    -999.2500       0.0205      49.9374      15.1414    -999.2500     359.9253     182.2099      59.5576       0.0285    -999.2500    -999.2500       2.7635    -999.2500    -999.2500
