#------------------------------------------------------------------------------
#
#   Created by  : [OpenWorks] Log Export Utility (LEXP)
#   Created on  : 2016-05-23 11:55:55
#   Project     : CANT971
#   User        : R5K
#   Interpreter : PEP
#
#------------------------------------------------------------------------------
~VERSION INFORMATION
VERS. 2.0 : CWLS Log ASCII Standard - version 2.0
WRAP.  NO : One line per depth step
~WELL INFORMATION
#MNEMONIC   .UNIT                                           VALUE :DESCRIPTION
#------------------------------------------------------------------------------
STRT        .M                                          2870.4541 :START DEPTH
STOP        .M                                          3966.9722 :STOP DEPTH
STEP        .M                                             0.1524 :STEP
NULL        .                                           -999.2500 :NULL VALUE
COMP        .                                             UNKNOWN :COMPANY
WELL        .                                            418D-ST1 :WELL
FLD         .                                             UNKNOWN :FIELD
LOC         .                                             UNKNOWN :LOCATION
CNTY        .                                             UNKNOWN :COUNTY
STAT        .                                             UNKNOWN :STATE
CTRY        .                                             UNKNOWN :COUNTRY
SRVC        .                                             UNKNOWN :SERVICE COMPANY
DATE        .                                             UNKNOWN :LOG DATE
UWI         .                                            418D-ST1 :UNIQUE WELL ID
XCOORD      .                                       597130.010000 :SURFACE X
YCOORD      .                                      2144879.410000 :SURFACE Y
LAT         .                                           19.396924 :LATITUDE
LON         .                                          -92.074978 :LONGITUDE
ELEV        .M                                             0.0000 :SURFACE ELEV
ELEV_TYPE   .                                                  NA :ELEV TYPE
~CURVE INFORMATION
#MNEMONIC.UNIT        API CODE       : CURVE DESCRIPTION
#------------------------------------------------------------------------------
DEPTH    .M                          : Measured Depth
CALI     .inches      UNKNOWN        : CALI:litodensidad:rC:NONE:v0 (auto-composite)
CGR      .API         UNKNOWN        : CGR:litodensidad:rC:NONE:v0 (auto-composite)
DRHO     .g/cm3       UNKNOWN        : DRHO:litodensidad:rC:NONE:v0 (auto-composite)
DT       .us/ft       UNKNOWN        : DT:DT-Load:rC:NONE:v0 (auto-composite)
GR       .API         UNKNOWN        : GR:litodensidad:rC:NONE:v0 (auto-composite)
LLD      .ohm.m       UNKNOWN        : LLD:PETROWORKS:rC:NONE:v1 
LLS      .ohm.m       UNKNOWN        : LLS:PETROWORKS:rC:NONE:v1 
MSFL     .ohm.m       UNKNOWN        : MSFL:resistivos:rC:NONE:v0 (auto-composite)
NPHI     .v/v_decimal UNKNOWN        : NPHI:litodensidad:rC:NONE:v0 (auto-composite)
PEF      .UNKNOWN     UNKNOWN        : PEF:litodensidad:rC:NONE:v0 (auto-composite)
POTA     .UNKNOWN     UNKNOWN        : POTA:litodensidad:rC:NONE:v0 (auto-composite)
RHOB     .g/cm3       UNKNOWN        : RHOB:litodensidad:rC:NONE:v0 (auto-composite)
THOR     .ppm         UNKNOWN        : THOR:litodensidad:rC:NONE:v0 (auto-composite)
URAN     .ppm         UNKNOWN        : URAN:litodensidad:rC:NONE:v0 (auto-composite)
~A     DEPTH         CALI          CGR         DRHO           DT           GR          LLD          LLS         MSFL         NPHI          PEF         POTA         RHOB         THOR         URAN
# ...
   3356.9148      11.3281      67.6678       0.0101    -999.2500      71.9440      35.9560      35.6581       0.8687       0.0207       3.1738       0.0252       2.5452       7.4458       0.5496
   3357.0674      11.3438      68.1237       0.0142    -999.2500      73.0972      30.3680      31.9618       0.8838       0.0193       3.3398       0.0251       2.5886       7.6125       0.6392
   3357.2197      11.4453      70.7995       0.0195    -999.2500      79.9158      25.5305      27.8842       0.8774       0.0227       3.1367       0.0255       2.5876       8.1646       1.1716
   3357.3721      11.5000      70.4710       0.0132    -999.2500      79.9894      25.2862      28.0866       0.8691       0.0261       3.1719       0.0253       2.5544       8.1730       1.2233
   3357.5244      11.5000      68.4317       0.0188    -999.2500      77.1785      25.8684      29.0464       0.8813       0.0341       3.0605       0.0247       2.5463       7.8606       1.1242
   3357.6770      11.5000      69.9483       0.0259    -999.2500      79.5346      20.2852      23.7053       0.9941       0.0393       3.1426       0.0252       2.5484       8.0491       1.2321
   3357.8293      11.5625      70.6084       0.0362    -999.2500      80.4060      13.8808      16.0440       1.2041       0.0402       3.4570       0.0255       2.5463       8.0918       1.2592
   3357.9817      11.6641      74.7016       0.0502    -999.2500      86.4210      13.4412      15.1632       1.1504       0.0528       4.1250       0.0279       2.4434       8.1791       1.5062
   3358.1340      11.6797      80.1552       0.0715    -999.2500      93.5997      13.7697      15.6373       0.7852       0.0725       5.2969       0.0309       2.3345       8.3662       1.7279
   3358.2866      12.6172      81.2640       0.0646    -999.2500      95.1407      15.5255      17.3942       0.6084       0.1217       6.8906       0.0314       2.2773       8.4404       1.7835
   3358.4390      14.0234      49.4930       0.0613    -999.2500      56.5197      22.9917      25.8242       0.6807       0.2027       6.3438       0.0143       2.3636       7.2081       0.9031
   3358.5913      13.5391      46.0045       0.0736    -999.2500      51.6940      47.3924      52.5984       0.8555       0.2280       4.9180       0.0130       2.5614       6.8137       0.7312
   3358.7437      11.7734      30.6234       0.0630    -999.2500      33.5202     120.9785     116.4269       1.2295       0.1780       4.5195       0.0085       2.7669       4.6093       0.3723
   3358.8960      11.8203      20.2334       0.0085    -999.2500      26.4261     270.0728     217.4496       1.4141       0.0689       4.4336       0.0047       2.8050       3.4568       0.7959
   3359.0486      11.7188      19.6533      -0.0016    -999.2500      26.2249     398.2740     289.2918       1.5879       0.0199       4.2852       0.0047       2.8471       3.2981       0.8446
   3359.2009      11.7813      18.3161      -0.0002    -999.2500      24.5213     447.8534     315.0751       1.7002       0.0184       4.0703       0.0042       2.8548       3.1170       0.7975
   3359.3533      11.7188      19.6504       0.0023    -999.2500      26.7609     500.9659     345.6974       1.3936       0.0182       4.1289       0.0048       2.8681       3.2555       0.9139
   3359.5056      11.7422      19.6577       0.0047    -999.2500      26.8143     498.6106     343.2404       1.3555       0.0173       4.1563       0.0048       2.8748       3.2281       0.9198
   3359.6582      11.7813      19.6200       0.0036    -999.2500      27.0741     495.8119     348.3635       1.3691       0.0174       4.5391       0.0046       2.8698       3.3071       0.9580
   3359.8105      11.8125      18.5922       0.0027    -999.2500      25.7365     490.8983     346.4882       1.2539       0.0169       4.4258       0.0040       2.8682       3.2835       0.9182
   3359.9629      11.8281      19.1681      -0.0012    -999.2500      26.6435     418.8599     313.7397       1.3311       0.0178       4.4805       0.0045       2.8542       3.2605       0.9608
   3360.1152      11.8203      20.5932      -0.0037    -999.2500      28.9098     303.6276     243.7917       1.2402       0.0160       4.1758       0.0049       2.8570       3.4369       1.0689
   3360.2678      11.8125      20.2933      -0.0071    -999.2500      28.6924     249.9206     200.4159       1.2197       0.0153       4.1641       0.0045       2.8535       3.5302       1.0795
   3360.4202      11.7969      22.2383      -0.0032    -999.2500      31.6866     214.9626     174.1309       1.1865       0.0149       4.0586       0.0052       2.8736       3.7882       1.2143
   3360.5725      11.7891      22.6849      -0.0037    -999.2500      31.6554     192.4263     157.3358       1.2354       0.0186       4.0273       0.0053       2.8652       3.8604       1.1529
   3360.7249      11.8125      24.0749      -0.0017    -999.2500      33.4621     185.2930     154.1755       1.3906       0.0193       4.1992       0.0057       2.8657       4.0344       1.2065
   3360.8772      11.8125      25.5293      -0.0030    -999.2500      35.2733     185.1870     154.1075       1.3340       0.0183       4.1641       0.0060       2.8564       4.3179       1.2523
   3361.0298      11.8359      23.8548      -0.0006    -999.2500      32.7011     185.5999     154.2740       1.3721       0.0144       4.1250       0.0055       2.8531       4.0858       1.1370
   3361.1821      11.8359      21.5778      -0.0009    -999.2500      27.4492     184.9032     154.0766       1.0742       0.0135       4.1211       0.0056       2.8445       3.4094       0.7546
   3361.3345      11.8359      19.1474      -0.0043    -999.2500      22.8542     185.1452     153.8517       1.1826       0.0128       4.3359       0.0064       2.8439       2.4386       0.4764
   3361.4868      11.8359      20.3557      -0.0048    -999.2500      24.4830     159.0404     139.2786       1.1240       0.0133       4.5508       0.0073       2.8499       2.3788       0.5305
   3361.6394      11.8359      19.9915      -0.0014    -999.2500      24.0318      91.1539      81.7633       1.1670       0.0131       4.2617       0.0073       2.8662       2.2455       0.5193
   3361.7917      11.8359      18.7157      -0.0028    -999.2500      22.2266      70.9570      64.1646       1.1621       0.0138       3.9961       0.0069       2.8618       2.0769       0.4512
   3361.9441      11.8359      23.2211      -0.0056    -999.2500      29.6136      60.3550      56.0183       1.2119       0.0148       3.7441       0.0092       2.8632       2.3245       0.8216
   3362.0964      11.8438      24.8005      -0.0032    -999.2500      32.1008      53.0401      49.5859       1.2334       0.0177       3.7578       0.0096       2.8578       2.5531       0.9383
   3362.2490      11.8359      32.0535      -0.0011    -999.2500      40.3215      59.9963      55.5346       1.1758       0.0248       3.8516       0.0110       2.8419       3.9135       1.0626
   3362.4014      11.8984      37.0177      -0.0015    -999.2500      46.5340      66.3732      59.3911       1.0889       0.0252       4.0039       0.0111       2.8253       5.2403       1.2231
   3362.5537      12.0000      37.5102      -0.0021    -999.2500      47.2738      63.7936      56.5312       0.9854       0.0225       3.7969       0.0112       2.8049       5.3236       1.2549
   3362.7061      12.0000      41.7339       0.0016    -999.2500      52.1050      66.6847      58.3536       1.0225       0.0166       3.5410       0.0134       2.7984       5.5061       1.3329
   3362.8584      12.0000      42.7464       0.0027    -999.2500      53.4580      68.9371      59.6385       1.0361       0.0198       3.3203       0.0142       2.7834       5.4403       1.3767
   3363.0110      12.0000      43.6004       0.0007    -999.2500      54.8494      72.6762      61.8699       1.0527       0.0292       3.2988       0.0148       2.7694       5.4025       1.4458
   3363.1633      12.0000      47.3750      -0.0000    -999.2500      63.1021      91.6851      71.0309       1.0479       0.0437       3.5234       0.0177       2.7573       5.1847       2.0213
