#------------------------------------------------------------------------------
#
#   Created by  : [OpenWorks] Log Export Utility (LEXP)
#   Created on  : 2016-05-23 11:56:46
#   Project     : CANT971
#   User        : R5K
#   Interpreter : PEP
#
#------------------------------------------------------------------------------
~VERSION INFORMATION
VERS. 2.0 : CWLS Log ASCII Standard - version 2.0
WRAP.  NO : One line per depth step
~WELL INFORMATION
#MNEMONIC   .UNIT                                           VALUE :DESCRIPTION
#------------------------------------------------------------------------------
STRT        .M                                           170.6880 :START DEPTH
STOP        .M                                          2221.8396 :STOP DEPTH
STEP        .M                                             0.1524 :STEP
NULL        .                                           -999.2500 :NULL VALUE
COMP        .                                   PEMEX EXPL & PROD :COMPANY
WELL        .                                                  51 :WELL
FLD         .                                           CANTARELL :FIELD
LOC         .                                             UNKNOWN :LOCATION
CNTY        .                                      CD. DEL CARMEN :COUNTY
STAT        .                                            CAMPECHE :STATE
CTRY        .                                              MEXICO :COUNTRY
SRVC        .                                             UNKNOWN :SERVICE COMPANY
DATE        .                                             UNKNOWN :LOG DATE
UWI         .                                          3060000165 :UNIQUE WELL ID
XCOORD      .                                       599727.990000 :SURFACE X
YCOORD      .                                      2147220.270000 :SURFACE Y
LAT         .                                           19.417949 :LATITUDE
LON         .                                          -92.050116 :LONGITUDE
ELEV        .M                                            27.8000 :SURFACE ELEV
ELEV_TYPE   .                                                  KB :ELEV TYPE
~CURVE INFORMATION
#MNEMONIC.UNIT        API CODE       : CURVE DESCRIPTION
#------------------------------------------------------------------------------
DEPTH    .M                          : Measured Depth
CAL      .inches      UNKNOWN        : CAL:CAL-Load:rC:NONE:v0 (auto-composite)
DRHO     .UNKNOWN     UNKNOWN        : DRHO:DRHO-Load:rC:NONE:v0 (auto-composite)
DT       .us/ft       UNKNOWN        : DT:DT:rC:NONE:v0 (auto-composite)
GR       .UNKNOWN     UNKNOWN        : GR:GR-Load:rC:NONE:v0 (auto-composite)
ILD      .UNKNOWN     UNKNOWN        : ILD:ILD-Load:rC:NONE:v0 (auto-composite)
NPHI     .v/v_decimal UNKNOWN        : NPHI:NPHI:rC:NONE:v0 (auto-composite)
RHOB     .UNKNOWN     UNKNOWN        : RHOB:RHOB-Load:rC:NONE:v0 (auto-composite)
SN       .UNKNOWN     UNKNOWN        : SN:SN-Load:rC:NONE:v0 (auto-composite)
~A     DEPTH          CAL         DRHO           DT           GR          ILD         NPHI         RHOB           SN
# ...
    370.4844      14.4624       0.0675     165.6635      17.6185       1.2750      60.1375       2.1480       0.9235
    370.6368      14.3480       0.0760     163.7600      17.4260       1.2870      60.1240       2.1530       0.9310
    370.7892      14.3780       0.0730     166.7848      17.2475       1.3150      60.0845       2.1550       0.9440
    370.9416      14.4080       0.0700     169.8100      17.0690       1.3430      60.0450       2.1570       0.9570
    371.0940      14.3565       0.0530     171.8894      17.1970       1.3770      60.0315       2.1700       0.9735
    371.2464      14.3050       0.0360     173.9690      17.3250       1.4110      60.0180       2.1830       0.9900
    371.3988      14.1624       0.0405     175.1770      17.6725       1.4440      60.0150       2.1915       1.0065
    371.5512      14.0200       0.0450     176.3850      18.0200       1.4770      60.0120       2.2000       1.0230
    371.7036      13.9324       0.0560     177.0735      18.2320       1.5085      60.0090       2.2265       1.0375
    371.8560      13.8450       0.0670     177.7620      18.4440       1.5400      60.0060       2.2530       1.0520
    372.0084      13.7985       0.0495     178.8570      18.5735       1.5670      60.0155       2.2500       1.0900
    372.1608      13.7520       0.0320     179.9520      18.7030       1.5940      60.0250       2.2470       1.1280
    372.3132      13.7020       0.0240     181.0090      19.1255       1.6200      60.0695       2.2615       1.1760
    372.4656      13.6520       0.0160     182.0660      19.5480       1.6460      60.1140       2.2760       1.2240
    372.6180      13.6665       0.0070     183.3444      19.9825       1.7110      60.1015       2.2705       1.2805
    372.7704      13.6810      -0.0020     184.6230      20.4170       1.7760      60.0890       2.2650       1.3370
    372.9228      13.7851       0.0205     186.2250      20.6430       1.8640      60.0495       2.2425       1.4085
    373.0752      13.8890       0.0430     187.8270      20.8690       1.9520      60.0100       2.2200       1.4800
    373.2276      13.7479       0.0645     189.8440      20.8215       1.9325      59.8860       2.2495       1.4785
    373.3800      13.6070       0.0860     191.8610      20.7740       1.9130      59.7620       2.2790       1.4770
    373.5324      13.4929       0.0930     191.3990      20.2350       1.8575      58.8085       2.2750       1.4135
    373.6848      13.3790       0.1000     190.9370      19.6960       1.8020      57.8550       2.2710       1.3500
    373.8372      13.2754       0.0945     189.4915      19.2835       1.7260      57.9195       2.2435       1.2494
    373.9896      13.1720       0.0890     188.0460      18.8710       1.6500      57.9840       2.2160       1.1490
    374.1420      13.0414       0.0755     185.9184      19.1350       1.5660      58.4225       2.1915       1.0910
    374.2944      12.9110       0.0620     183.7910      19.3990       1.4820      58.8610       2.1670       1.0330
    374.4468      12.7869       0.0300     180.4506      19.1315       1.4170      59.4105       2.1285       1.0105
    374.5992      12.6630      -0.0020     177.1100      18.8640       1.3520      59.9600       2.0900       0.9880
    374.7516      12.5444      -0.0280     174.4667      18.4630       1.3195      59.3836       2.0450       0.9740
    374.9040      12.4260      -0.0540     171.8230      18.0620       1.2870      58.8070       2.0000       0.9600
    375.0564      12.3865      -0.0500     174.4444      17.7310       1.2785      57.5526       1.9800       0.9540
    375.2088      12.3470      -0.0460     177.0660      17.4000       1.2700      56.2980       1.9600       0.9480
    375.3612      12.3615      -0.0520     181.2859      17.4420       1.2720      55.6110       1.9425       0.9455
    375.5136      12.3760      -0.0580     185.5060      17.4840       1.2740      54.9240       1.9250       0.9430
    375.6660      12.4010      -0.0635     185.0635      17.4370       1.2765      54.5240       1.9165       0.9390
    375.8184      12.4260      -0.0690     184.6210      17.3900       1.2790      54.1240       1.9080       0.9350
    375.9708      12.4185      -0.0720     179.7062      17.1345       1.2815      53.3840       1.9140       0.9365
    376.1232      12.4110      -0.0750     174.7910      16.8790       1.2840      52.6440       1.9200       0.9380
    376.2756      12.3885      -0.0710     169.9580      17.0420       1.2885      52.0445       1.9350       0.9395
    376.4280      12.3660      -0.0670     165.1250      17.2050       1.2930      51.4450       1.9500       0.9410
    376.5804      12.3660      -0.0575     165.2355      17.7120       1.2920      52.1725       1.9440       0.9410
    376.7328      12.3660      -0.0480     165.3460      18.2190       1.2910      52.9000       1.9380       0.9410
    376.8852      12.3955      -0.0385     166.8215      18.0655       1.2915      54.0900       1.9400       0.9440
    377.0376      12.4250      -0.0290     168.2970      17.9120       1.2920      55.2800       1.9420       0.9470
    377.1900      12.4575      -0.0190     170.5100      17.2870       1.2925      56.2420       1.9450       0.9450
    377.3424      12.4900      -0.0090     172.7230      16.6620       1.2930      57.2040       1.9480       0.9430
    377.4948      12.5420      -0.0125     179.2161      16.2280       1.2935      56.7005       1.9520       0.9490
    377.6472      12.5940      -0.0160     185.7100      15.7940       1.2940      56.1970       1.9560       0.9550
    377.7996      12.7196      -0.0255     190.1339      15.6305       1.2940      56.2620       1.9600       0.9770
    377.9520      12.8450      -0.0350     194.5580      15.4670       1.2940      56.3270       1.9640       0.9990
    378.1044      12.9641      -0.0430     192.4530      15.3530       1.2940      56.7880       1.9585       1.0370
    378.2568      13.0830      -0.0510     190.3480      15.2390       1.2940      57.2490       1.9530       1.0750
    378.4092      13.1100      -0.0495     188.5766      15.3150       1.2940      57.7470       1.9400       1.0950
    378.5616      13.1370      -0.0480     186.8050      15.3910       1.2940      58.2450       1.9270       1.1150
    378.7140      13.1270      -0.0485     185.7470      15.5160       1.2930      59.1555       1.9150       1.1210
    378.8664      13.1170      -0.0490     184.6890      15.6410       1.2920      60.0660       1.9030       1.1270
    379.0188      13.5849      -0.0505     182.6429      15.5775       1.2910      59.9975       1.9060       1.1280
    379.1712      14.0520      -0.0520     180.5970      15.5140       1.2900      59.9290       1.9090       1.1290
    379.3236      15.0164      -0.0510     174.5317      15.5535       1.2915      59.2860       1.9060       1.1290
    379.4760      15.9790      -0.0500     168.4660      15.5930       1.2930      58.6430       1.9030       1.1290
    379.6284      16.3513      -0.0460     170.5703      15.7150       1.2940      58.1035       1.9060       1.1290
    379.7808      16.7230      -0.0420     172.6750      15.8370       1.2950      57.5640       1.9090       1.1290
    379.9332      16.7871      -0.0390     176.9688      16.1240       1.2950      56.1926       1.9070       1.1285
    380.0856      16.8510      -0.0360     181.2630      16.4110       1.2950      54.8210       1.9050       1.1280
    380.2380      16.8685      -0.0195     181.2260      16.5705       1.2960      54.1110       1.9225       1.1265
    380.3904      16.8860      -0.0030     181.1890      16.7300       1.2970      53.4010       1.9400       1.1250
    380.5428      16.9035      -0.0130     180.4371      16.7955       1.2960      53.0810       1.9830       1.1235
    380.6952      16.9210      -0.0230     179.6850      16.8610       1.2950      52.7610       2.0260       1.1220
    380.8476      16.9455      -0.0170     178.4046      17.0030       1.2950      51.9995       2.0755       1.1180
