#------------------------------------------------------------------------------
#
#   Created by  : [OpenWorks] Log Export Utility (LEXP)
#   Created on  : 2016-05-23 11:50:15
#   Project     : CANT971
#   User        : R5K
#   Interpreter : PEP
#
#------------------------------------------------------------------------------
~VERSION INFORMATION
VERS. 2.0 : CWLS Log ASCII Standard - version 2.0
WRAP.  NO : One line per depth step
~WELL INFORMATION
#MNEMONIC   .UNIT                                           VALUE :DESCRIPTION
#------------------------------------------------------------------------------
STRT        .M                                          2144.1199 :START DEPTH
STOP        .M                                          3100.2776 :STOP DEPTH
STEP        .M                                             0.1524 :STEP
NULL        .                                           -999.2500 :NULL VALUE
COMP        .                                   PEMEX EXPL & PROD :COMPANY
WELL        .                                               1004D :WELL
FLD         .                                           CANTARELL :FIELD
LOC         .                                             UNKNOWN :LOCATION
CNTY        .                                      CD. DEL CARMEN :COUNTY
STAT        .                                            CAMPECHE :STATE
CTRY        .                                              MEXICO :COUNTRY
SRVC        .                                             UNKNOWN :SERVICE COMPANY
DATE        .                                             UNKNOWN :LOG DATE
UWI         .                                               1004D :UNIQUE WELL ID
XCOORD      .                                       594534.600000 :SURFACE X
YCOORD      .                                      2142053.350000 :SURFACE Y
LAT         .                                           19.371510 :LATITUDE
LON         .                                          -92.099834 :LONGITUDE
ELEV        .M                                            30.0000 :SURFACE ELEV
ELEV_TYPE   .                                                  KB :ELEV TYPE
~CURVE INFORMATION
#MNEMONIC.UNIT        API CODE       : CURVE DESCRIPTION
#------------------------------------------------------------------------------
DEPTH    .M                          : Measured Depth
CALI     .in          UNKNOWN        : CALI:litodensidad:rC:NONE:v0 (auto-composite)
DRHO     .g/cm3       UNKNOWN        : DRHO:litodensidad:rC:NONE:v0 (auto-composite)
DT       .us/ft       UNKNOWN        : DT:DT-Load:rC:NONE:v0 (auto-composite)
GR       .API         UNKNOWN        : GR:TMDL:rC:NONE:v0 (auto-composite)
GR-LWD   .API         UNKNOWN        : GR-LWD:PETROWORKS:rC:NONE:v1 
ILD-LWD  .ohm.m       UNKNOWN        : ILD-LWD:resistivos-LWD:rC:NONE:v0 (auto-composite)
ILM-LWD  .ohm.m       UNKNOWN        : ILM-LWD:resistivos-LWD:rC:NONE:v0 (auto-composite)
LLD-LWD  .ohm.m       UNKNOWN        : LLD-LWD:resistivos-LWD:rC:NONE:v0 (auto-composite)
LLS      .ohm.m       UNKNOWN        : LLS:resistivos:rC:NONE:v0 (auto-composite)
LLS-LWD  .ohm.m       UNKNOWN        : LLS-LWD:resistivos-LWD:rC:NONE:v0 (auto-composite)
MSFL     .ohm.m       UNKNOWN        : MSFL:resistivos:rC:NONE:v0 (auto-composite)
MSFL-LWD .ohm.m       UNKNOWN        : MSFL-LWD:resistivos-LWD:rC:NONE:v0 (auto-composite)
NPHI     .v/v_decimal UNKNOWN        : NPHI:PETROWORKS:rC:NONE:v2 
PEF      .b/elec      UNKNOWN        : PEF:litodensidad:rC:NONE:v0 (auto-composite)
RHOB     .g/cm3       UNKNOWN        : RHOB:litodensidad:rC:NONE:v0 (auto-composite)
~A     DEPTH         CALI         DRHO           DT           GR       GR-LWD      ILD-LWD      ILM-LWD      LLD-LWD          LLS      LLS-LWD         MSFL     MSFL-LWD         NPHI          PEF         RHOB
# ...
   2399.6946       3.7845       1.1584    -999.2500    -999.2500      69.4017       0.8824       0.4729       1.2431       0.1116       1.5323       0.0949       2.6744       0.3990       5.2221       4.6288
   2399.8472       3.8032       1.1811    -999.2500    -999.2500      66.5462       1.0832       0.7808       1.2431       0.1144       1.5349       0.0941       2.6820       0.4009       5.2840       4.6288
   2399.9995       3.7977       1.1797    -999.2500    -999.2500      65.6652       1.0417       1.2961       1.2432       0.1157       1.5376       0.0915       3.5865       0.3253       5.3007       4.6288
   2400.1519       3.7864       1.1170    -999.2500    -999.2500      66.1139       0.8746       1.3080       1.2432       0.1174       1.9231       0.0905       5.4079       0.3263       5.2610       4.6288
   2400.3042       3.7845       1.0735    -999.2500    -999.2500      68.1004       0.7373       1.2014       1.2482       0.1159       2.4675       0.0877       5.5353       0.3421       5.1957       4.6288
   2400.4568       3.7845       1.0789    -999.2500    -999.2500      70.2700       0.9179       0.8618       1.2554       0.1183       2.5644       0.0888       5.3562       0.3683       5.1423       4.6288
   2400.6091       3.7939       1.1420    -999.2500    -999.2500      70.7486       0.9602       0.8344       1.3002       0.1158       2.9396       0.0887       4.9467       0.4244       5.1081       4.6288
   2400.7615       3.7864       1.1472    -999.2500    -999.2500      72.3035       0.7312       0.8315       1.3712       0.1161       3.7420       0.0902       4.5683       0.4604       5.0588       4.6288
   2400.9138       3.7845       1.1343    -999.2500    -999.2500      72.1748       0.6353       0.6966       1.5600       0.1160       4.7616       0.0891       4.2185       0.4793       5.0462       4.6288
   2401.0662       3.7939       1.1619    -999.2500    -999.2500      72.6067       0.5903       0.4807       1.7751       0.1105       5.9620       0.0871       3.7740       0.4283       5.1067       4.6288
   2401.2188       3.7864       1.1978    -999.2500    -999.2500      68.6727       0.7817       0.7279       2.0202       0.1149       4.6909       0.0875       3.7929       0.4148       5.1995       4.6288
   2401.3711       3.7939       1.1785    -999.2500    -999.2500      65.3000       0.8091       0.9695       1.8553       0.1129       4.6331       0.0863       3.8119       0.3742       5.2448       4.6288
   2401.5234       3.7864       1.1376    -999.2500    -999.2500      62.4236       1.1406       0.7513       1.8654       0.1133       4.5760       0.0865       3.8310       0.3733       5.2250       4.6288
   2401.6758       3.7845       1.1232    -999.2500    -999.2500      60.9064       1.1174       0.7996       1.8756       0.1117       4.5196       0.0868       3.8750       0.3350       5.1902       4.6288
   2401.8284       3.7845       1.1400    -999.2500    -999.2500      60.9830       1.1946       0.9526       1.8858       0.1148       4.3518       0.0865       3.9778       0.3521       5.1855       4.6288
   2401.9807       3.7845       1.1416    -999.2500    -999.2500      61.8199       1.2159       1.0800       1.9093       0.1149       4.0774       0.0917       4.0834       0.3595       5.2558       4.6288
   2402.1331       3.7845       1.1621    -999.2500    -999.2500      63.4706       1.2539       1.0209       1.9646       0.1146       3.8202       0.1016       4.1917       0.3677       5.4034       4.6288
   2402.2854       3.7845       1.2091    -999.2500    -999.2500      63.6090       1.1562       0.9907       2.0215       0.1195       3.5791       0.1186       4.3029       0.3611       5.6155       4.6288
   2402.4380       3.8032       1.2274    -999.2500    -999.2500      63.4047       1.0763       1.0804       2.0801       0.1199       3.3531       0.1241       4.4170       0.3692       5.7847       4.6288
   2402.5903       3.7977       1.2215    -999.2500    -999.2500      62.5640       1.0192       1.1080       2.1404       0.1170       3.1413       0.1197       4.5340       0.3629       5.8252       4.6288
   2402.7427       3.7864       1.1795    -999.2500    -999.2500      62.3356       1.2167       1.1180       2.2024       0.1143       2.9428       0.0995       4.6399       0.3581       5.6899       4.6288
   2402.8950       3.8032       1.1662    -999.2500    -999.2500      60.8136       1.1727       1.2315       2.2663       0.1120       2.8067       0.0856       4.6223       0.3346       5.4291       4.6288
   2403.0474       3.7883       1.1254    -999.2500    -999.2500      62.0029       1.1062       1.2484       2.3255       0.1124       2.8018       0.0747       4.6048       0.3537       5.1089       4.6288
   2403.2000       3.7845       1.1066    -999.2500    -999.2500      63.8850       0.9440       0.9570       2.3278       0.1171       2.7969       0.0739       4.5874       0.4219       4.8648       4.6288
   2403.3523       3.8032       1.1079    -999.2500    -999.2500      65.4487       0.8437       0.7001       2.3301       0.1211       2.7920       0.0755       4.5700       0.4381       4.7829       4.6288
   2403.5046       3.7883       1.1107    -999.2500    -999.2500      65.4006       0.9610       0.8804       2.3325       0.1271       2.7872       0.0805       4.5527       0.4346       4.8471       4.6288
   2403.6570       3.7845       1.1078    -999.2500    -999.2500      65.4021       0.9713       1.1016       2.3348       0.1231       2.7823       0.0836       4.5355       0.3913       4.9580       4.6288
   2403.8096       3.7845       1.0951    -999.2500    -999.2500      68.0590       0.9477       1.0132       2.3372       0.1270       2.7774       0.0860       4.5183       0.4043       5.0226       4.6288
   2403.9619       3.7845       1.1514    -999.2500    -999.2500      69.5480       0.8572       0.8289       2.3395       0.1256       2.7726       0.0884       4.4884       0.3974       5.0796       4.6288
   2404.1143       3.8032       1.1844    -999.2500    -999.2500      69.3399       0.9872       0.6287       2.3419       0.1247       2.7577       0.0878       4.3486       0.3974       5.1708       4.6288
   2404.2666       3.7883       1.1929    -999.2500    -999.2500      66.4084       1.1626       0.8137       2.3460       0.1246       2.7178       0.0908       4.2132       0.3510       5.2913       4.6288
   2404.4192       3.7845       1.1648    -999.2500    -999.2500      64.0048       1.1521       1.1946       2.3657       0.1248       2.6785       0.0940       4.0820       0.3285       5.4062       4.6288
   2404.5715       3.7845       1.1576    -999.2500    -999.2500      61.1275       1.0627       1.2039       2.3856       0.1200       2.6397       0.0933       3.9547       0.2998       5.4455       4.6288
   2404.7239       3.7939       1.1506    -999.2500    -999.2500      59.6183       1.2878       1.2093       2.4057       0.1197       2.6015       0.0883       3.8315       0.3166       5.3906       4.6288
   2404.8762       3.7864       1.1555    -999.2500    -999.2500      58.9526       1.1822       1.2513       2.4259       0.1207       2.5638       0.0846       3.7120       0.3370       5.2675       4.6288
   2405.0286       3.7845       1.1673    -999.2500    -999.2500      60.1461       1.2501       1.3037       2.4463       0.1180       2.5267       0.0843       3.5962       0.3311       5.1349       4.6288
   2405.1812       3.8032       1.1636    -999.2500    -999.2500      61.1055       1.2629       1.3771       2.4669       0.1177       2.4900       0.0840       3.4839       0.3598       5.0626       4.6288
   2405.3335       3.7883       1.1516    -999.2500    -999.2500      61.5074       1.1765       1.2296       2.4876       0.1253       2.4540       0.0870       3.4383       0.3895       5.0602       4.6288
   2405.4858       3.7939       1.1500    -999.2500    -999.2500      60.8933       1.1757       1.3346       2.5085       0.1237       2.4495       0.0927       3.4559       0.4092       5.1084       4.6288
