#------------------------------------------------------------------------------
#
#   Created by  : [OpenWorks] Log Export Utility (LEXP)
#   Created on  : 2016-05-23 11:57:14
#   Project     : CANT971
#   User        : R5K
#   Interpreter : PEP
#
#------------------------------------------------------------------------------
~VERSION INFORMATION
VERS. 2.0 : CWLS Log ASCII Standard - version 2.0
WRAP.  NO : One line per depth step
~WELL INFORMATION
#MNEMONIC   .UNIT                                           VALUE :DESCRIPTION
#------------------------------------------------------------------------------
STRT        .M                                           551.2302 :START DEPTH
STOP        .M                                          2435.9609 :STOP DEPTH
STEP        .M                                             0.1524 :STEP
NULL        .                                           -999.2500 :NULL VALUE
COMP        .                                   PEMEX EXPL & PROD :COMPANY
WELL        .                                                  76 :WELL
FLD         .                                           CANTARELL :FIELD
LOC         .                                             UNKNOWN :LOCATION
CNTY        .                                      CD. DEL CARMEN :COUNTY
STAT        .                                            CAMPECHE :STATE
CTRY        .                                              MEXICO :COUNTRY
SRVC        .                                             UNKNOWN :SERVICE COMPANY
DATE        .                                             UNKNOWN :LOG DATE
UWI         .                                          3060000416 :UNIQUE WELL ID
XCOORD      .                                       599729.570000 :SURFACE X
YCOORD      .                                      2147218.620000 :SURFACE Y
LAT         .                                           19.417934 :LATITUDE
LON         .                                          -92.050101 :LONGITUDE
ELEV        .M                                            27.8000 :SURFACE ELEV
ELEV_TYPE   .                                                  KB :ELEV TYPE
~CURVE INFORMATION
#MNEMONIC.UNIT        API CODE       : CURVE DESCRIPTION
#------------------------------------------------------------------------------
DEPTH    .M                          : Measured Depth
CAL      .inches      UNKNOWN        : CAL:UNKNOWN:rC:NONE:v0 (auto-composite)
DRHO     .UNKNOWN     UNKNOWN        : DRHO:UNKNOWN:rC:NONE:v0 (auto-composite)
DT       .us/ft       UNKNOWN        : DT:DT:rC:NONE:v0 (auto-composite)
GR       .UNKNOWN     UNKNOWN        : GR:GR-Load:rC:NONE:v0 (auto-composite)
ILD      .UNKNOWN     UNKNOWN        : ILD:ILD-Load:rC:NONE:v0 (auto-composite)
LLD      .UNKNOWN     UNKNOWN        : LLD:UNKNOWN:rC:NONE:v0 (auto-composite)
LLS      .UNKNOWN     UNKNOWN        : LLS:UNKNOWN:rC:NONE:v0 (auto-composite)
NPHI     .v/v_decimal UNKNOWN        : NPHI:NPHI:rC:NONE:v0 (auto-composite)
RHOB     .UNKNOWN     UNKNOWN        : RHOB:UNKNOWN:rC:NONE:v0 (auto-composite)
~A     DEPTH          CAL         DRHO           DT           GR          ILD          LLD          LLS         NPHI         RHOB
# ...
   2422.0925       4.6391       0.3281      57.7780       0.0000       0.2000       0.2386       0.2000       5.7500       2.3496
   2422.2451       4.5994       0.3311      57.7780       0.0000       0.2000       0.2195       0.2000       4.9340       2.3561
   2422.3975       4.5834       0.3313      57.7780       0.0000       0.2000       0.2129       0.2000       3.8339       2.3626
   2422.5498       4.5768       0.3303      57.7780       0.0000       0.2000       0.2114       0.2000       2.7350       2.3692
   2422.7021       4.6019       0.3307      57.7780       0.0000       0.2000       0.2110       0.2000       1.6840       2.3706
   2422.8547       4.6396       0.3317      57.7780       0.0000       0.2000       0.2110       0.2000       0.6340       2.3701
   2423.0071       4.6760       0.3334      58.2322       0.0000       0.2000       0.2110       0.2000      -0.0088       2.3646
   2423.1594       4.7121       0.3355      58.6860       0.0000       0.2000       0.2110       0.2000      -0.6510       2.3571
   2423.3118       4.7147       0.3382      63.0666       0.0000       0.2000       0.2110       0.2000      -1.0126       2.3506
   2423.4641       4.7047       0.3412      67.4440       0.0000       0.2000       0.2110       0.2000      -1.3740       2.3446
   2423.6167       4.6892       0.3424      77.8257       0.0000       0.2000       0.2081       0.2000      -1.6391       2.3401
   2423.7690       4.6716       0.3429      88.2010       0.0000       0.2000       0.2041       0.2000      -1.9040       2.3361
   2423.9214       4.6670       0.3400      99.7864       0.0000       0.2000       0.2019       0.2000      -2.0530       2.3376
   2424.0737       4.6670       0.3360     111.3660       0.0000       0.2000       0.2004       0.2000      -2.2020       2.3411
   2424.2263       4.6670       0.3335     118.8974       0.0000       0.2000       0.2000       0.2000      -2.2510       2.3491
   2424.3787       4.6670       0.3315     126.4260       0.0000       0.2000       0.2000       0.2000      -2.3000       2.3586
   2424.5310       4.6670       0.3310     130.0189       0.0000       0.2000       0.2000       0.2000      -2.3000       2.3614
   2424.6833       4.6670       0.3310     133.6110       0.0000       0.2000       0.2000       0.2000      -2.3000       2.3619
   2424.8359       4.6987       0.3336     135.3590       0.0000       0.2000       0.2000       0.2000      -2.3000       2.3563
   2424.9883       4.7408       0.3371     137.1040       0.0000       0.2000       0.2000       0.2000      -2.3000       2.3488
   2425.1406       4.6990       0.3372     137.9117       0.0000       0.2000       0.2000       0.2000      -2.3000       2.3436
   2425.2930       4.6303       0.3362     138.7180       0.0000       0.2000       0.2000       0.2000      -2.3000       2.3391
   2425.4453       4.6148       0.3371     139.0072       0.0000       0.2000       0.2000       0.2000      -2.3000       2.3426
   2425.5979       4.6158       0.3387     139.2960       0.0000       0.2000       0.2000       0.2000      -2.3000       2.3486
   2425.7502       4.6179       0.3348     139.3665       0.0000       0.2000       0.2000       0.2000      -2.3000       2.3477
   2425.9026       4.6204       0.3292     139.4370       0.0000       0.2000       0.2000       0.2000      -2.3000       2.3447
   2426.0549       4.6377       0.3319     139.4810       0.0000       0.2000       0.2000       0.2000      -2.3000       2.3386
   2426.2075       4.6593       0.3369     139.5250       0.0000       0.2000       0.2000       0.2000      -2.3000       2.3315
   2426.3599       4.6374       0.3353     139.6576       0.0000       0.2000       0.2000       0.2000      -2.3000       2.3237
   2426.5122       4.6034       0.3318     139.7900       0.0000       0.2000       0.2000       0.2000      -2.3000       2.3157
   2426.6646       4.7756       0.3349     139.8820       0.0000       0.2000       0.2000       0.2000      -2.3000       2.3034
   2426.8171       5.0047       0.3399     139.9740       0.0000       0.2000       0.2000       0.2000      -2.3000       2.2899
   2426.9695       5.6178       0.3446     139.9870       0.0000       0.2000       0.2020       0.2000      -2.3000       2.2530
   2427.1218       6.3333       0.3491     140.0000       0.0000       0.2000       0.2045       0.2000      -2.3000       2.2098
   2427.2742       6.9946       0.3189     140.0000       0.0000       0.2000       0.2070       0.2000      -2.3000       2.1588
   2427.4265       7.6419       0.2798     140.0000       0.0000       0.2000       0.2095       0.2000      -2.3000       2.1056
   2427.5791       7.9311       0.2078     140.0000       0.0000       0.2000       0.2068       0.2000      -2.3000       2.0677
   2427.7314       8.1312       0.1276     140.0000       0.0000       0.2000       0.2028       0.2000      -2.3000       2.0336
   2427.8838       8.5015       0.0530     140.0000       0.0000       0.2000       0.2012       0.2000      -2.3000       2.0080
   2428.0361       8.9128      -0.0201     140.0000       0.0000       0.2000       0.2002       0.2000      -2.3000       1.9845
   2428.1887       9.7232      -0.0770     140.0000       0.0000       0.2000       0.2000       0.2000      -2.3000       1.9711
   2428.3411      10.6272      -0.1302     140.0000       0.0000       0.2000       0.2000       0.2000      -2.3000       1.9600
   2428.4934      11.6065      -0.1641     140.0000       0.0000       0.2000       0.2000       0.2000      -2.2014       1.9572
   2428.6458      12.6027      -0.1937     140.0000       0.0000       0.2000       0.2000       0.2000      -2.1030       1.9562
   2428.7983      13.2124      -0.2097     140.0000       0.0000       0.2000       0.2000       0.2000      -1.3103       1.9560
   2428.9507      13.7379      -0.2227     140.0000       0.0000       0.2000       0.2000       0.2000      -0.5190       1.9560
   2429.1030      13.8999      -0.2304     140.0000       0.0000       0.2000       0.2000       0.2000       1.9584       1.9560
   2429.2554      13.9856      -0.2369     140.0000       0.0000       0.2000       0.2000       0.2000       4.4320       1.9560
   2429.4077      14.0000      -0.2388     140.0000       0.0000       0.2000       0.2000       0.2000       8.8627       1.9539
   2429.5603      14.0000      -0.2398     140.0000       0.0000       0.2000       0.2000       0.2000      13.2870       1.9514
   2429.7126      14.0000      -0.2417     140.0000       0.0000       0.2000       0.2000       0.2000      18.3868       1.9506
   2429.8650      14.0000      -0.2437     140.0000       0.0000       0.2000       0.2000       0.2000      23.4800       1.9501
   2430.0173      14.0000      -0.2457     140.0000       0.0000       0.2000       0.2000       0.2000      28.5580       1.9500
   2430.1699      14.0000      -0.2477     140.0000       0.0000       0.2000       0.2000       0.2000      33.6300       1.9500
   2430.3223      14.0000      -0.2548     140.0000       0.0000       0.2000       0.2000       0.2000      36.9433       1.9500
   2430.4746      14.0000      -0.2628     140.0000       0.0000       0.2000       0.2000       0.2000      40.2530       1.9500
   2430.6270      14.0000      -0.2837     140.0000       0.0000       0.2000       0.2000       0.2000      41.6422       1.9500
   2430.7795      14.0000      -0.3067     140.0000       0.0000       0.2000       0.2000       0.2000      43.0300       1.9500
   2430.9319      14.0000      -0.3195     140.0000       0.0000       0.2000       0.2000       0.2000      43.6352       1.9500
   2431.0842      14.0000      -0.3305     140.0000       0.0000       0.2000       0.2000       0.2000      44.2400       1.9500
   2431.2366      14.0000      -0.3471     140.0000       0.0000       0.2000       0.2000       0.2000      44.4461       1.9500
   2431.3889      14.0000      -0.3647     140.0000       0.0000       0.2000       0.2000       0.2000      44.6520       1.9500
