#------------------------------------------------------------------------------
#
#   Created by  : [OpenWorks] Log Export Utility (LEXP)
#   Created on  : 2015-10-01 09:49:56
#   Project     : CANT971
#   User        : R5K
#   Interpreter : PEP
#
#------------------------------------------------------------------------------
~VERSION INFORMATION
VERS. 2.0 : CWLS Log ASCII Standard - version 2.0
WRAP.  NO : One line per depth step
~WELL INFORMATION
#MNEMONIC   .UNIT                                           VALUE :DESCRIPTION
#------------------------------------------------------------------------------
STRT        .M                                           799.8710 :START DEPTH
STOP        .M                                          1367.5610 :STOP DEPTH
STEP        .M                                             0.1524 :STEP
NULL        .                                           -999.2500 :NULL VALUE
COMP        .                                   PEMEX EXPL & PROD :COMPANY
WELL        .                                        CANTARELL-1A :WELL
FLD         .                                           CANTARELL :FIELD
LOC         .                                             UNKNOWN :LOCATION
CNTY        .                                      CD. DEL CARMEN :COUNTY
STAT        .                                            CAMPECHE :STATE
CTRY        .                                              MEXICO :COUNTRY
SRVC        .                                             UNKNOWN :SERVICE COMPANY
DATE        .                                             UNKNOWN :LOG DATE
UWI         .                                          3060000138 :UNIQUE WELL ID
XCOORD      .                                       600823.080000 :SURFACE X
YCOORD      .                                      2145118.550000 :SURFACE Y
LAT         .                                           19.398902 :LATITUDE
LON         .                                          -92.039798 :LONGITUDE
ELEV        .M                                            27.7000 :SURFACE ELEV
ELEV_TYPE   .                                                  KB :ELEV TYPE
~CURVE INFORMATION
#MNEMONIC.UNIT        API CODE       : CURVE DESCRIPTION
#------------------------------------------------------------------------------
DEPTH    .M                          : Measured Depth
CALI     .inches      UNKNOWN        : CALI:UNKNOWN:rC:NONE:v0 (auto-composite)
DRHO     .g/cm3       UNKNOWN        : DRHO:UNKNOWN:rC:NONE:v0 (auto-composite)
DT       .us/ft       UNKNOWN        : DT:DT:rC:NONE:v0 (auto-composite)
ILD      .ohm.m       UNKNOWN        : ILD:UNKNOWN:rC:NONE:v0 (auto-composite)
LLD      .ohm.m       UNKNOWN        : LLD:UNKNOWN:rC:NONE:v0 (auto-composite)
LLS      .ohm.m       UNKNOWN        : LLS:UNKNOWN:rC:NONE:v0 (auto-composite)
MSFL     .ohm.m       UNKNOWN        : MSFL:UNKNOWN:rC:NONE:v0 (auto-composite)
NPHI     .v/v_decimal UNKNOWN        : NPHI:NPHI:rC:NONE:v0 (auto-composite)
GR       .API         UNKNOWN        : RG:UNKNOWN:rC:NONE:v0 (auto-composite)
RHOB     .g/cm3       UNKNOWN        : RHOB:UNKNOWN:rC:NONE:v0 (auto-composite)
~A     DEPTH         CALI         DRHO           DT          ILD          LLD          LLS         MSFL         NPHI           GR         RHOB
# ...
    996.1622      15.5966       0.0170    -999.2500       0.9816       0.2000       0.2000       0.2000      51.5127      27.2943       2.2647
    996.3146      15.5416       0.0183    -999.2500       0.9688       0.2000       0.2000       0.2000      51.5682      27.3734       2.2698
    996.4670      15.8580       0.0274    -999.2500       0.9628       0.2000       0.2000       0.2000      51.4768      26.9774       2.2908
    996.6194      16.1432       0.0358    -999.2500       0.9576       0.2000       0.2000       0.2000      51.2378      26.6104       2.3118
    996.7719      15.7186       0.0303    -999.2500       0.9716       0.2000       0.2000       0.2000      50.8498      26.9051       2.3298
    996.9243      15.3103       0.0250    -999.2500       0.9862       0.2000       0.2000       0.2000      50.3124      27.1999       2.3467
    997.0767      15.2316       0.0261    -999.2500       1.0107       0.2000       0.2000       0.2000      50.1515      27.4958       2.3402
    997.2290      15.1523       0.0268    -999.2500       1.0353       0.2000       0.2000       0.2000      50.3690      27.7915       2.3348
    997.3814      15.0636       0.0228    -999.2500       1.0599       0.2000       0.2000       0.2000      50.5795      28.0863       2.3504
    997.5338      14.9811       0.0192    -999.2500       1.0844       0.2000       0.2000       0.2000      50.7830      28.3925       2.3649
    997.6862      15.0007       0.0222    -999.2500       1.1090       0.2000       0.2000       0.2000      51.0344      28.8847       2.3629
    997.8386      15.0246       0.0246    -999.2500       1.1334       0.2000       0.2000       0.2000      51.3339      29.4018       2.3603
    997.9910      15.1138       0.0181    -999.2500       1.1560       0.2000       0.2000       0.2000      51.2579      30.2886       2.3487
    998.1434      15.1936       0.0119    -999.2500       1.1770       0.2000       0.2000       0.2000      50.8050      31.1619       2.3376
    998.2958      15.1440       0.0099    -999.2500       1.1775       0.2000       0.2000       0.2000      50.0294      31.8514       2.3310
    998.4482      15.0973       0.0081    -999.2500       1.1763       0.2000       0.2000       0.2000      48.9299      32.4391       2.3248
    998.6006      15.0878       0.0096    -999.2500       1.1527       0.2000       0.2000       0.2000      48.2535      31.7478       2.3223
    998.7531      15.0782       0.0110    -999.2500       1.1284       0.2000       0.2000       0.2000      48.0020      31.0798       2.3199
    998.9055      15.0687       0.0115    -999.2500       1.0953       0.2000       0.2000       0.2000      47.9314      30.6832       2.3184
    999.0579      15.0558       0.0120    -999.2500       1.0623       0.2000       0.2000       0.2000      48.0424      30.3696       2.3167
    999.2102      15.0062       0.0120    -999.2500       1.0297       0.2000       0.2000       0.2000      48.0491      30.9606       2.3127
    999.3626      14.9716       0.0119    -999.2500       0.9990       0.2000       0.2000       0.2000      47.9511      31.4373       2.3082
    999.5150      15.0904       0.0109    -999.2500       0.9874       0.2000       0.2000       0.2000      47.7716      30.7449       2.2986
    999.6674      15.1803       0.0096    -999.2500       0.9764       0.2000       0.2000       0.2000      47.5101      30.0713       2.2894
    999.8198      14.9928       0.0051    -999.2500       0.9699       0.2000       0.2000       0.2000      47.3598      29.5775       2.2829
    999.9722      14.8240       0.0014    -999.2500       0.9630       0.2000       0.2000       0.2000      47.3213      29.1132       2.2762
   1000.1246      14.8240       0.0049    -999.2500       0.9530       0.2000       0.2000       0.2000      47.1643      28.9152       2.2682
   1000.2770      14.8188       0.0081    -999.2500       0.9452       0.2000       0.2000       0.2000      46.8883      28.7585       2.2611
   1000.4294      14.7697       0.0091    -999.2500       0.9562       0.2000       0.2000       0.2000      46.6834      28.9541       2.2621
   1000.5818      14.7271       0.0101    -999.2500       0.9692       0.2000       0.2000       0.2000      46.5499      29.1061       2.2659
   1000.7343      14.7371       0.0111    -999.2500       0.9983       0.2000       0.2000       0.2000      46.3373      28.9081       2.2925
   1000.8867      14.7494       0.0121    -999.2500       1.0275       0.2000       0.2000       0.2000      46.0453      28.6530       2.3174
   1001.0391      14.7790       0.0131    -999.2500       1.0581       0.2000       0.2000       0.2000      45.3992      27.9607       2.3300
   1001.1914      14.8276       0.0138    -999.2500       1.0854       0.2000       0.2000       0.2000      44.3972      27.4233       2.3415
   1001.3438      15.0151       0.0123    -999.2500       1.0884       0.2000       0.2000       0.2000      44.6528      28.0144       2.3461
   1001.4962      15.1791       0.0113    -999.2500       1.0872       0.2000       0.2000       0.2000      46.1723      28.5308       2.3491
   1001.6486      15.1796       0.0138    -999.2500       1.0566       0.2000       0.2000       0.2000      47.5253      28.5293       2.3421
   1001.8010      15.1722       0.0163    -999.2500       1.0269       0.2000       0.2000       0.2000      48.7110      28.5927       2.3344
   1001.9534      15.1131       0.0183    -999.2500       1.0033       0.2000       0.2000       0.2000      49.3449      29.0850       2.3224
   1002.1058      15.0566       0.0201    -999.2500       0.9831       0.2000       0.2000       0.2000      49.4249      29.6132       2.3089
   1002.2582      15.0170       0.0206    -999.2500       0.9836       0.2000       0.2000       0.2000      49.0314      30.3686       2.2858
   1002.4106      14.9802       0.0205    -999.2500       0.9830       0.2000       0.2000       0.2000      48.1624      31.0122       2.2648
   1002.5630      14.9607       0.0170    -999.2500       0.9760       0.2000       0.2000       0.2000      47.5160      30.9781       2.2563
   1002.7155      14.9817       0.0144    -999.2500       0.9762       0.2000       0.2000       0.2000      47.0930      30.8570       2.2525
   1002.8679      15.2384       0.0175    -999.2500       1.0183       0.2000       0.2000       0.2000      46.9204      30.2308       2.2760
   1003.0202      15.4290       0.0215    -999.2500       1.0648       0.2000       0.2000       0.2000      46.9994      29.7299       2.2957
   1003.1726      15.2515       0.0310    -999.2500       1.1360       0.2000       0.2000       0.2000      47.3899      29.9259       2.2937
   1003.3250      15.1238       0.0395    -999.2500       1.2002       0.2000       0.2000       0.2000      48.0934      29.9509       2.2953
   1003.4774      15.2622       0.0425    -999.2500       1.2268       0.2000       0.2000       0.2000      48.5627      29.0616       2.3164
   1003.6298      15.3604       0.0428    -999.2500       1.2484       0.2000       0.2000       0.2000      48.7967      28.0921       2.3360
   1003.7822      15.2521       0.0293    -999.2500       1.2449       0.2000       0.2000       0.2000      48.4956      26.7095       2.3486
   1003.9346      15.1222       0.0175    -999.2500       1.2374       0.2000       0.2000       0.2000      47.6564      25.5091       2.3593
   1004.0870      14.8850       0.0145    -999.2500       1.2098       0.2000       0.2000       0.2000      47.0706      25.2118       2.3613
   1004.2394      14.6890       0.0129    -999.2500       1.1712       0.2000       0.2000       0.2000      46.7391      25.0856       2.3606
   1004.3918      14.6890       0.0179    -999.2500       1.0799       0.2000       0.2000       0.2000      46.4947      25.7754       2.3465
   1004.5443      14.7525       0.0199    -999.2500       0.9954       0.2000       0.2000       0.2000      46.3377      26.2713       2.3326
