#------------------------------------------------------------------------------
#
#   Created by  : [OpenWorks] Log Export Utility (LEXP)
#   Created on  : 2016-05-23 11:55:49
#   Project     : CANT971
#   User        : R5K
#   Interpreter : PEP
#
#------------------------------------------------------------------------------
~VERSION INFORMATION
VERS. 2.0 : CWLS Log ASCII Standard - version 2.0
WRAP.  NO : One line per depth step
~WELL INFORMATION
#MNEMONIC   .UNIT                                           VALUE :DESCRIPTION
#------------------------------------------------------------------------------
STRT        .M                                           773.4315 :START DEPTH
STOP        .M                                          2865.1216 :STOP DEPTH
STEP        .M                                             0.1524 :STEP
NULL        .                                           -999.2500 :NULL VALUE
COMP        .                                             UNKNOWN :COMPANY
WELL        .                                                408D :WELL
FLD         .                                             UNKNOWN :FIELD
LOC         .                                             UNKNOWN :LOCATION
CNTY        .                                             UNKNOWN :COUNTY
STAT        .                                             UNKNOWN :STATE
CTRY        .                                             UNKNOWN :COUNTRY
SRVC        .                                             UNKNOWN :SERVICE COMPANY
DATE        .                                             UNKNOWN :LOG DATE
UWI         .                                                408D :UNIQUE WELL ID
XCOORD      .                                       597130.770000 :SURFACE X
YCOORD      .                                      2144867.260000 :SURFACE Y
LAT         .                                           19.396814 :LATITUDE
LON         .                                          -92.074972 :LONGITUDE
ELEV        .M                                             0.0000 :SURFACE ELEV
ELEV_TYPE   .                                                  KB :ELEV TYPE
~CURVE INFORMATION
#MNEMONIC.UNIT        API CODE       : CURVE DESCRIPTION
#------------------------------------------------------------------------------
DEPTH    .M                          : Measured Depth
CALI     .inches      UNKNOWN        : CALI:litodensidad:rC:NONE:v0 (auto-composite)
CGR      .API         UNKNOWN        : CGR:PETROWORKS:rC:NONE:v1 
DRHO     .g/cm3       UNKNOWN        : DRHO:litodensidad:rC:NONE:v0 (auto-composite)
DT       .us/ft       UNKNOWN        : DT:PETROWORKS:rC:NONE:v1 
GR       .API         UNKNOWN        : GR:PETROWORKS:rC:NONE:v3 
GR-LWD   .UNKNOWN     UNKNOWN        : GR-LWD:resistivos-LWD:rC:NONE:v0 (auto-composite)
LLD      .ohm.m       UNKNOWN        : LLD:PETROWORKS:rC:NONE:v1 
LLD-LWD  .UNKNOWN     UNKNOWN        : LLD-LWD:resistivos-LWD:rC:NONE:v0 (auto-composite)
LLS      .UNKNOWN     UNKNOWN        : LLS:PETROWORKS:rC:NONE:v1 
LLS-LWD  .UNKNOWN     UNKNOWN        : LLS-LWD:resistivos-LWD:rC:NONE:v0 (auto-composite)
MSFL     .UNKNOWN     UNKNOWN        : MSFL:PETROWORKS:rC:NONE:v1 
MSFL-LWD .UNKNOWN     UNKNOWN        : MSFL-LWD:resistivos-LWD:rC:NONE:v0 (auto-composite)
NPHI     .v/v_decimal UNKNOWN        : NPHI:PETROWORKS:rC:NONE:v3 
PEF      .UNKNOWN     UNKNOWN        : PEF:litodensidad:rC:NONE:v0 (auto-composite)
POTA     .wtpercent   UNKNOWN        : POTA:PETROWORKS:rC:NONE:v1 
RHOB     .g/cm3       UNKNOWN        : RHOB:litodensidad:rC:NONE:v0 (auto-composite)
THOR     .ppm         UNKNOWN        : THOR:PETROWORKS:rC:NONE:v1 
URAN     .ppm         UNKNOWN        : URAN:PETROWORKS:rC:NONE:v1 
~A     DEPTH         CALI          CGR         DRHO           DT           GR       GR-LWD          LLD      LLD-LWD          LLS      LLS-LWD         MSFL     MSFL-LWD         NPHI          PEF         POTA         RHOB         THOR         URAN
# ...
   2553.7683       9.0161      11.6396      -0.0088      49.3311      26.3876    -999.2500      68.6689    -999.2500      63.2877    -999.2500     254.5079    -999.2500       0.0422       3.4813       0.0049       2.7815       0.8840       1.7631
   2553.9207       8.9645      12.4908      -0.0075      49.5929      28.2919    -999.2500      95.8169    -999.2500      87.9223    -999.2500     137.7603    -999.2500       0.0425       3.4983       0.0051       2.7684       1.0189       1.9765
   2554.0730       9.1316      14.4942      -0.0056      51.5535      32.4787    -999.2500      94.7698    -999.2500      88.6600    -999.2500     170.2664    -999.2500       0.0485       3.5571       0.0058       2.7553       1.2616       2.2353
   2554.2256       9.1995      16.8609      -0.0063      50.4275      36.7205    -999.2500      86.0318    -999.2500      81.8219    -999.2500     101.5689    -999.2500       0.0572       3.5941       0.0065       2.7499       1.5814       2.5428
   2554.3779       9.1723      18.1134      -0.0059      52.1567      38.2134    -999.2500      66.3286    -999.2500      63.6624    -999.2500      99.2109    -999.2500       0.0644       3.6876       0.0072       2.7492       1.6090       2.5280
   2554.5303       8.9264      19.1128      -0.0044      52.5905      38.6586    -999.2500      57.6169    -999.2500      55.2785    -999.2500      79.5163    -999.2500       0.0692       3.8163       0.0075       2.7487       1.7554       2.4584
   2554.6826       8.9278      18.0408      -0.0085      52.2093      36.2379    -999.2500      56.9413    -999.2500      54.0850    -999.2500      39.9004    -999.2500       0.0688       3.7853       0.0073       2.7442       1.4885       2.1782
   2554.8352       8.9862      17.7046      -0.0120      49.9529      35.2964    -999.2500      55.1097    -999.2500      52.0282    -999.2500      72.6256    -999.2500       0.0645       3.7210       0.0072       2.7320       1.4373       2.1409
   2554.9875       9.1248      18.8707      -0.0139      52.9298      36.6624    -999.2500      54.4424    -999.2500      51.0435    -999.2500      96.8815    -999.2500       0.0599       3.4697       0.0077       2.7189       1.5456       2.1274
   2555.1399       9.0976      19.8884      -0.0140      51.9262      38.9450    -999.2500      54.1998    -999.2500      50.8223    -999.2500     128.5277    -999.2500       0.0586       3.4680       0.0082       2.7066       1.5711       2.2970
   2555.2922       9.0514      19.0663      -0.0137      52.1930      40.2680    -999.2500      51.1721    -999.2500      48.6106    -999.2500     141.2955    -999.2500       0.0623       3.4192       0.0077       2.6871       1.5826       2.6003
   2555.4448       8.9754      19.2037      -0.0131      54.6422      41.8909    -999.2500      46.0806    -999.2500      44.2901    -999.2500      84.5904    -999.2500       0.0709       3.4832       0.0079       2.6754       1.5416       2.8657
   2555.5972       9.0093      18.0960      -0.0114      53.8205      39.7913    -999.2500      47.1916    -999.2500      45.6928    -999.2500      17.1011    -999.2500       0.0762       3.5103       0.0077       2.6774       1.3112       2.6780
   2555.7495       9.0501      17.2561      -0.0065      54.4832      36.8052    -999.2500      49.2403    -999.2500      48.0423    -999.2500      32.4847    -999.2500       0.0730       3.3422       0.0074       2.7084       1.1959       2.4988
   2555.9019       9.1058      14.5398      -0.0064      52.5472      31.6287    -999.2500      52.7686    -999.2500      51.4415    -999.2500      63.9106    -999.2500       0.0615       3.2964       0.0063       2.7322       0.9564       2.0511
   2556.0542       9.0772      14.3995      -0.0043      52.6953      30.6344    -999.2500      70.7043    -999.2500      68.6237    -999.2500      84.6391    -999.2500       0.0529       3.0839       0.0061       2.7479       1.0125       2.0449
   2556.2068       9.0025      15.3107      -0.0012      53.2863      32.2866    -999.2500      75.1933    -999.2500      73.3947    -999.2500     181.0347    -999.2500       0.0525       3.1622       0.0066       2.7494       1.0398       2.1040
   2556.3591       8.9862      16.7881      -0.0023      55.3494      35.4830    -999.2500      66.8822    -999.2500      65.2574    -999.2500      81.3791    -999.2500       0.0575       3.2710       0.0070       2.7503       1.2591       2.4063
   2556.5115       9.0840      17.8684      -0.0042      54.7166      39.6964    -999.2500      61.7063    -999.2500      60.0381    -999.2500      42.6174    -999.2500       0.0631       3.8037       0.0075       2.7371       1.3023       2.7830
   2556.6638       9.1791      19.2959      -0.0066      53.0397      45.4292    -999.2500      39.6690    -999.2500      38.8365    -999.2500      44.1235    -999.2500       0.0694       3.7552       0.0083       2.7170       1.3128       3.4096
   2556.8164       9.2267      20.9650      -0.0124      54.5632      49.5077    -999.2500      27.7290    -999.2500      27.3257    -999.2500      82.2994    -999.2500       0.0771       3.6177       0.0090       2.7011       1.4348       3.7389
   2556.9688       9.1547      20.5104      -0.0152      55.0887      46.6812    -999.2500      28.2077    -999.2500      27.5726    -999.2500      58.8262    -999.2500       0.0826       3.2903       0.0090       2.6833       1.3265       3.4435
   2557.1211       8.9618      17.8637      -0.0127      56.6619      40.5213    -999.2500      29.8328    -999.2500      28.8701    -999.2500      78.2361    -999.2500       0.0824       3.3811       0.0076       2.7019       1.2674       2.9651
   2557.2734       9.0297      14.0218      -0.0118      53.8682      33.8165    -999.2500      39.8733    -999.2500      37.4330    -999.2500     101.6127    -999.2500       0.0737       3.3282       0.0059       2.7045       1.0178       2.4545
   2557.4260       9.0569      13.4796      -0.0096      55.4607      31.3742    -999.2500      55.8538    -999.2500      51.5541    -999.2500      74.7806    -999.2500       0.0642       3.3953       0.0059       2.7216       0.8852       2.2674
   2557.5784       9.1384      13.5675      -0.0089      55.8909      32.2453    -999.2500      62.8331    -999.2500      58.2859    -999.2500      83.0158    -999.2500       0.0602       3.3659       0.0058       2.7106       0.9384       2.3302
   2557.7307       9.2742      13.6232      -0.0126      58.3401      34.4169    -999.2500      59.5972    -999.2500      55.4581    -999.2500      78.0312    -999.2500       0.0659       3.1443       0.0060       2.6754       0.8811       2.6095
   2557.8831       8.9618      12.4679      -0.0146      60.1575      35.0154    -999.2500      57.6528    -999.2500      53.4466    -999.2500      51.7549    -999.2500       0.0800       3.0051       0.0055       2.6432       0.7939       2.9019
   2558.0354       8.9482      12.2590      -0.0176      58.1488      34.8266    -999.2500      59.1617    -999.2500      54.3742    -999.2500      47.2765    -999.2500       0.0916       3.0233       0.0054       2.6132       0.7393       2.8409
   2558.1880       9.0161      12.1962      -0.0205      57.8069      33.3418    -999.2500      64.9593    -999.2500      58.8629    -999.2500      51.9483    -999.2500       0.0989       3.1284       0.0054       2.5929       0.7439       2.7433
   2558.3403       9.0093      11.0464      -0.0170      56.0434      28.8592    -999.2500      74.4125    -999.2500      66.4387    -999.2500      87.2875    -999.2500       0.1027       3.2666       0.0048       2.5895       0.7459       2.2458
   2558.4927       9.2090       9.0364      -0.0201      56.6834      22.8583    -999.2500      88.7328    -999.2500      77.8150    -999.2500      82.5329    -999.2500       0.1051       3.2754       0.0038       2.5863       0.6568       1.7422
   2558.6450       9.0704       6.7391      -0.0180      57.0906      18.0257    -999.2500      94.9382    -999.2500      82.2425    -999.2500     110.0547    -999.2500       0.1042       3.4337       0.0028       2.6152       0.5208       1.3701
