#------------------------------------------------------------------------------
#
#   Created by  : [OpenWorks] Log Export Utility (LEXP)
#   Created on  : 2016-05-23 11:55:55
#   Project     : CANT971
#   User        : R5K
#   Interpreter : PEP
#
#------------------------------------------------------------------------------
~VERSION INFORMATION
VERS. 2.0 : CWLS Log ASCII Standard - version 2.0
WRAP.  NO : One line per depth step
~WELL INFORMATION
#MNEMONIC   .UNIT                                           VALUE :DESCRIPTION
#------------------------------------------------------------------------------
STRT        .M                                          1803.5016 :START DEPTH
STOP        .M                                          3154.9849 :STOP DEPTH
STEP        .M                                             0.1524 :STEP
NULL        .                                           -999.2500 :NULL VALUE
COMP        .                                             UNKNOWN :COMPANY
WELL        .                                             418D-ST :WELL
FLD         .                                             UNKNOWN :FIELD
LOC         .                                             UNKNOWN :LOCATION
CNTY        .                                             UNKNOWN :COUNTY
STAT        .                                             UNKNOWN :STATE
CTRY        .                                             UNKNOWN :COUNTRY
SRVC        .                                             UNKNOWN :SERVICE COMPANY
DATE        .                                             UNKNOWN :LOG DATE
UWI         .                                             418D-ST :UNIQUE WELL ID
XCOORD      .                                       597130.010000 :SURFACE X
YCOORD      .                                      2144879.410000 :SURFACE Y
LAT         .                                           19.396924 :LATITUDE
LON         .                                          -92.074978 :LONGITUDE
ELEV        .M                                             0.0000 :SURFACE ELEV
ELEV_TYPE   .                                                  NA :ELEV TYPE
~CURVE INFORMATION
#MNEMONIC.UNIT        API CODE       : CURVE DESCRIPTION
#------------------------------------------------------------------------------
DEPTH    .M                          : Measured Depth
CALI     .inches      UNKNOWN        : CALI:PETROWORKS:rC:NONE:v1 
CGR      .API         UNKNOWN        : CGR:PETROWORKS:rC:NONE:v1 
DRHO     .g/cm3       UNKNOWN        : DRHO:PETROWORKS:rC:NONE:v1 
DT       .us/ft       UNKNOWN        : DT:PETROWORKS:rC:NONE:v1 
GR       .API         UNKNOWN        : GR:PETROWORKS:rC:NONE:v3 
ILD      .ohm.m       UNKNOWN        : ILD:registros:rC:NONE:v0 (auto-composite)
ILM      .ohm.m       UNKNOWN        : ILM:registros:rC:NONE:v0 (auto-composite)
LLD      .ohm.m       UNKNOWN        : LLD:PETROWORKS:rC:NONE:v2 
LLS      .ohm.m       UNKNOWN        : LLS:PETROWORKS:rC:NONE:v2 
MSFL     .ohm.m       UNKNOWN        : MSFL:PETROWORKS:rC:NONE:v1 
NPHI     .v/v_decimal UNKNOWN        : NPHI:PETROWORKS:rC:NONE:v1 
PEF      .b/elec      UNKNOWN        : PEF:PETROWORKS:rC:NONE:v1 
POTA     .wtpercent   UNKNOWN        : POTA:PETROWORKS:rC:NONE:v1 
RHOB     .g/cm3       UNKNOWN        : RHOB:PETROWORKS:rC:NONE:v1 
THOR     .ppm         UNKNOWN        : THOR:PETROWORKS:rC:NONE:v1 
URAN     .ppm         UNKNOWN        : URAN:PETROWORKS:rC:NONE:v1 
~A     DEPTH         CALI          CGR         DRHO           DT           GR          ILD          ILM          LLD          LLS         MSFL         NPHI          PEF         POTA         RHOB         THOR         URAN
# ...
   2626.7664      13.1797      18.6644      -0.0045      51.0000      38.2539    -999.2500    -999.2500      97.8828      75.2825     312.0000       0.0336       3.4727       0.0077       2.7704       2.1709       2.7280
   2626.9187      13.4063      17.5779      -0.0042      50.3000      36.7176    -999.2500    -999.2500     111.8004      85.7160     162.0000       0.0378       3.4414       0.0073       2.7787       1.9895       2.6654
   2627.0713      13.7734      18.9115      -0.0021      49.8000      39.2746    -999.2500    -999.2500     102.3244      80.8967     123.3125       0.0378       3.6406       0.0079       2.7945       2.1321       2.8358
   2627.2236      13.7578      19.6243      -0.0008      50.4000      40.5963    -999.2500    -999.2500     102.0916      81.5176     154.1250       0.0285       3.8125       0.0083       2.8014       2.1584       2.9205
   2627.3760      13.6563      14.7422       0.0005      53.0000      34.0995    -999.2500    -999.2500     114.9496      90.2751     408.2500       0.0272       3.8770       0.0065       2.7850       1.5095       2.6957
   2627.5283      13.4609      15.8107       0.0047      52.7000      36.6095    -999.2500    -999.2500     100.8174      81.3738     199.3750       0.0325       3.8984       0.0067       2.7714       1.7509       2.8964
   2627.6809      13.3672      16.2411       0.0095      53.1000      37.3691    -999.2500    -999.2500      94.9876      76.0940     206.3750       0.0401       3.8164       0.0067       2.7583       1.8822       2.9423
   2627.8333      13.0859      16.4057       0.0121      53.4000      37.9389    -999.2500    -999.2500      83.8281      68.9690     100.7500       0.0474       3.7637       0.0065       2.7544       2.0040       2.9987
   2627.9856      13.1016      15.0700       0.0146      54.7000      36.1010    -999.2500    -999.2500      80.1480      66.4690     108.5625       0.0465       3.7832       0.0059       2.7613       1.8634       2.9288
   2628.1379      13.2891      15.5565       0.0138      54.1000      36.5572    -999.2500    -999.2500      86.4066      69.2422      41.6875       0.0461       3.8809       0.0062       2.7682       1.8947       2.9245
   2628.2903      13.5703      13.9783       0.0077      53.3000      34.2367    -999.2500    -999.2500      91.0697      73.3372      76.7500       0.0366       3.8809       0.0059       2.7680       1.5450       2.8212
   2628.4429      13.6328      14.3196       0.0009      52.1000      34.7536    -999.2500    -999.2500      95.7292      76.9820     196.0000       0.0297       3.7480       0.0062       2.7707       1.5154       2.8456
   2628.5952      13.7031      12.7184      -0.0012      32.2000      32.7191    -999.2500    -999.2500      98.6856      79.4893     249.6250       0.0265       3.7461       0.0055       2.7782       1.3745       2.7853
   2628.7476      13.6250      12.0436      -0.0004      33.1000      31.8622    -999.2500    -999.2500     103.0732      82.0868     397.5000       0.0298       3.8340       0.0049       2.7824       1.4375       2.7599
   2628.8999      13.3516      11.4799       0.0025      31.3000      31.3652    -999.2500    -999.2500     116.4196      90.6108     207.8750       0.0343       3.9141       0.0043       2.7686       1.5071       2.7692
   2629.0525      13.1016      12.0447       0.0055      51.6000      32.3200    -999.2500    -999.2500     123.0439      93.7997     306.7500       0.0383       3.7949       0.0041       2.7506       1.7466       2.8235
   2629.2048      13.1016      12.3514       0.0101      51.1000      32.4783    -999.2500    -999.2500     134.2748      99.2274     563.0000       0.0345       3.7383       0.0041       2.7463       1.8376       2.8029
   2629.3572      13.1797      10.9098       0.0122      51.9000      30.1960    -999.2500    -999.2500     133.8008      99.3966     158.1250       0.0327       3.7500       0.0037       2.7600       1.6022       2.6858
   2629.5095      13.2813      12.4452       0.0141      54.5000      32.1783    -999.2500    -999.2500     137.1928     101.2383      47.8438       0.0302       3.6953       0.0045       2.7716       1.7118       2.7480
   2629.6619      13.6328      12.6105       0.0115      53.3000      31.9858    -999.2500    -999.2500     135.0443     100.0616     149.1250       0.0327       3.6328       0.0048       2.7748       1.6064       2.6982
   2629.8145      13.6719      10.0271       0.0042      53.4000      27.5778    -999.2500    -999.2500     138.4105     103.1129     157.0000       0.0311       3.5234       0.0044       2.7624       1.0574       2.4441
   2629.9668      13.6719      10.4076      -0.0030      53.3000      27.7702    -999.2500    -999.2500     139.7267     102.5775     176.2500       0.0264       3.8359       0.0046       2.7612       1.0691       2.4179
   2630.1191      13.2344      12.6354      -0.0022      46.1000      31.3045    -999.2500    -999.2500     129.1754      97.3704     192.1250       0.0221       3.9082       0.0053       2.7792       1.4076       2.5998
   2630.2715      13.0156      13.6853      -0.0032      50.6000      32.4695    -999.2500    -999.2500     133.1875     101.4476     219.7500       0.0240       4.1484       0.0057       2.7885       1.5742       2.6159
   2630.4241      12.9688      14.8682      -0.0006      52.5000      33.9383    -999.2500    -999.2500     144.5585     105.8419     251.2500       0.0294       3.8750       0.0059       2.7863       1.8009       2.6557
   2630.5764      13.1250      15.0382      -0.0008      52.0000      34.2333    -999.2500    -999.2500     130.4885      98.1194     166.3750       0.0324       3.8203       0.0059       2.7782       1.8652       2.6731
   2630.7288      13.2422      15.7486       0.0036      50.1000      35.0638    -999.2500    -999.2500     132.1003      99.3163     143.0000       0.0324       3.7793       0.0058       2.7842       2.1044       2.6898
   2630.8811      13.4609      15.5438       0.0057      52.4000      34.5790    -999.2500    -999.2500     106.4848      84.4866     275.2500       0.0359       3.8652       0.0057       2.7798       2.1087       2.6508
   2631.0337      13.6094      16.5879       0.0031      53.1000      36.3841    -999.2500    -999.2500      93.5666      79.1152     167.1250       0.0336       4.0938       0.0059       2.7625       2.3031       2.7568
   2631.1860      13.6328      16.8561      -0.0037      52.7000      36.8067    -999.2500    -999.2500     105.2433      83.9571      84.1250       0.0296       4.0313       0.0059       2.7446       2.4171       2.7783
   2631.3384      13.6094      16.8709      -0.0004      52.4000      37.0582    -999.2500    -999.2500     103.5836      83.6351      51.0938       0.0233       3.8672       0.0060       2.7511       2.3486       2.8113
   2631.4907      13.1250      17.4637       0.0014      53.6000      37.3252    -999.2500    -999.2500     103.0284      83.0711     143.7500       0.0250       3.6016       0.0067       2.7600       2.2474       2.7659
   2631.6431      13.0078      15.8151       0.0018      53.8000      34.4228    -999.2500    -999.2500     132.8118     101.4283     141.2500       0.0282       3.5332       0.0064       2.7693       1.8675       2.5913
   2631.7957      12.9766      14.9377       0.0024      52.9000      32.8589    -999.2500    -999.2500     123.8100      96.4137     130.3750       0.0301       3.6563       0.0062       2.7792       1.6954       2.4957
   2631.9480      13.3047      16.0845       0.0044      42.7000      34.6077    -999.2500    -999.2500     118.1740      91.2944      90.7500       0.0283       3.7578       0.0066       2.7955       1.8840       2.5795
   2632.1003      13.4766      16.3484       0.0033      51.8000      34.9218    -999.2500    -999.2500     115.6810      90.8512     169.6250       0.0242       3.8496       0.0066       2.7966       1.9534       2.5865
   2632.2527      13.5938      13.9909       0.0007      52.0000      30.7499    -999.2500    -999.2500     121.2712      93.8040      97.1875       0.0194       3.8906       0.0070       2.7976       1.0910       2.3338
