#------------------------------------------------------------------------------
#
#   Created by  : [OpenWorks] Log Export Utility (LEXP)
#   Created on  : 2016-05-23 11:57:02
#   Project     : CANT971
#   User        : R5K
#   Interpreter : PEP
#
#------------------------------------------------------------------------------
~VERSION INFORMATION
VERS. 2.0 : CWLS Log ASCII Standard - version 2.0
WRAP.  NO : One line per depth step
~WELL INFORMATION
#MNEMONIC   .UNIT                                           VALUE :DESCRIPTION
#------------------------------------------------------------------------------
STRT        .M                                           493.3184 :START DEPTH
STOP        .M                                          2467.0508 :STOP DEPTH
STEP        .M                                             0.1524 :STEP
NULL        .                                           -999.2500 :NULL VALUE
COMP        .                                   PEMEX EXPL & PROD :COMPANY
WELL        .                                                  63 :WELL
FLD         .                                           CANTARELL :FIELD
LOC         .                                             UNKNOWN :LOCATION
CNTY        .                                      CD. DEL CARMEN :COUNTY
STAT        .                                            CAMPECHE :STATE
CTRY        .                                              MEXICO :COUNTRY
SRVC        .                                             UNKNOWN :SERVICE COMPANY
DATE        .                                             UNKNOWN :LOG DATE
UWI         .                                          3060000615 :UNIQUE WELL ID
XCOORD      .                                       601716.240000 :SURFACE X
YCOORD      .                                      2142344.800000 :SURFACE Y
LAT         .                                           19.373792 :LATITUDE
LON         .                                          -92.031441 :LONGITUDE
ELEV        .M                                            24.0000 :SURFACE ELEV
ELEV_TYPE   .                                                  KB :ELEV TYPE
~CURVE INFORMATION
#MNEMONIC.UNIT        API CODE       : CURVE DESCRIPTION
#------------------------------------------------------------------------------
DEPTH    .M                          : Measured Depth
CALI     .inches      UNKNOWN        : CALI:Import:rC:NONE:v0 (auto-composite)
DRHO     .g/cm3       UNKNOWN        : DRHO:Import:rC:NONE:v0 (auto-composite)
DT       .us/ft       UNKNOWN        : DT:Import:rC:NONE:v0 (auto-composite)
GR       .API         UNKNOWN        : GR:Import:rC:NONE:v0 (auto-composite)
ILD      .ohm.m       UNKNOWN        : ILD:Import:rC:NONE:v0 (auto-composite)
ILM      .ohm.m       UNKNOWN        : ILM:Import:rC:NONE:v0 (auto-composite)
LLD      .ohm.m       UNKNOWN        : LLD:Import:rC:NONE:v0 (auto-composite)
LLS      .ohm.m       UNKNOWN        : LLS:Import:rC:NONE:v0 (auto-composite)
MSFL     .ohm.m       UNKNOWN        : MSFL:Import:rC:NONE:v0 (auto-composite)
NPHI     .v/v_decimal UNKNOWN        : NPHI:Import:rC:NONE:v0 (auto-composite)
PEF      .b/elec      UNKNOWN        : PEF:Import:rC:NONE:v0 (auto-composite)
RHOB     .g/cm3       UNKNOWN        : RHOB:Import:rC:NONE:v0 (auto-composite)
~A     DEPTH         CALI         DRHO           DT           GR          ILD          ILM          LLD          LLS         MSFL         NPHI          PEF         RHOB
# ...
   2014.8800       8.7890       0.0110      55.0312      15.3054    -999.2500    -999.2500     616.6321     220.9247     181.0088       0.0332       3.5214       2.7530
   2015.0323       8.7890       0.0140      54.1000      15.3630    -999.2500    -999.2500     624.9360     219.5530     231.3120       0.0328       3.6960       2.7580
   2015.1848       8.7890       0.0220      52.6757      16.0865    -999.2500    -999.2500     711.6255     243.2055     140.0616       0.0335       3.5606       2.7620
   2015.3372       8.7890       0.0300      51.2520      16.8120    -999.2500    -999.2500     798.4180     266.8860      48.7030       0.0344       3.4250       2.7660
   2015.4895       8.7890       0.0365      51.0260      17.3777    -999.2500    -999.2500     927.2276     299.0109      50.5748       0.0348       3.2796       2.7755
   2015.6420       8.7890       0.0430      50.8000      17.9450    -999.2500    -999.2500    1056.1030     331.1780      52.4490       0.0346       3.1340       2.7850
   2015.7943       8.8000       0.0395      51.2990      16.9036    -999.2500    -999.2500     955.3602     309.5301     209.7364       0.0337       3.1395       2.7835
   2015.9468       8.8110       0.0360      51.7980      15.8590    -999.2500    -999.2500     854.6340     287.8510     367.2500       0.0327       3.1450       2.7820
   2016.0991       8.8370       0.0295      52.7490      17.5947    -999.2500    -999.2500     763.9922     265.3561     356.6291       0.0319       3.0660       2.7760
   2016.2516       8.8630       0.0230      53.7000      19.3360    -999.2500    -999.2500     673.3540     242.8440     346.0000       0.0322       2.9870       2.7700
   2016.4039       8.8165       0.0210      53.2960      24.4232    -999.2500    -999.2500     643.7913     231.1375     605.4888       0.0343       3.1535       2.7665
   2016.5564       8.7700       0.0190      52.8920      29.5230    -999.2500    -999.2500     614.2260     219.4300     865.0000       0.0364       3.3200       2.7630
   2016.7087       8.7710       0.0245      52.5535      28.7647    -999.2500    -999.2500     633.6240     224.6484     546.8773       0.0367       3.3140       2.7745
   2016.8612       8.7720       0.0300      52.2150      28.0050    -999.2500    -999.2500     653.0260     229.8680     228.6870       0.0356       3.3080       2.7860
   2017.0135       8.7805       0.0345      51.8076      23.4135    -999.2500    -999.2500     712.3459     250.6715     231.2026       0.0331       3.2700       2.7995
   2017.1660       8.7890       0.0390      51.4000      18.8130    -999.2500    -999.2500     771.6860     271.4820     233.7190       0.0312       3.2320       2.8130
   2017.3184       8.7735       0.0355      51.1501      16.9359    -999.2500    -999.2500     780.0076     278.1330     163.7977       0.0317       3.1760       2.8100
   2017.4707       8.7580       0.0320      50.9000      15.0550    -999.2500    -999.2500     788.3330     284.7870      93.8440       0.0338       3.1200       2.8070
   2017.6232       8.7725       0.0275      51.4301      14.5201    -999.2500    -999.2500     669.1491     249.5804     109.0560       0.0366       3.2670       2.8050
   2017.7755       8.7870       0.0230      51.9600      13.9840    -999.2500    -999.2500     549.8950     214.3530     124.2770       0.0397       3.4140       2.8030
   2017.9280       8.7900       0.0205      53.2311      14.2497    -999.2500    -999.2500     569.0177     214.7269     237.9774       0.0422       3.4650       2.7940
   2018.0803       8.7930       0.0180      54.5010      14.5160    -999.2500    -999.2500     588.1540     215.1010     351.7590       0.0462       3.5160       2.7850
   2018.2328       8.1873       0.0210      56.0011      15.3660    -999.2500    -999.2500     610.3177     232.5472     444.6530       0.0533       3.6325       2.7690
   2018.3851       7.5810       0.0240      57.5000      16.2180    -999.2500    -999.2500     632.5000     250.0080     537.6250       0.0556       3.7490       2.7530
   2018.5376       7.1047       0.0415      56.5767      17.0924    -999.2500    -999.2500     600.7548     290.6808     480.8544       0.0444       3.6431       2.7700
   2018.6899       6.6280       0.0590      55.6540      17.9690    -999.2500    -999.2500     568.9790     331.3930     424.0290       0.0312       3.5370       2.7870
   2018.8424       6.5735       0.0725      54.4767      16.7656    -999.2500    -999.2500     498.5974     314.3303     243.4646       0.0270       3.4645       2.8145
   2018.9948       6.5190       0.0860      53.3000      15.5590    -999.2500    -999.2500     428.1390     297.2490      62.7030       0.0273       3.3920       2.8420
   2019.1472       6.5010       0.0965      53.7501      16.1357    -999.2500    -999.2500     325.5210     233.7666      63.4011       0.0282       3.1616       2.8400
   2019.2996       6.4830       0.1070      54.2000      16.7140    -999.2500    -999.2500     222.7780     170.2070      64.1000       0.0309       2.9310       2.8380
   2019.4519       6.4066       0.1130      54.0500      33.6600    -999.2500    -999.2500     171.1645     128.9882      70.9789       0.0365       2.9340       2.8410
   2019.6044       6.3300       0.1190      53.9000      50.6560    -999.2500    -999.2500     119.5230      87.7140      77.8670       0.0420       2.9370       2.8440
   2019.7567       6.3300       0.1185      53.9080      50.6146    -999.2500    -999.2500     120.4596      88.3575      91.0848       0.0442       3.0385       2.8440
   2019.9092       6.3300       0.1180      53.9160      50.5730    -999.2500    -999.2500     121.3960      89.0020     104.3220       0.0454       3.1400       2.8440
   2020.0615       6.3330       0.1105      54.2080      49.1088    -999.2500    -999.2500     165.9737     119.0851     150.5802       0.0478       3.1950       2.8420
   2020.2140       6.3360       0.1030      54.5000      47.6410    -999.2500    -999.2500     210.5510     149.1920     196.8750       0.0497       3.2500       2.8400
   2020.3663       6.3470       0.0985      53.5266      38.5668    -999.2500    -999.2500     270.5155     180.6772     160.5801       0.0491       3.3230       2.8535
   2020.5188       6.3580       0.0940      52.5530      29.4770    -999.2500    -999.2500     330.4870     212.1660     124.2810       0.0480       3.3960       2.8670
   2020.6711       6.4175       0.0765      52.3515      31.8378    -999.2500    -999.2500     795.0096     442.2136      88.9963       0.0488       3.6140       2.8495
   2020.8236       6.4770       0.0590      52.1500      34.2030    -999.2500    -999.2500    1259.6450     672.3170      53.7030       0.0494       3.8320       2.8320
   2020.9760       6.4395       0.0485      53.7287      28.6540    -999.2500    -999.2500    1178.6589     639.0896      63.3622       0.0481       3.4881       2.8135
   2021.1284       6.4020       0.0380      55.3080      23.0940    -999.2500    -999.2500    1097.6429     605.8500      73.0250       0.0467       3.1440       2.7950
   2021.2808       6.4185       0.0290      55.6074      23.6080    -999.2500    -999.2500     868.4491     500.7904     148.6358       0.0469       3.3455       2.7990
   2021.4331       6.4350       0.0200      55.9070      24.1230    -999.2500    -999.2500     639.1420     395.6790     224.2840       0.0489       3.5470       2.8030
   2021.5856       6.4210       0.0145      58.4287      26.2366    -999.2500    -999.2500     541.7742     305.8288     496.1827       0.0528       3.4900       2.8005
   2021.7379       6.4070       0.0090      60.9500      28.3550    -999.2500    -999.2500     444.3460     215.9230     768.2500       0.0580       3.4330       2.7980
   2021.8904       6.3870       0.0090      60.8420      29.0422    -999.2500    -999.2500     384.3079     216.0555     755.5178       0.0641       3.4355       2.7615
   2022.0427       6.3670       0.0090      60.7340      29.7310    -999.2500    -999.2500     324.2250     216.1880     742.7760       0.0698       3.4380       2.7250
