#------------------------------------------------------------------------------
#
#   Created by  : [OpenWorks] Log Export Utility (LEXP)
#   Created on  : 2016-05-23 11:57:14
#   Project     : CANT971
#   User        : R5K
#   Interpreter : PEP
#
#------------------------------------------------------------------------------
~VERSION INFORMATION
VERS. 2.0 : CWLS Log ASCII Standard - version 2.0
WRAP.  NO : One line per depth step
~WELL INFORMATION
#MNEMONIC   .UNIT                                           VALUE :DESCRIPTION
#------------------------------------------------------------------------------
STRT        .M                                           551.2302 :START DEPTH
STOP        .M                                          2435.9609 :STOP DEPTH
STEP        .M                                             0.1524 :STEP
NULL        .                                           -999.2500 :NULL VALUE
COMP        .                                   PEMEX EXPL & PROD :COMPANY
WELL        .                                                  76 :WELL
FLD         .                                           CANTARELL :FIELD
LOC         .                                             UNKNOWN :LOCATION
CNTY        .                                      CD. DEL CARMEN :COUNTY
STAT        .                                            CAMPECHE :STATE
CTRY        .                                              MEXICO :COUNTRY
SRVC        .                                             UNKNOWN :SERVICE COMPANY
DATE        .                                             UNKNOWN :LOG DATE
UWI         .                                          3060000416 :UNIQUE WELL ID
XCOORD      .                                       599729.570000 :SURFACE X
YCOORD      .                                      2147218.620000 :SURFACE Y
LAT         .                                           19.417934 :LATITUDE
LON         .                                          -92.050101 :LONGITUDE
ELEV        .M                                            27.8000 :SURFACE ELEV
ELEV_TYPE   .                                                  KB :ELEV TYPE
~CURVE INFORMATION
#MNEMONIC.UNIT        API CODE       : CURVE DESCRIPTION
#------------------------------------------------------------------------------
DEPTH    .M                          : Measured Depth
CAL      .inches      UNKNOWN        : CAL:UNKNOWN:rC:NONE:v0 (auto-composite)
DRHO     .UNKNOWN     UNKNOWN        : DRHO:UNKNOWN:rC:NONE:v0 (auto-composite)
DT       .us/ft       UNKNOWN        : DT:DT:rC:NONE:v0 (auto-composite)
GR       .UNKNOWN     UNKNOWN        : GR:GR-Load:rC:NONE:v0 (auto-composite)
ILD      .UNKNOWN     UNKNOWN        : ILD:ILD-Load:rC:NONE:v0 (auto-composite)
LLD      .UNKNOWN     UNKNOWN        : LLD:UNKNOWN:rC:NONE:v0 (auto-composite)
LLS      .UNKNOWN     UNKNOWN        : LLS:UNKNOWN:rC:NONE:v0 (auto-composite)
NPHI     .v/v_decimal UNKNOWN        : NPHI:NPHI:rC:NONE:v0 (auto-composite)
RHOB     .UNKNOWN     UNKNOWN        : RHOB:UNKNOWN:rC:NONE:v0 (auto-composite)
~A     DEPTH          CAL         DRHO           DT           GR          ILD          LLD          LLS         NPHI         RHOB
# ...
   2119.7310       6.4894       0.0966     106.2810      28.0272       0.2000      42.0599      24.4434      16.4875       2.6470
   2119.8835       6.4656       0.1008     106.2790      27.4280       0.2000      40.6656      24.5430      17.6100       2.6431
   2120.0359       6.4075       0.0943     104.8250      26.4381       0.2000      37.7209      24.5430      17.5735       2.6351
   2120.1882       6.3449       0.0781     103.3720      25.4490       0.2000      34.0267      24.0713      17.5370       2.6265
   2120.3406       6.2777       0.0521      92.8226      24.1546       0.2000      29.5628      23.1151      17.1894       2.6175
   2120.4929       6.2437       0.0440      82.2800      22.8610       0.2000      27.0233      21.7587      16.8420       2.6210
   2120.6455       6.2432       0.0540      84.6736      22.3535       0.2000      26.4166      20.0004      15.5627       2.6370
   2120.7979       6.2731       0.0625      87.0660      21.8470       0.2000      28.4014      19.8159      14.2840       2.6538
   2120.9502       6.3327       0.0696      84.2525      22.2469       0.2000      32.9318      21.1776      14.5150       2.6714
   2121.1025       6.3500       0.0837      81.4400      22.6460       0.2000      37.3190      23.3377      14.7460       2.6861
   2121.2551       6.3265       0.1048      81.5165      24.5993       0.2000      41.5678      26.2698      14.6775       2.6982
   2121.4075       6.2712       0.1145      81.5930      26.5490       0.2000      42.8442      27.2768      14.6090       2.6978
   2121.5598       6.1860       0.1135      78.6133      25.3820       0.2000      41.3095      26.4630      14.3045       2.6858
   2121.7122       6.1710       0.0862      75.6340      24.2170       0.2000      38.8376      25.1893      14.0000       2.6422
   2121.8647       6.2212       0.0345      75.8185      24.5122       0.2000      35.4988      23.4901      14.1270       2.5695
   2122.0171       6.3269       0.0137      76.0030      24.8070       0.2000      33.3697      22.8954      14.2540       2.5029
   2122.1694       6.4828       0.0207      84.8885      25.9634       0.2000      32.3348      23.3001      17.0693       2.4417
   2122.3218       6.5305       0.0288      93.7750      27.1180       0.2000      32.6198      23.7420      19.8850       2.4430
   2122.4741       6.4824       0.0378      93.5005      27.4482       0.2000      34.0727      24.2169      19.4391       2.4996
   2122.6267       6.4753       0.0433      93.2260      27.7780       0.2000      33.9788      24.0652      18.9930       2.5627
   2122.7791       6.5039       0.0458      86.5602      28.1227       0.2000      32.5378      23.3678      17.0464       2.6314
   2122.9314       6.5021       0.0603      79.8920      28.4670       0.2000      30.7375      22.8079      15.0990       2.6803
   2123.0837       6.4745       0.0848      88.1560      30.1204       0.2000      28.6311      22.3652      13.4439       2.7124
   2123.2363       6.4248       0.0987      96.4240      31.7720       0.2000      29.4978      22.4925      11.7880       2.7322
   2123.3887       6.3566       0.1037      94.4656      33.8435       0.2000      32.8406      23.0947      12.0064       2.7417
   2123.5410       6.3329       0.0991      92.5060      35.9130       0.2000      37.8079      24.0528      12.2250       2.7341
   2123.6934       6.3454       0.0866      80.3713      37.9689       0.2000      44.0983      25.3008      13.4370       2.7126
   2123.8457       6.3864       0.0790      68.2470      40.0230       0.2000      50.1010      26.7854      14.6480       2.6969
   2123.9983       6.4501       0.0755      70.7234      42.1213       0.2000      55.8745      28.4585      17.7651       2.6858
   2124.1506       6.4690       0.0777      73.1980      44.2180       0.2000      58.6344      29.4422      20.8800       2.6875
   2124.3030       6.4530       0.0842      82.4038      43.7434       0.2000      59.0477      29.8891      20.6774       2.6990
   2124.4553       6.4454       0.0791      91.6040      43.2690       0.2000      58.2959      30.0927      20.4750       2.7105
   2124.6079       6.4444       0.0650      83.6471      40.8600       0.2000      56.6513      30.1097      19.3002       2.7221
   2124.7603       6.4603       0.0670      75.6940      38.4560       0.2000      55.8622      30.1170      18.1260       2.7270
   2124.9126       6.4889       0.0811      94.4523      34.3640       0.2000      55.7137      30.1170      16.2717       2.7270
   2125.0649       6.5166       0.0916     113.2040      30.2800       0.2000      54.9370      29.9248      14.4180       2.7209
   2125.2175       6.5437       0.0997     111.1268      30.2800       0.2000      53.7000      29.5919      13.3269       2.7104
   2125.3699       6.4817       0.1050     109.0500      30.2800       0.2000      51.4249      29.2227      12.2360       2.7110
   2125.5222       6.3558       0.1086      89.1050      30.4036       0.2000      48.4065      28.8276      12.2760       2.7195
   2125.6746       6.3650       0.1150      69.1620      30.5270       0.2000      46.6376      28.6500      12.3160       2.7259
   2125.8269       6.4687       0.1235      88.8053      31.1300       0.2000      45.7428      28.6244      12.6500       2.7310
   2125.9795       6.4932       0.1068     108.4490      31.7320       0.2000      45.2735      28.1178      12.9840       2.7321
   2126.1318       6.4631       0.0727     104.4658      32.9659       0.2000      45.0970      27.2799      12.9505       2.7306
   2126.2842       6.4489       0.0527     100.4820      34.1980       0.2000      44.0368      26.2719      12.9170       2.7252
   2126.4365       6.4454       0.0422      81.2456      33.8803       0.2000      42.3823      25.1493      12.5426       2.7172
   2126.5891       6.4252       0.0552      62.0040      33.5630       0.2000      40.9028      24.8652      12.1680       2.7089
   2126.7415       6.3942       0.0838      65.0064      32.0656       0.2000      39.5385      25.1325      12.2035       2.7003
   2126.8938       6.3933       0.0953      68.0100      30.5700       0.2000      38.5187      25.1201      12.2390       2.6875
   2127.0461       6.4118       0.0958      77.6460      31.3744       0.2000      37.7199      24.9280      12.6524       2.6720
   2127.1987       6.3950       0.0794      87.2870      32.1780       0.2000      35.2294      24.4002      13.0660       2.6669
   2127.3511       6.3559       0.0523      88.0343      36.5486       0.2000      31.6774      23.6618      12.5952       2.6684
   2127.5034       6.3801       0.0563      88.7820      40.9150       0.2000      28.8765      23.0191      12.1240       2.6944
   2127.6558       6.4432       0.0793      86.9012      39.9141       0.2000      26.5390      22.4355      12.1740       2.7355
   2127.8081       6.5095       0.0889      85.0220      38.9140       0.2000      25.4979      22.5204      12.2240       2.7507
   2127.9607       6.5777       0.0904      77.5749      32.0076       0.2000      25.2382      23.0082      13.0318       2.7502
   2128.1130       6.5762       0.0872      70.1330      25.1170       0.2000      26.2505      23.6025      13.8390       2.7181
   2128.2654       6.5336       0.0812      70.5396      25.5890       0.2000      28.0113      24.2593      13.6830       2.6675
   2128.4177       6.4636       0.0621      70.9460      26.0600       0.2000      27.9169      23.8641      13.5270       2.6340
   2128.5703       6.3778       0.0356      72.1903      28.6717       0.2000      26.7562      22.8643      12.4653       2.6105
   2128.7227       6.4093       0.0228      73.4340      31.2780       0.2000      25.6414      22.0502      11.4040       2.6020
   2128.8750       6.5066       0.0178      76.6960      37.1847       0.2000      24.5524      21.3402      11.5645       2.6020
   2129.0273       6.4860       0.0260      79.9570      43.0800       0.2000      23.0502      20.9676      11.7250       2.6085
