#------------------------------------------------------------------------------
#
#   Created by  : [OpenWorks] Log Export Utility (LEXP)
#   Created on  : 2016-05-11 12:45:43
#   Project     : CANT971
#   User        : R5K
#   Interpreter : PEP
#
#------------------------------------------------------------------------------
~VERSION INFORMATION
VERS. 2.0 : CWLS Log ASCII Standard - version 2.0
WRAP.  NO : One line per depth step
~WELL INFORMATION
#MNEMONIC   .UNIT                                           VALUE :DESCRIPTION
#------------------------------------------------------------------------------
STRT        .M                                            80.3144 :START DEPTH
STOP        .M                                          1350.4160 :STOP DEPTH
STEP        .M                                             0.1524 :STEP
NULL        .                                           -999.2500 :NULL VALUE
COMP        .                                   PEMEX EXPL & PROD :COMPANY
WELL        .                                         CANTARELL-3 :WELL
FLD         .                                           CANTARELL :FIELD
LOC         .                                             UNKNOWN :LOCATION
CNTY        .                                      CD. DEL CARMEN :COUNTY
STAT        .                                            CAMPECHE :STATE
CTRY        .                                              MEXICO :COUNTRY
SRVC        .                                             UNKNOWN :SERVICE COMPANY
DATE        .                                             UNKNOWN :LOG DATE
UWI         .                                          3060000139 :UNIQUE WELL ID
XCOORD      .                                       600825.370000 :SURFACE X
YCOORD      .                                      2145118.460000 :SURFACE Y
LAT         .                                           19.398901 :LATITUDE
LON         .                                          -92.039777 :LONGITUDE
ELEV        .M                                            27.7000 :SURFACE ELEV
ELEV_TYPE   .                                                  KB :ELEV TYPE
~CURVE INFORMATION
#MNEMONIC.UNIT        API CODE       : CURVE DESCRIPTION
#------------------------------------------------------------------------------
DEPTH    .M                          : Measured Depth
CALI     .inches      UNKNOWN        : CALI:Import:rC:NONE:v0 (auto-composite)
DRHO     .g/cm3       UNKNOWN        : DRHO:Import:rC:NONE:v0 (auto-composite)
DT       .us/ft       UNKNOWN        : DT:Import:rC:NONE:v0 (auto-composite)
GR       .API         UNKNOWN        : GR:Import:rC:NONE:v0 (auto-composite)
ILD      .ohm.m       UNKNOWN        : ILD:Import:rC:NONE:v0 (auto-composite)
NPHI     .v/v_decimal UNKNOWN        : NPHI:Import:rC:NONE:v0 (auto-composite)
RHOB     .g/cm3       UNKNOWN        : RHOB:Import:rC:NONE:v0 (auto-composite)
SP       .mV          UNKNOWN        : SP:Import:rC:NONE:v0 (auto-composite)
~A     DEPTH         CALI         DRHO           DT           GR          ILD         NPHI         RHOB           SP
# ...
   1342.1864      12.0115       0.0475      45.4830     100.5336    -999.2500       0.1234       2.6075    -999.2500
   1342.3387      12.0120       0.0490      52.1046     100.9190    -999.2500       0.1233       2.6190    -999.2500
   1342.4912      12.0130       0.0560      58.6890     100.9335    -999.2500       0.1233       2.6180    -999.2500
   1342.6436      12.0140       0.0630      61.4385     100.9480    -999.2500       0.1232       2.6170    -999.2500
   1342.7960      12.0145       0.0610      64.1730     100.9620    -999.2500       0.1232       2.6115    -999.2500
   1342.9484      12.0150       0.0590      72.0426     100.9760    -999.2500       0.1231       2.6060    -999.2500
   1343.1008      12.0160       0.0495      79.8700     101.0026    -999.2500       0.1229       2.5940    -999.2500
   1343.2532      12.0170       0.0400      79.8690     101.0290    -999.2500       0.1226       2.5820    -999.2500
   1343.4056      12.0175       0.0460      79.8680     101.0069    -999.2500       0.1222       2.5875    -999.2500
   1343.5580      12.0180       0.0520      79.8645     100.9850    -999.2500       0.1216       2.5930    -999.2500
   1343.7104      12.0290       0.0510      79.8610     100.8988    -999.2500       0.1211       2.5930    -999.2500
   1343.8628      12.0400       0.0500      79.8540     100.8130    -999.2500       0.1206       2.5930    -999.2500
   1344.0153       6.0053       0.0515      79.8470     100.7052    -999.2500       0.1199       2.5895    -999.2500
   1344.1676       0.0000       0.0530      79.8761     100.5980    -999.2500       0.1191       2.5860    -999.2500
   1344.3199       0.0000       0.0390      79.9050     100.3865    -999.2500       0.1181       2.5755    -999.2500
   1344.4724       0.0000       0.0250      80.0478     100.1760    -999.2500       0.1168       2.5650    -999.2500
   1344.6248    -999.2500       0.0270      80.1900      99.9174    -999.2500       0.1152       2.5790    -999.2500
   1344.7772    -999.2500       0.0290      90.2236      99.6600    -999.2500       0.1130       2.5930    -999.2500
   1344.9296    -999.2500       0.0435     100.2110      99.4013    -999.2500       0.1101       2.5910    -999.2500
   1345.0820    -999.2500       0.0580     100.2105      99.1440    -999.2500       0.1065       2.5890    -999.2500
   1345.2344    -999.2500       0.0535     100.2100      98.4865    -999.2500       0.1022       2.5745    -999.2500
   1345.3868    -999.2500       0.0490     100.2030      97.8330    -999.2500       0.0966       2.5600    -999.2500
   1345.5392    -999.2500       0.0330     100.1960      96.5071    -999.2500       0.0889       2.5169    -999.2500
   1345.6917    -999.2500       0.0170     100.2411      95.1890    -999.2500       0.0790       2.4740    -999.2500
   1345.8440    -999.2500       0.0060     100.2860      93.3142    -999.2500       0.0667       2.3627    -999.2500
   1345.9965    -999.2500      -0.0050     100.2730      91.4500    -999.2500       0.0508       2.2520    -999.2500
   1346.1488    -999.2500      -0.0050     100.2600      89.0232    -999.2500       0.0302       2.2520    -999.2500
   1346.3011    -999.2500      -0.0050     100.2194      86.6100    -999.2500       0.0054       2.2520    -999.2500
   1346.4536    -999.2500      -0.0045     100.1790      82.9465    -999.2500      -0.0235       2.2520    -999.2500
   1346.6060    -999.2500      -0.0040      70.0073      79.3030    -999.2500      -0.0614       2.2520    -999.2500
   1346.7584    -999.2500      -0.0040      40.0000      73.2293    -999.2500      -0.1139       2.2520    -999.2500
   1346.9108    -999.2500      -0.0040      40.0000      67.1880    -999.2500      -0.1586       2.2520    -999.2500
   1347.0632    -999.2500      -0.0040      40.0000      57.1238    -999.2500      -0.1732       2.2520    -999.2500
   1347.2156    -999.2500      -0.0040      40.0000      47.1120    -999.2500      -0.1730       2.2520    -999.2500
   1347.3680    -999.2500      -0.0040      40.0000      33.6147    -999.2500      -0.1731       2.2330    -999.2500
   1347.5204    -999.2500      -0.0040      40.0000      20.1860    -999.2500      -0.1732       2.2140    -999.2500
   1347.6729    -999.2500      -0.0040      40.0000      10.5907    -999.2500      -0.1735       2.0817    -999.2500
   1347.8252    -999.2500      -0.0040      40.0000       1.0430    -999.2500      -0.1738       1.9500    -999.2500
   1347.9775    -999.2500      -0.0040      40.0000       1.0465    -999.2500      -0.1742       1.9500    -999.2500
   1348.1300    -999.2500      -0.0040      40.0000       1.0500    -999.2500      -0.1744       1.9500    -999.2500
   1348.2823    -999.2500      -0.0040      40.0000       1.0650    -999.2500      -0.1745       1.9500    -999.2500
   1348.4348    -999.2500      -0.0040      40.0000       1.0800    -999.2500      -0.1745       1.9500    -999.2500
   1348.5872    -999.2500      -0.0035      40.0000       1.0940    -999.2500      -0.1746       1.9500    -999.2500
   1348.7396    -999.2500      -0.0030      40.0000       1.1080    -999.2500      -0.1746       1.9500    -999.2500
   1348.8920    -999.2500      -0.0025      40.0000       1.1210    -999.2500      -0.1747       1.9500    -999.2500
   1349.0444    -999.2500      -0.0020      40.0000       1.1340    -999.2500      -0.1744       1.9500    -999.2500
   1349.1968    -999.2500      -0.0020      40.0000       1.1500    -999.2500      -0.1732       1.9500    -999.2500
   1349.3492    -999.2500      -0.0020      40.0000       1.1660    -999.2500      -0.1705       1.9500    -999.2500
   1349.5016    -999.2500      -0.0020      40.0000       1.1926    -999.2500      -0.1655       1.9500    -999.2500
   1349.6541    -999.2500      -0.0020      40.0000       1.2190    -999.2500      -0.1597       1.9500    -999.2500
   1349.8064    -999.2500      -0.0020      40.0000       1.1443    -999.2500      -0.1546       1.9500    -999.2500
   1349.9587    -999.2500      -0.0020      40.0000       1.0700    -999.2500      -0.1512       1.9500    -999.2500
   1350.1112    -999.2500      -0.0020      40.0000       0.7667    -999.2500      -0.1500       1.9500    -999.2500
   1350.2635    -999.2500    -999.2500    -999.2500    -999.2500    -999.2500      -0.1500    -999.2500    -999.2500
   1350.4160    -999.2500    -999.2500    -999.2500    -999.2500    -999.2500      -0.1500    -999.2500    -999.2500
