#------------------------------------------------------------------------------
#
#   Created by  : [OpenWorks] Log Export Utility (LEXP)
#   Created on  : 2016-05-11 12:45:47
#   Project     : CANT971
#   User        : R5K
#   Interpreter : PEP
#
#------------------------------------------------------------------------------
~VERSION INFORMATION
VERS. 2.0 : CWLS Log ASCII Standard - version 2.0
WRAP.  NO : One line per depth step
~WELL INFORMATION
#MNEMONIC   .UNIT                                           VALUE :DESCRIPTION
#------------------------------------------------------------------------------
STRT        .M                                           801.4664 :START DEPTH
STOP        .M                                          3402.1724 :STOP DEPTH
STEP        .M                                             0.1524 :STEP
NULL        .                                           -999.2500 :NULL VALUE
COMP        .                                   PEMEX EXPL & PROD :COMPANY
WELL        .                                        CANTARELL-85 :WELL
FLD         .                                           CANTARELL :FIELD
LOC         .                                             UNKNOWN :LOCATION
CNTY        .                                      CD. DEL CARMEN :COUNTY
STAT        .                                            CAMPECHE :STATE
CTRY        .                                              MEXICO :COUNTRY
SRVC        .                                             UNKNOWN :SERVICE COMPANY
DATE        .                                             UNKNOWN :LOG DATE
UWI         .                                          3060000185 :UNIQUE WELL ID
XCOORD      .                                       604541.690000 :SURFACE X
YCOORD      .                                      2141649.620000 :SURFACE Y
LAT         .                                           19.367365 :LATITUDE
LON         .                                          -92.004578 :LONGITUDE
ELEV        .M                                            30.0000 :SURFACE ELEV
ELEV_TYPE   .                                                  KB :ELEV TYPE
~CURVE INFORMATION
#MNEMONIC.UNIT        API CODE       : CURVE DESCRIPTION
#------------------------------------------------------------------------------
DEPTH    .M                          : Measured Depth
CALI     .inches      UNKNOWN        : CALI:Import:rC:NONE:v0 (auto-composite)
DRHO     .g/cm3       UNKNOWN        : DRHO:Import:rC:NONE:v0 (auto-composite)
DT       .us/ft       UNKNOWN        : DT:Import:rC:NONE:v0 (auto-composite)
GR       .API         UNKNOWN        : GR:Import:rC:NONE:v0 (auto-composite)
ILD      .ohm.m       UNKNOWN        : ILD:Import:rC:NONE:v0 (auto-composite)
ILM      .ohm.m       UNKNOWN        : ILM:Import:rC:NONE:v0 (auto-composite)
NPHI     .v/v_decimal UNKNOWN        : NPHI:Import:rC:NONE:v0 (auto-composite)
RHOB     .g/cm3       UNKNOWN        : RHOB:Import:rC:NONE:v0 (auto-composite)
SN       .ohm.m       UNKNOWN        : SN:Import:rC:NONE:v0 (auto-composite)
SP       .mV          UNKNOWN        : SP:Import:rC:NONE:v0 (auto-composite)
~A     DEPTH         CALI         DRHO           DT           GR          ILD          ILM         NPHI         RHOB           SN           SP
# ...
   2636.3623       9.6820       0.0495      82.7686      59.3632       2.3511    -999.2500      24.4054       2.5883    -999.2500    -999.2500
   2636.5146       9.6820       0.0645      84.3360      59.0274       2.2891    -999.2500      24.6419       2.5948    -999.2500    -999.2500
   2636.6672       9.6453       0.0418      83.9469      57.2184       2.2870    -999.2500      24.3645       2.5805    -999.2500    -999.2500
   2636.8196       9.6073       0.0178      83.4885      55.3578       2.2870    -999.2500      24.0690       2.5655    -999.2500    -999.2500
   2636.9719       9.6307       0.0184      81.1911      52.7813       2.2933    -999.2500      22.8564       2.5679    -999.2500    -999.2500
   2637.1243       9.6562       0.0199      78.8277      50.1839       2.2998    -999.2500      21.6111       2.5709    -999.2500    -999.2500
   2637.2769       9.6449       0.0287      78.9291      51.0655       2.3208    -999.2500      19.2259       2.5831    -999.2500    -999.2500
   2637.4292       9.6324       0.0377      79.1186      52.0517       2.3423    -999.2500      16.8020       2.5956    -999.2500    -999.2500
   2637.5815       9.6378       0.0375      81.0557      52.0477       2.3507    -999.2500      16.8769       2.6096    -999.2500    -999.2500
   2637.7339       9.6438       0.0370      83.0556      52.0112       2.3587    -999.2500      17.0394       2.6236    -999.2500    -999.2500
   2637.8865       9.6624       0.0384      82.7690      51.4148       2.3725    -999.2500      17.8590       2.6211    -999.2500    -999.2500
   2638.0388       9.6814       0.0399      82.4005      50.7996       2.3865    -999.2500      18.7014       2.6181    -999.2500    -999.2500
   2638.1912       9.6849       0.0550      80.9204      49.2272       2.3909    -999.2500      18.5033       2.6369    -999.2500    -999.2500
   2638.3435       9.6879       0.0705      79.4048      47.6217       2.3949    -999.2500      18.2692       2.6564    -999.2500    -999.2500
   2638.4958       9.7093       0.0676      78.1547      47.1275       2.3935    -999.2500      17.4539       2.6551    -999.2500    -999.2500
   2638.6484       9.7313       0.0641      76.9153      46.6650       2.3920    -999.2500      16.6185       2.6531    -999.2500    -999.2500
   2638.8008       9.7745       0.0645      76.7633      45.8136       2.3813    -999.2500      16.7785       2.6462    -999.2500    -999.2500
   2638.9531       9.8185       0.0650      76.6500      44.9499       2.3703    -999.2500      16.9732       2.6392    -999.2500    -999.2500
   2639.1055       9.8534       0.0703      76.9637      45.0005       2.3414    -999.2500      16.9428       2.6312    -999.2500    -999.2500
   2639.2581       9.8879       0.0758      77.2927      45.0804       2.3119    -999.2500      16.9043       2.6232    -999.2500    -999.2500
   2639.4104       9.9441       0.0721      77.0604      45.5596       2.2733    -999.2500      16.6904       2.6235    -999.2500    -999.2500
   2639.5627      10.0011       0.0681      76.8088      46.0520       2.2343    -999.2500      16.4707       2.6240    -999.2500    -999.2500
   2639.7151      10.0393       0.0777      74.6480      47.2361       2.1889    -999.2500      15.8917       2.6293    -999.2500    -999.2500
   2639.8677      10.0768       0.0877      72.4195      48.4450       2.1433    -999.2500      15.3003       2.6348    -999.2500    -999.2500
   2640.0200      10.1201       0.0846      72.4899      49.9529       2.0988    -999.2500      15.5274       2.6326    -999.2500    -999.2500
   2640.1724      10.1636       0.0811      72.6419      51.4697       2.0543    -999.2500      15.7834       2.6301    -999.2500    -999.2500
   2640.3247      10.2201       0.0829      73.4460      52.4954       2.0074    -999.2500      17.0527       2.6179    -999.2500    -999.2500
   2640.4771      10.2771       0.0849      74.2735      53.5060       1.9604    -999.2500      18.3580       2.6054    -999.2500    -999.2500
   2640.6296      10.3428       0.0836      76.0026      55.0555       1.9145    -999.2500      20.9672       2.5730    -999.2500    -999.2500
   2640.7820      10.4088       0.0821      77.7626      56.6220       1.8685    -999.2500      23.6205       2.5400    -999.2500    -999.2500
   2640.9343      10.5232       0.0772      80.3574      57.6679       1.8361    -999.2500      23.4638       2.5458    -999.2500    -999.2500
   2641.0867      10.6392       0.0722      82.9832      58.6960       1.8041    -999.2500      23.2088       2.5528    -999.2500    -999.2500
   2641.2393      10.6522       0.0672      82.6952      60.0677       1.7909    -999.2500      23.7894       2.5496    -999.2500    -999.2500
   2641.3916      10.6617       0.0622      82.3033      61.4516       1.7784    -999.2500      24.3994       2.5461    -999.2500    -999.2500
   2641.5439      10.6499       0.0770      82.3875      62.1742       1.7663    -999.2500      24.4128       2.5683    -999.2500    -999.2500
   2641.6963      10.6374       0.0925      82.4885      62.8773       1.7544    -999.2500      24.4053       2.5913    -999.2500    -999.2500
   2641.8489      10.5519       0.0780      81.9906      62.5873       1.7443    -999.2500      24.2098       2.5872    -999.2500    -999.2500
   2642.0012      10.4639       0.0625      81.4716      62.2672       1.7343    -999.2500      24.0079       2.5822    -999.2500    -999.2500
   2642.1536      10.4610       0.0630      81.4603      60.8470       1.7292    -999.2500      23.2874       2.5670    -999.2500    -999.2500
   2642.3059      10.4610       0.0640      81.4668      59.3906       1.7242    -999.2500      22.5507       2.5515    -999.2500    -999.2500
   2642.4583      10.4789       0.0683      81.8510      59.4614       1.7124    -999.2500      21.9044       2.5457    -999.2500    -999.2500
   2642.6108      10.4974       0.0728      82.2484      59.5839       1.7004    -999.2500      21.2619       2.5402    -999.2500    -999.2500
   2642.7632      10.5681       0.0769      83.4374      62.0535       1.6796    -999.2500      21.3899       2.5405    -999.2500    -999.2500
   2642.9155      10.6406       0.0809      84.6516      64.6045       1.6586    -999.2500      21.5446       2.5410    -999.2500    -999.2500
   2643.0679      10.7010       0.0820      83.1907      64.4542       1.6434    -999.2500      22.0150       2.5458    -999.2500    -999.2500
   2643.2205      10.7610       0.0830      81.6343      64.2260       1.6285    -999.2500      22.4965       2.5508    -999.2500    -999.2500
   2643.3728      10.8022       0.0825      85.2625      63.4655       1.6280    -999.2500      22.6271       2.5495    -999.2500    -999.2500
   2643.5251      10.8427       0.0820      89.0656      62.6884       1.6280    -999.2500      22.7449       2.5480    -999.2500    -999.2500
   2643.6775      10.8537       0.0670      88.7833      61.9141       1.6290    -999.2500      23.2275       2.5364    -999.2500    -999.2500
   2643.8301      10.8637       0.0515      88.3528      61.1399       1.6300    -999.2500      23.7230       2.5244    -999.2500    -999.2500
   2643.9824      10.8640       0.0524      86.9295      58.2990       1.6397    -999.2500      23.6729       2.5250    -999.2500    -999.2500
   2644.1348      10.8640       0.0539      85.4720      55.3892       1.6497    -999.2500      23.6033       2.5260    -999.2500    -999.2500
   2644.2871      10.8548       0.0641      84.4820      55.9392       1.6490    -999.2500      23.2003       2.5347    -999.2500    -999.2500
   2644.4395      10.8453       0.0746      83.5076      56.6075       1.6480    -999.2500      22.7853       2.5437    -999.2500    -999.2500
   2644.5920      10.8054       0.0953      81.1529      56.4111       1.6436    -999.2500      21.5578       2.5619    -999.2500    -999.2500
   2644.7444      10.7644       0.1163      78.7510      56.1887       1.6391    -999.2500      20.3024       2.5804    -999.2500    -999.2500
