#------------------------------------------------------------------------------
#
#   Created by  : [OpenWorks] Log Export Utility (LEXP)
#   Created on  : 2016-05-23 11:57:01
#   Project     : CANT971
#   User        : R5K
#   Interpreter : PEP
#
#------------------------------------------------------------------------------
~VERSION INFORMATION
VERS. 2.0 : CWLS Log ASCII Standard - version 2.0
WRAP.  NO : One line per depth step
~WELL INFORMATION
#MNEMONIC   .UNIT                                           VALUE :DESCRIPTION
#------------------------------------------------------------------------------
STRT        .M                                           485.8514 :START DEPTH
STOP        .M                                          3526.5361 :STOP DEPTH
STEP        .M                                             0.1524 :STEP
NULL        .                                           -999.2500 :NULL VALUE
COMP        .                                   PEMEX EXPL & PROD :COMPANY
WELL        .                                                  62 :WELL
FLD         .                                           CANTARELL :FIELD
LOC         .                                             UNKNOWN :LOCATION
CNTY        .                                      CD. DEL CARMEN :COUNTY
STAT        .                                            CAMPECHE :STATE
CTRY        .                                              MEXICO :COUNTRY
SRVC        .                                             UNKNOWN :SERVICE COMPANY
DATE        .                                             UNKNOWN :LOG DATE
UWI         .                                          3060000468 :UNIQUE WELL ID
XCOORD      .                                       601711.280000 :SURFACE X
YCOORD      .                                      2142346.320000 :SURFACE Y
LAT         .                                           19.373806 :LATITUDE
LON         .                                          -92.031488 :LONGITUDE
ELEV        .M                                            24.0000 :SURFACE ELEV
ELEV_TYPE   .                                                  KB :ELEV TYPE
~CURVE INFORMATION
#MNEMONIC.UNIT        API CODE       : CURVE DESCRIPTION
#------------------------------------------------------------------------------
DEPTH    .M                          : Measured Depth
CALI     .inches      UNKNOWN        : CALI:editado:rC:NONE:v0 (auto-composite)
DRHO     .g/cm3       UNKNOWN        : DRHO:editado:rC:NONE:v0 (auto-composite)
DT       .us/ft       UNKNOWN        : DT:editado:rC:NONE:v0 (auto-composite)
GR       .API         UNKNOWN        : GR:editado:rC:NONE:v0 (auto-composite)
ILD      .ohm.m       UNKNOWN        : ILD:editado:rC:NONE:v0 (auto-composite)
ILM      .ohm.m       UNKNOWN        : ILM:editado:rC:NONE:v0 (auto-composite)
LLD      .ohm.m       UNKNOWN        : LLD:editado:rC:NONE:v0 (auto-composite)
LLS      .ohm.m       UNKNOWN        : LLS:editado:rC:NONE:v0 (auto-composite)
MSFL     .ohm.m       UNKNOWN        : MSFL:editado:rC:NONE:v0 (auto-composite)
NPHI     .v/v_decimal UNKNOWN        : NPHI:editado:rC:NONE:v0 (auto-composite)
PEF      .b/elec      UNKNOWN        : PEF:editado:rC:NONE:v0 (auto-composite)
RHOB     .g/cm3       UNKNOWN        : RHOB:editado:rC:NONE:v0 (auto-composite)
~A     DEPTH         CALI         DRHO           DT           GR          ILD          ILM          LLD          LLS         MSFL         NPHI          PEF         RHOB
# ...
   2065.9346       9.5690       0.0010      77.9300       9.9740    -999.2500    -999.2500     269.1410      84.6230     191.9370       0.1120       3.6070       2.6590
   2066.0869       9.4952       0.0010      76.7027      10.9051    -999.2500    -999.2500     288.5220      90.8588     156.3198       0.1103       3.5970       2.6610
   2066.2395       9.4220       0.0010      75.4770      11.8320    -999.2500    -999.2500     307.7550      97.0470     121.0310       0.1056       3.5870       2.6630
   2066.3918       9.4456       0.0015      71.6929      11.6656    -999.2500    -999.2500     339.3436     107.2774     217.1716       0.0928       3.6392       2.6816
   2066.5442       9.4690       0.0020      67.9130      11.5000    -999.2500    -999.2500     370.6950     117.4310     312.4370       0.0809       3.6910       2.7000
   2066.6965       9.4278       0.0055      65.2241      10.7740    -999.2500    -999.2500     416.9705     129.6035     288.1405       0.0812       3.6393       2.6955
   2066.8491       9.3870       0.0090      62.5380      10.0510    -999.2500    -999.2500     462.9040     141.6860     264.0620       0.0865       3.5880       2.6910
   2067.0015       9.3880       0.0080      58.3296      10.3170    -999.2500    -999.2500     442.7569     139.3445     816.9790       0.1011       3.5920       2.6619
   2067.1538       9.3890       0.0070      54.1250      10.5820    -999.2500    -999.2500     422.7560     137.0200    1365.0000       0.1145       3.5960       2.6330
   2067.3062       9.3935       0.0040      54.3196      12.7543    -999.2500    -999.2500     433.2816     139.5781    1201.0428       0.1130       3.5724       2.6430
   2067.4585       9.3980       0.0010      54.5140      14.9180    -999.2500    -999.2500     443.7320     142.1180    1038.5160       0.1094       3.5490       2.6530
   2067.6111       9.3669       0.0025      55.1087      14.6768    -999.2500    -999.2500     482.5410     151.9307     710.4087       0.1116       3.4727       2.6525
   2067.7634       9.3360       0.0040      55.7030      14.4370    -999.2500    -999.2500     521.0160     161.6590     385.1250       0.1172       3.3970       2.6520
   2067.9158       9.3380       0.0030      56.2756      12.0186    -999.2500    -999.2500     537.4175     166.9318     424.9505       0.1323       3.4131       2.6440
   2068.0681       9.3400       0.0020      56.8480       9.6130    -999.2500    -999.2500     553.6800     172.1600     464.3750       0.1467       3.4290       2.6360
   2068.2207       9.3495      -0.0030      59.5965      10.2672    -999.2500    -999.2500     488.9335     194.7233     342.3940       0.1478       3.4772       2.6149
   2068.3730       9.3590      -0.0080      62.3440      10.9180    -999.2500    -999.2500     424.7280     217.0980     221.6250       0.1452       3.5250       2.5940
   2068.5254       9.3354      -0.0075      62.1175      14.5346    -999.2500    -999.2500     425.0558     216.3298     719.2559       0.1389       3.5104       2.6010
   2068.6777       9.3120      -0.0070      61.8910      18.1330    -999.2500    -999.2500     425.3810     215.5680    1212.0000       0.1343       3.4960       2.6080
   2068.8303       9.3150       0.0005      60.1625      17.3521    -999.2500    -999.2500     515.9276     212.3515    1079.6262       0.1406       3.3382       2.5814
   2068.9827       9.3180       0.0080      58.4370      16.5750    -999.2500    -999.2500     605.7400     209.1610     948.5350       0.1474       3.1820       2.5550
   2069.1350       9.3662       0.0075      65.2555      14.0535    -999.2500    -999.2500     479.5156     202.6741     665.2242       0.1448       3.1860       2.5615
   2069.2874       9.4140       0.0070      72.0630      11.5440    -999.2500    -999.2500     354.2980     196.2390     384.6250       0.1386       3.1900       2.5680
   2069.4397       9.4085       0.0045      70.4858      10.9466    -999.2500    -999.2500     390.3065     202.0277     674.3047       0.1247       3.3573       2.5951
   2069.5923       9.4030       0.0020      68.9110      10.3520    -999.2500    -999.2500     426.0320     207.7710     961.2500       0.1106       3.5230       2.6220
   2069.7446       9.3593      -0.0025      63.4673      10.4597    -999.2500    -999.2500     611.1718     229.2324     879.8777       0.1032       3.4637       2.6466
   2069.8970       9.3160      -0.0070      58.0310      10.5670    -999.2500    -999.2500     794.8810     250.5280     799.2640       0.0972       3.4050       2.6710
   2070.0493       9.3160      -0.0035      59.4764      11.9721    -999.2500    -999.2500     778.4485     248.1635     499.7557       0.0905       3.5567       2.6936
   2070.2019       9.3160       0.0000      60.9200      13.3710    -999.2500    -999.2500     762.1410     245.8170     203.0000       0.0853       3.7070       2.7160
   2070.3542       9.3180      -0.0010      72.3883      13.2172    -999.2500    -999.2500     712.2956     235.6043     203.9026       0.0876       3.6548       2.7029
   2070.5066       9.3200      -0.0020      83.8440      13.0640    -999.2500    -999.2500     662.8230     225.4680     204.7970       0.0904       3.6030       2.6900
   2070.6589       9.2929      -0.0015      83.7034      12.5329    -999.2500    -999.2500     646.6384     227.8693     209.7582       0.0875       3.6146       2.6915
   2070.8115       9.2660      -0.0010      83.5630      12.0040    -999.2500    -999.2500     630.5730     230.2530     214.6750       0.0842       3.6260       2.6930
   2070.9639       9.2891      -0.0020      86.7829      12.1683    -999.2500    -999.2500     668.2010     249.2075     269.5401       0.0840       3.7059       2.6920
   2071.1162       9.3120      -0.0030      90.0000      12.3320    -999.2500    -999.2500     705.5570     268.0250     323.9210       0.0850       3.7850       2.6910
   2071.2686       9.3050      -0.0025      77.4329      12.9307    -999.2500    -999.2500    1181.2119     443.8199     916.2852       0.0880       3.7544       2.6850
   2071.4209       9.2980      -0.0020      64.8750      13.5270    -999.2500    -999.2500    1653.4850     618.3650    1503.5000       0.0922       3.7240       2.6790
   2071.5735       9.2739       0.0020      71.4170      14.3156    -999.2500    -999.2500    1571.7089     593.7308    1433.1709       0.0998       3.6251       2.6700
   2071.7258       9.2500       0.0060      77.9550      15.1000    -999.2500    -999.2500    1490.6340     569.3080    1363.4449       0.1083       3.5270       2.6610
   2071.8782       9.2812       0.0060      99.4046      17.1765    -999.2500    -999.2500    1231.2565     482.6752     823.9833       0.1179       3.4094       2.6269
   2072.0305       9.3120       0.0060     120.8440      19.2420    -999.2500    -999.2500     974.0690     396.7740     289.9370       0.1261       3.2930       2.5930
   2072.1831       9.3050       0.0040     113.3212      18.4695    -999.2500    -999.2500     826.8863     333.1837     610.1481       0.1265       3.3453       2.5940
   2072.3354       9.2980       0.0020     105.8130      17.7010    -999.2500    -999.2500     680.9290     270.1230     927.1870       0.1233       3.3970       2.5950
   2072.4878       9.2246      -0.0025     109.0474      14.8884    -999.2500    -999.2500     536.3180     232.1429     554.0325       0.1097       3.8246       2.6372
   2072.6401       9.1520      -0.0070     112.2760      12.0900    -999.2500    -999.2500     392.8920     194.4740     184.5310       0.0966       4.2480       2.6790
   2072.7927       9.1686      -0.0040     124.6485      13.8699    -999.2500    -999.2500     405.5155     200.1153     614.7178       0.0965       4.1686       2.6775
   2072.9451       9.1850      -0.0010     137.0000      15.6410    -999.2500    -999.2500     418.0370     205.7110    1040.7500       0.1035       4.0900       2.6760
   2073.0974       9.2372      -0.0020     110.0413      15.2290    -999.2500    -999.2500     785.1655     334.0665    1005.8138       0.1339       3.7428       2.6599
