#------------------------------------------------------------------------------
#
#   Created by  : [OpenWorks] Log Export Utility (LEXP)
#   Created on  : 2016-05-23 11:52:51
#   Project     : CANT971
#   User        : R5K
#   Interpreter : PEP
#
#------------------------------------------------------------------------------
~VERSION INFORMATION
VERS. 2.0 : CWLS Log ASCII Standard - version 2.0
WRAP.  NO : One line per depth step
~WELL INFORMATION
#MNEMONIC   .UNIT                                           VALUE :DESCRIPTION
#------------------------------------------------------------------------------
STRT        .M                                           691.4386 :START DEPTH
STOP        .M                                          2836.4685 :STOP DEPTH
STEP        .M                                             0.1524 :STEP
NULL        .                                           -999.2500 :NULL VALUE
COMP        .                                   PEMEX EXPL & PROD :COMPANY
WELL        .                                                2094 :WELL
FLD         .                                           CANTARELL :FIELD
LOC         .                                             UNKNOWN :LOCATION
CNTY        .                                      CD. DEL CARMEN :COUNTY
STAT        .                                            CAMPECHE :STATE
CTRY        .                                              MEXICO :COUNTRY
SRVC        .                                             UNKNOWN :SERVICE COMPANY
DATE        .                                             UNKNOWN :LOG DATE
UWI         .                                          3060000525 :UNIQUE WELL ID
XCOORD      .                                       601711.170000 :SURFACE X
YCOORD      .                                      2142342.970000 :SURFACE Y
LAT         .                                           19.373776 :LATITUDE
LON         .                                          -92.031490 :LONGITUDE
ELEV        .M                                            24.0000 :SURFACE ELEV
ELEV_TYPE   .                                                  KB :ELEV TYPE
~CURVE INFORMATION
#MNEMONIC.UNIT        API CODE       : CURVE DESCRIPTION
#------------------------------------------------------------------------------
DEPTH    .M                          : Measured Depth
CALI     .in          UNKNOWN        : CALI:registros:rC:NONE:v0 (auto-composite)
DRHO     .g/cm3       UNKNOWN        : DRHO:registros:rC:NONE:v0 (auto-composite)
DT       .us/ft       UNKNOWN        : DT:registros:rC:NONE:v0 (auto-composite)
GR       .API         UNKNOWN        : GR:registros:rC:NONE:v0 (auto-composite)
ILD      .ohm.m       UNKNOWN        : ILD:registros:rC:NONE:v0 (auto-composite)
ILM      .ohm.m       UNKNOWN        : ILM:registros:rC:NONE:v0 (auto-composite)
LLD      .ohm.m       UNKNOWN        : LLD:registros:rC:NONE:v0 (auto-composite)
LLS      .ohm.m       UNKNOWN        : LLS:registros:rC:NONE:v0 (auto-composite)
MSFL     .ohm.m       UNKNOWN        : MSFL:registros:rC:NONE:v0 (auto-composite)
NPHI     .v/v_decimal UNKNOWN        : NPHI:registros:rC:NONE:v0 (auto-composite)
PEF      .b/elec      UNKNOWN        : PEF:registros:rC:NONE:v0 (auto-composite)
RHOB     .g/cm3       UNKNOWN        : RHOB:registros:rC:NONE:v0 (auto-composite)
~A     DEPTH         CALI         DRHO           DT           GR          ILD          ILM          LLD          LLS         MSFL         NPHI          PEF         RHOB
# ...
   2220.3154       9.0125       0.0320      72.6512      38.6463    -999.2500    -999.2500       6.3342       9.4018     906.9697       0.1316       4.4175       2.5975
   2220.4678       9.0090       0.0192      73.1192      42.2190    -999.2500    -999.2500       4.3800       7.4620       2.7080       0.1349       4.2479       2.5970
   2220.6201       9.0045       0.0140      72.4371      32.7863    -999.2500    -999.2500       5.4559       7.8123     387.5078       0.1344       4.4456       2.5955
   2220.7727       9.0002       0.0090      71.7275      23.4220    -999.2500    -999.2500       6.5240       8.1600     770.1250       0.1331       4.6475       2.5940
   2220.9250       9.0055       0.0050      70.9592      24.4813    -999.2500    -999.2500      12.5892      15.1359     756.6732       0.1338       4.6027       2.5915
   2221.0774       9.0121       0.0011      70.1353      25.5330    -999.2500    -999.2500      18.6110      22.0620     743.2960       0.1322       4.5565       2.5891
   2221.2297       9.0638       0.0015      66.8135      35.9435    -999.2500    -999.2500      17.3250      20.6876     375.7219       0.1239       4.7360       2.5920
   2221.3821       9.1145       0.0020      63.5287      46.2810    -999.2500    -999.2500      16.0500      19.3250      10.1410       0.1094       4.9177       2.5953
   2221.5347       9.0587       0.0035      63.5684      45.8831    -999.2500    -999.2500      12.4663      15.2999      10.3743       0.0885       4.9190       2.6115
   2221.6870       9.0013       0.0051      63.7190      45.4880    -999.2500    -999.2500       8.9130      11.3090      10.6060       0.0708       4.9150       2.6276
   2221.8394       9.0000       0.0115      65.4751      39.7827    -999.2500    -999.2500       9.0546      11.4621      15.4950       0.0660       4.8611       2.6275
   2221.9917       9.0001       0.0180      67.2591      34.1160    -999.2500    -999.2500       9.1950      11.6140      20.3510       0.0719       4.8023       2.6269
   2222.1443       9.0040       0.0260      69.5061      31.3027    -999.2500    -999.2500      11.9333      14.4502      26.0615       0.0874       4.5514       2.6220
   2222.2966       9.0085       0.0339      71.7558      28.5080    -999.2500    -999.2500      14.6490      17.2630      31.7340       0.1055       4.2977       2.6168
   2222.4490       9.0414       0.0395      74.3929      27.5960    -999.2500    -999.2500      16.0442      18.9142      29.6021       0.1195       4.1713       2.6030
   2222.6013       9.0748       0.0450      76.9894      26.6900    -999.2500    -999.2500      17.4280      20.5520      27.4840       0.1313       4.0503       2.5885
   2222.7539       9.0980       0.0490      77.8887      24.5145    -999.2500    -999.2500      21.0073      24.2161      36.7180       0.1429       4.1173       2.5441
   2222.9062       9.1202       0.0529      78.6866      22.3530    -999.2500    -999.2500      24.5580      27.8510      45.8930       0.1496       4.1872       2.5000
   2223.0586       9.0911       0.0515      75.4638      20.8737    -999.2500    -999.2500      30.4938      33.6854      64.8799       0.1459       4.2139       2.5125
   2223.2109       9.0611       0.0499      72.2578      19.4060    -999.2500    -999.2500      36.3830      39.4740      83.7480       0.1399       4.2393       2.5262
   2223.3633       9.0349       0.0445      72.7935      19.8236    -999.2500    -999.2500      46.1347      48.8512      94.0777       0.1392       4.2173       2.5575
   2223.5159       9.0084       0.0391      73.3916      20.2380    -999.2500    -999.2500      55.8110      58.1560     104.3440       0.1421       4.1943       2.5895
   2223.6682       9.0100       0.0321      73.1771      20.8654    -999.2500    -999.2500      48.3280      50.8843      93.4337       0.1475       4.1374       2.5732
   2223.8206       9.0120       0.0251      72.9528      21.4880    -999.2500    -999.2500      40.9020      43.6680      82.5890       0.1514       4.0798       2.5562
   2223.9729       9.0061       0.0210      73.4211      23.7680    -999.2500    -999.2500      30.3149      32.9544      61.3259       0.1495       4.0632       2.5762
   2224.1255       9.0001       0.0170      73.8946      26.0310    -999.2500    -999.2500      19.8070      22.3210      40.1880       0.1468       4.0472       2.5968
   2224.2778       8.9946       0.0175      73.1304      25.8468    -999.2500    -999.2500      20.1267      22.6527      43.0533       0.1484       4.0505       2.5960
   2224.4302       8.9891       0.0180      72.3578      25.6640    -999.2500    -999.2500      20.4440      22.9820      45.9020       0.1483       4.0540       2.5950
   2224.5825       8.9307       0.0200      72.3749      23.7350    -999.2500    -999.2500      24.4751      27.1034      46.7579       0.1402       4.0892       2.5841
   2224.7351       8.8715       0.0220      72.3998      21.8200    -999.2500    -999.2500      28.4770      31.1950      47.6090       0.1317       4.1247       2.5731
   2224.8875       8.8631       0.0195      72.3304      20.0878    -999.2500    -999.2500      34.4532      38.2466      99.3316       0.1302       4.1864       2.5428
   2225.0398       8.8551       0.0170      72.2605      18.3680    -999.2500    -999.2500      40.3870      45.2480     150.7690       0.1303       4.2485       2.5122
   2225.1921       8.8689       0.0135      71.2077      17.5210    -999.2500    -999.2500      72.9727      80.0537     293.5820       0.1265       4.4191       2.5264
   2225.3445       8.8829       0.0100      70.1564      16.6800    -999.2500    -999.2500     105.2790     114.5610     435.6250       0.1233       4.5909       2.5409
   2225.4971       8.8676       0.0085      72.2473      17.8871    -999.2500    -999.2500     105.0771     114.0684     338.4136       0.1251       4.6501       2.5634
   2225.6494       8.8521       0.0070      74.3399      19.0860    -999.2500    -999.2500     104.8770     113.5800     241.8690       0.1313       4.7087       2.5859
   2225.8018       8.8575       0.0070      74.1195      19.4964    -999.2500    -999.2500      95.9559     103.7973     201.8790       0.1417       4.5787       2.5646
   2225.9541       8.8630       0.0070      73.8898      19.9040    -999.2500    -999.2500      87.1090      94.0960     162.1580       0.1433       4.4475       2.5431
   2226.1067       8.8575       0.0050      69.7644      21.3719    -999.2500    -999.2500      64.6013      71.3036     103.7299       0.1214       4.7010       2.5510
   2226.2590       8.8520       0.0030      65.6590      22.8300    -999.2500    -999.2500      42.2780      48.6980      45.6880       0.0967       4.9563       2.5590
   2226.4114       8.8515       0.0035      67.4294      23.2479    -999.2500    -999.2500      36.3099      41.5175      57.5780       0.0897       4.9206       2.5989
   2226.5637       8.8510       0.0040      69.1984      23.6630    -999.2500    -999.2500      30.3900      34.3950      69.3910       0.0926       4.8840       2.6389
   2226.7163       8.8325       0.0085      69.1809      24.1270    -999.2500    -999.2500      25.0669      28.5076      67.3104       0.0994       4.6204       2.6390
   2226.8687       8.8140       0.0130      69.1618      24.5880    -999.2500    -999.2500      19.7860      22.6670      65.2430       0.1067       4.3560       2.6390
   2227.0210       8.7935       0.0205      68.7791      25.7084    -999.2500    -999.2500      19.2173      21.8096      41.9865       0.1116       4.1611       2.6385
   2227.1733       8.7730       0.0280      68.3892      26.8200    -999.2500    -999.2500      18.6530      20.9590      18.8750       0.1096       3.9662       2.6380
   2227.3257       8.7830       0.0275      62.1864      27.8043    -999.2500    -999.2500      18.3252      20.7176      23.8853       0.0946       4.1366       2.6350
   2227.4783       8.7929       0.0270      56.0536      28.7810    -999.2500    -999.2500      18.0000      20.4780      28.8650       0.0740       4.3080       2.6320
