#------------------------------------------------------------------------------
#
#   Created by  : [OpenWorks] Log Export Utility (LEXP)
#   Created on  : 2016-05-23 11:51:58
#   Project     : CANT971
#   User        : R5K
#   Interpreter : PEP
#
#------------------------------------------------------------------------------
~VERSION INFORMATION
VERS. 2.0 : CWLS Log ASCII Standard - version 2.0
WRAP.  NO : One line per depth step
~WELL INFORMATION
#MNEMONIC   .UNIT                                           VALUE :DESCRIPTION
#------------------------------------------------------------------------------
STRT        .M                                           695.7060 :START DEPTH
STOP        .M                                          3054.7056 :STOP DEPTH
STEP        .M                                             0.1524 :STEP
NULL        .                                           -999.2500 :NULL VALUE
COMP        .                                   PEMEX EXPL & PROD :COMPANY
WELL        .                                                 17D :WELL
FLD         .                                           CANTARELL :FIELD
LOC         .                                             UNKNOWN :LOCATION
CNTY        .                                      CD. DEL CARMEN :COUNTY
STAT        .                                            CAMPECHE :STATE
CTRY        .                                              MEXICO :COUNTRY
SRVC        .                                             UNKNOWN :SERVICE COMPANY
DATE        .                                             UNKNOWN :LOG DATE
UWI         .                                          3060000460 :UNIQUE WELL ID
XCOORD      .                                       603362.626000 :SURFACE X
YCOORD      .                                      2145093.910000 :SURFACE Y
LAT         .                                           19.398550 :LATITUDE
LON         .                                          -92.015617 :LONGITUDE
ELEV        .M                                            27.1400 :SURFACE ELEV
ELEV_TYPE   .                                                  KB :ELEV TYPE
~CURVE INFORMATION
#MNEMONIC.UNIT        API CODE       : CURVE DESCRIPTION
#------------------------------------------------------------------------------
DEPTH    .M                          : Measured Depth
CALI     .in          UNKNOWN        : CALI:UNKNOWN:rC:NONE:v0 (auto-composite)
DT       .us/ft       UNKNOWN        : DT:DT:rC:NONE:v0 (auto-composite)
GR       .API         UNKNOWN        : GR:UNKNOWN:rC:NONE:v0 (auto-composite)
ILD      .ohmm        UNKNOWN        : ILD:UNKNOWN:rC:NONE:v0 (auto-composite)
LLD      .ohmm        UNKNOWN        : LLD:UNKNOWN:rC:NONE:v0 (auto-composite)
LLS      .ohmm        UNKNOWN        : LLS:UNKNOWN:rC:NONE:v0 (auto-composite)
MSFL     .ohmm        UNKNOWN        : MSFL:UNKNOWN:rC:NONE:v0 (auto-composite)
NPHI     .v/v_decimal UNKNOWN        : NPHI:UNKNOWN:rC:NONE:v0 (auto-composite)
PEF      .b/elec      UNKNOWN        : PEF:UNKNOWN:rC:NONE:v0 (auto-composite)
RHOB     .g/cm3       UNKNOWN        : RHOB:UNKNOWN:rC:NONE:v0 (auto-composite)
~A     DEPTH         CALI           DT           GR          ILD          LLD          LLS         MSFL         NPHI          PEF         RHOB
# ...
   2283.1045    -999.2500    -999.2500      29.6402    -999.2500     999.2500    -999.2500    -999.2500      -0.1500    -999.2500       1.9500
   2283.2568    -999.2500    -999.2500      30.1710    -999.2500     999.2500    -999.2500    -999.2500      -0.1500    -999.2500       1.9500
   2283.4092    -999.2500    -999.2500      29.7325    -999.2500     999.2500    -999.2500    -999.2500      -0.1500    -999.2500       1.9500
   2283.5615    -999.2500    -999.2500      29.2920    -999.2500     999.2500    -999.2500    -999.2500      -0.1500    -999.2500       1.9500
   2283.7141    -999.2500    -999.2500      31.8219    -999.2500     999.2500    -999.2500    -999.2500      -0.1500    -999.2500       1.9500
   2283.8665    -999.2500    -999.2500      34.3680    -999.2500     999.2500    -999.2500    -999.2500      -0.1500    -999.2500       1.9500
   2284.0188    -999.2500    -999.2500      36.2603    -999.2500     999.2500    -999.2500    -999.2500      -0.1500    -999.2500       1.9500
   2284.1711    -999.2500    -999.2500      38.1710    -999.2500     999.2500    -999.2500    -999.2500      -0.1500    -999.2500       1.9500
   2284.3235    -999.2500    -999.2500      37.8102    -999.2500     999.2500    -999.2500    -999.2500      -0.1500    -999.2500       1.9500
   2284.4761    -999.2500    -999.2500      37.4470    -999.2500     999.2500    -999.2500    -999.2500      -0.1500    -999.2500       1.9500
   2284.6284    -999.2500    -999.2500      36.4520    -999.2500     999.2500    -999.2500    -999.2500      -0.1500    -999.2500       1.9500
   2284.7808    -999.2500    -999.2500      35.4550    -999.2500     999.2500    -999.2500    -999.2500      -0.1500    -999.2500       1.9500
   2284.9331    -999.2500    -999.2500      34.7543    -999.2500     999.2500    -999.2500    -999.2500      -0.1500    -999.2500       1.9500
   2285.0857    -999.2500    -999.2500      34.0510    -999.2500     999.2500    -999.2500    -999.2500      -0.1500    -999.2500       1.9500
   2285.2380    -999.2500    -999.2500      34.0948    -999.2500     999.2500    -999.2500    -999.2500      -0.1500    -999.2500       1.9500
   2285.3904    -999.2500    -999.2500      34.1390    -999.2500     999.2500    -999.2500    -999.2500      -0.1500    -999.2500       1.9500
   2285.5427    -999.2500    -999.2500      33.1849    -999.2500     999.2500    -999.2500    -999.2500      -0.1500    -999.2500       1.9500
   2285.6953    -999.2500    -999.2500      32.2210    -999.2500     999.2500    -999.2500    -999.2500      -0.1500    -999.2500       1.9500
   2285.8477    -999.2500    -999.2500      26.5810    -999.2500     999.2500    -999.2500    -999.2500      -0.0369    -999.2500       2.1893
   2286.0000    -242.6590      72.6490      20.9090    -999.2500     999.2500    -999.2500    -999.2500       0.0774     105.0960       2.4300
   2286.1523    -119.8743      64.7702      12.0297    -999.2500     999.2500    -999.2500    -999.2500       0.1146     104.0852       2.5105
   2286.3047       2.8300      58.9102       3.1420    -999.2500     999.2500    -999.2500    -999.2500       0.1523     103.0750       2.5910
   2286.4573       2.8300      59.0214       0.4428    -999.2500     999.2500    -999.2500    -999.2500       0.1526      85.5559       2.5865
   2286.6096       2.8300      61.1185      -2.2680    -999.2500     999.2500    -999.2500    -999.2500       0.1530      68.0460       2.5820
   2286.7620       2.8300      62.8082      -2.2670    -999.2500     999.2500    -999.2500    -999.2500       0.1493      55.3619       2.5860
   2286.9143       2.8300      64.0997      -2.2660    -999.2500     999.2500    -999.2500    -999.2500       0.1456      42.6830       2.5900
   2287.0669       2.8300      64.0918      -2.2645    -999.2500     999.2500    -999.2500    -999.2500       0.1428      67.5405       2.5940
   2287.2192       2.8300      63.0162      -2.2630    -999.2500     999.2500    -999.2500    -999.2500       0.1400      92.3910       2.5980
   2287.3716       2.8305      58.6284      -2.2615    -999.2500     999.2500    -999.2500    -999.2500       0.1421     111.4385       2.5920
   2287.5239       2.8310      54.3468      -2.2600    -999.2500     999.2500    -999.2500    -999.2500       0.1441     130.4830       2.5860
   2287.6765       2.8365      54.9574      -2.2585    -999.2500     999.2500    -999.2500    -999.2500       0.1473      98.9201       2.5865
   2287.8289       2.8420      56.1191      -2.2570    -999.2500     999.2500    -999.2500    -999.2500       0.1505      67.3580       2.5870
   2287.9812       2.9745      56.3656      -2.2545    -999.2500     999.2500    -999.2500    -999.2500       0.1539      55.8661       2.5925
   2288.1335       3.1070      56.3546      -2.2520    -999.2500     999.2500    -999.2500    -999.2500       0.1573      44.3730       2.5980
   2288.2859       3.4885      56.7954      -2.2500    -999.2500     999.2500    -999.2500    -999.2500       0.1588      43.4016       2.5940
   2288.4385       3.8700      57.2720      -2.2480    -999.2500     999.2500    -999.2500    -999.2500       0.1603      42.4300       2.5900
   2288.5908       4.3614      57.7709      -2.2470    -999.2500     999.2500    -999.2500    -999.2500       0.1576      45.5070       2.5815
   2288.7432       4.8530      58.5598      -2.2460    -999.2500     999.2500    -999.2500    -999.2500       0.1548      48.5850       2.5730
   2288.8955       5.2399      66.2010      -2.2445    -999.2500     999.2500    -999.2500    -999.2500       0.1491      53.1594       2.5755
   2289.0481       5.6270      72.0359      -2.2430    -999.2500     999.2500    -999.2500    -999.2500       0.1434      57.7360       2.5780
   2289.2004       5.8869      71.1678      -2.2415    -999.2500     500.2600    -999.2500    -999.2500       0.1391      55.1193       2.5845
   2289.3528       6.1470      68.4107      -2.2400    -999.2500       0.1700       0.1700       0.1700       0.1348      52.5010       2.5910
   2289.5051       6.2810      67.2019      -2.2375    -999.2500       4.8393       6.9880       0.1960       0.1323      51.0225       2.5985
   2289.6577       6.4150      65.9783      -2.2350    -999.2500       9.5270      13.8220       0.2220       0.1297      49.5430       2.6060
   2289.8101       6.4520      63.6319      -2.2330    -999.2500      30.5633      53.4378       0.2450       0.1255      46.3209       2.6110
   2289.9624       6.4890      61.7853      -2.2310    -999.2500      51.7190      93.1510       0.2680       0.1213      43.0960       2.6160
   2290.1147       6.4935      62.8791      -2.2295    -999.2500      56.0998      88.1225       0.2670       0.1143      41.5120       2.6215
   2290.2671       6.4980      64.7991      -2.2280    -999.2500      60.5200      83.0810       0.2660       0.1071      39.9290       2.6270
   2290.4197       6.4985      67.1244      -2.2270    -999.2500      60.5200      77.7168       0.2510       0.1000      46.2976       2.6330
   2290.5720       6.4990      68.6817      -2.2260    -999.2500      60.5200      72.3380       0.2360       0.0927      52.6630       2.6390
   2290.7244       6.4980      67.7353      -2.2230    -999.2500      60.5200      77.4253       0.2225       0.0891      56.3007       2.6450
   2290.8767       6.4970      65.9630      -2.2200    -999.2500      60.5200      82.5270       0.2090       0.0854      59.9370       2.6510
   2291.0293       6.4975      64.7228      -2.2185    -999.2500      60.5200      88.8007       0.1975       0.0896      58.3058       2.6605
   2291.1816       6.4980      63.3143      -2.2170    -999.2500      60.5200      95.0930       0.1860       0.0939      56.6750       2.6700
   2291.3340       6.4990      61.3483      -2.2155    -999.2500      60.5200      96.6461       0.1800       0.1030      61.3918       2.6730
   2291.4863       6.5000      59.6365      -2.2140    -999.2500      60.5200      98.2040       0.1740       0.1122      66.1080       2.6760
