#------------------------------------------------------------------------------
#
#   Created by  : [OpenWorks] Log Export Utility (LEXP)
#   Created on  : 2016-05-23 11:56:31
#   Project     : CANT971
#   User        : R5K
#   Interpreter : PEP
#
#------------------------------------------------------------------------------
~VERSION INFORMATION
VERS. 2.0 : CWLS Log ASCII Standard - version 2.0
WRAP.  NO : One line per depth step
~WELL INFORMATION
#MNEMONIC   .UNIT                                           VALUE :DESCRIPTION
#------------------------------------------------------------------------------
STRT        .M                                          1639.8856 :START DEPTH
STOP        .M                                          2789.8960 :STOP DEPTH
STEP        .M                                             0.1524 :STEP
NULL        .                                           -999.2500 :NULL VALUE
COMP        .                                             UNKNOWN :COMPANY
WELL        .                                                 477 :WELL
FLD         .                                             UNKNOWN :FIELD
LOC         .                                             UNKNOWN :LOCATION
CNTY        .                                             UNKNOWN :COUNTY
STAT        .                                             UNKNOWN :STATE
CTRY        .                                             UNKNOWN :COUNTRY
SRVC        .                                             UNKNOWN :SERVICE COMPANY
DATE        .                                             UNKNOWN :LOG DATE
UWI         .                                                 477 :UNIQUE WELL ID
XCOORD      .                                       598704.070000 :SURFACE X
YCOORD      .                                      2143268.860000 :SURFACE Y
LAT         .                                           19.382293 :LATITUDE
LON         .                                          -92.060073 :LONGITUDE
ELEV        .M                                             0.0000 :SURFACE ELEV
ELEV_TYPE   .                                                  KB :ELEV TYPE
~CURVE INFORMATION
#MNEMONIC.UNIT        API CODE       : CURVE DESCRIPTION
#------------------------------------------------------------------------------
DEPTH    .M                          : Measured Depth
CALI     .inches      UNKNOWN        : CALI:litodensidad:rC:NONE:v0 (auto-composite)
CGR      .API         UNKNOWN        : CGR:Espectrometria:rC:NONE:v0 (auto-composite)
DRHO     .g/cm3       UNKNOWN        : DRHO:litodensidad:rC:NONE:v0 (auto-composite)
DT       .us/ft       UNKNOWN        : DT:Sonico:rC:NONE:v0 (auto-composite)
GR       .API         UNKNOWN        : GR:Espectrometria:rC:NONE:v0 (auto-composite)
GR-LWD   .API         UNKNOWN        : GR-LWD:resistivos-LWD:rC:NONE:v0 (auto-composite)
LLD      .ohm.m       UNKNOWN        : LLD:resistivos:rC:NONE:v0 (auto-composite)
LLD-LWD  .ohm.m       UNKNOWN        : LLD-LWD:resistivos-LWD:rC:NONE:v0 (auto-composite)
LLS      .ohm.m       UNKNOWN        : LLS:resistivos:rC:NONE:v0 (auto-composite)
LLS-LWD  .ohm.m       UNKNOWN        : LLS-LWD:resistivos-LWD:rC:NONE:v0 (auto-composite)
MSFL     .ohm.m       UNKNOWN        : MSFL:resistivos:rC:NONE:v0 (auto-composite)
MSFL-LWD .ohm.m       UNKNOWN        : MSFL-LWD:resistivos-LWD:rC:NONE:v0 (auto-composite)
NPHI     .UNKNOWN     UNKNOWN        : NPHI:porosidad:rC:NONE:v0 (auto-composite)
PEF      .UNKNOWN     UNKNOWN        : PEF:litodensidad:rC:NONE:v0 (auto-composite)
POTA     .wtpercent   UNKNOWN        : POTA:PETROWORKS:rC:NONE:v1 
RHOB     .g/cm3       UNKNOWN        : RHOB:litodensidad:rC:NONE:v0 (auto-composite)
THOR     .ppm         UNKNOWN        : THOR:Espectrometria:rC:NONE:v0 (auto-composite)
URAN     .ppm         UNKNOWN        : URAN:Espectrometria:rC:NONE:v0 (auto-composite)
~A     DEPTH         CALI          CGR         DRHO           DT           GR       GR-LWD          LLD      LLD-LWD          LLS      LLS-LWD         MSFL     MSFL-LWD         NPHI          PEF         POTA         RHOB         THOR         URAN
# ...
   2660.8132       8.9070       8.1365       0.0055      93.5790      19.4273    -999.2500       9.6287    -999.2500       6.8729    -999.2500      36.6148    -999.2500       0.0459       3.3952       0.0055       2.7698       0.1333       1.2571
   2660.9656       8.8731       6.6427       0.0121      93.7555      17.7774    -999.2500      14.8081    -999.2500      10.1143    -999.2500      22.0019    -999.2500       0.0345       3.3770       0.0047       2.8142       0.0281       1.2397
   2661.1179       8.8648       6.6532       0.0056      90.4413      17.2571    -999.2500      24.9090    -999.2500      19.0270    -999.2500      19.4453    -999.2500       0.0298       3.3603       0.0047       2.8241       0.0308       1.1806
   2661.2705       8.8575       6.3932      -0.0079      83.6551      17.4682    -999.2500      42.7937    -999.2500      30.8626    -999.2500      29.3156    -999.2500       0.0279       3.3479       0.0044       2.8123       0.0632       1.2330
   2661.4229       8.9058       6.6642      -0.0167      76.4002      16.7772    -999.2500      54.1397    -999.2500      41.0655    -999.2500      49.1053    -999.2500       0.0269       3.3201       0.0045       2.8032       0.1071       1.1259
   2661.5752       8.9569       6.2532      -0.0174      70.0932      17.5048    -999.2500      51.2571    -999.2500      42.8009    -999.2500     102.1336    -999.2500       0.0266       3.2800       0.0043       2.8004       0.0868       1.2527
   2661.7275       8.9816       5.9088      -0.0114      65.9331      18.7858    -999.2500      46.6410    -999.2500      37.6135    -999.2500     125.6476    -999.2500       0.0290       3.2617       0.0041       2.8012       0.0540       1.4337
   2661.8801       8.9000       7.0612      -0.0002      64.2887      18.3176    -999.2500      44.8237    -999.2500      35.2597    -999.2500     114.3258    -999.2500       0.0341       3.2842       0.0040       2.7968       0.4111       1.2532
   2662.0325       8.8566      11.7513       0.0046      64.5543      20.5001    -999.2500      40.6568    -999.2500      32.4309    -999.2500     131.0110    -999.2500       0.0429       3.3191       0.0048       2.7752       1.4310       0.9740
   2662.1848       8.8601      16.6851      -0.0016      65.9715      24.5075    -999.2500      38.0623    -999.2500      29.3263    -999.2500     123.6950    -999.2500       0.0551       3.3299       0.0063       2.7450       2.2242       0.8709
   2662.3372       8.9246      20.3123      -0.0131      67.7146      29.2090    -999.2500      35.8642    -999.2500      27.7811    -999.2500      89.2920    -999.2500       0.0651       3.3223       0.0075       2.7235       2.7750       0.9905
   2662.4895       9.0006      22.0581      -0.0168      69.3818      32.7139    -999.2500      32.5168    -999.2500      26.2045    -999.2500      36.6554    -999.2500       0.0723       3.3093       0.0082       2.7209       3.0061       1.1863
   2662.6421       8.8866      21.1067      -0.0155      70.5315      34.1655    -999.2500      27.1970    -999.2500      23.3792    -999.2500      30.9991    -999.2500       0.0771       3.2950       0.0079       2.7253       2.8377       1.4539
   2662.7944       8.8774      17.5304      -0.0153      70.4960      33.9638    -999.2500      22.6350    -999.2500      19.3757    -999.2500      43.5492    -999.2500       0.0786       3.2856       0.0070       2.7272       2.1972       1.8296
   2662.9468       8.8658      13.5415      -0.0175      68.5628      33.2609    -999.2500      19.3188    -999.2500      14.3777    -999.2500      29.4639    -999.2500       0.0754       3.2945       0.0059       2.7271       1.4965       2.1954
   2663.0991       8.8835      11.5106      -0.0170      65.5573      32.5888    -999.2500      17.9695    -999.2500      13.1584    -999.2500      19.2407    -999.2500       0.0690       3.3077       0.0061       2.7335       0.8538       2.3467
   2663.2517       8.8815      11.3965      -0.0171      62.8563      31.6715    -999.2500      17.6624    -999.2500      12.9097    -999.2500      18.4355    -999.2500       0.0629       3.3002       0.0068       2.7474       0.5404       2.2573
   2663.4041       8.8193      12.3934      -0.0179      61.4025      30.1464    -999.2500      18.0088    -999.2500      13.0209    -999.2500      22.2905    -999.2500       0.0575       3.2854       0.0079       2.7627       0.3739       1.9765
   2663.5564       8.8485      11.7163      -0.0156      62.8073      30.0148    -999.2500      19.2215    -999.2500      14.1162    -999.2500      18.8920    -999.2500       0.0530       3.2855       0.0082       2.7749       0.0681       2.0372
   2663.7087       8.8576      11.1745      -0.0114      66.5100      30.1344    -999.2500      21.9225    -999.2500      16.3959    -999.2500      21.0375    -999.2500       0.0509       3.2976       0.0079       2.7799       0.0537       2.1109
   2663.8613       8.8533      11.3310      -0.0086      69.8767      31.4944    -999.2500      25.4873    -999.2500      19.2371    -999.2500      22.9664    -999.2500       0.0521       3.3090       0.0080       2.7780       0.0537       2.2448
   2664.0137       8.8070      13.0152      -0.0086      71.2685      31.3811    -999.2500      28.7584    -999.2500      21.5313    -999.2500      21.8752    -999.2500       0.0558       3.3292       0.0089       2.7728       0.1587       2.0447
   2664.1660       8.7786      18.2295      -0.0046      71.2908      34.2684    -999.2500      30.6205    -999.2500      22.5949    -999.2500      24.1719    -999.2500       0.0639       3.3661       0.0107       2.7695       0.9343       1.7857
   2664.3184       8.8029      22.2228       0.0003      70.7025      36.2694    -999.2500      30.6710    -999.2500      22.5718    -999.2500      26.2606    -999.2500       0.0724       3.4037       0.0121       2.7654       1.5135       1.5638
   2664.4707       8.8460      22.1265       0.0005      69.4450      35.8204    -999.2500      30.8729    -999.2500      22.6617    -999.2500      31.3916    -999.2500       0.0774       3.4332       0.0116       2.7573       1.6848       1.5246
   2664.6233       8.8479      18.8354      -0.0036      67.9444      32.9906    -999.2500      29.2963    -999.2500      21.5306    -999.2500      29.9185    -999.2500       0.0805       3.4582       0.0100       2.7485       1.3587       1.5759
   2664.7756       8.8541      15.3803      -0.0110      67.1917      29.1747    -999.2500      26.1903    -999.2500      19.1580    -999.2500      32.5820    -999.2500       0.0819       3.4766       0.0083       2.7325       1.0644       1.5358
   2664.9280       8.8474      10.9227      -0.0171      67.8561      26.4145    -999.2500      23.5208    -999.2500      17.0530    -999.2500      27.8153    -999.2500       0.0844       3.4804       0.0065       2.7015       0.5110       1.7247
   2665.0803       8.7548       8.1928      -0.0210      69.8377      25.8922    -999.2500      21.6248    -999.2500      15.4798    -999.2500      28.2783    -999.2500       0.0898       3.4752       0.0055       2.6591       0.1284       1.9706
   2665.2329       8.7678       8.3596      -0.0193      73.0895      26.3227    -999.2500      21.8642    -999.2500      15.6860    -999.2500      24.9538    -999.2500       0.0933       3.4756       0.0057       2.6436       0.1244       1.9999
   2665.3853       8.7629      11.4550      -0.0161      77.0228      27.2593    -999.2500      22.5141    -999.2500      16.0920    -999.2500      31.8976    -999.2500       0.0910       3.4807       0.0073       2.6598       0.3433       1.7595
   2665.5376       8.7772      14.0859      -0.0187      80.6080      28.5325    -999.2500      23.7033    -999.2500      16.6509    -999.2500      32.5931    -999.2500       0.0862       3.4742       0.0090       2.6839       0.4239       1.6084
   2665.6899       8.8159      16.9533      -0.0297      84.4999      29.2219    -999.2500      24.6747    -999.2500      17.2003    -999.2500      18.5822    -999.2500       0.0878       3.4726       0.0105       2.6809       0.6302       1.3660
