#------------------------------------------------------------------------------
#
#   Created by  : [OpenWorks] Log Export Utility (LEXP)
#   Created on  : 2016-05-23 11:57:25
#   Project     : CANT971
#   User        : R5K
#   Interpreter : PEP
#
#------------------------------------------------------------------------------
~VERSION INFORMATION
VERS. 2.0 : CWLS Log ASCII Standard - version 2.0
WRAP.  NO : One line per depth step
~WELL INFORMATION
#MNEMONIC   .UNIT                                           VALUE :DESCRIPTION
#------------------------------------------------------------------------------
STRT        .M                                           497.5860 :START DEPTH
STOP        .M                                          2904.1343 :STOP DEPTH
STEP        .M                                             0.1524 :STEP
NULL        .                                           -999.2500 :NULL VALUE
COMP        .                                   PEMEX EXPL & PROD :COMPANY
WELL        .                                                 82A :WELL
FLD         .                                           CANTARELL :FIELD
LOC         .                                             UNKNOWN :LOCATION
CNTY        .                                      CD. DEL CARMEN :COUNTY
STAT        .                                            CAMPECHE :STATE
CTRY        .                                              MEXICO :COUNTRY
SRVC        .                                             UNKNOWN :SERVICE COMPANY
DATE        .                                             UNKNOWN :LOG DATE
UWI         .                                          3060000184 :UNIQUE WELL ID
XCOORD      .                                       601716.340000 :SURFACE X
YCOORD      .                                      2142348.150000 :SURFACE Y
LAT         .                                           19.373822 :LATITUDE
LON         .                                          -92.031440 :LONGITUDE
ELEV        .M                                            24.0000 :SURFACE ELEV
ELEV_TYPE   .                                                  KB :ELEV TYPE
~CURVE INFORMATION
#MNEMONIC.UNIT        API CODE       : CURVE DESCRIPTION
#------------------------------------------------------------------------------
DEPTH    .M                          : Measured Depth
CAL      .inches      UNKNOWN        : CAL:UNKNOWN:rC:NONE:v0 (auto-composite)
DRHO     .g/cm3       UNKNOWN        : DRHO:UNKNOWN:rC:NONE:v0 (auto-composite)
DT       .us/ft       UNKNOWN        : DT:DT:rC:NONE:v0 (auto-composite)
GR       .api         UNKNOWN        : GR:GR-Load:rC:NONE:v0 (auto-composite)
ILD      .ohm.m       UNKNOWN        : ILD:PETROWORKS:rC:NONE:v1 
LLD      .ohmm        UNKNOWN        : LLD:UNKNOWN:rC:NONE:v0 (auto-composite)
LLS      .ohmm        UNKNOWN        : LLS:UNKNOWN:rC:NONE:v0 (auto-composite)
MSFL     .ohmm        UNKNOWN        : MSFL:PETROWORKS:rC:NONE:v1 
NPHI     .v/v_decimal UNKNOWN        : NPHI:NPHI:rC:NONE:v0 (auto-composite)
PEF      .b/elec      UNKNOWN        : PEF:UNKNOWN:rC:NONE:v0 (auto-composite)
RG       .API         UNKNOWN        : RG:UNKNOWN:rC:NONE:v0 (auto-composite)
RHOB     .g/cm3       UNKNOWN        : RHOB:UNKNOWN:rC:NONE:v0 (auto-composite)
~A     DEPTH          CAL         DRHO           DT           GR          ILD          LLD          LLS         MSFL         NPHI          PEF           RG         RHOB
# ...
   2106.9299       9.0391      -0.0019    -999.2500      35.8861    -999.2500   16622.1895   69036.7734     611.3374       2.2749       3.7897      43.8023       2.7494
   2107.0825       9.0430      -0.0014    -999.2500      35.3148    -999.2500    8960.6543   63593.3008     212.0245       2.0919       3.7887      42.0250       2.7549
   2107.2349       9.0508      -0.0003    -999.2500      34.8970    -999.2500    3127.4373   60091.6680     356.9323       2.5464       3.7042      39.7944       2.7615
   2107.3872       9.0693       0.0022    -999.2500      33.2343    -999.2500    2479.1023   62096.8633     653.3198       3.0656       3.3829      36.2784       2.7710
   2107.5396       9.0887       0.0041    -999.2500      31.1160    -999.2500    1932.0817   63808.7188    1157.4614       4.1060       3.1351      33.3937       2.7763
   2107.6919       9.1107       0.0046    -999.2500      30.2813    -999.2500    1673.6683   64684.9688    1707.9547       5.1989       3.0971      32.3072       2.7698
   2107.8445       9.1247       0.0067    -999.2500      29.9147    -999.2500    1500.6233   65267.2031    1460.7056       5.5368       3.0818      31.6291       2.7610
   2107.9968       9.1157       0.0132    -999.2500      29.0897    -999.2500    1571.8569   65008.1484     993.6183       5.7994       3.1312      32.1200       2.7455
   2108.1492       9.0958       0.0167    -999.2500      28.0981    -999.2500    1574.5808   64616.8750     973.7712       5.2949       3.1948      32.1436       2.7296
   2108.3015       9.0443       0.0117    -999.2500      27.8389    -999.2500    1378.7228   63842.3711    1080.7853       4.7147       3.2992      30.8127       2.7126
   2108.4541       9.0024       0.0063    -999.2500      27.8469    -999.2500    1145.6378   63280.9609     737.8997       4.9131       3.3727      29.6710       2.7020
   2108.6064       8.9884      -0.0002    -999.2500      28.9227    -999.2500     804.1563   63340.0352     276.8937       5.1877       3.3557      29.0802       2.7100
   2108.7588       8.9751      -0.0047    -999.2500      30.3868    -999.2500     538.3839   63526.1992     348.1417       5.6297       3.3291      28.8355       2.7171
   2108.9111       8.9636      -0.0037    -999.2500      32.5280    -999.2500     494.0620   64084.1094     567.0929       6.0878       3.2746      29.6026       2.7216
   2109.0635       8.9541      -0.0019    -999.2500      34.9145    -999.2500     462.7500   64533.6641     852.3412       6.4287       3.2411      30.3165       2.7194
   2109.2161       8.9506       0.0026    -999.2500      37.6053    -999.2500     469.6660   64664.8320    1148.9956       6.7583       3.2691      30.8738       2.6974
   2109.3684       8.9500       0.0106    -999.2500      40.4068    -999.2500     470.4429   64775.3945    1197.8634       7.1496       3.2595      31.8270       2.6833
   2109.5208       8.9580       0.0291    -999.2500      39.1155    -999.2500     452.9440   64824.6211    1176.3232       7.5468       3.1380      33.9586       2.6923
   2109.6731       8.9730       0.0400    -999.2500      36.3410    -999.2500     431.8322   64885.3594    1142.9039       7.8319       3.0628      36.2055       2.6974
   2109.8257       9.0090       0.0280    -999.2500      36.6982    -999.2500     399.9155   64980.5352    1107.0155       8.1065       3.1258      38.7974       2.6909
   2109.9780       9.0384       0.0194    -999.2500      38.1861    -999.2500     367.2534   65084.7227     936.3128       6.9850       3.1737      40.3622       2.6799
   2110.1304       9.0479       0.0209    -999.2500      40.0819    -999.2500     332.3520   65215.9961     732.4699       5.7331       3.1767      38.8414       2.6554
   2110.2827       9.0538       0.0216    -999.2500      42.1256    -999.2500     288.0387   65187.2969    1009.4580       5.2974       3.1815      37.6257       2.6443
   2110.4353       9.0488       0.0201    -999.2500      47.4878    -999.2500     215.3163   64675.7422    1412.5630       4.9372       3.1915      37.3310       2.6738
   2110.5876       9.0381       0.0176    -999.2500      54.0487    -999.2500     159.1970   64293.4648    1280.7112       5.4554       3.1773      38.0081       2.7039
   2110.7400       9.0101       0.0121    -999.2500      55.9342    -999.2500     153.8598   64306.5938    1004.5729       6.0542       3.0894      41.6570       2.7359
   2110.8923       8.9861       0.0090    -999.2500      56.1371    -999.2500     150.6801   64337.4453    1258.4838       6.0256       3.0145      45.7239       2.7593
   2111.0447       8.9741       0.0130    -999.2500      53.1516    -999.2500     154.1301   64422.7734    1651.8392       5.9401       2.9800      51.0750       2.7563
   2111.1973       8.9674       0.0159    -999.2500      49.0136    -999.2500     156.5539   64503.2734    1276.3591       5.8040       2.9585      54.7486       2.7527
   2111.3496       8.9774       0.0154    -999.2500      46.0333    -999.2500     155.8099   64568.8555     699.4233       5.6635       2.9770      53.2430       2.7472
   2111.5020       8.9846       0.0148    -999.2500      43.4698    -999.2500     156.4401   64709.1680     959.8792       5.6910       2.9795      50.9326       2.7415
   2111.6543       8.9831       0.0138    -999.2500      43.1524    -999.2500     161.3705   65083.2930    1442.7780       5.7336       2.9320      46.1042       2.7355
   2111.8069       8.9821       0.0144    -999.2500      43.6407    -999.2500     164.8372   65469.3008    1727.8385       5.2939       2.8952      42.1140       2.7324
   2111.9592       8.9826       0.0204    -999.2500      46.5475    -999.2500     163.7027   65892.6562    1951.8594       4.8117       2.8917      40.7591       2.7384
   2112.1116       8.9860       0.0236    -999.2500      50.3259    -999.2500     160.9057   66102.9375    2000.6870       4.4418       2.9288      40.1441       2.7455
   2112.2639       8.9985       0.0176    -999.2500      52.4083    -999.2500     152.8577   65640.2031    2000.6870       4.0817       3.0942      41.8664       2.7560
   2112.4165       9.0151       0.0130    -999.2500      53.8818    -999.2500     145.3607   65218.4062    1996.7129       3.9463       3.2371      44.2987       2.7653
   2112.5688       9.0445       0.0130    -999.2500      53.6861    -999.2500     139.6122   64926.5586    1991.7611       3.8303       3.3085      48.9844       2.7708
   2112.7212       9.0804       0.0148    -999.2500      52.8935    -999.2500     135.3059   64636.9883    1994.6637       3.5179       3.3244      52.3344       2.7767
   2112.8735       9.1369       0.0223    -999.2500      51.5568    -999.2500     135.6388   64354.7500    1999.6155       3.1883       3.1614      51.3873       2.7837
   2113.0259       9.1938       0.0259    -999.2500      50.0248    -999.2500     137.8746   64273.3438    2000.6870       3.1058       3.0453      50.8794       2.7843
   2113.1785       9.2523       0.0169    -999.2500      47.5519    -999.2500     146.2615   64841.1016    2000.6870       3.0448       3.0803      51.7910       2.7643
   2113.3308       9.2939       0.0124    -999.2500      44.7424    -999.2500     151.5120   65220.3906    2000.6870       2.8769       3.1357      51.5187       2.7492
   2113.4832       9.2810       0.0223    -999.2500      39.7231    -999.2500     146.5761   64987.5664    2000.6870       2.6998       3.2575      47.4013       2.7502
   2113.6355       9.2580       0.0298    -999.2500      33.9161    -999.2500     142.8394   64757.7578    2000.6870       2.4495       3.3745      42.8568       2.7547
   2113.7881       9.2020       0.0288    -999.2500      31.1891    -999.2500     143.0513   64537.8750    2000.6870       2.1929       3.4755      36.9058       2.7707
   2113.9404       9.1573       0.0251    -999.2500      29.5650    -999.2500     142.2657   64076.5508    2000.6870       2.2348       3.5453      32.1048       2.7822
   2114.0928       9.1498       0.0126    -999.2500      29.1480    -999.2500     138.1794   62816.3281    2000.6870       2.3019       3.5124      31.1088       2.7787
