#------------------------------------------------------------------------------
#
#   Created by  : [OpenWorks] Log Export Utility (LEXP)
#   Created on  : 2016-05-23 11:52:25
#   Project     : CANT971
#   User        : R5K
#   Interpreter : PEP
#
#------------------------------------------------------------------------------
~VERSION INFORMATION
VERS. 2.0 : CWLS Log ASCII Standard - version 2.0
WRAP.  NO : One line per depth step
~WELL INFORMATION
#MNEMONIC   .UNIT                                           VALUE :DESCRIPTION
#------------------------------------------------------------------------------
STRT        .M                                           940.1293 :START DEPTH
STOP        .M                                          2672.0029 :STOP DEPTH
STEP        .M                                             0.1524 :STEP
NULL        .                                           -999.2500 :NULL VALUE
COMP        .                                   PEMEX EXPL & PROD :COMPANY
WELL        .                                               2071D :WELL
FLD         .                                           CANTARELL :FIELD
LOC         .                                             UNKNOWN :LOCATION
CNTY        .                                      CD. DEL CARMEN :COUNTY
STAT        .                                            CAMPECHE :STATE
CTRY        .                                              MEXICO :COUNTRY
SRVC        .                                             UNKNOWN :SERVICE COMPANY
DATE        .                                             UNKNOWN :LOG DATE
UWI         .                                          3060000679 :UNIQUE WELL ID
XCOORD      .                                       601713.940000 :SURFACE X
YCOORD      .                                      2142372.000000 :SURFACE Y
LAT         .                                           19.374038 :LATITUDE
LON         .                                          -92.031462 :LONGITUDE
ELEV        .M                                            30.0000 :SURFACE ELEV
ELEV_TYPEF  .b/elec                                            KB :ELEV TYPE
~CURVE INFORMATION
#MNEMONIC.UNIT        API CODE       : CURVE DESCRIPTION
#------------------------------------------------------------------------------
DEPTH    .M                          : Measured Depth
CALI     .in          UNKNOWN        : CALI:UNKNOWN:rC:NONE:v0 (auto-composite)
DRHO     .g/cm3       UNKNOWN        : DRHO:UNKNOWN:rC:NONE:v0 (auto-composite)
DT       .us/ft       UNKNOWN        : DT:DT:rC:NONE:v0 (auto-composite)
GR       .API         UNKNOWN        : GR:UNKNOWN:rC:NONE:v0 (auto-composite)
ILD      .ohmm        UNKNOWN        : ILD:UNKNOWN:rC:NONE:v0 (auto-composite)
ILM      .ohmm        UNKNOWN        : ILM:UNKNOWN:rC:NONE:v0 (auto-composite)
LLD      .ohmm        UNKNOWN        : LLD:UNKNOWN:rC:NONE:v0 (auto-composite)
LLS      .ohmm        UNKNOWN        : LLS:UNKNOWN:rC:NONE:v0 (auto-composite)
MSFL     .ohmm        UNKNOWN        : MSFL:UNKNOWN:rC:NONE:v0 (auto-composite)
NPHI     .v/v_decimal UNKNOWN        : NPHI:UNKNOWN:rC:NONE:v0 (auto-composite)
PEF      .b/elec      UNKNOWN        : PEF:UNKNOWN:rC:NONE:v0 (auto-composite)
RHOB     .g/cm3       UNKNOWN        : RHOB:UNKNOWN:rC:NONE:v0 (auto-composite)
~A     DEPTH         CALI         DRHO           DT           GR          ILD          ILM          LLD          LLS         MSFL         NPHI          PEF         RHOB
# ...
   2593.3645       9.1477       0.0336    -999.2500      45.0183    -999.2500    -999.2500     703.6613     480.0967     343.8420       0.0669       3.6305       2.7252
   2593.5168       9.1445       0.0359    -999.2500      41.6568    -999.2500    -999.2500     835.9086     571.1735     439.7801       0.0588       3.5754       2.7436
   2593.6694       9.1400       0.0324    -999.2500      35.5959    -999.2500    -999.2500    1033.5778     711.6119     625.0186       0.0490       3.5949       2.7576
   2593.8218       9.1394       0.0292    -999.2500      30.6445    -999.2500    -999.2500    1116.3429     766.4402     691.0833       0.0407       3.6118       2.7696
   2593.9741       9.1469       0.0267    -999.2500      27.9817    -999.2500    -999.2500     962.1015     644.6853     511.3345       0.0354       3.6232       2.7776
   2594.1265       9.1509       0.0239    -999.2500      27.2873    -999.2500    -999.2500     817.2049     533.1124     352.6667       0.0335       3.6269       2.7807
   2594.2791       9.1474       0.0204    -999.2500      30.6691    -999.2500    -999.2500     691.6592     442.6239     237.6530       0.0386       3.6144       2.7737
   2594.4314       9.1442       0.0191    -999.2500      32.6757    -999.2500    -999.2500     615.2385     388.2003     188.9451       0.0440       3.6107       2.7588
   2594.5837       9.1417       0.0226    -999.2500      31.8023    -999.2500    -999.2500     641.6953     409.3038     279.0950       0.0502       3.6252       2.7272
   2594.7361       9.1448       0.0309    -999.2500      30.1435    -999.2500    -999.2500     701.2436     450.8206     377.0210       0.0554       3.6481       2.6912
   2594.8884       9.1593       0.0489    -999.2500      26.8809    -999.2500    -999.2500     828.3652     534.0217     490.8258       0.0586       3.6881       2.6462
   2595.0410       9.1701       0.0587    -999.2500      24.1864    -999.2500    -999.2500     935.9448     615.2739     591.3339       0.0607       3.7076       2.6270
   2595.1934       9.1736       0.0517    -999.2500      22.6566    -999.2500    -999.2500    1003.4626     692.5311     664.5833       0.0603       3.6851       2.6605
   2595.3457       9.1747       0.0668    -999.2500      21.3847    -999.2500    -999.2500     993.5007     708.0891     693.5794       0.0604       3.6600       2.6583
   2595.4980       9.1707       0.1272    -999.2500      20.6436    -999.2500    -999.2500     824.0786     596.6650     631.4985       0.0613       3.6296       2.5829
   2595.6506       9.1693       0.1899    -999.2500      21.0606    -999.2500    -999.2500     675.9674     499.6952     546.5863       0.0650       3.6408       2.5132
   2595.8030       9.1733       0.2574    -999.2500      23.8878    -999.2500    -999.2500     572.2112     432.8096     414.1550       0.0744       3.7387       2.4552
   2595.9553       9.1723       0.2705    -999.2500      28.7533    -999.2500    -999.2500     458.4217     358.0689     287.7793       0.0820       3.7936       2.4551
   2596.1077       9.1607       0.1703    -999.2500      37.8776    -999.2500    -999.2500     323.6671     266.9147     174.0570       0.0858       3.7585       2.5759
   2596.2603       9.1556       0.0898    -999.2500      45.8507    -999.2500    -999.2500     219.2410     191.0806      92.7783       0.0840       3.7205       2.6730
   2596.4126       9.1636       0.0499    -999.2500      51.4783    -999.2500    -999.2500     176.6094     146.4614      77.6039       0.0709       3.6765       2.7214
   2596.5649       9.1679       0.0235    -999.2500      52.4257    -999.2500    -999.2500     164.7656     137.7786     178.7771       0.0589       3.6662       2.7589
   2596.7173       9.1644       0.0250    -999.2500      43.7998    -999.2500    -999.2500     215.8986     202.6042     517.9405       0.0491       3.7246       2.7739
   2596.8696       9.1604       0.0247    -999.2500      34.7191    -999.2500    -999.2500     392.3143     395.3427     798.6994       0.0399       3.7549       2.7868
   2597.0222       9.1554       0.0207    -999.2500      24.6974    -999.2500    -999.2500     827.8837     852.6757     958.6458       0.0319       3.7269       2.7953
   2597.1746       9.1562       0.0172    -999.2500      17.6015    -999.2500    -999.2500    1227.3682    1222.3146     971.6970       0.0269       3.6991       2.7984
   2597.3269       9.1692       0.0147    -999.2500      16.5814    -999.2500    -999.2500    1551.9150    1409.8386     679.6902       0.0284       3.6716       2.7904
   2597.4792       9.1764       0.0148    -999.2500      17.6017    -999.2500    -999.2500    1575.5240    1371.3235     461.1089       0.0319       3.6543       2.7816
   2597.6318       9.1714       0.0203    -999.2500      22.8758    -999.2500    -999.2500     971.7067     861.5383     395.6128       0.0396       3.6583       2.7711
   2597.7842       9.1690       0.0245    -999.2500      29.9666    -999.2500    -999.2500     514.8533     469.4485     383.0067       0.0470       3.6727       2.7591
   2597.9365       9.1720       0.0260    -999.2500      40.7508    -999.2500    -999.2500     356.7816     316.6369     477.9277       0.0537       3.7081       2.7441
   2598.0889       9.1755       0.0265    -999.2500      49.7010    -999.2500    -999.2500     242.8492     205.6744     460.3652       0.0590       3.7259       2.7356
   2598.2415       9.1800       0.0250    -999.2500      54.8808    -999.2500    -999.2500     219.6617     180.7486     211.5497       0.0612       3.7075       2.7406
   2598.3938       9.1807       0.0248    -999.2500      56.4573    -999.2500    -999.2500     229.5952     188.9965      74.5004       0.0596       3.6896       2.7481
   2598.5461       9.1737       0.0273    -999.2500      50.5968    -999.2500    -999.2500     307.8893     265.7139     168.1334       0.0501       3.6731       2.7606
   2598.6985       9.1705       0.0293    -999.2500      44.3263    -999.2500    -999.2500     502.3177     443.0444     281.6719       0.0426       3.6643       2.7683
   2598.8508       9.1750       0.0303    -999.2500      37.2061    -999.2500    -999.2500     937.3878     828.8558     436.4566       0.0392       3.6713       2.7664
   2599.0034       9.1786       0.0320    -999.2500      30.7767    -999.2500    -999.2500    1740.0371    1358.9636     557.6938       0.0365       3.6778       2.7671
   2599.1558       9.1807       0.0350    -999.2500      25.7948    -999.2500    -999.2500    3312.9678    2191.4524     608.6305       0.0354       3.6833       2.7736
   2599.3081       9.1807       0.0360    -999.2500      22.0163    -999.2500    -999.2500    4994.9741    2944.6292     641.8598       0.0352       3.6786       2.7765
   2599.4604       9.1767       0.0330    -999.2500      20.6964    -999.2500    -999.2500    6899.8579    3535.7456     638.9070       0.0367       3.6531       2.7720
   2599.6130       9.1735       0.0279    -999.2500      19.9738    -999.2500    -999.2500    8714.2598    4081.1851     640.4568       0.0376       3.6227       2.7670
   2599.7654       9.1720       0.0184    -999.2500      20.4766    -999.2500    -999.2500   10343.0527    4532.9243     651.2426       0.0370       3.5823       2.7610
   2599.9177       9.1731       0.0133    -999.2500      21.0530    -999.2500    -999.2500   11611.8604    4741.1733     694.8997       0.0373       3.5656       2.7585
   2600.0701       9.1796       0.0173    -999.2500      21.7811    -999.2500    -999.2500   12139.3135    4447.9766     806.2519       0.0394       3.5981       2.7630
   2600.2224       9.1817       0.0241    -999.2500      22.6906    -999.2500    -999.2500   12189.3633    4094.6262     821.6435       0.0419       3.6266       2.7666
   2600.3750       9.1747       0.0365    -999.2500      23.9781    -999.2500    -999.2500   11245.1436    3615.9976     637.1816       0.0453       3.6471       2.7686
   2600.5273       9.1718       0.0369    -999.2500      25.1459    -999.2500    -999.2500   10530.9648    3268.3672     448.3100       0.0491       3.6500       2.7522
