#------------------------------------------------------------------------------
#
#   Created by  : [OpenWorks] Log Export Utility (LEXP)
#   Created on  : 2016-05-23 11:52:48
#   Project     : CANT971
#   User        : R5K
#   Interpreter : PEP
#
#------------------------------------------------------------------------------
~VERSION INFORMATION
VERS. 2.0 : CWLS Log ASCII Standard - version 2.0
WRAP.  NO : One line per depth step
~WELL INFORMATION
#MNEMONIC   .UNIT                                           VALUE :DESCRIPTION
#------------------------------------------------------------------------------
STRT        .M                                           688.5826 :START DEPTH
STOP        .M                                          3180.0178 :STOP DEPTH
STEP        .M                                             0.1524 :STEP
NULL        .                                           -999.2500 :NULL VALUE
COMP        .                                   PEMEX EXPL & PROD :COMPANY
WELL        .                                               2092D :WELL
FLD         .                                           CANTARELL :FIELD
LOC         .                                             UNKNOWN :LOCATION
CNTY        .                                      CD. DEL CARMEN :COUNTY
STAT        .                                            CAMPECHE :STATE
CTRY        .                                              MEXICO :COUNTRY
SRVC        .                                             UNKNOWN :SERVICE COMPANY
DATE        .                                             UNKNOWN :LOG DATE
UWI         .                                          3060000657 :UNIQUE WELL ID
XCOORD      .                                       601715.500000 :SURFACE X
YCOORD      .                                      2142373.650000 :SURFACE Y
LAT         .                                           19.374053 :LATITUDE
LON         .                                          -92.031447 :LONGITUDE
ELEV        .M                                            30.0000 :SURFACE ELEV
ELEV_TYPEF  .b/elec                                            KB :ELEV TYPE
~CURVE INFORMATION
#MNEMONIC.UNIT        API CODE       : CURVE DESCRIPTION
#------------------------------------------------------------------------------
DEPTH    .M                          : Measured Depth
CALI     .in          UNKNOWN        : CALI:UNKNOWN:rC:NONE:v0 (auto-composite)
CGR      .API         UNKNOWN        : CGR:UNKNOWN:rC:NONE:v0 (auto-composite)
DRHO     .g/cm3       UNKNOWN        : DRHO:UNKNOWN:rC:NONE:v0 (auto-composite)
DT       .us/ft       UNKNOWN        : DT:DT:rC:NONE:v0 (auto-composite)
GR       .API         UNKNOWN        : GR:UNKNOWN:rC:NONE:v0 (auto-composite)
ILD      .ohmm        UNKNOWN        : ILD:UNKNOWN:rC:NONE:v0 (auto-composite)
ILM      .ohmm        UNKNOWN        : ILM:UNKNOWN:rC:NONE:v0 (auto-composite)
LLD      .ohmm        UNKNOWN        : LLD:UNKNOWN:rC:NONE:v0 (auto-composite)
LLS      .ohmm        UNKNOWN        : LLS:UNKNOWN:rC:NONE:v0 (auto-composite)
MSFL     .ohmm        UNKNOWN        : MSFL:UNKNOWN:rC:NONE:v0 (auto-composite)
NPHI     .v/v_decimal UNKNOWN        : NPHI:PETROWORKS:rC:NONE:v1 
PEF      .b/elec      UNKNOWN        : PEF:UNKNOWN:rC:NONE:v0 (auto-composite)
POTA     .wtpercent   UNKNOWN        : POTA:UNKNOWN:rC:NONE:v0 (auto-composite)
RHOB     .g/cm3       UNKNOWN        : RHOB:UNKNOWN:rC:NONE:v0 (auto-composite)
SFLU     .ohmm       UNKNOWN        : SFLU:induccion:rC:NONE:v0 (auto-composite)
THOR     .ppm         UNKNOWN        : THOR:UNKNOWN:rC:NONE:v0 (auto-composite)
URAN     .ppm         UNKNOWN        : URAN:UNKNOWN:rC:NONE:v0 (auto-composite)
~A     DEPTH         CALI          CGR         DRHO           DT           GR          ILD          ILM          LLD          LLS         MSFL         NPHI          PEF         POTA         RHOB         SFLU         THOR         URAN
# ...
   2859.5205       8.4747       3.1287    -999.2500      46.7019      24.8066    -999.2500    -999.2500   40000.0039    6423.7651     118.2147       0.0196       3.1405       0.0001       2.7618    -999.2500       0.9290       2.4041
   2859.6731       8.3885       2.5636    -999.2500      46.4683      24.4255    -999.2500    -999.2500   40000.0039    6346.6885      53.8858       0.0220       3.1255       0.0001       2.7684    -999.2500       0.7460       2.4422
   2859.8254       8.4877       1.9948    -999.2500      45.8514      23.4044    -999.2500    -999.2500   40000.0039    6324.6792      34.9365       0.0232       3.2691       0.0001       2.7992    -999.2500       0.5631       2.3392
   2859.9778       8.6071       1.4255    -999.2500      45.0690      22.3134    -999.2500    -999.2500   40000.0039    6308.6851      20.9440       0.0239       3.4300       0.0001       2.8327    -999.2500       0.3802       2.2208
   2860.1301       8.5934       1.3101    -999.2500      44.2916      21.3977    -999.2500    -999.2500   40000.0039    6294.2153     113.0106       0.0233       3.4055       0.0001       2.8203    -999.2500       0.3449       2.1618
   2860.2825       8.5649       1.2447    -999.2500      43.6492      20.5013    -999.2500    -999.2500   40000.0039    6279.9141     216.7752       0.0230       3.3606       0.0001       2.8028    -999.2500       0.3259       2.1093
   2860.4351       8.5373       1.0863    -999.2500      43.6546      20.5088    -999.2500    -999.2500   40000.0039    6388.8789     308.7499       0.0253       3.3856       0.0001       2.7884    -999.2500       0.2751       2.1390
   2860.5874       8.5098       0.9173    -999.2500      43.9549      20.6187    -999.2500    -999.2500   40000.0039    6511.8154     399.3882       0.0284       3.4186       0.0001       2.7744    -999.2500       0.2206       2.1780
   2860.7397       8.6015       0.9828    -999.2500      44.6474      21.2720    -999.2500    -999.2500   40000.0039    6687.3164     275.0619       0.0295       3.3968       0.0001       2.7779    -999.2500       0.2406       2.2589
   2860.8921       8.7068       1.0750    -999.2500      45.4305      21.9875    -999.2500    -999.2500   40000.0039    6868.8320     126.1400       0.0299       3.3687       0.0001       2.7835    -999.2500       0.2692       2.3447
   2861.0447       8.6349       2.1516    -999.2500      46.0023      23.0042    -999.2500    -999.2500   40000.0039    6940.6030     143.2919       0.0284       3.3732       0.0001       2.7921    -999.2500       0.6149       2.3264
   2861.1970       8.5439       3.3341    -999.2500      46.4754      24.0532    -999.2500    -999.2500   40000.0039    7000.5679     178.3087       0.0268       3.3812       0.0001       2.8011    -999.2500       0.9948       2.2969
   2861.3494       8.4751       5.7243    -999.2500      46.7492      24.9465    -999.2500    -999.2500   40000.0039    6955.3188     262.2170       0.0271       3.3622       0.0007       2.7975    -999.2500       1.4734       2.1296
   2861.5017       8.4087       8.2457    -999.2500      46.9421      25.8230    -999.2500    -999.2500   40000.0039    6898.6406     351.4365       0.0280       3.3402       0.0013       2.7925    -999.2500       1.9628       1.9473
   2861.6543       8.4726       7.7226    -999.2500      46.6601      25.6831    -999.2500    -999.2500   40000.0039    6834.5708     229.3253       0.0290       3.3025       0.0008       2.7857    -999.2500       2.1127       1.9951
   2861.8066       8.5511       6.8595    -999.2500      46.3952      25.4297    -999.2500    -999.2500   40000.0039    6769.6763      83.6142       0.0296       3.2630       0.0002       2.7787    -999.2500       2.2247       2.0686
   2861.9590       8.5294       4.5119    -999.2500      46.4012      26.1675    -999.2500    -999.2500   40000.0039    6441.4683     112.2772       0.0284       3.2689       0.0001       2.7560    -999.2500       1.4527       2.3118
   2862.1113       8.4964       1.9970    -999.2500      46.5271      27.0172    -999.2500    -999.2500   40000.0039    6083.5742     160.5993       0.0264       3.2799       0.0001       2.7315    -999.2500       0.5811       2.5742
   2862.2637       8.4453       2.0664    -999.2500      46.6031      24.9608    -999.2500    -999.2500   34630.0273    5657.6494     210.7904       0.0268       3.3202       0.0001       2.7425    -999.2500       0.5987       2.4214
   2862.4163       8.3921       2.4299    -999.2500      46.6337      22.5737    -999.2500    -999.2500   28648.8828    5223.9819     261.1941       0.0274       3.3638       0.0001       2.7575    -999.2500       0.7175       2.2213
   2862.5686       8.4614       2.8715    -999.2500      46.5045      20.2845    -999.2500    -999.2500   27118.1973    5111.0747     166.6335       0.0280       3.4384       0.0001       2.7897    -999.2500       0.8603       1.9467
   2862.7209       8.5438       3.3214    -999.2500      46.2809      18.0058    -999.2500    -999.2500   26063.6035    5032.4810      56.5652       0.0285       3.5163       0.0001       2.8236    -999.2500       1.0056       1.6640
   2862.8733       8.5245       4.0923    -999.2500      45.7320      18.2640    -999.2500    -999.2500   31241.7734    5225.7969      37.8410       0.0268       3.4857       0.0006       2.8193    -999.2500       1.0308       1.5919
   2863.0259       8.4940       4.8984    -999.2500      45.1570      18.8013    -999.2500    -999.2500   37105.5820    5449.0244      29.1653       0.0249       3.4432       0.0011       2.8108    -999.2500       1.0428       1.5429
   2863.1782       8.4748       4.8985    -999.2500      44.7635      18.9409    -999.2500    -999.2500   37476.0391    5657.9194     150.0077       0.0240       3.3864       0.0012       2.7988    -999.2500       0.9680       1.5560
   2863.3306       8.4568       4.8090    -999.2500      44.5452      19.0364    -999.2500    -999.2500   37236.3398    5865.2222     285.2358       0.0236       3.3279       0.0013       2.7863    -999.2500       0.8835       1.5760
   2863.4829       8.5121       4.4279    -999.2500      44.9407      19.2640    -999.2500    -999.2500   38464.9961    5937.8257     209.6904       0.0242       3.3072       0.0010       2.7895    -999.2500       0.8930       1.6526
   2863.6355       8.5755       4.0141    -999.2500      45.5587      19.5063    -999.2500    -999.2500   39858.3125    5995.3237     110.5092       0.0251       3.2907       0.0007       2.7945    -999.2500       0.9130       1.7356
   2863.7878       8.5448       4.6673    -999.2500      46.3581      20.1245    -999.2500    -999.2500   36959.1016    5785.2056     138.0259       0.0265       3.2760       0.0011       2.7919    -999.2500       0.9437       1.7225
   2863.9402       8.5033       5.4414    -999.2500      47.1683      20.7852    -999.2500    -999.2500   33573.9453    5544.7915     179.8858       0.0280       3.2615       0.0015       2.7884    -999.2500       0.9757       1.6985
   2864.0925       8.4658       5.7560    -999.2500      47.8810      21.1168    -999.2500    -999.2500   33881.9727    5492.6680     264.1901       0.0294       3.2932       0.0017       2.7849    -999.2500       0.9498       1.7023
   2864.2449       8.4287       6.0172    -999.2500      48.5518      21.4101    -999.2500    -999.2500   34619.4180    5462.4375     353.4295       0.0309       3.3303       0.0019       2.7813    -999.2500       0.9172       1.7093
   2864.3975       8.4822       6.4412    -999.2500      48.8820      21.5692    -999.2500    -999.2500   35688.2891    5592.9121     239.6525       0.0318       3.3002       0.0022       2.7742    -999.2500       0.8937       1.6771
   2864.5498       8.5457       6.8830    -999.2500      49.0296      21.7136    -999.2500    -999.2500   36793.4258    5740.9692     103.6642       0.0320       3.2627       0.0025       2.7667    -999.2500       0.8712       1.6406
   2864.7021       8.5381       7.5863    -999.2500      48.6342      21.4528    -999.2500    -999.2500   35166.6055    5900.9077     114.7839       0.0296       3.1996       0.0028       2.7638    -999.2500       0.9954       1.5345
