#------------------------------------------------------------------------------
#
#   Created by  : [OpenWorks] Log Export Utility (LEXP)
#   Created on  : 2016-05-23 11:57:10
#   Project     : CANT971
#   User        : R5K
#   Interpreter : PEP
#
#------------------------------------------------------------------------------
~VERSION INFORMATION
VERS. 2.0 : CWLS Log ASCII Standard - version 2.0
WRAP.  NO : One line per depth step
~WELL INFORMATION
#MNEMONIC   .UNIT                                           VALUE :DESCRIPTION
#------------------------------------------------------------------------------
STRT        .M                                           345.0980 :START DEPTH
STOP        .M                                          2040.8528 :STOP DEPTH
STEP        .M                                             0.1524 :STEP
NULL        .                                           -999.2500 :NULL VALUE
COMP        .                                   PEMEX EXPL & PROD :COMPANY
WELL        .                                                  71 :WELL
FLD         .                                           CANTARELL :FIELD
LOC         .                                             UNKNOWN :LOCATION
CNTY        .                                      CD. DEL CARMEN :COUNTY
STAT        .                                            CAMPECHE :STATE
CTRY        .                                              MEXICO :COUNTRY
SRVC        .                                             UNKNOWN :SERVICE COMPANY
DATE        .                                             UNKNOWN :LOG DATE
UWI         .                                          3060000175 :UNIQUE WELL ID
XCOORD      .                                       599724.470000 :SURFACE X
YCOORD      .                                      2147216.900000 :SURFACE Y
LAT         .                                           19.417919 :LATITUDE
LON         .                                          -92.050150 :LONGITUDE
ELEV        .M                                            27.8000 :SURFACE ELEV
ELEV_TYPE   .                                                  KB :ELEV TYPE
~CURVE INFORMATION
#MNEMONIC.UNIT        API CODE       : CURVE DESCRIPTION
#------------------------------------------------------------------------------
DEPTH    .M                          : Measured Depth
DT       .us/ft       UNKNOWN        : DT:DT:rC:NONE:v0 (auto-composite)
GR       .UNKNOWN     UNKNOWN        : GR:GR-Load:rC:NONE:v0 (auto-composite)
ILD      .UNKNOWN     UNKNOWN        : ILD:ILD-Load:rC:NONE:v0 (auto-composite)
NPHI     .v/v_decimal UNKNOWN        : NPHI:NPHI:rC:NONE:v0 (auto-composite)
RG       .UNKNOWN     UNKNOWN        : RG:RG-Loader:rC:NONE:v0 (auto-composite)
RHOB     .UNKNOWN     UNKNOWN        : RHOB:RHOB-Load:rC:NONE:v0 (auto-composite)
~A     DEPTH           DT           GR          ILD         NPHI           RG         RHOB
# ...
   1350.9380    -999.2500      33.6850      19.8636      26.9747    -999.2500    -999.2500
   1351.0905    -999.2500      48.8631      19.8651      27.0647    -999.2500    -999.2500
   1351.2428    -999.2500      57.6013      19.8664      32.7203    -999.2500    -999.2500
   1351.3953    -999.2500      57.4713      19.8674      46.0909    -999.2500    -999.2500
   1351.5476    -999.2500      55.3897      19.8686      53.8209    -999.2500    -999.2500
   1351.7001    -999.2500      50.6199      19.8701      53.7299    -999.2500    -999.2500
   1351.8524    -999.2500      44.4530      19.8714      52.2490    -999.2500    -999.2500
   1352.0049    -999.2500      36.3612      19.8724      48.8407    -999.2500    -999.2500
   1352.1572    -999.2500      31.7180      19.8736      47.5865    -999.2500    -999.2500
   1352.3096    -999.2500      31.8275      19.8751      49.3210    -999.2500    -999.2500
   1352.4620    -999.2500      31.8895      19.8766      49.5011    -999.2500    -999.2500
   1352.6144    -999.2500      31.8860      19.8781      47.5244    -999.2500    -999.2500
   1352.7668    -999.2500      31.5505      19.8794      47.0061    -999.2500    -999.2500
   1352.9192    -999.2500      30.7570      19.8804      48.5056    -999.2500    -999.2500
   1353.0717    -999.2500      31.0690      19.8818      48.8667    -999.2500    -999.2500
   1353.2240    -999.2500      32.9056      19.8838      47.6528    -999.2500    -999.2500
   1353.3765    -999.2500      33.8703      19.8856      46.9998    -999.2500    -999.2500
   1353.5288    -999.2500      33.6358      19.8871      47.1233    -999.2500    -999.2500
   1353.6813    -999.2500      33.5065      19.8886      47.1122    -999.2500    -999.2500
   1353.8336    -999.2500      33.5220      19.8901      46.9147    -999.2500    -999.2500
   1353.9860    -999.2500      33.9847      19.8914      44.5978    -999.2500    -999.2500
   1354.1384    -999.2500      35.0627      19.8924      39.3460    -999.2500    -999.2500
   1354.2908    -999.2500      35.6655      19.8936      35.8508    -999.2500    -999.2500
   1354.4432    -999.2500      35.6145      19.8951      34.7888    -999.2500    -999.2500
   1354.5956    -999.2500      34.2423      19.8966      34.0643    -999.2500    -999.2500
   1354.7480    -999.2500      31.0514      19.8981      33.8073    -999.2500    -999.2500
   1354.9004    -999.2500      29.8637      19.8994      32.2892    -999.2500    -999.2500
   1355.0529    -999.2500      31.4342      19.9004      29.0233    -999.2500    -999.2500
   1355.2052    -999.2500      32.3164      19.9016      29.6937    -999.2500    -999.2500
   1355.3577    -999.2500      32.2509      19.9031      35.8210    -999.2500    -999.2500
   1355.5100    -999.2500      31.4791      19.9044      39.2708    -999.2500    -999.2500
   1355.6625    -999.2500      29.7341      19.9054      39.0078    -999.2500    -999.2500
   1355.8148    -999.2500      25.2347      19.9066      36.2589    -999.2500    -999.2500
   1355.9672    -999.2500      16.9400      19.9081      30.0621    -999.2500    -999.2500
   1356.1196    -999.2500      12.1732      19.9096      22.1840    -999.2500    -999.2500
   1356.2720    -999.2500      12.2687      19.9111      11.9733    -999.2500    -999.2500
   1356.4244    -999.2500      13.2104      19.9124       6.0660    -999.2500    -999.2500
   1356.5768    -999.2500      15.3188      19.9134       6.1305    -999.2500    -999.2500
   1356.7292    -999.2500      17.5315      19.9340       6.8764    -999.2500    -999.2500
   1356.8816    -999.2500      19.8879      19.9815       8.5648    -999.2500    -999.2500
   1357.0341    -999.2500      21.5767      20.0086      14.7318    -999.2500    -999.2500
   1357.1864    -999.2500      22.3445      20.0076      27.0964    -999.2500    -999.2500
   1357.3389    -999.2500      23.8563      19.9897      33.6008    -999.2500    -999.2500
   1357.4912    -999.2500      26.3912      19.9487      31.9933    -999.2500    -999.2500
   1357.6437    -999.2500      27.8217      19.9250      31.0634    -999.2500    -999.2500
   1357.7960    -999.2500      27.7332      19.9250      31.0714    -999.2500    -999.2500
   1357.9484    -999.2500      26.6441      19.9256      31.6768    -999.2500    -999.2500
   1358.1008    -999.2500      24.1782      19.9271      33.1098    -999.2500    -999.2500
   1358.2532    -999.2500      22.8651      19.9284      32.7929    -999.2500    -999.2500
   1358.4056    -999.2500      23.1386      19.9294      30.0520    -999.2500    -999.2500
   1358.5580    -999.2500      22.9288      19.9306      28.4646    -999.2500    -999.2500
   1358.7104    -999.2500      22.0539      19.9321      28.4756    -999.2500    -999.2500
   1358.8628    -999.2500      22.2668      19.9349      28.5692    -999.2500    -999.2500
   1359.0153    -999.2500      23.9778      19.9394      28.7772    -999.2500    -999.2500
   1359.1676    -999.2500      24.4333      19.9728      29.0486    -999.2500    -999.2500
   1359.3201    -999.2500      23.1599      20.0458      29.4081    -999.2500    -999.2500
   1359.4724    -999.2500      22.7374      20.0876      29.8150    -999.2500    -999.2500
   1359.6249    -999.2500      23.4874      20.0866      30.2874    -999.2500    -999.2500
   1359.7772    -999.2500      22.4864      20.0565      30.4791    -999.2500    -999.2500
   1359.9296    -999.2500      19.0725      19.9865      30.2811    -999.2500    -999.2500
   1360.0820    -999.2500      17.1270      19.9471      28.7143    -999.2500    -999.2500
   1360.2344    -999.2500      17.2055      19.9496      25.2484    -999.2500    -999.2500
   1360.3868    -999.2500      18.6105      19.9685      20.7829    -999.2500    -999.2500
   1360.5392    -999.2500      21.8444      20.0100      14.9303    -999.2500    -999.2500
   1360.6917    -999.2500      23.7100      20.0481      11.5462    -999.2500    -999.2500
   1360.8440    -999.2500      23.6885      20.0816      11.5777    -999.2500    -999.2500
   1360.9965    -999.2500      21.8593      20.0732      15.3051    -999.2500    -999.2500
   1361.1488    -999.2500      17.5450      20.0072      24.1473    -999.2500    -999.2500
   1361.3013    -999.2500      15.0956      19.9709      29.2512    -999.2500    -999.2500
   1361.4536    -999.2500      15.2111      19.9754      29.1802    -999.2500    -999.2500
   1361.6061    -999.2500      16.0687      20.0052      26.5828    -999.2500    -999.2500
   1361.7584    -999.2500      17.9472      20.0697      20.4869    -999.2500    -999.2500
   1361.9108    -999.2500      20.5571      20.1074      17.1581    -999.2500    -999.2500
   1362.0632    -999.2500      24.1735      20.1084      17.6616    -999.2500    -999.2500
   1362.2156    -999.2500      29.8872      20.1096      24.3475    -999.2500    -999.2500
   1362.3680    -999.2500      38.4874      20.1111      39.5985    -999.2500    -999.2500
   1362.5204    -999.2500      43.3600      20.1126      48.4166    -999.2500    -999.2500
   1362.6729    -999.2500      43.1010      20.1141      48.3201    -999.2500    -999.2500
   1362.8252    -999.2500      41.3413      20.1154      47.4206    -999.2500    -999.2500
   1362.9777    -999.2500      37.5149      20.1164      45.4082    -999.2500    -999.2500
   1363.1300    -999.2500      33.0138      20.1176      39.2722    -999.2500    -999.2500
   1363.2825    -999.2500      27.5835      20.1191      27.4190    -999.2500    -999.2500
   1363.4348    -999.2500      23.9147      20.1208      21.1640    -999.2500    -999.2500
   1363.5873    -999.2500      22.6727      20.1228      22.6724    -999.2500    -999.2500
   1363.7396    -999.2500      21.1351      20.1246      23.4575    -999.2500    -999.2500
   1363.8920    -999.2500      19.1902      20.1261      23.2390    -999.2500    -999.2500
   1364.0444    -999.2500      17.4273      20.1274      21.9216    -999.2500    -999.2500
   1364.1968    -999.2500      15.9154      20.1284      19.0796    -999.2500    -999.2500
