#------------------------------------------------------------------------------
#
#   Created by  : [OpenWorks] Log Export Utility (LEXP)
#   Created on  : 2016-05-23 11:57:14
#   Project     : CANT971
#   User        : R5K
#   Interpreter : PEP
#
#------------------------------------------------------------------------------
~VERSION INFORMATION
VERS. 2.0 : CWLS Log ASCII Standard - version 2.0
WRAP.  NO : One line per depth step
~WELL INFORMATION
#MNEMONIC   .UNIT                                           VALUE :DESCRIPTION
#------------------------------------------------------------------------------
STRT        .M                                           551.2302 :START DEPTH
STOP        .M                                          2435.9609 :STOP DEPTH
STEP        .M                                             0.1524 :STEP
NULL        .                                           -999.2500 :NULL VALUE
COMP        .                                   PEMEX EXPL & PROD :COMPANY
WELL        .                                                  76 :WELL
FLD         .                                           CANTARELL :FIELD
LOC         .                                             UNKNOWN :LOCATION
CNTY        .                                      CD. DEL CARMEN :COUNTY
STAT        .                                            CAMPECHE :STATE
CTRY        .                                              MEXICO :COUNTRY
SRVC        .                                             UNKNOWN :SERVICE COMPANY
DATE        .                                             UNKNOWN :LOG DATE
UWI         .                                          3060000416 :UNIQUE WELL ID
XCOORD      .                                       599729.570000 :SURFACE X
YCOORD      .                                      2147218.620000 :SURFACE Y
LAT         .                                           19.417934 :LATITUDE
LON         .                                          -92.050101 :LONGITUDE
ELEV        .M                                            27.8000 :SURFACE ELEV
ELEV_TYPE   .                                                  KB :ELEV TYPE
~CURVE INFORMATION
#MNEMONIC.UNIT        API CODE       : CURVE DESCRIPTION
#------------------------------------------------------------------------------
DEPTH    .M                          : Measured Depth
CAL      .inches      UNKNOWN        : CAL:UNKNOWN:rC:NONE:v0 (auto-composite)
DRHO     .UNKNOWN     UNKNOWN        : DRHO:UNKNOWN:rC:NONE:v0 (auto-composite)
DT       .us/ft       UNKNOWN        : DT:DT:rC:NONE:v0 (auto-composite)
GR       .UNKNOWN     UNKNOWN        : GR:GR-Load:rC:NONE:v0 (auto-composite)
ILD      .UNKNOWN     UNKNOWN        : ILD:ILD-Load:rC:NONE:v0 (auto-composite)
LLD      .UNKNOWN     UNKNOWN        : LLD:UNKNOWN:rC:NONE:v0 (auto-composite)
LLS      .UNKNOWN     UNKNOWN        : LLS:UNKNOWN:rC:NONE:v0 (auto-composite)
NPHI     .v/v_decimal UNKNOWN        : NPHI:NPHI:rC:NONE:v0 (auto-composite)
RHOB     .UNKNOWN     UNKNOWN        : RHOB:UNKNOWN:rC:NONE:v0 (auto-composite)
~A     DEPTH          CAL         DRHO           DT           GR          ILD          LLD          LLS         NPHI         RHOB
# ...
   1524.4567       0.0000       0.2500    -999.2500      31.7514       0.2000       0.2000       0.2000    -999.2500       1.9500
   1524.6090       0.0000       0.2500    -999.2500      31.3130       0.2000       0.2000       0.2000    -999.2500       1.9500
   1524.7615       0.0000       0.2500    -999.2500      31.7270       0.2000       0.2000       0.2000    -999.2500       1.9500
   1524.9138       0.0000       0.2500    -999.2500      32.1410       0.2000       0.2000       0.2000    -999.2500       1.9500
   1525.0663       0.0000       0.2500    -999.2500      34.5315       0.2000       0.2000       0.2000    -999.2500       1.9500
   1525.2186       0.0000       0.2500    -999.2500      36.9220       0.2000       0.2000       0.2000    -999.2500       1.9500
   1525.3710       0.0000       0.2500    -999.2500      36.8365       0.2000       0.2000       0.2000    -999.2500       1.9500
   1525.5234       0.0000       0.2500    -999.2500      36.7510       0.2000       0.2000       0.2000    -999.2500       1.9500
   1525.6758       0.0000       0.2500    -999.2500      36.1326       0.2000       0.2000       0.2000    -999.2500       1.9500
   1525.8282       0.0000       0.2500    -999.2500      35.5140       0.2000       0.2000       0.2000    -999.2500       1.9500
   1525.9806       0.0000       0.2500    -999.2500      34.3592       0.2000       0.2000       0.2000    -999.2500       1.9500
   1526.1331       0.0000       0.2500    -999.2500      33.2040       0.2000       0.2000       0.2000    -999.2500       1.9500
   1526.2854       0.0000       0.2500    -999.2500      31.8603       0.2000       0.2000       0.2000    -999.2500       1.9500
   1526.4379       0.0000       0.2500    -999.2500      30.5160       0.2000       0.2000       0.2000    -999.2500       1.9500
   1526.5902       0.0000       0.2500    -999.2500      29.5363       0.2000       0.2000       0.2000    -999.2500       1.9500
   1526.7427       0.0000       0.2500    -999.2500      28.5560       0.2000       0.2000       0.2000    -999.2500       1.9500
   1526.8950       0.0000       0.2500    -999.2500      27.2040       0.2000       0.2000       0.2000    -999.2500       1.9500
   1527.0475       0.0000       0.2500    -999.2500      25.8520       0.2000       0.2000       0.2000    -999.2500       1.9500
   1527.1998       0.0000       0.2500    -999.2500      26.0251       0.2000       0.2000       0.2000    -999.2500       1.9500
   1527.3522       0.0000       0.2500    -999.2500      26.1980       0.2000       0.2000       0.2000    -999.2500       1.9500
   1527.5046       0.0000       0.2500    -999.2500      26.5511       0.2000       0.2000       0.2000    -999.2500       1.9500
   1527.6570       0.0000       0.2500    -999.2500      26.9040       0.2000       0.2000       0.2000    -999.2500       1.9500
   1527.8094       0.0000       0.2500    -999.2500      27.5187       0.2000       0.2000       0.2000    -999.2500       1.9500
   1527.9618       0.0000       0.2500    -999.2500      28.1330       0.2000       0.2000       0.2000    -999.2500       1.9500
   1528.1143       0.0000       0.2500    -999.2500      28.0235       0.2000       0.2000       0.2000    -999.2500       1.9500
   1528.2666       0.0000       0.2500    -999.2500      27.9140       0.2000       0.2000       0.2000    -999.2500       1.9500
   1528.4191       0.0000       0.2500    -999.2500      29.4612       0.2000       0.2000       0.2000    -999.2500       1.9500
   1528.5714       0.0000       0.2500    -999.2500      31.0080       0.2000       0.2000       0.2000    -999.2500       1.9500
   1528.7239       0.0000       0.2500    -999.2500      30.8440       0.2000       0.2000       0.2000    -999.2500       1.9500
   1528.8762       0.0000       0.2500    -999.2500      30.6800       0.2000       0.2000       0.2000    -999.2500       1.9500
   1529.0286       0.0000       0.2500    -999.2500      29.5080       0.2000       0.2000       0.2000    -999.2500       1.9500
   1529.1810       0.0000       0.2500    -999.2500      28.3360       0.2000       0.2000       0.2000    -999.2500       1.9500
   1529.3334       0.0000       0.2500    -999.2500      28.3610       0.2000       0.2000       0.2000    -999.2500       1.9500
   1529.4858       0.0000       0.2500    -999.2500      28.3860       0.2000       0.2000       0.2000    -999.2500       1.9500
   1529.6382       0.0000       0.2500    -999.2500      28.8164       0.2000       0.2000       0.2000    -999.2500       1.9500
   1529.7906       0.0000       0.2500    -999.2500      29.2470       0.2000       0.2000       0.2000    -999.2500       1.9500
   1529.9430       0.0000       0.2500    -999.2500      31.3026       0.2000       0.2000       0.2000    -999.2500       1.9500
   1530.0955       0.0000       0.2500    -999.2500      33.3590       0.2000       0.2000       0.2000    -999.2500       1.9500
   1530.2478       0.0000       0.2500    -999.2500      33.0311       0.2000       0.2000       0.2000    -999.2500       1.9500
   1530.4003       0.0000       0.2500    -999.2500      32.7030       0.2000       0.2000       0.2000    -999.2500       1.9500
   1530.5526       0.0000       0.2500    -999.2500      31.8598       0.2000       0.2000       0.2000    -999.2500       1.9500
   1530.7051       0.0000       0.2500    -999.2500      31.0160       0.2000       0.2000       0.2000    -999.2500       1.9500
   1530.8574       0.0000       0.2500    -999.2500      31.7535       0.2000       0.2000       0.2000    -999.2500       1.9500
   1531.0098       0.0000       0.2500    -999.2500      32.4910       0.2000       0.2000       0.2000    -999.2500       1.9500
   1531.1622       0.0000       0.2500    -999.2500      33.3393       0.2000       0.2000       0.2000    -999.2500       1.9500
   1531.3146       0.0000       0.2500    -999.2500      34.1870       0.2000       0.2000       0.2000    -999.2500       1.9500
   1531.4670       0.0000       0.2500    -999.2500      31.6202       0.2000       0.2000       0.2000    -999.2500       1.9500
   1531.6194       0.0000       0.2500    -999.2500      29.0550       0.2000       0.2000       0.2000    -999.2500       1.9500
   1531.7719       0.0000       0.2500    -999.2500      21.7543       0.2000       0.2000       0.2000    -999.2500       1.9500
   1531.9242       0.0000       0.2500    -999.2500      14.4570       0.2000       0.2000       0.2000    -999.2500       1.9500
   1532.0767       0.0000       0.2500    -999.2500      16.0618       0.2000       0.2000       0.2000    -999.2500       1.9500
   1532.2290       0.0000       0.2500    -999.2500      17.6660       0.2000       0.2000       0.2000    -999.2500       1.9500
   1532.3815       0.0000       0.2500    -999.2500      20.9928       0.2000       0.2000       0.2000    -999.2500       1.9500
   1532.5338       0.0000       0.2500    -999.2500      24.3190       0.2000       0.2000       0.2000    -999.2500       1.9500
   1532.6863       0.0000       0.2500    -999.2500      27.1491       0.2000       0.2000       0.2000    -999.2500       1.9500
   1532.8386       0.0000       0.2500    -999.2500      29.9790       0.2000       0.2000       0.2000    -999.2500       1.9500
   1532.9910       0.0000       0.2500    -999.2500      35.8174       0.2000       0.2000       0.2000    -999.2500       1.9500
   1533.1434       0.0000       0.2500    -999.2500      41.6560       0.2000       0.2000       0.2000    -999.2500       1.9500
   1533.2958       0.0000       0.2500    -999.2500      40.9676       0.2000       0.2000       0.2000    -999.2500       1.9500
   1533.4482       0.0000       0.2500    -999.2500      40.2790       0.2000       0.2000       0.2000    -999.2500       1.9500
   1533.6006       0.0000       0.2500    -999.2500      36.8470       0.2000       0.2000       0.2000    -999.2500       1.9500
   1533.7531       0.0000       0.2500    -999.2500      33.4140       0.2000       0.2000       0.2000    -999.2500       1.9500
