#------------------------------------------------------------------------------
#
#   Created by  : [OpenWorks] Log Export Utility (LEXP)
#   Created on  : 2016-05-23 11:51:27
#   Project     : CANT971
#   User        : R5K
#   Interpreter : PEP
#
#------------------------------------------------------------------------------
~VERSION INFORMATION
VERS. 2.0 : CWLS Log ASCII Standard - version 2.0
WRAP.  NO : One line per depth step
~WELL INFORMATION
#MNEMONIC   .UNIT                                           VALUE :DESCRIPTION
#------------------------------------------------------------------------------
STRT        .M                                           294.1315 :START DEPTH
STOP        .M                                          1758.8479 :STOP DEPTH
STEP        .M                                             0.1524 :STEP
NULL        .                                           -999.2500 :NULL VALUE
COMP        .                                   PEMEX EXPL & PROD :COMPANY
WELL        .                                                1084 :WELL
FLD         .                                           CANTARELL :FIELD
LOC         .                                             UNKNOWN :LOCATION
CNTY        .                                      CD. DEL CARMEN :COUNTY
STAT        .                                            CAMPECHE :STATE
CTRY        .                                              MEXICO :COUNTRY
SRVC        .                                             UNKNOWN :SERVICE COMPANY
DATE        .                                             UNKNOWN :LOG DATE
UWI         .                                          3060000213 :UNIQUE WELL ID
XCOORD      .                                       596992.320000 :SURFACE X
YCOORD      .                                      2148289.820000 :SURFACE Y
LAT         .                                           19.427749 :LATITUDE
LON         .                                          -92.076116 :LONGITUDE
ELEV        .M                                            27.5000 :SURFACE ELEV
ELEV_TYPE   .                                                  KB :ELEV TYPE
~CURVE INFORMATION
#MNEMONIC.UNIT        API CODE       : CURVE DESCRIPTION
#------------------------------------------------------------------------------
DEPTH    .M                          : Measured Depth
CALI     .in          UNKNOWN        : CALI:registros:rC:NONE:v0 (auto-composite)
DRHO     .g/cm3       UNKNOWN        : DRHO:registros:rC:NONE:v0 (auto-composite)
DT       .us/ft       UNKNOWN        : DT:registros:rC:NONE:v0 (auto-composite)
GR       .api         UNKNOWN        : GR:registros:rC:NONE:v0 (auto-composite)
ILD      .ohmm        UNKNOWN        : ILD:registros:rC:NONE:v0 (auto-composite)
NPHI     .v/v_decimal UNKNOWN        : NPHI:registros:rC:NONE:v0 (auto-composite)
RHOB     .g/cm3       UNKNOWN        : RHOB:registros:rC:NONE:v0 (auto-composite)
~A     DEPTH         CALI         DRHO           DT           GR          ILD         NPHI         RHOB
# ...
   1209.4459      15.4350       0.2700     119.9060      69.3410       1.5450    -999.2500       2.2730
   1209.5983      15.3950       0.2650     126.5022      71.2051       1.5145    -999.2500       2.2780
   1209.7507      15.3550       0.2600     133.0800      73.0700       1.4840    -999.2500       2.2830
   1209.9031      15.3375       0.2615     131.2075      73.0685       1.4520    -999.2500       2.2865
   1210.0555      15.3200       0.2630     129.3400      73.0670       1.4200    -999.2500       2.2900
   1210.2079      15.3450       0.2765     131.8542      72.1784       1.4200    -999.2500       2.3000
   1210.3604      15.3700       0.2900     134.3600      71.2900       1.4200    -999.2500       2.3100
   1210.5127      15.3500       0.2800     133.5038      71.8752       1.4200    -999.2500       2.3060
   1210.6652      15.3300       0.2700     132.6510      72.4600       1.4200    -999.2500       2.3020
   1210.8175      15.3325       0.2700     127.9915      72.4585       1.4225    -999.2500       2.2810
   1210.9698      15.3350       0.2700     123.3500      72.4570       1.4250    -999.2500       2.2600
   1211.1223      15.3615       0.2715     125.9098      72.4520       1.4340    -999.2500       2.2615
   1211.2747      15.3880       0.2730     128.4600      72.4470       1.4430    -999.2500       2.2630
   1211.4271      15.4590       0.2765     128.3428      72.2935       1.4465    -999.2500       2.2665
   1211.5795      15.5300       0.2800     128.2260      72.1400       1.4500    -999.2500       2.2700
   1211.7319      15.5200       0.2750     126.2746      72.8701       1.4500    -999.2500       2.2700
   1211.8843      15.5100       0.2700     124.3300      73.6000       1.4500    -999.2500       2.2700
   1212.0367      15.5125       0.2715     124.6946      73.4820       1.4500    -999.2500       2.2700
   1212.1891      15.5150       0.2730     125.0580      73.3640       1.4500    -999.2500       2.2700
   1212.3416      15.5240       0.2765     126.9120      72.9555       1.4515    -999.2500       2.2715
   1212.4939      15.5330       0.2800     128.7600      72.5470       1.4530    -999.2500       2.2730
   1212.6462      15.5365       0.2750     128.4871      71.7385       1.4605    -999.2500       2.2815
   1212.7987      15.5400       0.2700     128.2150      70.9300       1.4680    -999.2500       2.2900
   1212.9510      15.5400       0.2725     125.5335      71.0865       1.4805    -999.2500       2.2850
   1213.1035      15.5400       0.2750     122.8600      71.2430       1.4930    -999.2500       2.2800
   1213.2559      15.5450       0.2825     122.9551      71.8199       1.4980    -999.2500       2.2815
   1213.4083      15.5500       0.2900     123.0500      72.3970       1.5030    -999.2500       2.2830
   1213.5607      15.5475       0.2885     122.5343      73.2683       1.5065    -999.2500       2.2880
   1213.7131      15.5450       0.2870     122.0200      74.1400       1.5100    -999.2500       2.2930
   1213.8655      15.4575       0.2785     122.0656      74.1385       1.5100    -999.2500       2.2965
   1214.0179      15.3700       0.2700     122.1110      74.1370       1.5100    -999.2500       2.3000
   1214.1703      15.3885       0.2750     122.5863      73.2435       1.5100    -999.2500       2.3050
   1214.3228      15.4070       0.2800     123.0600      72.3500       1.5100    -999.2500       2.3100
   1214.4751      15.5349       0.2785     121.9227      72.3500       1.5115    -999.2500       2.3050
   1214.6274      15.6630       0.2770     120.7900      72.3500       1.5130    -999.2500       2.3000
   1214.7799      15.8909       0.2720     121.1317      72.3485       1.5180    -999.2500       2.3050
   1214.9323      16.1190       0.2670     121.4720      72.3470       1.5230    -999.2500       2.3100
   1215.0847      16.1470       0.2535     123.0038      72.1900       1.5305    -999.2500       2.3085
   1215.2371      16.1750       0.2400     124.5300      72.0330       1.5380    -999.2500       2.3070
   1215.3895      16.1825       0.2400     123.4981      71.2914       1.5505    -999.2500       2.2985
   1215.5419      16.1900       0.2400     122.4700      70.5500       1.5630    -999.2500       2.2900
   1215.6943      16.1900       0.2425     123.4066      71.1351       1.5690    -999.2500       2.2900
   1215.8467      16.1900       0.2450     124.3400      71.7200       1.5750    -999.2500       2.2900
   1215.9991      16.1845       0.2525     124.1707      70.6849       1.5865    -999.2500       2.3000
   1216.1515      16.1790       0.2600     124.0020      69.6500       1.5980    -999.2500       2.3100
   1216.3040      16.1530       0.2615     123.2157      69.7240       1.6180    -999.2500       2.3085
   1216.4563      16.1270       0.2630     122.4320      69.7980       1.6380    -999.2500       2.3070
   1216.6086      16.0885       0.2680     121.2191      70.2830       1.6730    -999.2500       2.2985
   1216.7611      16.0500       0.2730     120.0100      70.7680       1.7080    -999.2500       2.2900
   1216.9135      16.0300       0.2815     120.5603      71.6689       1.7590    -999.2500       2.2915
   1217.0659      16.0100       0.2900     121.1090      72.5700       1.8100    -999.2500       2.2930
   1217.2183      15.9885       0.2885     122.7769      71.9751       1.8020    -999.2500       2.2965
   1217.3707      15.9670       0.2870     124.4400      71.3800       1.7940    -999.2500       2.3000
   1217.5231      15.9285       0.2735     123.0581      71.5280       1.7540    -999.2500       2.2960
   1217.6755      15.8900       0.2600     121.6800      71.6760       1.7140    -999.2500       2.2920
   1217.8279      15.8900       0.2650     121.7661      72.1129       1.6470    -999.2500       2.2795
   1217.9803      15.8900       0.2700     121.8520      72.5500       1.5800    -999.2500       2.2670
   1218.1327      15.8915       0.2650     123.1932      72.2236       1.5275    -999.2500       2.2585
   1218.2852      15.8930       0.2600     124.5300      71.8970       1.4750    -999.2500       2.2500
   1218.4375      15.9150       0.2600     128.0073      70.8810       1.4345    -999.2500       2.2500
   1218.5898      15.9370       0.2600     131.4710      69.8650       1.3940    -999.2500       2.2500
   1218.7423      16.0050       0.2500     133.1186      69.1323       1.3670    -999.2500       2.2485
   1218.8947      16.0730       0.2400     134.7600      68.4000       1.3400    -999.2500       2.2470
   1219.0471      16.1190       0.2400     133.1370      68.5555       1.3425    -999.2500       2.2335
   1219.1995      16.1650       0.2400     131.5200      68.7110       1.3450    -999.2500       2.2200
   1219.3519      16.1725       0.2450     132.1651      69.2606       1.3565    -999.2500       2.2200
   1219.5043      16.1800       0.2500     132.8080      69.8100       1.3680    -999.2500       2.2200
   1219.6567      16.1800       0.2450     134.7724      70.7101       1.3790    -999.2500       2.2185
   1219.8091      16.1800       0.2400     136.7300      71.6100       1.3900    -999.2500       2.2170
   1219.9615      16.1825       0.2400     133.2843      71.4600       1.3885    -999.2500       2.2085
   1220.1139      16.1850       0.2400     129.8500      71.3100       1.3870    -999.2500       2.2000
   1220.2664      16.1980       0.2400     130.3548      72.0400       1.3810    -999.2500       2.2000
   1220.4187      16.2110       0.2400     130.8580      72.7700       1.3750    -999.2500       2.2000
   1220.5710      16.2390       0.2425     132.4850      72.7685       1.3650    -999.2500       2.2025
   1220.7235      16.2670       0.2450     134.1070      72.7670       1.3550    -999.2500       2.2050
   1220.8759      16.3050       0.2525     135.3253      72.3001       1.3420    -999.2500       2.2125
   1221.0283      16.3430       0.2600     136.5400      71.8330       1.3290    -999.2500       2.2200
