#------------------------------------------------------------------------------
#
#   Created by  : [OpenWorks] Log Export Utility (LEXP)
#   Created on  : 2016-05-23 11:52:02
#   Project     : CANT971
#   User        : R5K
#   Interpreter : PEP
#
#------------------------------------------------------------------------------
~VERSION INFORMATION
VERS. 2.0 : CWLS Log ASCII Standard - version 2.0
WRAP.  NO : One line per depth step
~WELL INFORMATION
#MNEMONIC   .UNIT                                           VALUE :DESCRIPTION
#------------------------------------------------------------------------------
STRT        .M                                           300.3808 :START DEPTH
STOP        .M                                          2575.7129 :STOP DEPTH
STEP        .M                                             0.1524 :STEP
NULL        .                                           -999.2500 :NULL VALUE
COMP        .                                   PEMEX EXPL & PROD :COMPANY
WELL        .                                                  19 :WELL
FLD         .                                           CANTARELL :FIELD
LOC         .                                             UNKNOWN :LOCATION
CNTY        .                                      CD. DEL CARMEN :COUNTY
STAT        .                                            CAMPECHE :STATE
CTRY        .                                              MEXICO :COUNTRY
SRVC        .                                             UNKNOWN :SERVICE COMPANY
DATE        .                                             UNKNOWN :LOG DATE
UWI         .                                          3060000151 :UNIQUE WELL ID
XCOORD      .                                       603362.598000 :SURFACE X
YCOORD      .                                      2145096.350000 :SURFACE Y
LAT         .                                           19.398572 :LATITUDE
LON         .                                          -92.015617 :LONGITUDE
ELEV        .M                                            27.1400 :SURFACE ELEV
ELEV_TYPE   .                                                  KB :ELEV TYPE
~CURVE INFORMATION
#MNEMONIC.UNIT        API CODE       : CURVE DESCRIPTION
#------------------------------------------------------------------------------
DEPTH    .M                          : Measured Depth
CALI     .inches      UNKNOWN        : CALI:Import:rC:NONE:v0 (auto-composite)
DRHO     .g/cm3       UNKNOWN        : DRHO:Import:rC:NONE:v0 (auto-composite)
DT       .us/ft       UNKNOWN        : DT:Import:rC:NONE:v0 (auto-composite)
GR       .API         UNKNOWN        : GR:Import:rC:NONE:v0 (auto-composite)
ILD      .ohm.m       UNKNOWN        : ILD:Import:rC:NONE:v0 (auto-composite)
LLD      .ohm.m       UNKNOWN        : LLD:Import:rC:NONE:v0 (auto-composite)
LLS      .ohm.m       UNKNOWN        : LLS:Import:rC:NONE:v0 (auto-composite)
NPHI     .v/v_decimal UNKNOWN        : NPHI:Import:rC:NONE:v0 (auto-composite)
RHOB     .g/cm3       UNKNOWN        : RHOB:RHOB-Load:rC:NONE:v0 (auto-composite)
~A     DEPTH         CALI         DRHO           DT           GR          ILD          LLD          LLS         NPHI         RHOB
# ...
   2190.1409       6.0471       0.0240      50.7574      49.8514       0.0010      84.0847      45.3565       0.1035       2.6880
   2190.2932       6.1170      -0.0040      52.6180      49.3360       0.0010      81.9500      45.3620       0.1100       2.6930
   2190.4456       6.2748       0.0080      52.2908      47.5924       0.0010      79.7408      47.7443       0.1135       2.6820
   2190.5979       6.4320       0.0200      51.9650      45.8560       0.0010      77.5370      50.1130       0.1156       2.6710
   2190.7505       6.4380       0.0175      50.6489      46.1340       0.0010      78.7664      49.9601       0.1117       2.6760
   2190.9028       6.4440       0.0150      49.3380      46.4110       0.0010      79.9930      49.8080       0.1076       2.6810
   2191.0552       6.4440       0.0035      50.3008      47.4405       0.0010      87.1768      48.7767       0.1072       2.7045
   2191.2075       6.4440      -0.0080      51.2600      48.4660       0.0010      94.3330      47.7510       0.1076       2.7280
   2191.3601       6.4440       0.0015      50.5552      50.2713       0.0010      88.1566      48.0904       0.1094       2.7190
   2191.5125       6.4440       0.0110      49.8530      52.0700       0.0010      82.0030      48.4280       0.1112       2.7100
   2191.6648       6.4440       0.0425      47.0695      51.7224       0.0010      84.6628      53.6340       0.1112       2.6860
   2191.8171       6.4440       0.0740      44.2960      51.3760       0.0010      87.3130      58.8130       0.1109       2.6620
   2191.9695       6.4440       0.0670      44.4994      50.4792       0.0010      99.3733      58.2140       0.1091       2.6425
   2192.1221       6.4440       0.0600      44.7020      49.5870       0.0010     111.3920      57.6180       0.1074       2.6230
   2192.2744       6.4440       0.0400      47.5953      50.6396       0.0010      99.7461      51.0749       0.1075       2.5625
   2192.4268       6.4440       0.0200      50.4790      51.6870       0.0010      88.1390      44.5640       0.1088       2.5020
   2192.5791       6.4440       0.0070      49.5575      51.3672       0.0010      95.0906      45.3599       0.1155       2.5085
   2192.7317       6.4440      -0.0060      48.6390      51.0490       0.0010     102.0200      46.1520       0.1219       2.5150
   2192.8840       6.4440      -0.0215      49.0396      50.0662       0.0010     101.3239      50.8242       0.1212       2.5545
   2193.0364       6.4440      -0.0370      49.4390      49.0880       0.0010     100.6300      55.4670       0.1187       2.5940
   2193.1887       6.4440      -0.0275      52.2642      47.9935       0.0010      91.8280      55.2318       0.1122       2.6580
   2193.3413       6.4440      -0.0180      55.0810      46.9040       0.0010      83.0520      54.9980       0.1072       2.7220
   2193.4937       6.4440       0.0040      54.4887      47.2052       0.0010      83.7415      51.3716       0.1140       2.7480
   2193.6460       6.4440       0.0260      53.8980      47.5050       0.0010      84.4290      47.7670       0.1221       2.7740
   2193.7983       6.4440       0.0145      51.2398      48.5668       0.0010      94.1031      48.0408       0.1260       2.7900
   2193.9507       6.4440       0.0030      48.5930      49.6240       0.0010     103.7510      48.3130       0.1271       2.8060
   2194.1033       6.4440       0.0035      49.3902      50.8210       0.0010     100.8898      49.7517       0.1163       2.8020
   2194.2556       6.4440       0.0040      50.1840      52.0130       0.0010      98.0360      51.1820       0.1040       2.7980
   2194.4080       6.4440       0.0095      50.1339      53.1157       0.0010      88.2235      53.6966       0.0946       2.7890
   2194.5603       6.4440       0.0150      50.0840      54.2140       0.0010      78.4350      56.1970       0.0868       2.7800
   2194.7129       6.4440       0.0295      49.2439      53.7656       0.0010      82.8376      58.9300       0.0846       2.7765
   2194.8652       6.4440       0.0440      48.4070      53.3190       0.0010      87.2300      61.6480       0.0836       2.7730
   2195.0176       6.4440       0.0295      48.4075      51.7099       0.0010      98.1818      61.6154       0.0835       2.7645
   2195.1699       6.4440       0.0150      48.4080      50.1070       0.0010     109.0920      61.5830       0.0841       2.7560
   2195.3225       6.4440       0.0175      48.7231      50.5137       0.0010     110.9434      60.8039       0.0868       2.7350
   2195.4749       6.4440       0.0200      49.0370      50.9190       0.0010     112.7880      60.0290       0.0902       2.7140
   2195.6272       6.4440       0.0250      49.7989      53.1229       0.0010     116.1379      58.2800       0.0951       2.7235
   2195.7795       6.4440       0.0300      50.5580      55.3190       0.0010     119.4760      56.5400       0.1000       2.7330
   2195.9319       6.4440       0.0135      50.9517      55.1656       0.0010     118.6856      61.5782       0.1031       2.7135
   2196.0845       6.4440      -0.0030      51.3440      55.0130       0.0010     117.8980      66.5910       0.1058       2.6940
   2196.2368       6.4440      -0.0015      51.9775      54.5619       0.0010     124.4939      63.7541       0.1078       2.7075
   2196.3892       6.4440       0.0000      52.6090      54.1130       0.0010     131.0680      60.9310       0.1095       2.7210
   2196.5415       6.4440       0.0035      52.4943      53.1652       0.0010     125.1461      47.9084       0.1098       2.7185
   2196.6941       6.4440       0.0070      52.3800      52.2220       0.0010     119.2430      34.9480       0.1095       2.7160
   2196.8464       6.4440       0.0020      51.6088      52.2686       0.0010      93.9980      35.2294       0.1078       2.7060
   2196.9988       6.4440      -0.0030      50.8400      52.3150       0.0010      68.8300      35.5090       0.1056       2.6960
   2197.1511       6.4440       0.0090      51.2085      53.9387       0.0010      73.5789      38.2323       0.1020       2.6735
   2197.3037       6.4440       0.0210      51.5760      55.5550       0.0010      78.3140      40.9390       0.0991       2.6510
   2197.4561       6.4440       0.0200      52.5984      55.4738       0.0010      75.7444      40.9204       0.1004       2.6650
   2197.6084       6.4440       0.0190      53.6180      55.3930       0.0010      73.1820      40.9020       0.1025       2.6790
   2197.7607       6.4440       0.0210      54.4974      54.7110       0.0010      77.8908      40.4903       0.1049       2.6665
   2197.9131       6.4440       0.0230      55.3730      54.0320       0.0010      82.5870      40.0810       0.1076       2.6540
   2198.0657       6.4455       0.0300      56.0088      51.3690       0.0010      75.9741      38.5912       0.1114       2.6115
   2198.2180       6.4470       0.0370      56.6420      48.7170       0.0010      69.3780      37.1100       0.1152       2.5690
   2198.3704       6.4685       0.0325      56.2397      49.1449       0.0010      70.6345      35.0272       0.1176       2.5715
   2198.5227       6.4900       0.0280      55.8390      49.5710       0.0010      71.8880      32.9560       0.1193       2.5740
   2198.6753       6.5772       0.0170      54.6146      51.0374       0.0010      85.2499      34.4150       0.1188       2.5940
   2198.8276       6.6640       0.0060      53.3950      52.4980       0.0010      98.5810      35.8660       0.1178       2.6140
   2198.9800       6.6485      -0.0005      52.3430      54.1807       0.0010      97.8301      40.4232       0.1174       2.6445
   2199.1323       6.6330      -0.0070      51.2950      55.8570       0.0010      97.0820      44.9560       0.1176       2.6750
   2199.2849       6.5789      -0.0090      49.8874      56.7481       0.0010      92.2462      44.0411       0.1206       2.6680
   2199.4373       6.5250      -0.0110      48.4850      57.6360       0.0010      87.4280      43.1310       0.1250       2.6610
