#------------------------------------------------------------------------------
#
#   Created by  : [OpenWorks] Log Export Utility (LEXP)
#   Created on  : 2016-05-23 11:52:48
#   Project     : CANT971
#   User        : R5K
#   Interpreter : PEP
#
#------------------------------------------------------------------------------
~VERSION INFORMATION
VERS. 2.0 : CWLS Log ASCII Standard - version 2.0
WRAP.  NO : One line per depth step
~WELL INFORMATION
#MNEMONIC   .UNIT                                           VALUE :DESCRIPTION
#------------------------------------------------------------------------------
STRT        .M                                           688.5826 :START DEPTH
STOP        .M                                          3180.0178 :STOP DEPTH
STEP        .M                                             0.1524 :STEP
NULL        .                                           -999.2500 :NULL VALUE
COMP        .                                   PEMEX EXPL & PROD :COMPANY
WELL        .                                               2092D :WELL
FLD         .                                           CANTARELL :FIELD
LOC         .                                             UNKNOWN :LOCATION
CNTY        .                                      CD. DEL CARMEN :COUNTY
STAT        .                                            CAMPECHE :STATE
CTRY        .                                              MEXICO :COUNTRY
SRVC        .                                             UNKNOWN :SERVICE COMPANY
DATE        .                                             UNKNOWN :LOG DATE
UWI         .                                          3060000657 :UNIQUE WELL ID
XCOORD      .                                       601715.500000 :SURFACE X
YCOORD      .                                      2142373.650000 :SURFACE Y
LAT         .                                           19.374053 :LATITUDE
LON         .                                          -92.031447 :LONGITUDE
ELEV        .M                                            30.0000 :SURFACE ELEV
ELEV_TYPEF  .b/elec                                            KB :ELEV TYPE
~CURVE INFORMATION
#MNEMONIC.UNIT        API CODE       : CURVE DESCRIPTION
#------------------------------------------------------------------------------
DEPTH    .M                          : Measured Depth
CALI     .in          UNKNOWN        : CALI:UNKNOWN:rC:NONE:v0 (auto-composite)
CGR      .API         UNKNOWN        : CGR:UNKNOWN:rC:NONE:v0 (auto-composite)
DRHO     .g/cm3       UNKNOWN        : DRHO:UNKNOWN:rC:NONE:v0 (auto-composite)
DT       .us/ft       UNKNOWN        : DT:DT:rC:NONE:v0 (auto-composite)
GR       .API         UNKNOWN        : GR:UNKNOWN:rC:NONE:v0 (auto-composite)
ILD      .ohmm        UNKNOWN        : ILD:UNKNOWN:rC:NONE:v0 (auto-composite)
ILM      .ohmm        UNKNOWN        : ILM:UNKNOWN:rC:NONE:v0 (auto-composite)
LLD      .ohmm        UNKNOWN        : LLD:UNKNOWN:rC:NONE:v0 (auto-composite)
LLS      .ohmm        UNKNOWN        : LLS:UNKNOWN:rC:NONE:v0 (auto-composite)
MSFL     .ohmm        UNKNOWN        : MSFL:UNKNOWN:rC:NONE:v0 (auto-composite)
NPHI     .v/v_decimal UNKNOWN        : NPHI:PETROWORKS:rC:NONE:v1 
PEF      .b/elec      UNKNOWN        : PEF:UNKNOWN:rC:NONE:v0 (auto-composite)
POTA     .wtpercent   UNKNOWN        : POTA:UNKNOWN:rC:NONE:v0 (auto-composite)
RHOB     .g/cm3       UNKNOWN        : RHOB:UNKNOWN:rC:NONE:v0 (auto-composite)
SFLU     .ohmm       UNKNOWN        : SFLU:induccion:rC:NONE:v0 (auto-composite)
THOR     .ppm         UNKNOWN        : THOR:UNKNOWN:rC:NONE:v0 (auto-composite)
URAN     .ppm         UNKNOWN        : URAN:UNKNOWN:rC:NONE:v0 (auto-composite)
~A     DEPTH         CALI          CGR         DRHO           DT           GR          ILD          ILM          LLD          LLS         MSFL         NPHI          PEF         POTA         RHOB         SFLU         THOR         URAN
# ...
   2230.1086      10.2572       9.6515       0.0203      57.4104      12.8784    -999.2500    -999.2500    3736.4226     418.6181     112.8102       0.0459       3.2808       0.0029       2.6659    -999.2500       1.6022       0.3544
   2230.2610      10.2447       6.0421       0.0193      56.6189      11.4130    -999.2500    -999.2500    3584.6946     421.9282     126.8022       0.0358       3.2578       0.0017       2.6814    -999.2500       1.0614       0.5943
   2230.4133      10.2424       3.8845       0.0222      55.6851      10.3853    -999.2500    -999.2500    3499.0325     427.3810     116.6203       0.0314       3.2383       0.0010       2.6952    -999.2500       0.7473       0.7251
   2230.5657      10.2444       2.3340       0.0267      54.7035       9.5407    -999.2500    -999.2500    3440.9885     433.7295      96.3328       0.0304       3.2202       0.0004       2.7082    -999.2500       0.5278       0.8102
   2230.7183      10.2517       1.3698       0.0287      54.0506       9.5502    -999.2500    -999.2500    3454.1387     430.0701     116.4760       0.0322       3.2504       0.0002       2.7067    -999.2500       0.3240       0.9144
   2230.8706      10.2612       0.6461       0.0297      53.5834       9.9100    -999.2500    -999.2500    3496.4893     422.3060     153.2022       0.0357       3.3004       0.0001       2.6992    -999.2500       0.1266       1.0263
   2231.0229      10.2495       0.9440       0.0300      53.9330      11.0062    -999.2500    -999.2500    3395.2485     412.5135     180.6694       0.0375       3.3246       0.0001       2.6874    -999.2500       0.2368       1.1369
   2231.1753      10.2290       1.6627       0.0300      54.6213      12.4056    -999.2500    -999.2500    3234.8657     401.8856     204.3232       0.0380       3.3381       0.0001       2.6739    -999.2500       0.4737       1.2468
   2231.3279      10.2364       3.4838       0.0275      55.3238      13.8074    -999.2500    -999.2500    3131.8630     407.4511     167.4977       0.0340       3.3236       0.0012       2.6665    -999.2500       0.5865       1.1846
   2231.4802      10.2554       5.7608       0.0240      56.0360      15.2103    -999.2500    -999.2500    3052.5930     419.7144     105.6579       0.0270       3.2976       0.0028       2.6615    -999.2500       0.6480       1.0512
   2231.6326      10.2709       7.0945       0.0283      55.6254      14.9086    -999.2500    -999.2500    2882.7383     417.7582     104.6022       0.0218       3.3126       0.0026       2.6847    -999.2500       0.9451       0.9139
   2231.7849      10.2849       8.0363       0.0358      54.6886      13.8988    -999.2500    -999.2500    2675.2617     409.8964     128.7919       0.0177       3.3445       0.0018       2.7197    -999.2500       1.3401       0.7751
   2231.9375      10.2960       7.4497       0.0387      53.3598      13.5106    -999.2500    -999.2500    2689.4250     409.8935     129.1677       0.0163       3.3663       0.0012       2.7402    -999.2500       1.4975       0.7692
   2232.0898      10.3060       6.2207       0.0397      51.7560      13.3837    -999.2500    -999.2500    2796.7402     413.1936     119.5348       0.0170       3.3838       0.0007       2.7547    -999.2500       1.5549       0.8192
   2232.2422      10.2914       5.2626       0.0418      50.8369      13.1665    -999.2500    -999.2500    3018.7761     425.8514     109.5350       0.0192       3.4077       0.0005       2.7615    -999.2500       1.3908       0.8788
   2232.3945      10.2663       4.4188       0.0443      50.2728      12.9113    -999.2500    -999.2500    3289.2278     442.4585      99.3804       0.0222       3.4343       0.0004       2.7650    -999.2500       1.1331       0.9425
   2232.5469      10.2788       4.9420       0.0351      50.4162      13.2316    -999.2500    -999.2500    3155.0876     442.0443     110.2277       0.0271       3.3903       0.0006       2.7444    -999.2500       1.2298       0.9188
   2232.6995      10.3068       6.0271       0.0211      51.0150      13.7884    -999.2500    -999.2500    2854.6985     434.6360     129.7048       0.0331       3.3173       0.0008       2.7139    -999.2500       1.4722       0.8594
   2232.8518      10.3291       5.8922       0.0145      52.4066      13.9952    -999.2500    -999.2500    2473.6853     409.0014     126.8640       0.0383       3.2790       0.0006       2.6870    -999.2500       1.5875       0.8968
   2233.0042      10.3491       5.2540       0.0110      54.1746      14.0576    -999.2500    -999.2500    2059.4045     375.8463     114.8144       0.0430       3.2551       0.0002       2.6615    -999.2500       1.6505       0.9742
   2233.1565      10.3353       4.8636       0.0142      55.8304      14.1416    -999.2500    -999.2500    1889.3230     356.1049     124.8786       0.0434       3.2635       0.0002       2.6477    -999.2500       1.5315       1.0199
   2233.3091      10.3073       4.5768       0.0202      57.2740      14.2345    -999.2500    -999.2500    1821.2104     341.9645     144.1768       0.0418       3.2855       0.0004       2.6387    -999.2500       1.3366       1.0524
   2233.4614      10.2866       5.0258       0.0252      57.3022      14.3796    -999.2500    -999.2500    2152.5349     355.3217     121.1728       0.0386       3.3171       0.0006       2.6537    -999.2500       1.3334       1.0309
   2233.6138      10.2691       5.7834       0.0297      56.4423      14.5466    -999.2500    -999.2500    2651.3447     380.2086      80.4313       0.0344       3.3527       0.0008       2.6787    -999.2500       1.4106       0.9868
   2233.7661      10.2991       5.9778       0.0289      55.5489      14.4019    -999.2500    -999.2500    3202.5940     405.8560      99.7571       0.0336       3.3509       0.0008       2.6935    -999.2500       1.4649       0.9467
   2233.9187      10.3486       5.9423       0.0259      54.6916      14.1300    -999.2500    -999.2500    3775.2502     431.8138     143.6037       0.0340       3.3339       0.0008       2.7039    -999.2500       1.5099       0.9082
   2234.0710      10.3789       6.0344       0.0275      54.1517      13.3419    -999.2500    -999.2500    3479.4639     419.6040     141.5869       0.0330       3.3170       0.0009       2.7095    -999.2500       1.4532       0.8127
   2234.2234      10.4014       6.1787       0.0310      53.8326      12.3421    -999.2500    -999.2500    2827.6709     391.7478     120.7691       0.0310       3.3000       0.0011       2.7130    -999.2500       1.3548       0.6938
   2234.3757      10.3963       5.8833       0.0306      53.5829      11.8099    -999.2500    -999.2500    2200.5276     349.7555     123.5780       0.0300       3.3052       0.0008       2.7108    -999.2500       1.4323       0.6463
   2234.5281      10.3799       5.4055       0.0286      53.3839      11.4715    -999.2500    -999.2500    1583.6107     301.8987     136.1885       0.0296       3.3197       0.0003       2.7063    -999.2500       1.5828       0.6283
   2234.6807      10.3715       4.5280       0.0305      53.3621      11.7516    -999.2500    -999.2500    1316.4364     281.4215     120.0335       0.0313       3.3367       0.0001       2.6948    -999.2500       1.3836       0.7324
   2234.8330      10.3665       3.4839       0.0340      53.4585      12.2894    -999.2500    -999.2500    1194.9603     272.3504      91.8952       0.0342       3.3547       0.0002       2.6803    -999.2500       1.0387       0.8873
   2234.9854      10.3813       3.7854       0.0290      54.4460      13.0189    -999.2500    -999.2500    1371.9657     300.7909      74.1446       0.0378       3.3632       0.0007       2.6604    -999.2500       0.8592       1.0033
   2235.1377      10.4043       4.6498       0.0205      55.7843      13.8287    -999.2500    -999.2500    1673.8325     344.9232      60.7394       0.0415       3.3677       0.0013       2.6384    -999.2500       0.7489       1.1031
   2235.2903      10.3989       4.8897       0.0201      56.9184      14.1141    -999.2500    -999.2500    2012.3571     374.1844      64.4818       0.0442       3.3516       0.0018       2.6384    -999.2500       0.5924       1.0908
