#------------------------------------------------------------------------------
#
#   Created by  : [OpenWorks] Log Export Utility (LEXP)
#   Created on  : 2016-05-23 11:57:24
#   Project     : CANT971
#   User        : R5K
#   Interpreter : PEP
#
#------------------------------------------------------------------------------
~VERSION INFORMATION
VERS. 2.0 : CWLS Log ASCII Standard - version 2.0
WRAP.  NO : One line per depth step
~WELL INFORMATION
#MNEMONIC   .UNIT                                           VALUE :DESCRIPTION
#------------------------------------------------------------------------------
STRT        .M                                           648.1292 :START DEPTH
STOP        .M                                          2685.5647 :STOP DEPTH
STEP        .M                                             0.1524 :STEP
NULL        .                                           -999.2500 :NULL VALUE
COMP        .                                   PEMEX EXPL & PROD :COMPANY
WELL        .                                                 81D :WELL
FLD         .                                           CANTARELL :FIELD
LOC         .                                             UNKNOWN :LOCATION
CNTY        .                                      CD. DEL CARMEN :COUNTY
STAT        .                                            CAMPECHE :STATE
CTRY        .                                              MEXICO :COUNTRY
SRVC        .                                             UNKNOWN :SERVICE COMPANY
DATE        .                                             UNKNOWN :LOG DATE
UWI         .                                          3060000666 :UNIQUE WELL ID
XCOORD      .                                       601717.100000 :SURFACE X
YCOORD      .                                      2142375.260000 :SURFACE Y
LAT         .                                           19.374067 :LATITUDE
LON         .                                          -92.031430 :LONGITUDE
ELEV        .M                                            30.0000 :SURFACE ELEV
ELEV_TYPEF  .b/elec                                            KB :ELEV TYPE
~CURVE INFORMATION
#MNEMONIC.UNIT        API CODE       : CURVE DESCRIPTION
#------------------------------------------------------------------------------
DEPTH    .M                          : Measured Depth
CALI     .in          UNKNOWN        : CALI:UNKNOWN:rC:NONE:v0 (auto-composite)
CGR      .API         UNKNOWN        : CGR:UNKNOWN:rC:NONE:v0 (auto-composite)
DRHO     .g/cm3       UNKNOWN        : DRHO:UNKNOWN:rC:NONE:v0 (auto-composite)
DT       .us/ft       UNKNOWN        : DT:DT:rC:NONE:v0 (auto-composite)
GR       .API         UNKNOWN        : GR:UNKNOWN:rC:NONE:v0 (auto-composite)
ILD      .ohmm        UNKNOWN        : ILD:UNKNOWN:rC:NONE:v0 (auto-composite)
ILM      .ohmm        UNKNOWN        : ILM:UNKNOWN:rC:NONE:v0 (auto-composite)
LLD      .ohmm        UNKNOWN        : LLD:UNKNOWN:rC:NONE:v0 (auto-composite)
LLS      .ohmm        UNKNOWN        : LLS:UNKNOWN:rC:NONE:v0 (auto-composite)
NPHI     .v/v_decimal UNKNOWN        : NPHI:NPHI:rC:NONE:v0 (auto-composite)
PEF      .b/elec      UNKNOWN        : PEF:UNKNOWN:rC:NONE:v0 (auto-composite)
POTA     .%           UNKNOWN        : POTA:UNKNOWN:rC:NONE:v0 (auto-composite)
RHOB     .g/cm3       UNKNOWN        : RHOB:UNKNOWN:rC:NONE:v0 (auto-composite)
THOR     .ppm         UNKNOWN        : THOR:UNKNOWN:rC:NONE:v0 (auto-composite)
URAN     .ppm         UNKNOWN        : URAN:UNKNOWN:rC:NONE:v0 (auto-composite)
~A     DEPTH         CALI          CGR         DRHO           DT           GR          ILD          ILM          LLD          LLS         NPHI          PEF         POTA         RHOB         THOR         URAN
# ...
   1920.0596      13.6419      30.3653    -999.2500    -999.2500      53.2573    -999.2500    -999.2500       0.0000       4.4702       0.0547    -999.2500       1.4252    -999.2500       2.1859       2.5407
   1920.2120      13.6134      30.0127    -999.2500    -999.2500      53.3797    -999.2500    -999.2500       0.0000       4.7572       0.0284    -999.2500       1.4032    -999.2500       2.2919       2.5662
   1920.3644      13.4991      29.1612    -999.2500    -999.2500      53.1064    -999.2500    -999.2500       0.0004       4.3760       0.0220    -999.2500       1.3589    -999.2500       2.2516       2.6671
   1920.5168      13.3648      28.1932    -999.2500    -999.2500      52.7402    -999.2500    -999.2500       0.0009       3.8405       0.0231    -999.2500       1.3094    -999.2500       2.1771       2.7856
   1920.6692      13.3167      26.2272    -999.2500    -999.2500      50.2099    -999.2500    -999.2500       0.0006       3.9788       0.0346    -999.2500       1.1812    -999.2500       2.3401       2.6609
   1920.8217      13.2891      24.0283    -999.2500    -999.2500      47.1664    -999.2500    -999.2500       0.0001       4.2728       0.0531    -999.2500       1.0347    -999.2500       2.5586       2.4794
   1920.9740      13.2795      25.2475    -999.2500    -999.2500      44.7695    -999.2500    -999.2500       0.0000       5.1407       0.0916    -999.2500       1.0877    -999.2500       2.7690       2.1224
   1921.1265      13.2740      27.2649    -999.2500    -999.2500      42.5203    -999.2500    -999.2500       0.0000       6.1411       0.1386    -999.2500       1.1872    -999.2500       2.9775       1.7244
   1921.2788      13.2905      27.5700    -999.2500    -999.2500      42.6712    -999.2500    -999.2500       2.4402       5.9765       0.0981    -999.2500       1.2356    -999.2500       2.7365       1.6174
   1921.4312      13.3119      27.4750    -999.2500    -999.2500      43.3769    -999.2500    -999.2500       5.4446       5.5425       0.0487    -999.2500       1.2721    -999.2500       2.3905       1.5784
   1921.5836      13.3144      31.6701    -999.2500    -999.2500      48.9266    -999.2500    -999.2500       5.5652       4.9425       0.0583    -999.2500       1.4614    -999.2500       2.6366       1.8737
   1921.7360      13.3124      36.8680    -999.2500    -999.2500      55.6025    -999.2500    -999.2500       5.0187       4.3040       0.0992    -999.2500       1.6864    -999.2500       3.0211       2.2472
   1921.8884      13.3084      39.2519    -999.2500    -999.2500      57.7099    -999.2500    -999.2500       5.0415       4.3400       0.2053    -999.2500       1.7878    -999.2500       3.2435       2.1705
   1922.0408      13.3039      40.9778    -999.2500    -999.2500      58.7434    -999.2500    -999.2500       5.1961       4.5321       0.3020    -999.2500       1.8603    -999.2500       3.4280       1.9885
   1922.1932      13.3091      39.3098    -999.2500    -999.2500      55.9951    -999.2500    -999.2500       5.3908       4.6842       0.2783    -999.2500       1.8063    -999.2500       2.9970       1.8118
   1922.3456      13.3166      36.8479    -999.2500    -999.2500      52.3530    -999.2500    -999.2500       5.5948       4.8272       0.1900    -999.2500       1.7228    -999.2500       2.4220       1.6363
   1922.4980      13.3119      37.1715    -999.2500    -999.2500      51.5138    -999.2500    -999.2500       5.5217       4.7569       0.1507    -999.2500       1.7892    -999.2500       2.3008       1.5370
   1922.6504      13.3044      38.1470    -999.2500    -999.2500      51.3169    -999.2500    -999.2500       5.3847       4.6374       0.1279    -999.2500       1.8907    -999.2500       2.2858       1.4555
   1922.8029      13.3119      38.7939    -999.2500    -999.2500      51.5260    -999.2500    -999.2500       5.4179       4.7255       0.1296    -999.2500       1.9234    -999.2500       2.3689       1.4084
   1922.9552      13.3229      39.3638    -999.2500    -999.2500      51.8288    -999.2500    -999.2500       5.4904       4.8615       0.1426    -999.2500       1.9399    -999.2500       2.4749       1.3694
   1923.1077      13.3380      40.7639    -999.2500    -999.2500      52.3692    -999.2500    -999.2500       5.5893       4.9703       0.1560    -999.2500       2.0127    -999.2500       2.5428       1.2777
   1923.2600      13.3540      42.3583    -999.2500    -999.2500      52.9649    -999.2500    -999.2500       5.6943       5.0728       0.1702    -999.2500       2.0987    -999.2500       2.6018       1.1737
   1923.4124      13.3505      45.1210    -999.2500    -999.2500      53.6544    -999.2500    -999.2500       5.4670       4.8901       0.1951    -999.2500       2.2292    -999.2500       2.8054       0.9344
   1923.5648      13.3425      48.1574    -999.2500    -999.2500      54.3658    -999.2500    -999.2500       5.1630       4.6416       0.2233    -999.2500       2.3702    -999.2500       3.0429       0.6635
   1923.7172      13.3394      49.2205    -999.2500    -999.2500      54.1250    -999.2500    -999.2500       5.0260       4.5211       0.2501    -999.2500       2.4140    -999.2500       3.1552       0.5622
   1923.8696      13.3374      49.8209    -999.2500    -999.2500      53.6587    -999.2500    -999.2500       4.9275       4.4301       0.2762    -999.2500       2.4350    -999.2500       3.2382       0.5007
   1924.0220      13.3464      47.8492    -999.2500    -999.2500      52.1864    -999.2500    -999.2500       5.1694       4.6974       0.2366    -999.2500       2.3130    -999.2500       3.2451       0.5380
   1924.1744      13.3578      45.2742    -999.2500    -999.2500      50.4843    -999.2500    -999.2500       5.4899       5.0473       0.1849    -999.2500       2.1574    -999.2500       3.2341       0.5985
   1924.3268      13.3608      46.8277    -999.2500    -999.2500      50.4852    -999.2500    -999.2500       5.6268       5.1532       0.1457    -999.2500       2.2188    -999.2500       3.4100       0.4138
   1924.4792      13.3618      49.3446    -999.2500    -999.2500      50.8794    -999.2500    -999.2500       5.7213       5.2027       0.1131    -999.2500       2.3308    -999.2500       3.6295       0.1718
   1924.6316      13.3579      48.9827    -999.2500    -999.2500      50.4824    -999.2500    -999.2500       5.8336       5.3026       0.1277    -999.2500       2.3123    -999.2500       3.6065       0.1665
   1924.7841      13.3530      47.9488    -999.2500    -999.2500      49.9006    -999.2500    -999.2500       5.9501       5.4141       0.1480    -999.2500       2.2633    -999.2500       3.5271       0.2165
   1924.9364      13.3633      45.1938    -999.2500    -999.2500      48.9711    -999.2500    -999.2500       6.1409       5.5796       0.1406    -999.2500       2.1673    -999.2500       3.0285       0.4185
   1925.0889      13.3773      42.0369    -999.2500    -999.2500      47.9599    -999.2500    -999.2500       6.3489       5.7576       0.1190    -999.2500       2.0603    -999.2500       2.4320       0.6560
   1925.2412      13.3747      40.0181    -999.2500    -999.2500      47.4325    -999.2500    -999.2500       6.4538       5.8312       0.0963    -999.2500       1.9772    -999.2500       2.3121       0.8214
   1925.3936      13.3682      38.2651    -999.2500    -999.2500      47.0199    -999.2500    -999.2500       6.5348       5.8807       0.0774    -999.2500       1.8997    -999.2500       2.3036       0.9699
   1925.5460      13.3703      35.4974    -999.2500    -999.2500      46.5287    -999.2500    -999.2500       6.5618       5.8502       0.0938    -999.2500       1.7436    -999.2500       2.2311       1.2221
   1925.6984      13.3742      32.4925    -999.2500    -999.2500      46.0197    -999.2500    -999.2500       6.5763       5.8012       0.1203    -999.2500       1.5691    -999.2500       2.1436       1.4986
   1925.8508      13.3770      31.5352    -999.2500    -999.2500      45.7819    -999.2500    -999.2500       6.5282       5.6441       0.1182    -999.2500       1.5076    -999.2500       2.1935       1.5794
