#------------------------------------------------------------------------------
#
#   Created by  : [OpenWorks] Log Export Utility (LEXP)
#   Created on  : 2016-05-23 11:55:58
#   Project     : CANT971
#   User        : R5K
#   Interpreter : PEP
#
#------------------------------------------------------------------------------
~VERSION INFORMATION
VERS. 2.0 : CWLS Log ASCII Standard - version 2.0
WRAP.  NO : One line per depth step
~WELL INFORMATION
#MNEMONIC   .UNIT                                           VALUE :DESCRIPTION
#------------------------------------------------------------------------------
STRT        .M                                           646.6334 :START DEPTH
STOP        .M                                          2755.8494 :STOP DEPTH
STEP        .M                                             0.1524 :STEP
NULL        .                                           -999.2500 :NULL VALUE
COMP        .                                   PEMEX EXPL & PROD :COMPANY
WELL        .                                                  42 :WELL
FLD         .                                           CANTARELL :FIELD
LOC         .                                             UNKNOWN :LOCATION
CNTY        .                                      CD. DEL CARMEN :COUNTY
STAT        .                                            CAMPECHE :STATE
CTRY        .                                              MEXICO :COUNTRY
SRVC        .                                             UNKNOWN :SERVICE COMPANY
DATE        .                                             UNKNOWN :LOG DATE
UWI         .                                          3060000464 :UNIQUE WELL ID
XCOORD      .                                       599690.710000 :SURFACE X
YCOORD      .                                      2143036.470000 :SURFACE Y
LAT         .                                           19.380144 :LATITUDE
LON         .                                          -92.050691 :LONGITUDE
ELEV        .M                                            26.7400 :SURFACE ELEV
ELEV_TYPE   .                                                  KB :ELEV TYPE
~CURVE INFORMATION
#MNEMONIC.UNIT        API CODE       : CURVE DESCRIPTION
#------------------------------------------------------------------------------
DEPTH    .M                          : Measured Depth
CALI     .inches      UNKNOWN        : CALI:Import:rC:NONE:v0 (auto-composite)
DRHO     .g/cm3       UNKNOWN        : DRHO:Import:rC:NONE:v0 (auto-composite)
DT       .us/ft       UNKNOWN        : DT:Import:rC:NONE:v0 (auto-composite)
GR       .API         UNKNOWN        : GR:Import:rC:NONE:v0 (auto-composite)
ILD      .ohm.m       UNKNOWN        : ILD:Import:rC:NONE:v0 (auto-composite)
ILM      .ohm.m       UNKNOWN        : ILM:Import:rC:NONE:v0 (auto-composite)
LLD      .ohm.m       UNKNOWN        : LLD:Import:rC:NONE:v0 (auto-composite)
LLS      .ohm.m       UNKNOWN        : LLS:Import:rC:NONE:v0 (auto-composite)
MSFL     .ohm.m       UNKNOWN        : MSFL:Import:rC:NONE:v0 (auto-composite)
NPHI     .v/v_decimal UNKNOWN        : NPHI:Import:rC:NONE:v0 (auto-composite)
PEF      .b/elec      UNKNOWN        : PEF:Import:rC:NONE:v0 (auto-composite)
RHOB     .g/cm3       UNKNOWN        : RHOB:Import:rC:NONE:v0 (auto-composite)
~A     DEPTH         CALI         DRHO           DT           GR          ILD          ILM          LLD          LLS         MSFL         NPHI          PEF         RHOB
# ...
   2160.8799      13.5503       0.0040      64.6685      46.5109    -999.2500    -999.2500    1493.8722     186.3748       1.3015       0.0185       3.4244       2.7550
   2161.0322      13.7140       0.0040      64.6680      45.8090    -999.2500    -999.2500    1811.1639     198.5550       1.3110       0.0165       3.3950       2.7480
   2161.1846      13.8533       0.0045      64.6670      44.2565    -999.2500    -999.2500    2072.0657     197.2106       1.3170       0.0160       3.3424       2.7365
   2161.3369      13.9920       0.0050      64.6660      42.7000    -999.2500    -999.2500    2333.2219     195.8650       1.3230       0.0165       3.2900       2.7250
   2161.4893      14.0852       0.0055      64.7460      41.1801    -999.2500    -999.2500    2546.7048     196.6980       1.3260       0.0174       3.2229       2.7260
   2161.6418      14.1780       0.0060      64.8260      39.6560    -999.2500    -999.2500    2760.4231     197.5320       1.3290       0.0185       3.1560       2.7270
   2161.7942      14.1039       0.0055      65.9813      38.8372    -999.2500    -999.2500    2880.7603     202.9996       1.3495       0.0194       3.1004       2.7330
   2161.9465      14.0300       0.0050      67.1380      38.0160    -999.2500    -999.2500    3001.2451     208.4740       1.3700       0.0199       3.0450       2.7390
   2162.0989      13.9278       0.0035      68.4816      38.1947    -999.2500    -999.2500    2871.0920     213.3392       1.4410       0.0197       3.0921       2.7450
   2162.2515      13.8260       0.0020      69.8270      38.3740    -999.2500    -999.2500    2740.7629     218.2110       1.5120       0.0185       3.1390       2.7510
   2162.4038      13.7333       0.0090      70.3825      39.5602    -999.2500    -999.2500    2375.5330     207.4829       1.6254       0.0165       3.1946       2.7495
   2162.5562      13.6410       0.0160      70.9380      40.7500    -999.2500    -999.2500    2009.7629     196.7390       1.7390       0.0179       3.2500       2.7480
   2162.7085      13.5474       0.0511      70.8425      42.0584    -999.2500    -999.2500    1774.9819     186.4667       1.6900       0.0275       3.2946       2.7385
   2162.8608      13.4540       0.0860      70.7470      43.3710    -999.2500    -999.2500    1539.8240     176.1780       1.6410       0.0454       3.3390       2.7290
   2163.0134      13.4560       0.1211      70.6465      42.2164    -999.2500    -999.2500    1429.3080     182.7588       1.6110       0.0718       3.4201       2.6719
   2163.1658      13.4580       0.1560      70.5460      41.0580    -999.2500    -999.2500    1318.6010     189.3510       1.5810       0.1002       3.5010       2.6150
   2163.3181      13.8521       0.1500      70.1336      39.0929    -999.2500    -999.2500    1187.0901     186.5931       1.5375       0.1242       3.3758       2.6195
   2163.4705      14.2450       0.1440      69.7210      37.1210    -999.2500    -999.2500    1055.3350     183.8300       1.4940       0.1372       3.2510       2.6240
   2163.6230      14.7157       0.1115      68.5982      35.6831    -999.2500    -999.2500     821.9002     160.5276       1.5509       0.1327       3.1233       2.6085
   2163.7754      15.1850       0.0790      67.4750      34.2400    -999.2500    -999.2500     588.0030     137.1790       1.6080       0.1168       2.9960       2.5930
   2163.9277      15.4008       0.0470      66.0439      34.3693    -999.2500    -999.2500     401.4547     106.6402       1.8862       0.0953       3.0371       2.6130
   2164.0801      15.6160       0.0150      64.6120      34.4990    -999.2500    -999.2500     214.5130      76.0370       2.1650       0.0728       3.0780       2.6330
   2164.2327      15.5509       0.0030      63.8937      33.9041    -999.2500    -999.2500     165.2890      62.6952       2.1565       0.0540       3.0364       2.6695
   2164.3850      15.4860      -0.0090      63.1750      33.3070    -999.2500    -999.2500     116.0340      49.3450       2.1480       0.0395       2.9950       2.7060
   2164.5374      15.3487      -0.0080      61.4946      31.4502    -999.2500    -999.2500     170.3525      58.5325       2.0750       0.0301       2.9549       2.7285
   2164.6897      15.2120      -0.0070      59.8130      29.5860    -999.2500    -999.2500     224.7120      67.7270       2.0020       0.0237       2.9150       2.7510
   2164.8420      15.2255      -0.0020      58.5091      30.2791    -999.2500    -999.2500    1098.4236     112.7467       1.9530       0.0184       2.9581       2.7440
   2164.9946      15.2390       0.0030      57.2040      30.9750    -999.2500    -999.2500    1972.9050     157.8060       1.9040       0.0155       3.0010       2.7370
   2165.1470      15.2530       0.0170      55.1760      33.5671    -999.2500    -999.2500    1955.6602     156.7710       1.8770       0.0165       3.1718       2.7415
   2165.2993      15.2670       0.0310      53.1460      36.1660    -999.2500    -999.2500    1938.3979     155.7350       1.8500       0.0199       3.3420       2.7460
   2165.4517      14.9800       0.0430      53.4843      38.9232    -999.2500    -999.2500    1745.0334     149.8159       1.8685       0.0237       3.3019       2.7405
   2165.6042      14.6940       0.0550      53.8230      41.6880    -999.2500    -999.2500    1551.4500     143.8900       1.8870       0.0274       3.2620       2.7350
   2165.7566      14.2708       0.0505      55.1112      45.1016    -999.2500    -999.2500    1351.5232     137.1892       1.8075       0.0305       3.2655       2.7450
   2165.9089      13.8490       0.0460      56.4010      48.5250    -999.2500    -999.2500    1151.3450     130.4800       1.7280       0.0329       3.2690       2.7550
   2166.0613      13.6311       0.0345      59.0567      47.5075    -999.2500    -999.2500    1173.0284     127.3437       1.6546       0.0344       3.2435       2.7480
   2166.2139      13.4140       0.0230      61.7160      46.4870    -999.2500    -999.2500    1194.7419     124.2030       1.5810       0.0341       3.2180       2.7410
   2166.3662      13.3694       0.0100      61.6950      43.8726    -999.2500    -999.2500    1364.6458     126.8915       1.6015       0.0308       3.1404       2.7175
   2166.5186      13.3250      -0.0030      61.6740      41.2500    -999.2500    -999.2500    1534.8060     129.5840       1.6220       0.0253       3.0630       2.6940
   2166.6709      13.2674      -0.0025      62.0500      39.6531    -999.2500    -999.2500    1883.5168     135.9758       1.7404       0.0181       3.0094       2.7025
   2166.8232      13.2100      -0.0020      62.4260      38.0510    -999.2500    -999.2500    2232.7981     142.3780       1.8590       0.0122       2.9560       2.7110
   2166.9758      13.1119       0.0005      60.4272      39.4546    -999.2500    -999.2500    2167.8843     148.4022       1.8435       0.0104       3.0116       2.7390
   2167.1282      13.0140       0.0030      58.4280      40.8630    -999.2500    -999.2500    2102.8560     154.4370       1.8280       0.0112       3.0670       2.7670
   2167.2805      12.9474       0.0090      53.6457      44.8226    -999.2500    -999.2500    2135.0701     168.3793       1.6057       0.0128       3.1201       2.7635
   2167.4329      12.8810       0.0150      48.8620      48.7960    -999.2500    -999.2500    2167.3450     182.3480       1.3830       0.0147       3.1730       2.7600
   2167.5854      12.8990       0.0315      49.4029      48.4471    -999.2500    -999.2500    2625.0601     206.9033       1.4130       0.0163       3.1575       2.7455
   2167.7378      12.9170       0.0480      49.9440      48.0970    -999.2500    -999.2500    3083.6960     231.5080       1.4430       0.0175       3.1420       2.7310
   2167.8901      12.9751       0.0400      51.6570      48.5816    -999.2500    -999.2500    3515.4321     250.1785       1.5224       0.0182       3.1245       2.6549
   2168.0425      13.0330       0.0320      53.3710      49.0680    -999.2500    -999.2500    3948.0920     268.8890       1.6020       0.0190       3.1070       2.5790
