#------------------------------------------------------------------------------
#
#   Created by  : [OpenWorks] Log Export Utility (LEXP)
#   Created on  : 2016-05-11 12:45:47
#   Project     : CANT971
#   User        : R5K
#   Interpreter : PEP
#
#------------------------------------------------------------------------------
~VERSION INFORMATION
VERS. 2.0 : CWLS Log ASCII Standard - version 2.0
WRAP.  NO : One line per depth step
~WELL INFORMATION
#MNEMONIC   .UNIT                                           VALUE :DESCRIPTION
#------------------------------------------------------------------------------
STRT        .M                                           801.4664 :START DEPTH
STOP        .M                                          3402.1724 :STOP DEPTH
STEP        .M                                             0.1524 :STEP
NULL        .                                           -999.2500 :NULL VALUE
COMP        .                                   PEMEX EXPL & PROD :COMPANY
WELL        .                                        CANTARELL-85 :WELL
FLD         .                                           CANTARELL :FIELD
LOC         .                                             UNKNOWN :LOCATION
CNTY        .                                      CD. DEL CARMEN :COUNTY
STAT        .                                            CAMPECHE :STATE
CTRY        .                                              MEXICO :COUNTRY
SRVC        .                                             UNKNOWN :SERVICE COMPANY
DATE        .                                             UNKNOWN :LOG DATE
UWI         .                                          3060000185 :UNIQUE WELL ID
XCOORD      .                                       604541.690000 :SURFACE X
YCOORD      .                                      2141649.620000 :SURFACE Y
LAT         .                                           19.367365 :LATITUDE
LON         .                                          -92.004578 :LONGITUDE
ELEV        .M                                            30.0000 :SURFACE ELEV
ELEV_TYPE   .                                                  KB :ELEV TYPE
~CURVE INFORMATION
#MNEMONIC.UNIT        API CODE       : CURVE DESCRIPTION
#------------------------------------------------------------------------------
DEPTH    .M                          : Measured Depth
CALI     .inches      UNKNOWN        : CALI:Import:rC:NONE:v0 (auto-composite)
DRHO     .g/cm3       UNKNOWN        : DRHO:Import:rC:NONE:v0 (auto-composite)
DT       .us/ft       UNKNOWN        : DT:Import:rC:NONE:v0 (auto-composite)
GR       .API         UNKNOWN        : GR:Import:rC:NONE:v0 (auto-composite)
ILD      .ohm.m       UNKNOWN        : ILD:Import:rC:NONE:v0 (auto-composite)
ILM      .ohm.m       UNKNOWN        : ILM:Import:rC:NONE:v0 (auto-composite)
NPHI     .v/v_decimal UNKNOWN        : NPHI:Import:rC:NONE:v0 (auto-composite)
RHOB     .g/cm3       UNKNOWN        : RHOB:Import:rC:NONE:v0 (auto-composite)
SN       .ohm.m       UNKNOWN        : SN:Import:rC:NONE:v0 (auto-composite)
SP       .mV          UNKNOWN        : SP:Import:rC:NONE:v0 (auto-composite)
~A     DEPTH         CALI         DRHO           DT           GR          ILD          ILM         NPHI         RHOB           SN           SP
# ...
   2858.2568      14.2241       0.0269      87.6475      45.9149       1.7069    -999.2500      24.5171       2.5034    -999.2500    -999.2500
   2858.4092      14.3781       0.0299      89.8092      46.3648       1.7099    -999.2500      24.4522       2.5059    -999.2500    -999.2500
   2858.5615      14.4377       0.0489      89.8303      46.6065       1.7226    -999.2500      23.3673       2.5249    -999.2500    -999.2500
   2858.7139      14.4942       0.0684      89.7768      46.8414       1.7356    -999.2500      22.2487       2.5444    -999.2500    -999.2500
   2858.8665      14.5812       0.0496      88.4068      46.1565       1.7636    -999.2500      22.2811       2.5237    -999.2500    -999.2500
   2859.0188      14.6692       0.0296      86.9938      45.4408       1.7921    -999.2500      22.3545       2.5017    -999.2500    -999.2500
   2859.1711      14.7848       0.0309      87.3138      45.4887       1.7872    -999.2500      22.5808       2.5025    -999.2500    -999.2500
   2859.3235      14.9013       0.0329      87.6938      45.5629       1.7812    -999.2500      22.8120       2.5040    -999.2500    -999.2500
   2859.4761      15.0178       0.0461      89.7013      46.9556       1.7592    -999.2500      22.7813       2.5312    -999.2500    -999.2500
   2859.6284      15.1343       0.0596      91.7611      48.3858       1.7367    -999.2500      22.7414       2.5592    -999.2500    -999.2500
   2859.7808      15.1288       0.0581      91.6268      48.2855       1.7379    -999.2500      22.5236       2.5566    -999.2500    -999.2500
   2859.9331      15.1193       0.0561      91.4163      48.1376       1.7399    -999.2500      22.3008       2.5531    -999.2500    -999.2500
   2860.0854      15.0793       0.0483      88.2477      48.2163       1.7574    -999.2500      21.9820       2.5418    -999.2500    -999.2500
   2860.2380      15.0383       0.0403      84.9823      48.3023       1.7754    -999.2500      21.6609       2.5303    -999.2500    -999.2500
   2860.3904      15.0520       0.0308      84.8802      49.1767       1.7644    -999.2500      22.2937       2.5169    -999.2500    -999.2500
   2860.5427      15.0675       0.0213      84.8897      50.0770       1.7524    -999.2500      22.9568       2.5034    -999.2500    -999.2500
   2860.6951      15.1871       0.0239      85.5291      49.8025       1.7559    -999.2500      22.7431       2.5040    -999.2500    -999.2500
   2860.8477      15.3101       0.0269      86.1894      49.4861       1.7599    -999.2500      22.4984       2.5050    -999.2500    -999.2500
   2861.0000      15.5449       0.0415      88.5140      48.2589       1.7552    -999.2500      22.6545       2.5137    -999.2500    -999.2500
   2861.1523      15.7834       0.0565      90.8868      46.9984       1.7501    -999.2500      22.8241       2.5227    -999.2500    -999.2500
   2861.3047      15.8549       0.0546      89.6001      46.0207       1.7185    -999.2500      22.7362       2.5225    -999.2500    -999.2500
   2861.4573      15.9209       0.0521      88.1846      45.0516       1.6860    -999.2500      22.6393       2.5220    -999.2500    -999.2500
   2861.6096      16.0508       0.0404      89.0296      44.6110       1.6196    -999.2500      21.7960       2.5118    -999.2500    -999.2500
   2861.7620      16.1828       0.0284      89.9520      44.1870       1.5522    -999.2500      20.9291       2.5013    -999.2500    -999.2500
   2861.9143      16.3332       0.0474      89.9221      42.7933       1.4997    -999.2500      21.0160       2.5238    -999.2500    -999.2500
   2862.0667      16.4842       0.0674      89.8592      41.3664       1.4478    -999.2500      21.1359       2.5473    -999.2500    -999.2500
   2862.2192      16.5224       0.0670      90.1032      41.6803       1.4295    -999.2500      21.7166       2.5465    -999.2500    -999.2500
   2862.3716      16.5569       0.0660      90.3574      42.0554       1.4125    -999.2500      22.3119       2.5450    -999.2500    -999.2500
   2862.5239      16.5948       0.0447      91.2084      43.7045       1.4120    -999.2500      23.9601       2.5115    -999.2500    -999.2500
   2862.6763      16.6328       0.0227      92.0789      45.3907       1.4120    -999.2500      25.6418       2.4770    -999.2500    -999.2500
   2862.8289      16.7008       0.0351      92.0205      47.1164       1.4120    -999.2500      25.3904       2.4808    -999.2500    -999.2500
   2862.9812      16.7698       0.0486      91.9291      48.8433       1.4120    -999.2500      25.0708       2.4858    -999.2500    -999.2500
   2863.1335      16.7110       0.0471      91.4471      49.3800       1.4149    -999.2500      25.0600       2.5035    -999.2500    -999.2500
   2863.2859      16.6480       0.0451      90.9522      49.8778       1.4179    -999.2500      25.0600       2.5215    -999.2500    -999.2500
   2863.4385      16.7312       0.0392      89.6303      51.7884       1.4117    -999.2500      24.6538       2.5167    -999.2500    -999.2500
   2863.5908      16.8192       0.0332      88.2828      53.7466       1.4052    -999.2500      24.2342       2.5112    -999.2500    -999.2500
   2863.7432      16.7978       0.0340      88.4011      53.6220       1.4050    -999.2500      24.3120       2.5110    -999.2500    -999.2500
   2863.8955      16.7728       0.0350      88.5701      53.4255       1.4050    -999.2500      24.4067       2.5110    -999.2500    -999.2500
   2864.0479      16.8572       0.0403      90.0276      52.4588       1.4050    -999.2500      24.3496       2.5129    -999.2500    -999.2500
   2864.2004      16.9452       0.0458      91.5269      51.4700       1.4050    -999.2500      24.2871       2.5149    -999.2500    -999.2500
   2864.3528      16.9359       0.0518      91.2760      50.0952       1.4506    -999.2500      23.3533       2.5237    -999.2500    -999.2500
   2864.5051      16.9234       0.0578      90.9649      48.7083       1.4975    -999.2500      22.3936       2.5327    -999.2500    -999.2500
   2864.6575      16.8804       0.0570      89.5171      47.8641       1.3997    -999.2500      22.8580       2.5408    -999.2500    -999.2500
   2864.8101      16.8364       0.0560      88.0328      47.0375       1.2973    -999.2500      23.3724       2.5488    -999.2500    -999.2500
   2864.9624      16.8045       0.0526      86.3307      46.2536       1.3090    -999.2500      23.3527       2.5485    -999.2500    -999.2500
   2865.1147      16.7730       0.0491      84.6287      45.4710       1.3245    -999.2500      23.3143       2.5480    -999.2500    -999.2500
   2865.2671      16.7720       0.0417      83.2589      44.0440       1.3836    -999.2500      22.9958       2.5436    -999.2500    -999.2500
   2865.4197      16.7720       0.0342      81.9055      42.5940       1.4442    -999.2500      22.6683       2.5391    -999.2500    -999.2500
   2865.5720      16.7691       0.0364      82.4981      42.7257       1.5319    -999.2500      21.8431       2.5327    -999.2500    -999.2500
   2865.7244      16.7661       0.0389      83.1578      42.9047       1.6204    -999.2500      21.0032       2.5262    -999.2500    -999.2500
   2865.8767      16.7263       0.0472      87.3857      43.7590       1.7956    -999.2500      19.0774       2.5207    -999.2500    -999.2500
   2866.0291      16.6853       0.0557      91.7312      44.6341       1.9735    -999.2500      17.1176       2.5152    -999.2500    -999.2500
   2866.1816      16.4594       0.0444      91.5139      46.0705       1.9858    -999.2500      17.1366       2.4432    -999.2500    -999.2500
   2866.3340      16.2274       0.0324      91.1348      47.5248       1.9928    -999.2500      17.2260       2.3692    -999.2500    -999.2500
   2866.4863      15.7567       0.0359      92.8836      50.3968       1.9930    -999.2500      17.9237       2.3694    -999.2500    -999.2500
   2866.6387      15.2782       0.0399      94.7040      53.3176       1.9930    -999.2500      18.6412       2.3719    -999.2500    -999.2500
