#------------------------------------------------------------------------------
#
#   Created by  : [OpenWorks] Log Export Utility (LEXP)
#   Created on  : 2016-05-23 11:53:41
#   Project     : CANT971
#   User        : R5K
#   Interpreter : PEP
#
#------------------------------------------------------------------------------
~VERSION INFORMATION
VERS. 2.0 : CWLS Log ASCII Standard - version 2.0
WRAP.  NO : One line per depth step
~WELL INFORMATION
#MNEMONIC   .UNIT                                           VALUE :DESCRIPTION
#------------------------------------------------------------------------------
STRT        .M                                           901.1412 :START DEPTH
STOP        .M                                          2449.6777 :STOP DEPTH
STEP        .M                                             0.1524 :STEP
NULL        .                                           -999.2500 :NULL VALUE
COMP        .                                   PEMEX EXPL & PROD :COMPANY
WELL        .                                                  25 :WELL
FLD         .                                           CANTARELL :FIELD
LOC         .                                             UNKNOWN :LOCATION
CNTY        .                                      CD. DEL CARMEN :COUNTY
STAT        .                                            CAMPECHE :STATE
CTRY        .                                              MEXICO :COUNTRY
SRVC        .                                             UNKNOWN :SERVICE COMPANY
DATE        .                                             UNKNOWN :LOG DATE
UWI         .                                          3060000154 :UNIQUE WELL ID
XCOORD      .                                       603358.080000 :SURFACE X
YCOORD      .                                      2145091.420000 :SURFACE Y
LAT         .                                           19.398528 :LATITUDE
LON         .                                          -92.015660 :LONGITUDE
ELEV        .M                                            27.1400 :SURFACE ELEV
ELEV_TYPE   .                                                  KB :ELEV TYPE
~CURVE INFORMATION
#MNEMONIC.UNIT        API CODE       : CURVE DESCRIPTION
#------------------------------------------------------------------------------
DEPTH    .M                          : Measured Depth
CALI     .in          UNKNOWN        : CALI:registros:rC:NONE:v0 (auto-composite)
DRHO     .g/cm3       UNKNOWN        : DRHO:registros:rC:NONE:v0 (auto-composite)
DT       .us/ft       UNKNOWN        : DT:registros:rC:NONE:v0 (auto-composite)
GR       .api         UNKNOWN        : GR:registros:rC:NONE:v0 (auto-composite)
ILD      .ohmm        UNKNOWN        : ILD:registros:rC:NONE:v0 (auto-composite)
LLD      .ohmm        UNKNOWN        : LLD:registros:rC:NONE:v0 (auto-composite)
LLS      .ohmm        UNKNOWN        : LLS:registros:rC:NONE:v0 (auto-composite)
MSFL     .ohmm        UNKNOWN        : MSFL:registros:rC:NONE:v0 (auto-composite)
NPHI     .v/v_decimal UNKNOWN        : NPHI:registros:rC:NONE:v0 (auto-composite)
PEF      .b/elec      UNKNOWN        : PEF:registros:rC:NONE:v0 (auto-composite)
RHOB     .g/cm3       UNKNOWN        : RHOB:registros:rC:NONE:v0 (auto-composite)
~A     DEPTH         CALI         DRHO           DT           GR          ILD          LLD          LLS         MSFL         NPHI          PEF         RHOB
# ...
   2438.5525       4.0000    -999.2500      65.6586      54.9810    -999.2500       4.6982       4.7730      14.3881       0.1643    -999.2500    -999.2500
   2438.7048       4.0000    -999.2500      65.7620      55.4940    -999.2500       4.1060       4.7730      10.4900       0.1533    -999.2500    -999.2500
   2438.8572       4.0000    -999.2500      70.9878      55.4676    -999.2500       4.1070       4.6937      21.5196       0.1533    -999.2500    -999.2500
   2439.0095       4.0000    -999.2500      76.2600      55.4410    -999.2500       4.1080       4.6140      32.5940       0.1534    -999.2500    -999.2500
   2439.1621       4.0000    -999.2500      87.0284      54.1687    -999.2500       4.1674       4.6210      32.4728       0.1542    -999.2500    -999.2500
   2439.3145       4.0000    -999.2500      97.8940      52.8910    -999.2500       4.2270       4.6280      32.3510       0.1550    -999.2500    -999.2500
   2439.4668       4.0000    -999.2500     105.7983      51.0969    -999.2500       5.1939       5.0955      24.4331       0.1583    -999.2500    -999.2500
   2439.6191       4.0000    -999.2500     113.7750      49.2950    -999.2500       6.1650       5.5650      16.4810       0.1616    -999.2500    -999.2500
   2439.7717       4.0000    -999.2500     119.2387      45.7663    -999.2500       6.1490       5.5620      16.4985       0.1658    -999.2500    -999.2500
   2439.9241       4.0000    -999.2500     124.7530      42.2220    -999.2500       6.1330       5.5590      16.5160       0.1700    -999.2500    -999.2500
   2440.0764       4.0000    -999.2500     127.2085      42.2834    -999.2500       5.5798       5.4488      19.3116       0.1700    -999.2500    -999.2500
   2440.2288       4.0000    -999.2500     129.6870      42.3450    -999.2500       5.0240       5.3380      22.1200       0.1700    -999.2500    -999.2500
   2440.3813       4.0000    -999.2500     131.1018      44.7918    -999.2500       4.8823       5.3026      22.1080       0.1697    -999.2500    -999.2500
   2440.5337       4.0000    -999.2500     132.5300      47.2500    -999.2500       4.7400       5.2670      22.0960       0.1694    -999.2500    -999.2500
   2440.6860       4.0000    -999.2500     135.6057      53.9698    -999.2500       4.4372       5.0435      20.9607       0.1652    -999.2500    -999.2500
   2440.8384       4.0000    -999.2500     138.7110      60.7220    -999.2500       4.1330       4.8190      19.8200       0.1609    -999.2500    -999.2500
   2440.9907       4.0000    -999.2500    -999.2500      77.8716    -999.2500       3.3270       4.4085      19.8659       0.1521    -999.2500    -999.2500
   2441.1433       4.0000    -999.2500    -999.2500      95.1060    -999.2500       2.5170       3.9960      19.9120       0.1433    -999.2500    -999.2500
   2441.2957       4.0000    -999.2500    -999.2500     125.1025    -999.2500       2.5175       3.5052      26.2519       0.1433    -999.2500    -999.2500
   2441.4480       4.0000    -999.2500    -999.2500     155.2510    -999.2500       2.5180       3.0120      32.6240       0.1433    -999.2500    -999.2500
   2441.6003       4.0000    -999.2500    -999.2500     154.4980    -999.2500       2.5419       3.0230      32.1797       0.1432    -999.2500    -999.2500
   2441.7529       4.0000    -999.2500    -999.2500     153.7410    -999.2500       2.5660       3.0340      31.7330       0.1431    -999.2500    -999.2500
   2441.9053       4.0000    -999.2500    -999.2500     130.9837    -999.2500       2.8809       3.5999      20.6970       0.1349    -999.2500    -999.2500
   2442.0576       4.0000    -999.2500    -999.2500     108.1420    -999.2500       3.1970       4.1680       9.6200       0.1267    -999.2500    -999.2500
   2442.2100       4.0000    -999.2500    -999.2500      91.4071    -999.2500       3.3537       4.1565      10.2578       0.1267    -999.2500    -999.2500
   2442.3625       4.0000    -999.2500    -999.2500      74.6080    -999.2500       3.5110       4.1450      10.8980       0.1267    -999.2500    -999.2500
   2442.5149       4.0000    -999.2500    -999.2500      67.5081    -999.2500       3.5010       3.8596      10.8915       0.1278    -999.2500    -999.2500
   2442.6672       4.0000    -999.2500    -999.2500      60.3800    -999.2500       3.4910       3.5730      10.8850       0.1289    -999.2500    -999.2500
   2442.8196       4.0000    -999.2500    -999.2500      56.8637    -999.2500       3.1063       3.2202      10.6540       0.1311    -999.2500    -999.2500
   2442.9719       4.0000    -999.2500    -999.2500      53.3330    -999.2500       2.7200       2.8660      10.4220       0.1332    -999.2500    -999.2500
   2443.1245       4.0000    -999.2500    -999.2500      55.8756    -999.2500       2.9236       2.9234       9.1272       0.1399    -999.2500    -999.2500
   2443.2769       4.0000    -999.2500    -999.2500      58.4290    -999.2500       3.1280       2.9810       7.8270       0.1467    -999.2500    -999.2500
   2443.4292       4.0000    -999.2500    -999.2500      58.2559    -999.2500       3.0991       2.9710       5.5514       0.1465    -999.2500    -999.2500
   2443.5815       4.0000    -999.2500    -999.2500      58.0820    -999.2500       3.0700       2.9610       3.2660       0.1464    -999.2500    -999.2500
   2443.7341       4.0000    -999.2500    -999.2500      58.1873    -999.2500       2.5192       2.7240       3.2715       0.1422    -999.2500    -999.2500
   2443.8865       4.0000    -999.2500    -999.2500      58.2930    -999.2500       1.9660       2.4860       3.2770       0.1381    -999.2500    -999.2500
   2444.0388       4.0000    -999.2500    -999.2500      60.8606    -999.2500       1.5619       2.0141       3.2715       0.1421    -999.2500    -999.2500
   2444.1912       4.0000    -999.2500    -999.2500      63.4400    -999.2500       1.1560       1.5400       3.2660       0.1462    -999.2500    -999.2500
   2444.3438       4.0000    -999.2500    -999.2500      69.7586    -999.2500       1.1570       1.2891       3.1568       0.1459    -999.2500    -999.2500
   2444.4961       4.0000    -999.2500    -999.2500      76.1070    -999.2500       1.1580       1.0370       3.0470       0.1455    -999.2500    -999.2500
   2444.6484       4.0000    -999.2500    -999.2500      79.5477    -999.2500       1.1834       1.0400       2.9019       0.1382    -999.2500    -999.2500
   2444.8008       4.0000    -999.2500    -999.2500      83.0050    -999.2500       1.2090       1.0430       2.7560       0.1309    -999.2500    -999.2500
   2444.9531       4.0000    -999.2500    -999.2500      82.6145    -999.2500       1.2728       1.1183       2.8144       0.1318    -999.2500    -999.2500
   2445.1057       4.0000    -999.2500    -999.2500      82.2220    -999.2500       1.3370       1.1940       2.8730       0.1328    -999.2500    -999.2500
   2445.2581       4.0000    -999.2500    -999.2500      82.6265    -999.2500       1.4996       1.4309       4.8914       0.1580    -999.2500    -999.2500
   2445.4104       4.0000    -999.2500    -999.2500      83.0330    -999.2500       1.6630       1.6690       6.9200       0.1833    -999.2500    -999.2500
   2445.5627       4.0000    -999.2500    -999.2500      82.6575    -999.2500       1.8969       2.0081      19.8432       0.1826    -999.2500    -999.2500
   2445.7153       4.0000    -999.2500    -999.2500      82.2800    -999.2500       2.1320       2.3490      32.8340       0.1819    -999.2500    -999.2500
   2445.8677       4.0000    -999.2500    -999.2500      82.8160    -999.2500       2.6371       2.5451      32.4427       0.1577    -999.2500    -999.2500
   2446.0200       4.0000    -999.2500    -999.2500      83.3540    -999.2500       3.1440       2.7420      32.0500       0.1333    -999.2500    -999.2500
   2446.1724       4.0000    -999.2500    -999.2500      93.4724    -999.2500       3.1290       2.7365      26.1988       0.1335    -999.2500    -999.2500
   2446.3250       4.0000    -999.2500    -999.2500     103.6300    -999.2500       3.1140       2.7310      20.3250       0.1336    -999.2500    -999.2500
