#------------------------------------------------------------------------------
#
#   Created by  : [OpenWorks] Log Export Utility (LEXP)
#   Created on  : 2016-05-23 11:51:58
#   Project     : CANT971
#   User        : R5K
#   Interpreter : PEP
#
#------------------------------------------------------------------------------
~VERSION INFORMATION
VERS. 2.0 : CWLS Log ASCII Standard - version 2.0
WRAP.  NO : One line per depth step
~WELL INFORMATION
#MNEMONIC   .UNIT                                           VALUE :DESCRIPTION
#------------------------------------------------------------------------------
STRT        .M                                           695.7060 :START DEPTH
STOP        .M                                          3054.7056 :STOP DEPTH
STEP        .M                                             0.1524 :STEP
NULL        .                                           -999.2500 :NULL VALUE
COMP        .                                   PEMEX EXPL & PROD :COMPANY
WELL        .                                                 17D :WELL
FLD         .                                           CANTARELL :FIELD
LOC         .                                             UNKNOWN :LOCATION
CNTY        .                                      CD. DEL CARMEN :COUNTY
STAT        .                                            CAMPECHE :STATE
CTRY        .                                              MEXICO :COUNTRY
SRVC        .                                             UNKNOWN :SERVICE COMPANY
DATE        .                                             UNKNOWN :LOG DATE
UWI         .                                          3060000460 :UNIQUE WELL ID
XCOORD      .                                       603362.626000 :SURFACE X
YCOORD      .                                      2145093.910000 :SURFACE Y
LAT         .                                           19.398550 :LATITUDE
LON         .                                          -92.015617 :LONGITUDE
ELEV        .M                                            27.1400 :SURFACE ELEV
ELEV_TYPE   .                                                  KB :ELEV TYPE
~CURVE INFORMATION
#MNEMONIC.UNIT        API CODE       : CURVE DESCRIPTION
#------------------------------------------------------------------------------
DEPTH    .M                          : Measured Depth
CALI     .in          UNKNOWN        : CALI:UNKNOWN:rC:NONE:v0 (auto-composite)
DT       .us/ft       UNKNOWN        : DT:DT:rC:NONE:v0 (auto-composite)
GR       .API         UNKNOWN        : GR:UNKNOWN:rC:NONE:v0 (auto-composite)
ILD      .ohmm        UNKNOWN        : ILD:UNKNOWN:rC:NONE:v0 (auto-composite)
LLD      .ohmm        UNKNOWN        : LLD:UNKNOWN:rC:NONE:v0 (auto-composite)
LLS      .ohmm        UNKNOWN        : LLS:UNKNOWN:rC:NONE:v0 (auto-composite)
MSFL     .ohmm        UNKNOWN        : MSFL:UNKNOWN:rC:NONE:v0 (auto-composite)
NPHI     .v/v_decimal UNKNOWN        : NPHI:UNKNOWN:rC:NONE:v0 (auto-composite)
PEF      .b/elec      UNKNOWN        : PEF:UNKNOWN:rC:NONE:v0 (auto-composite)
RHOB     .g/cm3       UNKNOWN        : RHOB:UNKNOWN:rC:NONE:v0 (auto-composite)
~A     DEPTH         CALI           DT           GR          ILD          LLD          LLS         MSFL         NPHI          PEF         RHOB
# ...
   2334.3108       6.3385      61.5498      40.6183    -999.2500     150.4958     148.1133    1013.1539       0.0672       3.5380       2.7845
   2334.4631       6.3360      62.0903      46.1220    -999.2500     118.1730     121.0450     996.1330       0.0727       3.5060       2.7810
   2334.6155       6.3350      62.1024      49.1157    -999.2500     120.7401     124.1020     793.1448       0.0718       3.4895       2.7760
   2334.7681       6.3340      62.4595      52.1290    -999.2500     123.3240     127.1690     589.4870       0.0710       3.4730       2.7710
   2334.9204       6.3340      66.6253      53.3194    -999.2500     137.3857     141.1860     353.0822       0.0696       3.4605       2.7650
   2335.0728       6.3340      70.3315      54.5120    -999.2500     151.4730     155.2510     115.8670       0.0681       3.4480       2.7590
   2335.2251       6.3330      71.1807      52.8719    -999.2500     178.0783     178.3146     130.4875       0.0649       3.3875       2.7675
   2335.3777       6.3320      71.0357      51.2260    -999.2500     204.7780     201.4600     145.1600       0.0615       3.3270       2.7760
   2335.5300       6.3320      68.3609      48.4247    -999.2500     253.4961     238.7130     174.5579       0.0590       3.2950       2.7855
   2335.6824       6.3320      65.6721      45.6040    -999.2500     302.5500     276.1030     204.0640       0.0565       3.2630       2.7950
   2335.8347       6.3320      63.0875      46.1258    -999.2500     391.3249     345.0797     219.9321       0.0550       3.3100       2.7970
   2335.9873       6.3320      60.6401      46.6530    -999.2500     481.0100     414.2080     235.8350       0.0535       3.3570       2.7990
   2336.1396       6.3320      59.4171      47.3082    -999.2500     629.4247     533.0685     275.7022       0.0494       3.4070       2.8080
   2336.2920       6.3320      58.6174      47.9670    -999.2500     778.6640     652.2050     315.6620       0.0452       3.4570       2.8170
   2336.4443       6.3320      58.9072      44.5090    -999.2500     421.2309     764.2902     375.0532       0.0402       3.5325       2.8285
   2336.5967       6.3320      59.4230      41.0480    -999.2500      63.4960     876.6500     434.5900       0.0351       3.6080       2.8400
   2336.7493       6.3320      59.4959      36.3877    -999.2500     482.9932     809.3761     708.4515       0.0338       3.6340       2.8410
   2336.9016       6.3320      59.6695      31.7080    -999.2500     904.2430     741.9290     983.0180       0.0326       3.6600       2.8420
   2337.0540       6.3320      60.8459      30.7546    -999.2500     736.0626     608.0170     949.1927       0.0330       3.5730       2.8460
   2337.2063       6.3320      61.1207      29.7940    -999.2500     566.6160     473.7430     915.2760       0.0334       3.4860       2.8500
   2337.3589       6.3320      57.6442      28.4373    -999.2500     543.4813     459.8666     796.5837       0.0323       3.4270       2.8609
   2337.5112       6.3320      53.1631      27.0680    -999.2500     520.1320     445.9510     677.5560       0.0312       3.3680       2.8720
   2337.6636       6.3320      50.1875      25.4198    -999.2500     550.2227     482.7477     688.5388       0.0316       3.3805       2.8735
   2337.8159       6.3320      49.3075      23.7640    -999.2500     580.4510     519.6530     699.5540       0.0321       3.3930       2.8750
   2337.9685       6.3320      54.1200      25.4298    -999.2500     593.4899     546.7349     507.9034       0.0334       3.3890       2.8680
   2338.1208       6.3320      60.8188      27.0980    -999.2500     606.5480     573.9000     315.6630       0.0347       3.3850       2.8610
   2338.2732       6.3320      64.4575      31.6211    -999.2500     640.3327     608.1456     370.3403       0.0364       3.3270       2.8520
   2338.4255       6.3320      67.3672      36.1660    -999.2500     674.2800     642.5010     425.1930       0.0380       3.2690       2.8430
   2338.5779       6.3330      68.3001      39.8629    -999.2500     660.7040     627.5863     687.1963       0.0401       3.2525       2.8405
   2338.7305       6.3340      68.4601      43.5840    -999.2500     647.0390     612.6220     950.0720       0.0423       3.2360       2.8380
   2338.8828       6.3340      67.7191      42.6862    -999.2500     627.1235     593.8041    1140.2037       0.0412       3.2415       2.8450
   2339.0352       6.3340      67.1859      41.7810    -999.2500     607.0430     574.9210    1330.9930       0.0402       3.2470       2.8520
   2339.1875       6.3330      68.0000      37.7829    -999.2500     691.3273     652.1782    1357.2261       0.0385       3.3100       2.8565
   2339.3401       6.3320      69.1988      33.7640    -999.2500     776.0500     729.7120    1383.5530       0.0368       3.3730       2.8610
   2339.4924       6.3320      70.5700      32.2851    -999.2500     415.3970     857.8942    1453.6055       0.0366       3.4320       2.8610
   2339.6448       6.3320      71.6843      30.8030    -999.2500      53.9860     986.5520    1523.9180       0.0364       3.4910       2.8610
   2339.7971       6.3320      70.6546      31.1478    -999.2500     139.2770    1070.5194    1258.3495       0.0349       3.4620       2.8590
   2339.9497       6.3320      68.4831      31.4940    -999.2500     224.8950    1154.6740     992.1890       0.0335       3.4330       2.8570
   2340.1021       6.3330      63.7216      31.4626    -999.2500     273.4583    1192.3890     867.3909       0.0332       3.4835       2.8555
   2340.2544       6.3340      58.2541      31.4310    -999.2500     322.2920    1230.1930     742.2990       0.0329       3.5340       2.8540
   2340.4067       6.3350      57.6171      30.6734    -999.2500     313.4389    1202.9059     787.1019       0.0339       3.5515       2.8505
   2340.5591       6.3360      57.4605      29.9090    -999.2500     304.5070    1175.5510     832.0160       0.0350       3.5690       2.8470
   2340.7117       6.3350      58.2457      30.4989    -999.2500     193.6385    1056.1495     875.7236       0.0382       3.5115       2.8326
   2340.8640       6.3340      59.2226      31.0960    -999.2500      81.4080     936.4370     919.5450       0.0415       3.4540       2.8180
   2341.0164       6.3345      58.1711      31.0950    -999.2500     499.1026     856.0124     967.5139       0.0391       3.3261       2.8180
   2341.1687       6.3350      57.4005      31.0940    -999.2500     919.9650     775.3680    1015.6140       0.0366       3.1980       2.8180
   2341.3213       6.3385      58.0930      29.3544    -999.2500     904.1782     763.6982    1243.3832       0.0366       3.1980       2.8210
   2341.4736       6.3420      59.0672      27.6070    -999.2500     888.3210     751.9950    1471.8030       0.0366       3.1980       2.8240
   2341.6260       6.3405      59.1938      27.6125    -999.2500     763.6047     643.6487    1471.5648       0.0367       3.3045       2.8290
   2341.7783       6.3390      58.2640      27.6180    -999.2500     637.9140     534.9790    1471.3260       0.0368       3.4110       2.8340
   2341.9309       6.3390      52.8873      30.4735    -999.2500     428.7322     363.0432    1428.9504       0.0405       3.3890       2.8355
   2342.0833       6.3390      48.6064      33.3380    -999.2500     218.8980     190.5730    1386.4430       0.0442       3.3670       2.8370
   2342.2356       6.3390      51.3107      33.3280    -999.2500     265.4126     234.7430    1155.4589       0.0425       3.3670       2.8405
   2342.3879       6.3390      55.6600      33.3180    -999.2500     311.8540     279.0560     923.7270       0.0408       3.3670       2.8440
   2342.5403       6.3385      56.0105      31.3917    -999.2500     311.7671     278.9866     857.5367       0.0408       3.3745       2.8440
   2342.6929       6.3380      54.7440      29.4620    -999.2500     311.6800     278.9170     791.1240       0.0408       3.3820       2.8440
