#------------------------------------------------------------------------------
#
#   Created by  : [OpenWorks] Log Export Utility (LEXP)
#   Created on  : 2016-05-23 11:52:25
#   Project     : CANT971
#   User        : R5K
#   Interpreter : PEP
#
#------------------------------------------------------------------------------
~VERSION INFORMATION
VERS. 2.0 : CWLS Log ASCII Standard - version 2.0
WRAP.  NO : One line per depth step
~WELL INFORMATION
#MNEMONIC   .UNIT                                           VALUE :DESCRIPTION
#------------------------------------------------------------------------------
STRT        .M                                           940.1293 :START DEPTH
STOP        .M                                          2672.0029 :STOP DEPTH
STEP        .M                                             0.1524 :STEP
NULL        .                                           -999.2500 :NULL VALUE
COMP        .                                   PEMEX EXPL & PROD :COMPANY
WELL        .                                               2071D :WELL
FLD         .                                           CANTARELL :FIELD
LOC         .                                             UNKNOWN :LOCATION
CNTY        .                                      CD. DEL CARMEN :COUNTY
STAT        .                                            CAMPECHE :STATE
CTRY        .                                              MEXICO :COUNTRY
SRVC        .                                             UNKNOWN :SERVICE COMPANY
DATE        .                                             UNKNOWN :LOG DATE
UWI         .                                          3060000679 :UNIQUE WELL ID
XCOORD      .                                       601713.940000 :SURFACE X
YCOORD      .                                      2142372.000000 :SURFACE Y
LAT         .                                           19.374038 :LATITUDE
LON         .                                          -92.031462 :LONGITUDE
ELEV        .M                                            30.0000 :SURFACE ELEV
ELEV_TYPEF  .b/elec                                            KB :ELEV TYPE
~CURVE INFORMATION
#MNEMONIC.UNIT        API CODE       : CURVE DESCRIPTION
#------------------------------------------------------------------------------
DEPTH    .M                          : Measured Depth
CALI     .in          UNKNOWN        : CALI:UNKNOWN:rC:NONE:v0 (auto-composite)
DRHO     .g/cm3       UNKNOWN        : DRHO:UNKNOWN:rC:NONE:v0 (auto-composite)
DT       .us/ft       UNKNOWN        : DT:DT:rC:NONE:v0 (auto-composite)
GR       .API         UNKNOWN        : GR:UNKNOWN:rC:NONE:v0 (auto-composite)
ILD      .ohmm        UNKNOWN        : ILD:UNKNOWN:rC:NONE:v0 (auto-composite)
ILM      .ohmm        UNKNOWN        : ILM:UNKNOWN:rC:NONE:v0 (auto-composite)
LLD      .ohmm        UNKNOWN        : LLD:UNKNOWN:rC:NONE:v0 (auto-composite)
LLS      .ohmm        UNKNOWN        : LLS:UNKNOWN:rC:NONE:v0 (auto-composite)
MSFL     .ohmm        UNKNOWN        : MSFL:UNKNOWN:rC:NONE:v0 (auto-composite)
NPHI     .v/v_decimal UNKNOWN        : NPHI:UNKNOWN:rC:NONE:v0 (auto-composite)
PEF      .b/elec      UNKNOWN        : PEF:UNKNOWN:rC:NONE:v0 (auto-composite)
RHOB     .g/cm3       UNKNOWN        : RHOB:UNKNOWN:rC:NONE:v0 (auto-composite)
~A     DEPTH         CALI         DRHO           DT           GR          ILD          ILM          LLD          LLS         MSFL         NPHI          PEF         RHOB
# ...
   2169.0830      11.5171       0.0625      64.5803      27.8281    -999.2500    -999.2500     534.7808     313.8374       0.4698       0.0269       3.2459       2.7840
   2169.2354      11.5570       0.0560      56.0250      28.5880    -999.2500    -999.2500     549.0200     317.6510       0.4030       0.0266       3.2010       2.7760
   2169.3877      11.5330       0.0535      60.6212      28.9364    -999.2500    -999.2500     533.2960     306.5193       0.4440       0.0257       3.2400       2.7820
   2169.5400      11.5090       0.0510      65.2150      29.2840    -999.2500    -999.2500     517.6050     295.4110       0.4850       0.0248       3.2790       2.7880
   2169.6926      11.4695       0.0480      62.7365      26.3990    -999.2500    -999.2500     530.4579     303.2765       0.4435       0.0257       3.2195       2.7825
   2169.8450      11.4300       0.0450      60.2590      23.5150    -999.2500    -999.2500     543.3060     311.1390       0.4020       0.0266       3.1600       2.7770
   2169.9973      11.4535       0.0425      57.2711      21.7422    -999.2500    -999.2500     524.6966     316.2940       0.3675       0.0263       3.1755       2.7620
   2170.1497      11.4770       0.0400      54.2840      19.9670    -999.2500    -999.2500     506.0620     321.4560       0.3330       0.0260       3.1910       2.7470
   2170.3022      11.4255       0.0395      57.9607      21.4313    -999.2500    -999.2500     436.7521     284.5356       0.3951       0.0268       3.1800       2.7515
   2170.4546      11.3740       0.0390      61.6370      22.8930    -999.2500    -999.2500     367.5620     247.6790       0.4570       0.0275       3.1690       2.7560
   2170.6069      11.4537       0.0480      58.2165      26.0897    -999.2500    -999.2500     299.4739     204.8469       0.4214       0.0298       3.2507       2.7730
   2170.7593      11.5330       0.0570      54.7960      29.2710    -999.2500    -999.2500     231.7120     162.2200       0.3860       0.0320       3.3320       2.7900
   2170.9116      11.4829       0.0520      56.4174      30.2595    -999.2500    -999.2500     210.9256     146.3466       0.4060       0.0359       3.3195       2.7745
   2171.0642      11.4330       0.0470      58.0390      31.2450    -999.2500    -999.2500     190.2030     130.5220       0.4260       0.0399       3.3070       2.7590
   2171.2166      11.4430       0.0510      56.2212      30.3664    -999.2500    -999.2500     211.3122     145.3915       0.4560       0.0438       3.3315       2.7420
   2171.3689      11.4530       0.0550      54.4030      29.4890    -999.2500    -999.2500     232.3930     160.2410       0.4860       0.0478       3.3560       2.7250
   2171.5212      11.4730       0.0510      55.7667      34.4026    -999.2500    -999.2500     286.5834     189.8712       0.4550       0.0505       3.3665       2.7150
   2171.6738      11.4930       0.0470      57.1310      39.3260    -999.2500    -999.2500     340.8810     219.5600       0.4240       0.0532       3.3770       2.7050
   2171.8262      11.4810       0.0525      57.4299      40.0047    -999.2500    -999.2500     401.0070     249.0675       0.4036       0.0493       3.3441       2.7225
   2171.9785      11.4690       0.0580      57.7290      40.6870    -999.2500    -999.2500     461.4530     278.7320       0.3830       0.0454       3.3110       2.7400
   2172.1309      11.4055       0.0495      57.0392      35.2977    -999.2500    -999.2500     486.1222     287.7022       0.3915       0.0425       3.2715       2.7520
   2172.2834      11.3420       0.0410      56.3490      29.9050    -999.2500    -999.2500     510.8070     296.6780       0.4000       0.0396       3.2320       2.7640
   2172.4358      11.3580       0.0380      54.5082      26.9160    -999.2500    -999.2500     473.4295     277.3394       0.3860       0.0366       3.1533       2.7570
   2172.5881      11.3740       0.0350      52.6660      23.9390    -999.2500    -999.2500     436.2030     258.0790       0.3720       0.0336       3.0750       2.7500
   2172.7405      11.4020       0.0405      56.2083      23.4023    -999.2500    -999.2500     373.4094     225.9804       0.3660       0.0315       2.9990       2.7360
   2172.8928      11.4300       0.0460      59.7480      22.8660    -999.2500    -999.2500     310.6610     193.9050       0.3600       0.0294       2.9230       2.7220
   2173.0454      11.3506       0.0445      64.0808      22.5354    -999.2500    -999.2500     273.6498     174.3785       0.3785       0.0301       2.9689       2.7065
   2173.1978      11.2710       0.0430      68.4110      22.2040    -999.2500    -999.2500     236.5420     154.8010       0.3970       0.0307       3.0150       2.6910
   2173.3501      11.3621       0.0520      65.3458      20.3436    -999.2500    -999.2500     226.0641     152.7654       0.4325       0.0324       3.1271       2.7020
   2173.5024      11.4530       0.0610      62.2820      18.4870    -999.2500    -999.2500     215.6080     150.7340       0.4680       0.0340       3.2390       2.7130
   2173.6550      11.4455       0.0530      59.7556      18.5081    -999.2500    -999.2500     190.5467     140.5176       0.4233       0.0366       3.4718       2.7401
   2173.8074      11.4380       0.0450      57.2300      18.5290    -999.2500    -999.2500     165.6540     130.3700       0.3790       0.0391       3.7030       2.7670
   2173.9597      11.4420       0.0420      62.1890      18.9222    -999.2500    -999.2500     122.9436      99.9932       0.3950       0.0425       3.7947       2.7690
   2174.1121      11.4460       0.0390      67.1470      19.3140    -999.2500    -999.2500      80.3790      69.7200       0.4110       0.0460       3.8860       2.7710
   2174.2646      11.4575       0.0365      63.5108      18.9955    -999.2500    -999.2500      65.0963      55.2578       0.4290       0.0514       3.7440       2.7455
   2174.4170      11.4690       0.0340      59.8750      18.6770    -999.2500    -999.2500      49.8150      40.7970       0.4470       0.0569       3.6020       2.7200
   2174.5693      11.5130       0.0625      57.5065      19.4524    -999.2500    -999.2500      52.5198      42.8064       0.3856       0.0706       3.7599       2.6700
   2174.7217      11.5570       0.0910      55.1380      20.2290    -999.2500    -999.2500      55.2290      44.8190       0.3240       0.0844       3.9180       2.6200
   2174.8740      11.6441       0.0740      58.6122      20.4739    -999.2500    -999.2500      66.6805      52.0340       0.3070       0.0980       4.2039       2.5579
   2175.0266      11.7310       0.0570      62.0870      20.7180    -999.2500    -999.2500      78.0970      59.2270       0.2900       0.1116       4.4890       2.4960
   2175.1790      11.6979       0.0625      61.4026      20.4366    -999.2500    -999.2500      98.2876      73.2372       0.3386       0.0862       4.5567       2.5361
   2175.3313      11.6650       0.0680      60.7180      20.1570    -999.2500    -999.2500     118.3550      87.1620       0.3870       0.0610       4.6240       2.5760
   2175.4836      11.5113       0.0450      58.4405      20.3758    -999.2500    -999.2500     155.7622     111.4319       0.3795       0.0519       4.2745       2.6631
   2175.6362      11.3580       0.0220      56.1620      20.5940    -999.2500    -999.2500     193.0650     135.6340       0.3720       0.0427       3.9260       2.7500
   2175.7886      11.3790       0.0320      53.3378      20.9112    -999.2500    -999.2500     212.4503     141.1860       0.3775       0.0385       3.6138       2.7625
   2175.9409      11.4000       0.0420      50.5120      21.2280    -999.2500    -999.2500     231.8150     146.7320       0.3830       0.0342       3.3020       2.7750
   2176.0933      11.4070       0.0465      50.7601      21.1975    -999.2500    -999.2500     226.4131     138.9328       0.3855       0.0362       3.3484       2.7695
   2176.2458      11.4140       0.0510      51.0080      21.1670    -999.2500    -999.2500     220.9990     131.1160       0.3880       0.0381       3.3950       2.7640
