#------------------------------------------------------------------------------
#
#   Created by  : [OpenWorks] Log Export Utility (LEXP)
#   Created on  : 2016-05-12 17:01:16
#   Project     : CANT971
#   User        : R5K
#   Interpreter : PEP
#
#------------------------------------------------------------------------------
~VERSION INFORMATION
VERS. 2.0 : CWLS Log ASCII Standard - version 2.0
WRAP.  NO : One line per depth step
~WELL INFORMATION
#MNEMONIC   .UNIT                                           VALUE :DESCRIPTION
#------------------------------------------------------------------------------
STRT        .M                                          4907.2798 :START DEPTH
STOP        .M                                          5813.7549 :STOP DEPTH
STEP        .M                                             0.1524 :STEP
NULL        .                                           -999.2500 :NULL VALUE
COMP        .                                   PEMEX EXPL & PROD :COMPANY
WELL        .                                            3026D_ST :WELL
FLD         .                                           CANTARELL :FIELD
LOC         .                                             UNKNOWN :LOCATION
CNTY        .                                      CD. DEL CARMEN :COUNTY
STAT        .                                            CAMPECHE :STATE
CTRY        .                                              MEXICO :COUNTRY
SRVC        .                                             UNKNOWN :SERVICE COMPANY
DATE        .                                             UNKNOWN :LOG DATE
UWI         .                                      3060000820D_ST :UNIQUE WELL ID
XCOORD      .                                       601717.200000 :SURFACE X
YCOORD      .                                      2148573.570000 :SURFACE Y
LAT         .                                           19.430078 :LATITUDE
LON         .                                          -92.031099 :LONGITUDE
ELEV        .M                                            30.0000 :SURFACE ELEV
ELEV_TYPE   .                                                  KB :ELEV TYPE
~CURVE INFORMATION
#MNEMONIC.UNIT        API CODE       : CURVE DESCRIPTION
#------------------------------------------------------------------------------
DEPTH    .M                          : Measured Depth
CALI     .inches      UNKNOWN        : CALI:registros:rC:NONE:v0 (auto-composite)
CGR      .API         UNKNOWN        : CGR:registros:rC:NONE:v0 (auto-composite)
DRHO     .g/cm3       UNKNOWN        : DRHO:registros:rC:NONE:v0 (auto-composite)
DT       .us/ft       UNKNOWN        : DT:registros:rC:NONE:v0 (auto-composite)
GR       .API         UNKNOWN        : GR:registros:rC:NONE:v0 (auto-composite)
ILD      .ohm.m       UNKNOWN        : ILD:registros:rC:NONE:v0 (auto-composite)
ILM      .ohm.m       UNKNOWN        : ILM:registros:rC:NONE:v0 (auto-composite)
NPHI     .UNKNOWN     UNKNOWN        : NPHI:registros:rC:NONE:v0 (auto-composite)
PEF      .b/elec      UNKNOWN        : PEF:registros:rC:NONE:v0 (auto-composite)
POTA     .UNKNOWN     UNKNOWN        : POTA:registros:rC:NONE:v0 (auto-composite)
RHOB     .g/cm3       UNKNOWN        : RHOB:registros:rC:NONE:v0 (auto-composite)
THOR     .ppm         UNKNOWN        : THOR:registros:rC:NONE:v0 (auto-composite)
URAN     .ppm         UNKNOWN        : URAN:registros:rC:NONE:v0 (auto-composite)
~A     DEPTH         CALI          CGR         DRHO           DT           GR          ILD          ILM         NPHI          PEF         POTA         RHOB         THOR         URAN
# ...
   5209.0317       8.4189      85.9005       0.0245      71.4409     112.3421       6.0824       6.0303       0.2423      11.5381       0.0319       2.6062      12.3574       3.8539
   5209.1841       8.4119      87.1331       0.0261      71.9537     114.0452       6.1488       6.0947       0.2485      14.2110       0.0323       2.5968      12.5268       3.9224
   5209.3364       8.5393      89.8023       0.0256      72.1584     116.7461       6.3063       6.2415       0.2541      17.7703       0.0333       2.5911      12.9428       3.9271
   5209.4888       8.4839      84.7205       0.0403      71.3714     107.1284       6.1617       6.0935       0.2581      19.6048       0.0318       2.5902      12.0137       3.2660
   5209.6416       8.4953      86.3675       0.0518      70.5843     108.8004       5.9497       5.8749       0.2557      22.1130       0.0322       2.5814      12.3406       3.2696
   5209.7939       8.4216      84.7899       0.0605      66.4063     106.0294       5.7629       5.6880       0.2579      21.7970       0.0317       2.5815      12.1005       3.0957
   5209.9463       7.8719      80.4460       0.0642      67.5680      99.9222       5.5150       5.4413       0.2566      22.9992       0.0298       2.5810      11.6057       2.8387
   5210.0986       7.6553      78.6385       0.0619      67.8120      98.0223       5.3856       5.3116       0.2477      22.7155       0.0294       2.5801      11.2283       2.8252
   5210.2510       7.7468      78.1580       0.0427      64.2683      97.4027       5.3075       5.2265       0.2335      22.7380       0.0292       2.5512      11.1453       2.8049
   5210.4033       7.5863      85.2645       0.0329      64.6009     106.5937       5.3386       5.2595       0.2357      22.9892       0.0334       2.5360      11.5119       3.1087
   5210.5557       7.3176      86.1102       0.0300      66.5403     107.2123       5.5766       5.4923       0.2463      22.7091       0.0339       2.5376      11.5574       3.0756
   5210.7080       7.4809      86.1942       0.0412      65.7744     107.3637       5.5888       5.5179       0.2528      19.0795       0.0342       2.5541      11.4703       3.0855
   5210.8604       7.7720      87.0887       0.0509      67.8026     108.5477       5.4339       5.3541       0.2411      18.1016       0.0346       2.5799      11.5402       3.1276
   5211.0132       7.8885      87.8250       0.0621      69.8307     109.7459       5.5231       5.4461       0.2453      16.0684       0.0349       2.5992      11.6598       3.1950
   5211.1655       8.0280      87.4486       0.0667      69.6948     109.6759       5.5686       5.4850       0.2501      18.1449       0.0347       2.6089      11.6036       3.2396
   5211.3179       8.1279      88.4233       0.0700      70.3559     111.7318       5.6546       5.5738       0.2556      18.5857       0.0349       2.5963      11.8237       3.3972
   5211.4702       8.2547      87.2071       0.0474      70.5625     110.9191       5.4287       5.3575       0.2552      21.5944       0.0343       2.5689      11.7065       3.4560
   5211.6226       8.3884      86.2014       0.0364      71.5261     109.8133       5.5282       5.4636       0.2654      19.8500       0.0337       2.5554      11.6471       3.4414
   5211.7749       8.2561      79.0957       0.0327      67.4522     101.4634       5.0746       5.0228       0.2761      19.5392       0.0304       2.5634      10.9104       3.2601
   5211.9272       8.0213      74.9140       0.0321      70.7357      96.1198       5.3358       5.2572       0.2744      16.4305       0.0289       2.5794      10.3231       3.0908
   5212.0796       8.1231      73.6752       0.0212      67.6714      93.8226       5.7022       5.6101       0.2537      13.6816       0.0285       2.5983      10.1079       2.9365
   5212.2324       7.7081      74.7816       0.0329      64.6071      95.2099       5.9523       5.8417       0.2340      16.0245       0.0289       2.6556      10.2705       2.9774
   5212.3848       7.9417      79.7180       0.0465      64.8048     101.4915       5.9173       5.8043       0.2088      16.1775       0.0311       2.6964      10.8244       3.1735
   5212.5371       8.1175      88.7619       0.0443      65.5485     114.0590       5.7341       5.6178       0.1968      18.5344       0.0337       2.6860      12.4315       3.6870
   5212.6895       8.1245      90.1759       0.0420      67.2104     116.2329       5.6201       5.5068       0.2047      16.7119       0.0344       2.6756      12.5605       3.7978
   5212.8418       8.1420      90.3102       0.0225      68.7438     116.2427       5.3533       5.2418       0.2296      18.8821       0.0348       2.5958      12.4427       3.7797
   5212.9941       8.1266      90.3516       0.0166      73.0877     116.0799       5.1773       5.0677       0.2562      18.8751       0.0350       2.5550      12.3703       3.7499
   5213.1465       8.4517      88.9033       0.0164      70.5462     113.8794       5.3258       5.2087       0.2667      18.0685       0.0345       2.5340      12.1454       3.6403
   5213.2988       8.4094      87.0611       0.0166      68.9620     111.4313       5.5674       5.4326       0.2634      16.2701       0.0338       2.5554      11.8679       3.5520
   5213.4512       8.2783      85.9630       0.0257      69.1286     110.0265       5.8244       5.6800       0.2461      15.5666       0.0332       2.5536      11.8083       3.5073
   5213.6040       8.3420      84.3490       0.0310      69.2952     107.9634       6.1688       6.0060       0.2315      17.0942       0.0322       2.5631      11.7378       3.4418
   5213.7563       8.3478      87.0873       0.0264      64.8182     113.0879       6.0742       5.9147       0.2244      17.7132       0.0327       2.5584      12.3386       3.7896
   5213.9087       8.3434      87.4715       0.0308      64.4892     114.0573       6.0203       5.8676       0.2281      17.8162       0.0326       2.5678      12.5124       3.8749
   5214.0610       8.2635      88.5359       0.0383      63.6725     115.9320       6.0502       5.8984       0.2304      15.9946       0.0327       2.5759      12.7982       3.9930
   5214.2134       8.3183      89.5013       0.0304      65.7338     118.1389       6.0748       5.9249       0.2320      16.6040       0.0330       2.5647      12.9458       4.1739
   5214.3657       8.2311      89.6643       0.0369      65.6055     118.7022       6.1964       6.0458       0.2347      17.8206       0.0332       2.5908      12.9395       4.2323
   5214.5181       8.2098      82.4350       0.0472      65.5860     105.4533       6.2414       6.0863       0.2441      18.3372       0.0324       2.6264      11.1011       3.3549
   5214.6704       8.0266      80.9832       0.0445      66.1492     102.5651       5.9026       5.7793       0.2365      19.2031       0.0322       2.6337      10.7256       3.1456
   5214.8228       7.8861      82.3971       0.0338      65.6443     103.5603       5.7110       5.6017       0.2333      18.8904       0.0323       2.6248      11.1314       3.0845
   5214.9756       7.8263      82.7019       0.0356      65.1395     103.7676       5.7224       5.6243       0.2096      21.5627       0.0322       2.6095      11.2341       3.0703
   5215.1279       7.9968      86.6173       0.0351      62.5758     111.4302       5.8145       5.7206       0.2066      21.6049       0.0292       2.5766      13.7094       3.6165
   5215.2803       8.0683      79.9971       0.0492      62.4188     105.8190       5.9007       5.8165       0.2052      20.0481       0.0276       2.5603      12.3922       3.7635
   5215.4326       8.0209      81.5073       0.0623      63.2568     107.9337       6.2997       6.2102       0.2059      22.8936       0.0284       2.5713      12.4984       3.8516
   5215.5850       7.9844      81.2110       0.0810      66.3901     106.6034       6.2494       6.1677       0.2068      22.7864       0.0285       2.6029      12.3753       3.7009
