#------------------------------------------------------------------------------
#
#   Created by  : [OpenWorks] Log Export Utility (LEXP)
#   Created on  : 2016-05-23 11:56:43
#   Project     : CANT971
#   User        : R5K
#   Interpreter : PEP
#
#------------------------------------------------------------------------------
~VERSION INFORMATION
VERS. 2.0 : CWLS Log ASCII Standard - version 2.0
WRAP.  NO : One line per depth step
~WELL INFORMATION
#MNEMONIC   .UNIT                                           VALUE :DESCRIPTION
#------------------------------------------------------------------------------
STRT        .M                                           650.2150 :START DEPTH
STOP        .M                                          2618.6135 :STOP DEPTH
STEP        .M                                             0.1524 :STEP
NULL        .                                           -999.2500 :NULL VALUE
COMP        .                                   PEMEX EXPL & PROD :COMPANY
WELL        .                                                  4D :WELL
FLD         .                                           CANTARELL :FIELD
LOC         .                                             UNKNOWN :LOCATION
CNTY        .                                      CD. DEL CARMEN :COUNTY
STAT        .                                            CAMPECHE :STATE
CTRY        .                                              MEXICO :COUNTRY
SRVC        .                                             UNKNOWN :SERVICE COMPANY
DATE        .                                             UNKNOWN :LOG DATE
UWI         .                                          3060000662 :UNIQUE WELL ID
XCOORD      .                                       598468.500000 :SURFACE X
YCOORD      .                                      2145023.700000 :SURFACE Y
LAT         .                                           19.398162 :LATITUDE
LON         .                                          -92.062225 :LONGITUDE
ELEV        .M                                            26.5400 :SURFACE ELEV
ELEV_TYPE   .                                                  KB :ELEV TYPE
~CURVE INFORMATION
#MNEMONIC.UNIT        API CODE       : CURVE DESCRIPTION
#------------------------------------------------------------------------------
DEPTH    .M                          : Measured Depth
CAL      .inches      UNKNOWN        : CAL:UNKNOWN:rC:NONE:v0 (auto-composite)
CGR      .UNKNOWN     UNKNOWN        : CGR:UNKNOWN:rC:NONE:v0 (auto-composite)
DRHO     .UNKNOWN     UNKNOWN        : DRHO:UNKNOWN:rC:NONE:v0 (auto-composite)
DT       .us/ft       UNKNOWN        : DT:DT:rC:NONE:v0 (auto-composite)
GR       .API         UNKNOWN        : GR:UNKNOWN:rC:NONE:v0 (auto-composite)
ILD      .UNKNOWN     UNKNOWN        : ILD:UNKNOWN:rC:NONE:v0 (auto-composite)
ILM      .UNKNOWN     UNKNOWN        : ILM:UNKNOWN:rC:NONE:v0 (auto-composite)
LLD      .UNKNOWN     UNKNOWN        : LLD:UNKNOWN:rC:NONE:v0 (auto-composite)
LLS      .UNKNOWN     UNKNOWN        : LLS:UNKNOWN:rC:NONE:v0 (auto-composite)
MSFL     .UNKNOWN     UNKNOWN        : MSFL:UNKNOWN:rC:NONE:v0 (auto-composite)
NPHI     .v/v_decimal UNKNOWN        : NPHI:PETROWORKS:rC:NONE:v1 
PEF      .UNKNOWN     UNKNOWN        : PEF:UNKNOWN:rC:NONE:v0 (auto-composite)
POTA     .UNKNOWN     UNKNOWN        : POTA:UNKNOWN:rC:NONE:v0 (auto-composite)
RHOB     .UNKNOWN     UNKNOWN        : RHOB:UNKNOWN:rC:NONE:v0 (auto-composite)
THOR     .UNKNOWN     UNKNOWN        : THOR:UNKNOWN:rC:NONE:v0 (auto-composite)
URAN     .UNKNOWN     UNKNOWN        : URAN:UNKNOWN:rC:NONE:v0 (auto-composite)
~A     DEPTH          CAL          CGR         DRHO           DT           GR          ILD          ILM          LLD          LLS         MSFL         NPHI          PEF         POTA         RHOB         THOR         URAN
# ...
   2516.6577       6.8875       7.7727       0.0466      50.9344      26.3488    -999.2500    -999.2500     565.4422     333.3547    1836.6471       0.0723       3.5299       0.0020       2.7355       0.8129       2.2086
   2516.8103       6.9660       5.6780       0.0441      48.3400      23.2873    -999.2500    -999.2500     617.2538     371.8376     878.8130       0.0652       3.5409       0.0020       2.7445       0.4898       2.0945
   2516.9626       7.0273       4.0383       0.0423      46.4752      20.9435    -999.2500    -999.2500     661.6671     405.5674     119.4487       0.0587       3.5260       0.0021       2.7505       0.2120       2.0100
   2517.1150       7.0058       4.6006       0.0438      48.1403      21.9950    -999.2500    -999.2500     670.2854     416.3009     320.3434       0.0543       3.3860       0.0026       2.7420       0.1535       2.0685
   2517.2673       6.9925       5.2206       0.0438      49.7695      23.2036    -999.2500    -999.2500     660.8605     416.6743     453.0139       0.0520       3.2726       0.0029       2.7328       0.1486       2.1384
   2517.4199       7.0185       6.1219       0.0368      51.2259      25.1598    -999.2500    -999.2500     563.6025     367.1822     253.5748       0.0575       3.2876       0.0024       2.7203       0.4042       2.2639
   2517.5723       7.0293       6.6752       0.0320      52.5702      26.4573    -999.2500    -999.2500     483.3617     327.4174     151.4954       0.0601       3.3128       0.0020       2.7155       0.5991       2.3532
   2517.7246       6.9673       5.5427       0.0380      53.3720      24.6011    -999.2500    -999.2500     485.5272     334.7581     520.8904       0.0573       3.3867       0.0020       2.7475       0.5001       2.2667
   2517.8770       6.9092       4.8094       0.0415      54.5825      23.3901    -999.2500    -999.2500     479.1523     336.6497     760.5298       0.0542       3.4287       0.0021       2.7709       0.4329       2.2097
   2518.0295       6.8697       6.0213       0.0324      57.7616      25.3228    -999.2500    -999.2500     431.1661     312.2897     367.9694       0.0558       3.3161       0.0026       2.7529       0.5204       2.2957
   2518.1819       6.8430       7.2716       0.0258      59.9783      27.1524    -999.2500    -999.2500     382.8651     286.7659      53.5557       0.0578       3.2370       0.0032       2.7396       0.5874       2.3647
   2518.3342       6.8780       8.7076       0.0303      57.5304      28.4765    -999.2500    -999.2500     333.0388     255.6014     117.9110       0.0611       3.3179       0.0042       2.7491       0.5543       2.3512
   2518.4866       6.9158       9.6735       0.0353      55.2148      29.2078    -999.2500    -999.2500     290.9323     230.1979     208.3549       0.0629       3.4023       0.0049       2.7612       0.4942       2.3244
   2518.6389       6.9668       8.3726       0.0428      53.5372      27.1437    -999.2500    -999.2500     286.0494     232.5723     424.5920       0.0593       3.5028       0.0044       2.7857       0.3033       2.2334
   2518.7915       7.0161       7.7118       0.0482      51.7539      26.0273    -999.2500    -999.2500     284.3669     237.2181     553.9957       0.0552       3.5613       0.0041       2.8057       0.2070       2.1771
   2518.9438       7.0571      10.1567       0.0437      49.4634      29.4061    -999.2500    -999.2500     298.2106     252.8824     262.1539       0.0507       3.4178       0.0046       2.8037       0.5696       2.2886
   2519.0962       7.0845      12.0130       0.0402      47.7297      31.9844    -999.2500    -999.2500     309.1331     265.7209      22.6408       0.0466       3.3025       0.0050       2.8029       0.8418       2.3749
   2519.2485       7.0465      11.0284       0.0412      48.6836      30.6989    -999.2500    -999.2500     305.9585     264.9221      35.6667       0.0435       3.3230       0.0050       2.8079       0.6773       2.3394
   2519.4011       7.0018      10.3528       0.0400      49.1581      29.9032    -999.2500    -999.2500     303.7601     264.7381      61.1298       0.0414       3.3612       0.0050       2.8102       0.5518       2.3253
   2519.5535       6.9254      11.1771       0.0285      47.3314      31.4856    -999.2500    -999.2500     306.3020     267.5059     146.9820       0.0439       3.4841       0.0050       2.7997       0.6154       2.4148
   2519.7058       6.8751      12.1449       0.0196      46.0807      33.3380    -999.2500    -999.2500     314.8086     274.6142     205.2451       0.0463       3.5671       0.0050       2.7879       0.7356       2.5187
   2519.8582       6.9517      13.8062       0.0231      47.6123      36.4517    -999.2500    -999.2500     352.1260     302.6880     130.2450       0.0484       3.4571       0.0050       2.7699       1.1300       2.6916
   2520.0107       7.0150      14.9277       0.0248      48.6547      38.5879    -999.2500    -999.2500     387.7114     329.0927     232.9532       0.0498       3.3470       0.0049       2.7555       1.4297       2.8136
   2520.1631       7.0150      13.4256       0.0178      47.3468      36.1309    -999.2500    -999.2500     414.8799     347.4763    1199.2878       0.0488       3.2365       0.0044       2.7585       1.2696       2.6880
   2520.3154       7.0054      11.9364       0.0138      46.4597      33.8354    -999.2500    -999.2500     436.5255     361.8436    1839.0333       0.0478       3.1593       0.0039       2.7644       1.1507       2.5962
   2520.4678       6.9494      10.5090       0.0243      47.6077      32.3115    -999.2500    -999.2500     431.4697     356.7942     899.8635       0.0468       3.2428       0.0034       2.7844       1.2307       2.6671
   2520.6201       6.9138       9.5770       0.0333      48.2392      31.4904    -999.2500    -999.2500     430.2787     355.2253     149.6056       0.0459       3.3013       0.0031       2.8006       1.3054       2.7358
   2520.7727       6.9768      11.0551       0.0353      46.3870      34.0488    -999.2500    -999.2500     447.8873     370.3958     318.2379       0.0454       3.2394       0.0036       2.7981       1.3550       2.7933
   2520.9250       7.0138      11.9839       0.0386      45.4434      35.5076    -999.2500    -999.2500     460.8615     382.0842     425.3664       0.0444       3.2157       0.0039       2.7976       1.3515       2.8061
   2521.0774       6.9253      10.2552       0.0481      48.8967      31.6459    -999.2500    -999.2500     451.4116     376.9238     234.8882       0.0421       3.3772       0.0034       2.8071       1.0916       2.6022
   2521.2297       6.8686       9.0891       0.0565      51.6671      28.8031    -999.2500    -999.2500     444.8993     374.9402     238.1613       0.0400       3.5123       0.0031       2.8178       0.9070       2.4245
   2521.3823       6.9651      10.6621       0.0595      51.1503      30.9782    -999.2500    -999.2500     452.6887     388.2489    1184.7007       0.0388       3.5198       0.0036       2.8343       1.0891       2.3745
   2521.5347       7.0392      11.6775       0.0607      51.2626      32.2333    -999.2500    -999.2500     456.9026     401.5192    1808.9546       0.0381       3.5105       0.0039       2.8458       1.2075       2.3163
   2521.6870       7.0057       9.9917       0.0532      54.4212      29.1322    -999.2500    -999.2500     443.7997     414.6030     872.3395       0.0386       3.4211       0.0034       2.8333       1.0176       2.2189
   2521.8394       6.9647       8.6917       0.0460      56.7193      26.4617    -999.2500    -999.2500     418.7777     409.1527     129.3258       0.0392       3.3284       0.0030       2.8212       0.8767       2.1249
   2521.9919       6.8871       9.2714       0.0400      54.8711      25.8435    -999.2500    -999.2500     335.6766     314.4047     329.6858       0.0402       3.2204       0.0030       2.8107       0.9747       2.0479
   2522.1443       6.8265       9.6353       0.0362      53.6591      25.3843    -999.2500    -999.2500     268.3406     237.3861     456.0605       0.0409       3.1621       0.0030       2.8045       1.0419       1.9862
