#------------------------------------------------------------------------------
#
#   Created by  : [OpenWorks] Log Export Utility (LEXP)
#   Created on  : 2016-05-23 11:57:02
#   Project     : CANT971
#   User        : R5K
#   Interpreter : PEP
#
#------------------------------------------------------------------------------
~VERSION INFORMATION
VERS. 2.0 : CWLS Log ASCII Standard - version 2.0
WRAP.  NO : One line per depth step
~WELL INFORMATION
#MNEMONIC   .UNIT                                           VALUE :DESCRIPTION
#------------------------------------------------------------------------------
STRT        .M                                           493.3184 :START DEPTH
STOP        .M                                          2467.0508 :STOP DEPTH
STEP        .M                                             0.1524 :STEP
NULL        .                                           -999.2500 :NULL VALUE
COMP        .                                   PEMEX EXPL & PROD :COMPANY
WELL        .                                                  63 :WELL
FLD         .                                           CANTARELL :FIELD
LOC         .                                             UNKNOWN :LOCATION
CNTY        .                                      CD. DEL CARMEN :COUNTY
STAT        .                                            CAMPECHE :STATE
CTRY        .                                              MEXICO :COUNTRY
SRVC        .                                             UNKNOWN :SERVICE COMPANY
DATE        .                                             UNKNOWN :LOG DATE
UWI         .                                          3060000615 :UNIQUE WELL ID
XCOORD      .                                       601716.240000 :SURFACE X
YCOORD      .                                      2142344.800000 :SURFACE Y
LAT         .                                           19.373792 :LATITUDE
LON         .                                          -92.031441 :LONGITUDE
ELEV        .M                                            24.0000 :SURFACE ELEV
ELEV_TYPE   .                                                  KB :ELEV TYPE
~CURVE INFORMATION
#MNEMONIC.UNIT        API CODE       : CURVE DESCRIPTION
#------------------------------------------------------------------------------
DEPTH    .M                          : Measured Depth
CALI     .inches      UNKNOWN        : CALI:Import:rC:NONE:v0 (auto-composite)
DRHO     .g/cm3       UNKNOWN        : DRHO:Import:rC:NONE:v0 (auto-composite)
DT       .us/ft       UNKNOWN        : DT:Import:rC:NONE:v0 (auto-composite)
GR       .API         UNKNOWN        : GR:Import:rC:NONE:v0 (auto-composite)
ILD      .ohm.m       UNKNOWN        : ILD:Import:rC:NONE:v0 (auto-composite)
ILM      .ohm.m       UNKNOWN        : ILM:Import:rC:NONE:v0 (auto-composite)
LLD      .ohm.m       UNKNOWN        : LLD:Import:rC:NONE:v0 (auto-composite)
LLS      .ohm.m       UNKNOWN        : LLS:Import:rC:NONE:v0 (auto-composite)
MSFL     .ohm.m       UNKNOWN        : MSFL:Import:rC:NONE:v0 (auto-composite)
NPHI     .v/v_decimal UNKNOWN        : NPHI:Import:rC:NONE:v0 (auto-composite)
PEF      .b/elec      UNKNOWN        : PEF:Import:rC:NONE:v0 (auto-composite)
RHOB     .g/cm3       UNKNOWN        : RHOB:Import:rC:NONE:v0 (auto-composite)
~A     DEPTH         CALI         DRHO           DT           GR          ILD          ILM          LLD          LLS         MSFL         NPHI          PEF         RHOB
# ...
   1517.4464    -999.2500    -999.2500    -999.2500      18.1406       1.8721       1.7321    -999.2500    -999.2500    -999.2500       0.3645    -999.2500       2.8434
   1517.5988    -999.2500    -999.2500    -999.2500      21.0156       1.6730       1.6200    -999.2500    -999.2500    -999.2500       0.3707    -999.2500       2.7820
   1517.7511    -999.2500    -999.2500    -999.2500      20.7969       1.6650       1.7004    -999.2500    -999.2500    -999.2500       0.3685    -999.2500       2.7019
   1517.9036    -999.2500    -999.2500    -999.2500      19.3750       1.6570       1.7810    -999.2500    -999.2500    -999.2500       0.3553    -999.2500       2.6220
   1518.0559    -999.2500    -999.2500    -999.2500      18.4844       1.7200       1.9734    -999.2500    -999.2500    -999.2500       0.3268    -999.2500       2.6480
   1518.2084    -999.2500    -999.2500    -999.2500      18.4844       1.7830       2.1660    -999.2500    -999.2500    -999.2500       0.3033    -999.2500       2.6740
   1518.3607    -999.2500    -999.2500    -999.2500      18.4375       1.8934       2.0701    -999.2500    -999.2500    -999.2500       0.3058    -999.2500       2.7305
   1518.5132    -999.2500    -999.2500    -999.2500      18.0000       2.0040       1.9740    -999.2500    -999.2500    -999.2500       0.3196    -999.2500       2.7870
   1518.6655    -999.2500    -999.2500    -999.2500      18.0000       2.0535       1.9440    -999.2500    -999.2500    -999.2500       0.3318    -999.2500       2.8245
   1518.8180    -999.2500    -999.2500    -999.2500      17.0000       2.1030       1.9140    -999.2500    -999.2500    -999.2500       0.3395    -999.2500       2.8620
   1518.9703    -999.2500    -999.2500    -999.2500      14.8672       2.1200       1.8466       5.7385       8.9072    -999.2500       0.3392    -999.2500       2.7829
   1519.1228    -999.2500    -999.2500    -999.2500      14.0938       2.1370       1.7790       1.5732       0.4932    -999.2500       0.3438    -999.2500       2.7040
   1519.2751    -999.2500    -999.2500    -999.2500      15.4922       2.1560       1.7850      13.2457       2.3822    -999.2500       0.3666    -999.2500       2.2655
   1519.4276    -999.2500    -999.2500    -999.2500      18.9531       2.1750       1.7910       1.8716       0.8178    -999.2500       0.3900    -999.2500       1.8280
   1519.5800    -999.2500    -999.2500    -999.2500      20.8594       2.1750       1.8419       2.7310       1.9414    -999.2500       0.3965    -999.2500       1.8295
   1519.7323    -999.2500    -999.2500    -999.2500      24.2969       2.1750       1.8930      11.5658       1.0471    -999.2500       0.3850    -999.2500       1.8310
   1519.8848    -999.2500    -999.2500    -999.2500      23.8594       2.1705       1.9310     828.6512       0.3405    -999.2500       0.3523    -999.2500       1.8766
   1520.0371    -999.2500    -999.2500    -999.2500      20.6094       2.1660       1.9690     970.3076       1.3295    -999.2500       0.3114    -999.2500       1.9220
   1520.1896    -999.2500    -999.2500    -999.2500      13.8594       2.1590       1.9785    1002.8502       6.2075    -999.2500       0.2745    -999.2500       1.9631
   1520.3419    -999.2500    -999.2500    -999.2500      10.9609       2.1520       1.9880      21.8074       6.8489    -999.2500       0.2470    -999.2500       2.0040
   1520.4944    -999.2500    -999.2500    -999.2500      10.7344       2.1485       1.9890       9.6281      12.3641    -999.2500       0.2357    -999.2500       1.9900
   1520.6467    -999.2500    -999.2500    -999.2500      11.0703       2.1450       1.9900       8.2885       9.5946    -999.2500       0.2310    -999.2500       1.9760
   1520.7992    -999.2500    -999.2500    -999.2500      10.0625       2.1455       1.9895       5.2506       6.5405    -999.2500       0.2241    -999.2500       1.9820
   1520.9515    -999.2500    -999.2500    -999.2500      10.7656       2.1460       1.9890       5.4516       6.8082    -999.2500       0.2396    -999.2500       1.9880
   1521.1040    -999.2500    -999.2500    -999.2500      11.3203       2.1480       1.9870       6.3995       7.4917    -999.2500       0.3042    -999.2500       1.8018
   1521.2563    -999.2500    -999.2500    -999.2500      13.3359       2.1500       1.9850      21.1637       7.9480    -999.2500       0.3864    -999.2500       1.6160
   1521.4088    -999.2500    -999.2500    -999.2500      16.7656       2.1500       1.9850      10.6503       4.5483    -999.2500       0.4570    -999.2500       1.6250
   1521.5612    -999.2500    -999.2500    -999.2500      21.4219       2.1500       1.9850       5.4579       2.4904    -999.2500       0.5058    -999.2500       1.6340
   1521.7135    -999.2500    -999.2500    -999.2500      26.4688       2.1500       1.9860       3.6954       1.6854    -999.2500       0.5207    -999.2500       1.6335
   1521.8660    -999.2500    -999.2500    -999.2500      29.8125       2.1500       1.9870       3.9240       1.6117    -999.2500       0.5157    -999.2500       1.6330
   1522.0183    -999.2500    -999.2500    -999.2500      31.9844       2.1500       1.9870       5.0989       1.7539    -999.2500       0.5028    -999.2500       1.6360
   1522.1708    -999.2500    -999.2500    -999.2500      33.9688       2.1500       1.9870       4.9943       1.7259    -999.2500       0.4879    -999.2500       1.6390
   1522.3231    -999.2500    -999.2500    -999.2500      33.3750       2.1505       1.9880       4.8124       1.8377    -999.2500       0.4765    -999.2500       1.6895
   1522.4756    -999.2500    -999.2500    -999.2500      32.5938       2.1510       1.9890       4.3257       1.8444    -999.2500       0.4594    -999.2500       1.7400
   1522.6279    -999.2500    -999.2500    -999.2500      31.0313       2.1505       1.9890       6.7801       2.6533    -999.2500       0.4269    -999.2500       1.7805
   1522.7804    -999.2500    -999.2500    -999.2500      27.9531       2.1500       1.9890      11.3974       3.9772    -999.2500       0.3898    -999.2500       1.8210
   1522.9327    -999.2500    -999.2500    -999.2500      25.5000       1.1759       0.9954       5.8293       2.6603    -999.2500       0.3583    -999.2500       1.8510
   1523.0852    -999.2500    -999.2500    -999.2500      23.3906       0.2000       0.0000       5.8046       2.9823    -999.2500       0.3287    -999.2500       1.8810
   1523.2375    -999.2500    -999.2500    -999.2500      21.3750       0.2000       0.0000       6.9442       3.6757    -999.2500       0.2977    -999.2500       1.9200
   1523.3900    -999.2500    -999.2500    -999.2500      17.3281       0.2000       0.0000       6.4445       3.9733    -999.2500       0.2693    -999.2500       1.9590
   1523.5424    -999.2500    -999.2500    -999.2500      12.7344       0.2000       0.0000       8.9971       5.5759    -999.2500       0.2479    -999.2500       1.9535
   1523.6947    -999.2500    -999.2500    -999.2500      10.3828    -999.2500    -999.2500      45.3373      18.2182    -999.2500       0.2294    -999.2500       1.9480
   1523.8472    -999.2500    -999.2500    -999.2500       9.3750    -999.2500    -999.2500      66.3905     197.9469    -999.2500       0.2100    -999.2500       1.9445
   1523.9995    -999.2500    -999.2500    -999.2500      10.3984    -999.2500    -999.2500      15.3529      17.3004    -999.2500       0.1961    -999.2500       1.9410
   1524.1520    -999.2500    -999.2500    -999.2500      11.0625    -999.2500    -999.2500      11.3151      12.1981    -999.2500       0.1945    -999.2500       1.9730
   1524.3043    -999.2500    -999.2500    -999.2500      12.5156    -999.2500    -999.2500       9.6977      10.8740    -999.2500       0.2013    -999.2500       2.0050
   1524.4568    -999.2500    -999.2500    -999.2500      11.6250    -999.2500    -999.2500       9.2451      11.5652    -999.2500       0.2133    -999.2500       1.9940
   1524.6091    -999.2500    -999.2500    -999.2500      10.6719    -999.2500    -999.2500      11.8619      12.7755    -999.2500       0.2291    -999.2500       1.9830
