#------------------------------------------------------------------------------
#
#   Created by  : [OpenWorks] Log Export Utility (LEXP)
#   Created on  : 2016-05-23 11:56:01
#   Project     : CANT971
#   User        : R5K
#   Interpreter : PEP
#
#------------------------------------------------------------------------------
~VERSION INFORMATION
VERS. 2.0 : CWLS Log ASCII Standard - version 2.0
WRAP.  NO : One line per depth step
~WELL INFORMATION
#MNEMONIC   .UNIT                                           VALUE :DESCRIPTION
#------------------------------------------------------------------------------
STRT        .M                                          1572.0055 :START DEPTH
STOP        .M                                          3732.1230 :STOP DEPTH
STEP        .M                                             0.1524 :STEP
NULL        .                                           -999.2500 :NULL VALUE
COMP        .                                             UNKNOWN :COMPANY
WELL        .                                               428-V :WELL
FLD         .                                             UNKNOWN :FIELD
LOC         .                                             UNKNOWN :LOCATION
CNTY        .                                             UNKNOWN :COUNTY
STAT        .                                             UNKNOWN :STATE
CTRY        .                                             UNKNOWN :COUNTRY
SRVC        .                                             UNKNOWN :SERVICE COMPANY
DATE        .                                             UNKNOWN :LOG DATE
UWI         .                                               428-V :UNIQUE WELL ID
XCOORD      .                                            0.000000 :SURFACE X
YCOORD      .                                            0.000000 :SURFACE Y
LAT         .                                            0.000000 :LATITUDE
LON         .                                            0.000000 :LONGITUDE
ELEV        .M                                             0.0000 :SURFACE ELEV
ELEV_TYPE   .                                                  KB :ELEV TYPE
~CURVE INFORMATION
#MNEMONIC .UNIT        API CODE       : CURVE DESCRIPTION
#------------------------------------------------------------------------------
DEPTH     .M                          : Measured Depth
CALIH-LWD .inches      UNKNOWN        : CALIH-LWD:PETROWORKS:rC:NONE:v5 
CALIV-LWD .inches      UNKNOWN        : CALIV-LWD:PETROWORKS:rC:NONE:v5 
CGR       .API         UNKNOWN        : CGR:Espectrometria:rC:NONE:v0 (auto-composite)
DRHO-LWD  .g/cm3       UNKNOWN        : DRHO-LWD:PETROWORKS:rC:NONE:v5 
DT        .us/ft       UNKNOWN        : DT:sonico:rC:NONE:v0 (auto-composite)
GR        .API         UNKNOWN        : GR:Espectrometria:rC:NONE:v0 (auto-composite)
GR-LWD    .API         UNKNOWN        : GR-LWD:PETROWORKS:rC:NONE:v3 
ILD-LWD   .ohm.m       UNKNOWN        : ILD-LWD:PETROWORKS:rC:NONE:v2 
ILM-LWD   .ohm.m       UNKNOWN        : ILM-LWD:PETROWORKS:rC:NONE:v2 
LLD-LWD   .ohm.m       UNKNOWN        : LLD-LWD:registros-LWD:rC:NONE:v0 (auto-composite)
LLS-LWD   .ohm.m       UNKNOWN        : LLS-LWD:registros-LWD:rC:NONE:v0 (auto-composite)
MSFL-LWD  .ohm.m       UNKNOWN        : MSFL-LWD:registros-LWD:rC:NONE:v0 (auto-composite)
NPHI-LWD  .v/v_decimal UNKNOWN        : NPHI-LWD:PETROWORKS:rC:NONE:v5 
PEF-LWD   .b/elec      UNKNOWN        : PEF-LWD:PETROWORKS:rC:NONE:v5 
POTA      .wtpercent   UNKNOWN        : POTA:Espectrometria:rC:NONE:v0 (auto-composite)
RHOB-LWD  .g/cm3       UNKNOWN        : RHOB-LWD:PETROWORKS:rC:NONE:v5 
THOR      .UNKNOWN     UNKNOWN        : THOR:Espectrometria:rC:NONE:v0 (auto-composite)
URAN      .UNKNOWN     UNKNOWN        : URAN:Espectrometria:rC:NONE:v0 (auto-composite)
~A     DEPTH    CALIH-LWD    CALIV-LWD          CGR     DRHO-LWD           DT           GR       GR-LWD      ILD-LWD      ILM-LWD      LLD-LWD      LLS-LWD     MSFL-LWD     NPHI-LWD      PEF-LWD         POTA     RHOB-LWD         THOR         URAN
# ...
   2869.5391       8.6905       8.6615    -999.2500       0.0110    -999.2500    -999.2500      24.5225    -999.2500    -999.2500     129.8411     140.9923      84.4964       0.0563       3.0116    -999.2500       2.8140    -999.2500    -999.2500
   2869.6914       8.6538       8.6507    -999.2500       0.0118    -999.2500    -999.2500      25.3845    -999.2500    -999.2500     159.0075     178.2063      55.6892       0.0573       3.0276    -999.2500       2.8167    -999.2500    -999.2500
   2869.8440       8.6035       8.6258    -999.2500       0.0126    -999.2500    -999.2500      26.4986    -999.2500    -999.2500     126.9786     127.8562     105.3167       0.0591       3.0011    -999.2500       2.8071    -999.2500    -999.2500
   2869.9963       8.5976       8.6242    -999.2500       0.0111    -999.2500    -999.2500      26.3696    -999.2500    -999.2500      76.0783     107.4882      93.1952       0.0592       2.9958    -999.2500       2.7913    -999.2500    -999.2500
   2870.1487       8.6089       8.6606    -999.2500       0.0052    -999.2500    -999.2500      26.0562    -999.2500    -999.2500      87.0310     171.5976     113.2223       0.0598       2.9840    -999.2500       2.7769    -999.2500    -999.2500
   2870.3010       8.5932       8.7305    -999.2500       0.0158    -999.2500    -999.2500      26.0603    -999.2500    -999.2500     157.2941     150.4911     123.0968       0.0613       3.0110    -999.2500       2.7838    -999.2500    -999.2500
   2870.4536       8.6110       8.7905    -999.2500       0.0204    -999.2500    -999.2500      26.3397    -999.2500    -999.2500     121.2833     176.8762     144.7493       0.0625       2.9926    -999.2500       2.7814    -999.2500    -999.2500
   2870.6060       8.6536       8.9007    -999.2500       0.0176    -999.2500    -999.2500      26.7033    -999.2500    -999.2500     169.1704     175.0468     168.9406       0.0636       2.9701    -999.2500       2.7677    -999.2500    -999.2500
   2870.7583       8.6548       8.8796    -999.2500       0.0090    -999.2500    -999.2500      26.8816    -999.2500    -999.2500     157.7007     200.1716     120.9427       0.0648       2.9418    -999.2500       2.7573    -999.2500    -999.2500
   2870.9106       8.6039       8.8111    -999.2500       0.0098    -999.2500    -999.2500      27.4542    -999.2500    -999.2500     120.8419     138.8349     101.3065       0.0670       2.8821    -999.2500       2.7526    -999.2500    -999.2500
   2871.0630       8.5428       8.8111    -999.2500       0.0287    -999.2500    -999.2500      28.2406    -999.2500    -999.2500     106.4810     110.7938     103.3928       0.0685       2.8310    -999.2500       2.7570    -999.2500    -999.2500
   2871.2156       8.5551       8.8233    -999.2500       0.0414    -999.2500    -999.2500      28.7700    -999.2500    -999.2500     107.8034     153.7323      97.2434       0.0681       2.8080    -999.2500       2.7642    -999.2500    -999.2500
   2871.3679       8.5778       8.8249    -999.2500       0.0442    -999.2500    -999.2500      28.6052    -999.2500    -999.2500      78.1754     111.4030      61.7541       0.0674       2.7946    -999.2500       2.7727    -999.2500    -999.2500
   2871.5203       8.5984       8.7929    -999.2500       0.0292    -999.2500    -999.2500      27.9949    -999.2500    -999.2500     103.1305     123.3743      46.1818       0.0674       2.7978    -999.2500       2.7793    -999.2500    -999.2500
   2871.6726       8.5756       8.7611    -999.2500       0.0039    -999.2500    -999.2500      28.1585    -999.2500    -999.2500     123.3358     116.1273      67.5665       0.0674       2.8657    -999.2500       2.7874    -999.2500    -999.2500
   2871.8252       8.5244       8.7657    -999.2500      -0.0121    -999.2500    -999.2500      29.2497    -999.2500    -999.2500      66.4328      61.8243      55.5983       0.0673       2.9661    -999.2500       2.7874    -999.2500    -999.2500
   2871.9775       8.5534       8.7793    -999.2500      -0.0151    -999.2500    -999.2500      30.4978    -999.2500    -999.2500      63.1157      57.7600      71.4768       0.0676       2.9704    -999.2500       2.7758    -999.2500    -999.2500
   2872.1299       8.5984       8.7822    -999.2500      -0.0161    -999.2500    -999.2500      30.6688    -999.2500    -999.2500     123.5410     113.6010      84.5643       0.0685       2.9308    -999.2500       2.7618    -999.2500    -999.2500
   2872.2822       8.6201       8.7719    -999.2500      -0.0162    -999.2500    -999.2500      29.5808    -999.2500    -999.2500      59.6753     110.7244     105.8494       0.0704       2.8759    -999.2500       2.7592    -999.2500    -999.2500
   2872.4348       8.6088       8.7678    -999.2500      -0.0152    -999.2500    -999.2500      28.1622    -999.2500    -999.2500      85.2009     150.7768     122.5297       0.0735       2.8957    -999.2500       2.7666    -999.2500    -999.2500
   2872.5872       8.5834       8.7663    -999.2500      -0.0148    -999.2500    -999.2500      27.3347    -999.2500    -999.2500     130.5443     144.5212     143.5817       0.0757       2.9569    -999.2500       2.7733    -999.2500    -999.2500
   2872.7395       8.5787       8.7716    -999.2500      -0.0153    -999.2500    -999.2500      26.6581    -999.2500    -999.2500      60.2692      49.1834      63.2066       0.0766       2.9432    -999.2500       2.7763    -999.2500    -999.2500
   2872.8918       8.5788       8.7786    -999.2500      -0.0157    -999.2500    -999.2500      25.4733    -999.2500    -999.2500     192.7384     154.6102     100.6610       0.0771       2.9122    -999.2500       2.7772    -999.2500    -999.2500
   2873.0442       8.5757       8.7620    -999.2500      -0.0135    -999.2500    -999.2500      24.2209    -999.2500    -999.2500      95.4222     170.2760      76.6502       0.0772       2.8982    -999.2500       2.7798    -999.2500    -999.2500
   2873.1968       8.5915       8.7785    -999.2500      -0.0116    -999.2500    -999.2500      23.7977    -999.2500    -999.2500     407.0414     486.8756     214.9616       0.0754       2.8870    -999.2500       2.7857    -999.2500    -999.2500
   2873.3491       8.6059       8.8002    -999.2500      -0.0122    -999.2500    -999.2500      24.4639    -999.2500    -999.2500     188.7329     104.3418     100.8512       0.0737       2.8755    -999.2500       2.7880    -999.2500    -999.2500
   2873.5015       8.6131       8.7891    -999.2500      -0.0118    -999.2500    -999.2500      25.6125    -999.2500    -999.2500     100.9815     112.1371     126.5232       0.0707       2.9054    -999.2500       2.7841    -999.2500    -999.2500
   2873.6538       8.6199       8.7815    -999.2500      -0.0090    -999.2500    -999.2500      26.8380    -999.2500    -999.2500      90.2853     153.0774     100.0517       0.0681       2.9441    -999.2500       2.7827    -999.2500    -999.2500
   2873.8064       8.6138       8.7718    -999.2500      -0.0000    -999.2500    -999.2500      27.9294    -999.2500    -999.2500     169.5052     227.2607     240.7229       0.0657       2.9746    -999.2500       2.7864    -999.2500    -999.2500
   2873.9587       8.6292       8.7925    -999.2500       0.0089    -999.2500    -999.2500      28.9734    -999.2500    -999.2500     172.3728     236.2154     164.1994       0.0629       2.9378    -999.2500       2.7896    -999.2500    -999.2500
   2874.1111       8.6385       8.8136    -999.2500       0.0097    -999.2500    -999.2500      30.0165    -999.2500    -999.2500     130.6452     187.4381     204.7977       0.0617       2.8985    -999.2500       2.7881    -999.2500    -999.2500
   2874.2634       8.6004       8.7950    -999.2500      -0.0040    -999.2500    -999.2500      30.0740    -999.2500    -999.2500     182.8644     212.3453     152.0255       0.0615       2.8591    -999.2500       2.7800    -999.2500    -999.2500
   2874.4158       8.5918       8.7712    -999.2500      -0.0100    -999.2500    -999.2500      29.2136    -999.2500    -999.2500      78.4769      89.5352      68.5175       0.0615       2.8429    -999.2500       2.7805    -999.2500    -999.2500
