#------------------------------------------------------------------------------
#
#   Created by  : [OpenWorks] Log Export Utility (LEXP)
#   Created on  : 2016-05-12 17:01:28
#   Project     : CANT971
#   User        : R5K
#   Interpreter : PEP
#
#------------------------------------------------------------------------------
~VERSION INFORMATION
VERS. 2.0 : CWLS Log ASCII Standard - version 2.0
WRAP.  NO : One line per depth step
~WELL INFORMATION
#MNEMONIC   .UNIT                                           VALUE :DESCRIPTION
#------------------------------------------------------------------------------
STRT        .M                                           350.5962 :START DEPTH
STOP        .M                                          2218.5630 :STOP DEPTH
STEP        .M                                             0.1524 :STEP
NULL        .                                           -999.2500 :NULL VALUE
COMP        .                                   PEMEX EXPL & PROD :COMPANY
WELL        .                                                  79 :WELL
FLD         .                                           CANTARELL :FIELD
LOC         .                                             UNKNOWN :LOCATION
CNTY        .                                      CD. DEL CARMEN :COUNTY
STAT        .                                            CAMPECHE :STATE
CTRY        .                                              MEXICO :COUNTRY
SRVC        .                                             UNKNOWN :SERVICE COMPANY
DATE        .                                             UNKNOWN :LOG DATE
UWI         .                                          3060000183 :UNIQUE WELL ID
XCOORD      .                                       602154.470000 :SURFACE X
YCOORD      .                                      2147172.410000 :SURFACE Y
LAT         .                                           19.417394 :LATITUDE
LON         .                                          -92.027010 :LONGITUDE
ELEV        .M                                            28.1700 :SURFACE ELEV
ELEV_TYPE   .                                                  KB :ELEV TYPE
~CURVE INFORMATION
#MNEMONIC.UNIT        API CODE       : CURVE DESCRIPTION
#------------------------------------------------------------------------------
DEPTH    .M                          : Measured Depth
CALI     .inches      UNKNOWN        : CALI:CALI-Load:rC:NONE:v0 (auto-composite)
DT       .us/ft       UNKNOWN        : DT:DT:rC:NONE:v0 (auto-composite)
GR       .UNKNOWN     UNKNOWN        : GR:GR-Load:rC:NONE:v0 (auto-composite)
ILD      .UNKNOWN     UNKNOWN        : ILD:ILD-Load:rC:NONE:v0 (auto-composite)
LLD      .UNKNOWN     UNKNOWN        : LLD:LLD-Load:rC:NONE:v0 (auto-composite)
LLS      .UNKNOWN     UNKNOWN        : LLS:LLS-Load:rC:NONE:v0 (auto-composite)
MSFL     .UNKNOWN     UNKNOWN        : MSFL:MSFL-Load:rC:NONE:v0 (auto-composite)
NPHI     .v/v_decimal UNKNOWN        : NPHI:NPHI:rC:NONE:v0 (auto-composite)
RG       .API         UNKNOWN        : RG:UNKNOWN:rC:NONE:v0 (auto-composite)
RHOB     .UNKNOWN     UNKNOWN        : RHOB:RHOB-Load:rC:NONE:v0 (auto-composite)
SP       .UNKNOWN     UNKNOWN        : SP:SP-Load:rC:NONE:v0 (auto-composite)
~A     DEPTH         CALI           DT           GR          ILD          LLD          LLS         MSFL         NPHI           RG         RHOB           SP
# ...
    952.8810      15.2063    -999.2500      38.5846       1.2025    -999.2500    -999.2500    -999.2500       0.3688    -999.2500       2.2743      21.2809
    953.0334      15.5308    -999.2500      38.7715       1.2315    -999.2500    -999.2500    -999.2500       0.3673    -999.2500       2.2788      21.7003
    953.1858      15.7573    -999.2500      38.5004       1.2662    -999.2500    -999.2500    -999.2500       0.3689    -999.2500       2.2850      22.3684
    953.3382      15.8858    -999.2500      37.7714       1.3067    -999.2500    -999.2500    -999.2500       0.3737    -999.2500       2.2930      23.2849
    953.4906      15.9360    -999.2500      36.6654       1.3492    -999.2500    -999.2500    -999.2500       0.3743    -999.2500       2.3053      24.0624
    953.6430      15.9080    -999.2500      35.1826       1.3937    -999.2500    -999.2500    -999.2500       0.3706    -999.2500       2.3218      24.7010
    953.7954      15.7907    -999.2500      34.0862       1.4317    -999.2500    -999.2500    -999.2500       0.3525    -999.2500       2.3508      24.8331
    953.9478      15.5842    -999.2500      33.3752       1.4632    -999.2500    -999.2500    -999.2500       0.3197    -999.2500       2.3923      24.4596
    954.1002      15.3121    -999.2500      33.5357       1.4640    -999.2500    -999.2500    -999.2500       0.2930    -999.2500       2.4293      23.7208
    954.2526      14.9746    -999.2500      34.5661       1.4340    -999.2500    -999.2500    -999.2500       0.2722    -999.2500       2.4618      22.6173
    954.4050      14.7139    -999.2500      35.5338       1.3933    -999.2500    -999.2500    -999.2500       0.2636    -999.2500       2.4630      21.6695
    954.5574      14.5299    -999.2500      36.4388       1.3418    -999.2500    -999.2500    -999.2500       0.2673    -999.2500       2.4330      20.8770
    954.7098      14.3660    -999.2500      37.8220       1.2868    -999.2500    -999.2500    -999.2500       0.2820    -999.2500       2.3942      20.3719
    954.8622      14.2220    -999.2500      39.6830       1.2283    -999.2500    -999.2500    -999.2500       0.3076    -999.2500       2.3467      20.1539
    955.0146      14.3191    -999.2500      40.5850       1.1823    -999.2500    -999.2500    -999.2500       0.3327    -999.2500       2.3005      20.0450
    955.1670      14.6571    -999.2500      40.5290       1.1488    -999.2500    -999.2500    -999.2500       0.3573    -999.2500       2.2555      20.0450
    955.3194      14.9258    -999.2500      40.3979       1.1360    -999.2500    -999.2500    -999.2500       0.3692    -999.2500       2.2343      20.1693
    955.4718      15.1253    -999.2500      40.1919       1.1440    -999.2500    -999.2500    -999.2500       0.3685    -999.2500       2.2368      20.4179
    955.6242      15.2202    -999.2500      39.8327       1.1532    -999.2500    -999.2500    -999.2500       0.3688    -999.2500       2.2377      20.4955
    955.7766      15.2107    -999.2500      39.3208       1.1637    -999.2500    -999.2500    -999.2500       0.3701    -999.2500       2.2372      20.4025
    955.9290      15.1545    -999.2500      38.7182       1.1745    -999.2500    -999.2500    -999.2500       0.3679    -999.2500       2.2350      20.2239
    956.0814      15.0515    -999.2500      38.0252       1.1855    -999.2500    -999.2500    -999.2500       0.3622    -999.2500       2.2310      19.9599
    956.2338      15.0375    -999.2500      37.3823       1.1898    -999.2500    -999.2500    -999.2500       0.3560    -999.2500       2.2298      19.6491
    956.3862      15.1125    -999.2500      36.7893       1.1873    -999.2500    -999.2500    -999.2500       0.3492    -999.2500       2.2313      19.2916
    956.5386      15.0937    -999.2500      36.0958       1.1872    -999.2500    -999.2500    -999.2500       0.3462    -999.2500       2.2328      19.0194
    956.6910      14.9812    -999.2500      35.3018       1.1897    -999.2500    -999.2500    -999.2500       0.3468    -999.2500       2.2343      18.8324
    956.8434      14.9250    -999.2500      34.6459       1.1880    -999.2500    -999.2500    -999.2500       0.3498    -999.2500       2.2310      18.7000
    956.9958      14.9250    -999.2500      34.1279       1.1820    -999.2500    -999.2500    -999.2500       0.3552    -999.2500       2.2230      18.6220
    957.1482      15.1877    -999.2500      34.2190       1.1738    -999.2500    -999.2500    -999.2500       0.3632    -999.2500       2.2135      18.5520
    957.3006      15.7127    -999.2500      34.9186       1.1633    -999.2500    -999.2500    -999.2500       0.3737    -999.2500       2.2025      18.4900
    957.4530      16.2315    -999.2500      35.1181       1.1540    -999.2500    -999.2500    -999.2500       0.3816    -999.2500       2.2040      18.4044
    957.6054      16.7440    -999.2500      34.8186       1.1460    -999.2500    -999.2500    -999.2500       0.3870    -999.2500       2.2180      18.2954
    957.7578      17.1827    -999.2500      35.1184       1.1383    -999.2500    -999.2500    -999.2500       0.3947    -999.2500       2.2247      18.2022
    957.9102      17.5477    -999.2500      36.0164       1.1308    -999.2500    -999.2500    -999.2500       0.4049    -999.2500       2.2242      18.1247
    958.0626      17.7725    -999.2500      37.1691       1.1290    -999.2500    -999.2500    -999.2500       0.4071    -999.2500       2.2180      18.0470
    958.2150      17.8575    -999.2500      38.5760       1.1330    -999.2500    -999.2500    -999.2500       0.4013    -999.2500       2.2060      17.9690
    958.3674      17.6794    -999.2500      39.9977       1.1385    -999.2500    -999.2500    -999.2500       0.3878    -999.2500       2.2020      17.9535
    958.5198      17.2384    -999.2500      41.4342       1.1455    -999.2500    -999.2500    -999.2500       0.3667    -999.2500       2.2060      18.0005
    958.6722      16.9307    -999.2500      42.3669       1.1520    -999.2500    -999.2500    -999.2500       0.3513    -999.2500       2.2105      18.0783
    958.8246      16.7562    -999.2500      42.7964       1.1580    -999.2500    -999.2500    -999.2500       0.3418    -999.2500       2.2155      18.1868
    958.9770      16.3266    -999.2500      42.7489       1.1647    -999.2500    -999.2500    -999.2500       0.3423    -999.2500       2.2175      18.2565
    959.1294      15.6421    -999.2500      42.2249       1.1722    -999.2500    -999.2500    -999.2500       0.3529    -999.2500       2.2165      18.2875
    959.2818      15.3235    -999.2500      41.1081       1.1770    -999.2500    -999.2500    -999.2500       0.3613    -999.2500       2.2185      18.3265
    959.4342      15.3705    -999.2500      39.3988       1.1790    -999.2500    -999.2500    -999.2500       0.3675    -999.2500       2.2235      18.3735
    959.5866      15.4018    -999.2500      38.0375       1.1770    -999.2500    -999.2500    -999.2500       0.3730    -999.2500       2.2285      18.5684
    959.7390      15.4173    -999.2500      37.0235       1.1710    -999.2500    -999.2500    -999.2500       0.3778    -999.2500       2.2335      18.9109
    959.8914      15.4298    -999.2500      36.6954       1.1640    -999.2500    -999.2500    -999.2500       0.3785    -999.2500       2.2373      19.2764
    960.0438      15.4393    -999.2500      37.0519       1.1560    -999.2500    -999.2500    -999.2500       0.3753    -999.2500       2.2398      19.6649
    960.1962      15.5080    -999.2500      37.7889       1.1498    -999.2500    -999.2500    -999.2500       0.3726    -999.2500       2.2382      19.9756
    960.3486      15.6360    -999.2500      38.9059       1.1453    -999.2500    -999.2500    -999.2500       0.3706    -999.2500       2.2327      20.2086
    960.5010      15.6625    -999.2500      39.4172       1.1440    -999.2500    -999.2500    -999.2500       0.3699    -999.2500       2.2262      20.4416
    960.6534      15.5875    -999.2500      39.3237       1.1460    -999.2500    -999.2500    -999.2500       0.3704    -999.2500       2.2187      20.6746
