#------------------------------------------------------------------------------
#
#   Created by  : [OpenWorks] Log Export Utility (LEXP)
#   Created on  : 2016-05-12 17:01:19
#   Project     : CANT971
#   User        : R5K
#   Interpreter : PEP
#
#------------------------------------------------------------------------------
~VERSION INFORMATION
VERS. 2.0 : CWLS Log ASCII Standard - version 2.0
WRAP.  NO : One line per depth step
~WELL INFORMATION
#MNEMONIC   .UNIT                                           VALUE :DESCRIPTION
#------------------------------------------------------------------------------
STRT        .M                                           335.5854 :START DEPTH
STOP        .M                                          2510.4858 :STOP DEPTH
STEP        .M                                             0.1524 :STEP
NULL        .                                           -999.2500 :NULL VALUE
COMP        .                                   PEMEX EXPL & PROD :COMPANY
WELL        .                                                  35 :WELL
FLD         .                                           CANTARELL :FIELD
LOC         .                                             UNKNOWN :LOCATION
CNTY        .                                      CD. DEL CARMEN :COUNTY
STAT        .                                            CAMPECHE :STATE
CTRY        .                                              MEXICO :COUNTRY
SRVC        .                                             UNKNOWN :SERVICE COMPANY
DATE        .                                             UNKNOWN :LOG DATE
UWI         .                                          3060000159 :UNIQUE WELL ID
XCOORD      .                                       602147.900000 :SURFACE X
YCOORD      .                                      2147168.470000 :SURFACE Y
LAT         .                                           19.417359 :LATITUDE
LON         .                                          -92.027072 :LONGITUDE
ELEV        .M                                            28.1700 :SURFACE ELEV
ELEV_TYPE   .                                                  KB :ELEV TYPE
~CURVE INFORMATION
#MNEMONIC.UNIT        API CODE       : CURVE DESCRIPTION
#------------------------------------------------------------------------------
DEPTH    .M                          : Measured Depth
CALI     .inches      UNKNOWN        : CALI:Import:rC:NONE:v0 (auto-composite)
DRHO     .g/cm3       UNKNOWN        : DRHO:Import:rC:NONE:v0 (auto-composite)
DT       .us/ft       UNKNOWN        : DT:Import:rC:NONE:v0 (auto-composite)
GR       .API         UNKNOWN        : GR:Import:rC:NONE:v0 (auto-composite)
ILD      .ohm.m       UNKNOWN        : ILD:Import:rC:NONE:v0 (auto-composite)
LLD      .ohm.m       UNKNOWN        : LLD:Import:rC:NONE:v0 (auto-composite)
LLS      .ohm.m       UNKNOWN        : LLS:Import:rC:NONE:v0 (auto-composite)
MSFL     .ohm.m       UNKNOWN        : MSFL:Import:rC:NONE:v0 (auto-composite)
NPHI     .v/v_decimal UNKNOWN        : NPHI:Import:rC:NONE:v0 (auto-composite)
RHOB     .g/cm3       UNKNOWN        : RHOB:Import:rC:NONE:v0 (auto-composite)
SP       .mV          UNKNOWN        : SP:Import:rC:NONE:v0 (auto-composite)
~A     DEPTH         CALI         DRHO           DT           GR          ILD          LLD          LLS         MSFL         NPHI         RHOB           SP
# ...
   1801.6733       6.2300   -1998.5000      71.3850      30.7390    -999.2500     119.5000     105.1900     184.3200    -999.2500    -999.2500    -999.2500
   1801.8258       6.2149   -1998.5000      70.9826      34.2996    -999.2500     118.1806     102.5843     181.4610    -999.2500    -999.2500    -999.2500
   1801.9781       6.2000   -1998.5000      70.5850      37.8170    -999.2500     116.8750     100.0060     178.6320    -999.2500    -999.2500    -999.2500
   1802.1306       6.2080   -1998.5000      65.5775      52.1142    -999.2500      93.9432      81.3158     115.6836    -999.2500    -999.2500    -999.2500
   1802.2830       6.2160   -1998.5000      60.6300      66.2400    -999.2500      71.2500      62.8200      53.3900    -999.2500    -999.2500    -999.2500
   1802.4354       6.2381   -1998.5000      61.4448      65.4745    -999.2500      72.9141      64.3976      55.2315    -999.2500    -999.2500    -999.2500
   1802.5878       6.2600   -1998.5000      62.2500      64.7180    -999.2500      74.5610      65.9590      57.0540    -999.2500    -999.2500    -999.2500
   1802.7402       6.2299   -1998.5000      69.7540      59.7805    -999.2500      82.2435      72.7671      66.6467    -999.2500    -999.2500    -999.2500
   1802.8926       6.2000   -1998.5000      77.1700      54.9010    -999.2500      89.8480      79.5060      76.1420    -999.2500    -999.2500    -999.2500
   1803.0450       6.2000   -1998.5000      72.5331      46.3755    -999.2500     109.3317      85.6337      90.7643    -999.2500    -999.2500    -999.2500
   1803.1974       6.2000   -1998.5000      67.9500      37.9490    -999.2500     128.6200      91.7000     105.2400    -999.2500    -999.2500    -999.2500
   1803.3497       6.2080   -1998.5000      68.6611      34.8587    -999.2500     122.6906      85.3636      94.1400    -999.2500    -999.2500    -999.2500
   1803.5022       6.2160   -1998.5000      69.3640      31.8040    -999.2500     116.8200      79.0900      83.1500    -999.2500    -999.2500    -999.2500
   1803.6545       6.2381   -1998.5000      76.8294      30.5599    -999.2500     117.9329      79.4684      86.0175    -999.2500    -999.2500    -999.2500
   1803.8070       6.2600   -1998.5000      84.2100      29.3300    -999.2500     119.0350      79.8430      88.8570    -999.2500    -999.2500    -999.2500
   1803.9594       6.2299   -1998.5000      83.8374      32.5933    -999.2500     123.7739      81.7673     102.1567    -999.2500    -999.2500    -999.2500
   1804.1118       6.2000   -1998.5000      83.4690      35.8200    -999.2500     128.4670      83.6730     115.3280    -999.2500    -999.2500    -999.2500
   1804.2642       6.2040   -1998.5000      78.4365      35.7627    -999.2500     139.7473      87.0375     139.3103    -999.2500    -999.2500    -999.2500
   1804.4166       6.2080   -1998.5000      73.4600      35.7060    -999.2500     150.9200      90.3700     163.0640    -999.2500    -999.2500    -999.2500
   1804.5690       6.2341   -1998.5000      73.9713      34.7518    -999.2500     149.6194      89.8649     245.8595    -999.2500    -999.2500    -999.2500
   1804.7214       6.2600   -1998.5000      74.4770      33.8080    -999.2500     148.3320      89.3650     327.8100    -999.2500    -999.2500    -999.2500
   1804.8738       6.2515   -1998.5000      78.1198      29.3983    -999.2500     143.2494      87.0464     292.6670    -999.2500    -999.2500    -999.2500
   1805.0262       6.2430   -1998.5000      81.7200      25.0400    -999.2500     138.2220      84.7530     257.9060    -999.2500    -999.2500    -999.2500
   1805.1786       6.2114   -1998.5000      79.5748      25.4304    -999.2500     130.9183      80.1895     183.8436    -999.2500    -999.2500    -999.2500
   1805.3309       6.1800   -1998.5000      77.4560      25.8160    -999.2500     123.6930      75.6750     110.5770    -999.2500    -999.2500    -999.2500
   1805.4834       6.1900   -1998.5000      67.9902      29.0678    -999.2500     109.7374      67.1070      76.0753    -999.2500    -999.2500    -999.2500
   1805.6357       6.2000   -1998.5000      58.6400      32.2800    -999.2500      95.9300      58.6300      41.9400    -999.2500    -999.2500    -999.2500
   1805.7882       6.1975   -1998.5000      58.8362      31.8298    -999.2500      96.1858      59.0452      45.2087    -999.2500    -999.2500    -999.2500
   1805.9406       6.1950   -1998.5000      59.0300      31.3850    -999.2500      96.4390      59.4560      48.4430    -999.2500    -999.2500    -999.2500
   1806.0930       6.1724   -1998.5000      57.9636      27.2629    -999.2500     102.1481      63.2763      61.8661    -999.2500    -999.2500    -999.2500
   1806.2454       6.1500   -1998.5000      56.9100      23.1900    -999.2500     107.7980      67.0570      75.1500    -999.2500    -999.2500    -999.2500
   1806.3978       6.1540   -1998.5000      56.9995      23.4375    -999.2500     128.3041      77.0562      73.1196    -999.2500    -999.2500    -999.2500
   1806.5502       6.1580   -1998.5000      57.0880      23.6820    -999.2500     148.6000      86.9530      71.1100    -999.2500    -999.2500    -999.2500
   1806.7026       6.1690   -1998.5000      57.7076      24.4907    -999.2500     164.6814      93.2846      80.9749    -999.2500    -999.2500    -999.2500
   1806.8550       6.1800   -1998.5000      58.3200      25.2900    -999.2500     180.6000      99.5520      90.7400    -999.2500    -999.2500    -999.2500
   1807.0074       6.1649   -1998.5000      60.5444      24.6106    -999.2500     195.7759     105.1389      90.0827    -999.2500    -999.2500    -999.2500
   1807.1598       6.1500   -1998.5000      62.7430      23.9390    -999.2500     210.8000     110.6700      89.4320    -999.2500    -999.2500    -999.2500
   1807.3121       6.1500   -1998.5000      68.3471      21.8525    -999.2500     197.3898     103.2504      86.1066    -999.2500    -999.2500    -999.2500
   1807.4646       6.1500   -1998.5000      73.8870      19.7900    -999.2500     184.1120      95.9040      82.8140    -999.2500    -999.2500    -999.2500
   1807.6169       6.1540   -1998.5000      80.9023      20.0153    -999.2500     147.6633      77.5008      73.0308    -999.2500    -999.2500    -999.2500
   1807.7694       6.1580   -1998.5000      87.8380      20.2380    -999.2500     111.5700      59.2770      63.3430    -999.2500    -999.2500    -999.2500
   1807.9218       6.1716   -1998.5000      91.8475      21.0169    -999.2500      91.9882      51.5955      48.3091    -999.2500    -999.2500    -999.2500
   1808.0742       6.1850   -1998.5000      95.8120      21.7870    -999.2500      72.5950      43.9880      33.4200    -999.2500    -999.2500    -999.2500
   1808.2266       6.1925   -1998.5000      99.4492      22.5261    -999.2500      66.7685      41.3288      26.6607    -999.2500    -999.2500    -999.2500
   1808.3790       6.2000   -1998.5000     103.0460      23.2570    -999.2500      61.0020      38.6970      19.9710    -999.2500    -999.2500    -999.2500
   1808.5314       6.1975   -1998.5000     112.3577      24.8247    -999.2500      51.4034      33.2335      14.7921    -999.2500    -999.2500    -999.2500
   1808.6838       6.1950   -1998.5000     121.5600      26.3740    -999.2500      41.9100      27.8300       9.6700    -999.2500    -999.2500    -999.2500
   1808.8362       6.1724   -1998.5000     120.3912      28.7920    -999.2500      44.3819      29.5146      10.9107    -999.2500    -999.2500    -999.2500
   1808.9886       6.1500   -1998.5000     119.2370      31.1800    -999.2500      46.8270      31.1810      12.1380    -999.2500    -999.2500    -999.2500
   1809.1410       6.1500   -1998.5000     111.9185      30.7358    -999.2500      79.1266      48.5737      20.1183    -999.2500    -999.2500    -999.2500
   1809.2933       6.1500   -1998.5000     104.6900      30.2970    -999.2500     111.0800      65.7800      28.0130    -999.2500    -999.2500    -999.2500
   1809.4458       6.1349   -1998.5000     106.6670      28.5931    -999.2500     109.8334      64.7495      39.6486    -999.2500    -999.2500    -999.2500
