#------------------------------------------------------------------------------
#
#   Created by  : [OpenWorks] Log Export Utility (LEXP)
#   Created on  : 2016-05-23 11:55:55
#   Project     : CANT971
#   User        : R5K
#   Interpreter : PEP
#
#------------------------------------------------------------------------------
~VERSION INFORMATION
VERS. 2.0 : CWLS Log ASCII Standard - version 2.0
WRAP.  NO : One line per depth step
~WELL INFORMATION
#MNEMONIC   .UNIT                                           VALUE :DESCRIPTION
#------------------------------------------------------------------------------
STRT        .M                                          2870.4541 :START DEPTH
STOP        .M                                          3966.9722 :STOP DEPTH
STEP        .M                                             0.1524 :STEP
NULL        .                                           -999.2500 :NULL VALUE
COMP        .                                             UNKNOWN :COMPANY
WELL        .                                            418D-ST1 :WELL
FLD         .                                             UNKNOWN :FIELD
LOC         .                                             UNKNOWN :LOCATION
CNTY        .                                             UNKNOWN :COUNTY
STAT        .                                             UNKNOWN :STATE
CTRY        .                                             UNKNOWN :COUNTRY
SRVC        .                                             UNKNOWN :SERVICE COMPANY
DATE        .                                             UNKNOWN :LOG DATE
UWI         .                                            418D-ST1 :UNIQUE WELL ID
XCOORD      .                                       597130.010000 :SURFACE X
YCOORD      .                                      2144879.410000 :SURFACE Y
LAT         .                                           19.396924 :LATITUDE
LON         .                                          -92.074978 :LONGITUDE
ELEV        .M                                             0.0000 :SURFACE ELEV
ELEV_TYPE   .                                                  NA :ELEV TYPE
~CURVE INFORMATION
#MNEMONIC.UNIT        API CODE       : CURVE DESCRIPTION
#------------------------------------------------------------------------------
DEPTH    .M                          : Measured Depth
CALI     .inches      UNKNOWN        : CALI:litodensidad:rC:NONE:v0 (auto-composite)
CGR      .API         UNKNOWN        : CGR:litodensidad:rC:NONE:v0 (auto-composite)
DRHO     .g/cm3       UNKNOWN        : DRHO:litodensidad:rC:NONE:v0 (auto-composite)
DT       .us/ft       UNKNOWN        : DT:DT-Load:rC:NONE:v0 (auto-composite)
GR       .API         UNKNOWN        : GR:litodensidad:rC:NONE:v0 (auto-composite)
LLD      .ohm.m       UNKNOWN        : LLD:PETROWORKS:rC:NONE:v1 
LLS      .ohm.m       UNKNOWN        : LLS:PETROWORKS:rC:NONE:v1 
MSFL     .ohm.m       UNKNOWN        : MSFL:resistivos:rC:NONE:v0 (auto-composite)
NPHI     .v/v_decimal UNKNOWN        : NPHI:litodensidad:rC:NONE:v0 (auto-composite)
PEF      .UNKNOWN     UNKNOWN        : PEF:litodensidad:rC:NONE:v0 (auto-composite)
POTA     .UNKNOWN     UNKNOWN        : POTA:litodensidad:rC:NONE:v0 (auto-composite)
RHOB     .g/cm3       UNKNOWN        : RHOB:litodensidad:rC:NONE:v0 (auto-composite)
THOR     .ppm         UNKNOWN        : THOR:litodensidad:rC:NONE:v0 (auto-composite)
URAN     .ppm         UNKNOWN        : URAN:litodensidad:rC:NONE:v0 (auto-composite)
~A     DEPTH         CALI          CGR         DRHO           DT           GR          LLD          LLS         MSFL         NPHI          PEF         POTA         RHOB         THOR         URAN
# ...
   3913.7844      19.3750     120.9998       0.1143    -999.2500     103.7769       6.9684       5.4378    -999.2500       0.3335       5.7344       0.0343       2.4803      17.9139      -2.2136
   3913.9370      19.3594     120.6872       0.1155    -999.2500     103.7769       7.1323       5.6135    -999.2500       0.3336       5.9648       0.0343       2.4818      17.8564      -2.1734
   3914.0894      19.3750     120.3510       0.1107    -999.2500     103.7769       7.0232       5.6012    -999.2500       0.3335       5.8711       0.0342       2.4792      17.7946      -2.1302
   3914.2417      19.3438     119.9895       0.1137    -999.2500     103.7769       6.9141       5.5890    -999.2500       0.3337       5.9766       0.0341       2.4839      17.7280      -2.0837
   3914.3940      19.3750     119.6004       0.1129    -999.2500     103.7769       6.8050       5.5767    -999.2500       0.3335       5.9531       0.0340       2.4835      17.6565      -2.0337
   3914.5464      19.3750     119.1820       0.1259    -999.2500     103.7769       6.9094       5.6465    -999.2500       0.3335       5.9023       0.0340       2.4930      17.5795      -1.9799
   3914.6990      19.4063     118.7318       0.1222    -999.2500     103.7768       7.0871       5.7445    -999.2500       0.3334       5.7852       0.0339       2.4843      17.4968      -1.9221
   3914.8513      19.4219     118.2475       0.1298    -999.2500     103.7767       7.2647       5.8424    -999.2500       0.3333       5.8594       0.0338       2.4916      17.4078      -1.8598
   3915.0037      19.3750     117.7266       0.1306    -999.2500     103.7764       7.3480       5.8779    -999.2500       0.3335       6.0391       0.0337       2.4950      17.3120      -1.7929
   3915.1560      19.3906     117.1658       0.1359    -999.2500     103.7757       7.2164       5.7712    -999.2500       0.3335       6.0352       0.0336       2.5027      17.2090      -1.7209
   3915.3086      19.3750     116.5616       0.1279    -999.2500     103.7740       7.0847       5.6646    -999.2500       0.3335       5.9492       0.0334       2.4916      17.0981      -1.6435
   3915.4609      19.3906     115.9096       0.1291    -999.2500     103.7699       6.9531       5.5579    -999.2500       0.3335       5.9570       0.0333       2.4939      16.9786      -1.5602
   3915.6133      19.4375     115.2040       0.1292    -999.2500     103.7603       6.9791       5.6678    -999.2500       0.3333       5.8398       0.0332       2.4953      16.8494      -1.4708
   3915.7656      19.3438     114.4355       0.1288    -999.2500     103.7375       7.0292       5.8110    -999.2500       0.3337       5.9023       0.0330       2.4954      16.7094      -1.3749
   3915.9182      19.3750     113.5871       0.1293    -999.2500     103.6832       7.0794       5.9541    -999.2500       0.3335       5.7461       0.0328       2.4965      16.5559      -1.2729
   3916.0706      19.3438     112.6246       0.1292    -999.2500     103.5539       7.2402       6.1052    -999.2500       0.3337       5.9141       0.0326       2.4925      16.3845      -1.1658
   3916.2229      19.3750     111.4728       0.1315    -999.2500     103.2457       7.5480       6.2667    -999.2500       0.3335       5.8164       0.0324       2.4941      16.1856      -1.0574
   3916.3752      19.4063     109.9592       0.1300    -999.2500     102.5079       7.8559       6.4283    -999.2500       0.3334       6.0586       0.0320       2.4877      15.9372      -0.9577
   3916.5276      19.4531     107.6856       0.1284    -999.2500     100.7523       8.1668       6.5914    -999.2500       0.3332       6.0664       0.0314       2.4889      15.5894      -0.8911
   3916.6802      19.4063     103.7503       0.1294    -999.2500      96.6318       8.3784       6.8182    -999.2500       0.3334       5.9219       0.0302       2.4896      15.0298      -0.9149
   3916.8325      19.3594     102.7040       0.1251    -999.2500      96.6317       8.5922       7.0472    -999.2500       0.3336       5.7930       0.0300       2.4871      14.8415      -0.7804
   3916.9849      19.3594     101.8125       0.1252    -999.2500      96.6312       8.8060       7.2762    -999.2500       0.3336       5.6133       0.0298       2.4870      14.6807      -0.6659
   3917.1372      19.3906     101.0667       0.1231    -999.2500      96.6301       9.2920       7.7208    -999.2500       0.3335       5.7500       0.0296       2.4889      14.5458      -0.5702
   3917.2898      19.3906     100.4552       0.1276    -999.2500      96.6273       9.9987       8.3401    -999.2500       0.3335       5.7266       0.0295       2.4997      14.4349      -0.4920
   3917.4421      19.3594      99.9654       0.1232    -999.2500      96.6186      10.7055       8.9594    -999.2500       0.3336       5.8047       0.0294       2.4895      14.3458      -0.4301
   3917.5945      19.3594       0.0000       0.1268    -999.2500       0.0000      11.3024       9.4744    -999.2500       0.3336       5.6875       0.0000       2.4957       0.0000       0.0000
   3917.7468      19.3438       0.0000       0.1238    -999.2500       0.0000      11.0492       9.1819    -999.2500       0.3337       5.6289       0.0000       2.4895       0.0000       0.0000
   3917.8994      19.3750       0.0000       0.1264    -999.2500       0.0000      10.7960       8.8894    -999.2500       0.3335       5.7148       0.0000       2.4962       0.0000       0.0000
   3918.0518      19.4375       0.0000       0.1235    -999.2500       0.0000      10.5427       8.5969    -999.2500       0.3333       5.8672       0.0000       2.4907       0.0000       0.0000
   3918.2041      19.3594       0.0000       0.1263    -999.2500       0.0000      10.2681       8.3935    -999.2500       0.3336       5.8398       0.0000       2.4881       0.0000       0.0000
   3918.3564      19.3594       0.0000       0.1280    -999.2500       0.0000       9.9831       8.2331    -999.2500       0.3336       5.6719       0.0000       2.4929       0.0000       0.0000
   3918.5088      19.4063       0.0000       0.1279    -999.2500       0.0000       9.6982       8.0727    -999.2500       0.3334       5.7383       0.0000       2.4892       0.0000       0.0000
   3918.6614      19.3750       0.0000       0.1231    -999.2500       0.0000       9.6083       8.0317    -999.2500       0.3335       5.9453       0.0000       2.4905       0.0000       0.0000
   3918.8137      19.3438       0.0000       0.1234    -999.2500       0.0000      10.1460       8.3749    -999.2500       0.3337       6.0273       0.0000       2.4839       0.0000       0.0000
   3918.9661      19.3438       0.0000       0.1197    -999.2500       0.0000      10.6837       8.7181    -999.2500       0.3337       5.8867       0.0000       2.4786       0.0000       0.0000
   3919.1184      19.3438       0.0000       0.1154    -999.2500       0.0000      11.2215       9.0613    -999.2500       0.3337       5.5313       0.0000       2.4700       0.0000       0.0000
   3919.2710      19.3438       0.0000       0.1188    -999.2500       0.0000      10.6275       8.7223    -999.2500       0.3337       5.2930       0.0000       2.4787       0.0000       0.0000
   3919.4233      19.3438       0.0000       0.1242    -999.2500       0.0000       9.7492       8.2119    -999.2500       0.3337       5.0898       0.0000       2.4906       0.0000       0.0000
   3919.5757      19.3438       0.0000       0.1246    -999.2500       0.0000       8.8710       7.7014    -999.2500       0.3337       5.0898       0.0000       2.4963       0.0000       0.0000
   3919.7280      19.3438       0.0000       0.1247    -999.2500       0.0000       8.2070       7.2320    -999.2500       0.3337       5.0898       0.0000       2.5000       0.0000       0.0000
   3919.8806      19.3438       0.0000       0.1240    -999.2500       0.0000       7.9240       6.8355    -999.2500       0.3337       5.0898       0.0000       2.4993       0.0000       0.0000
   3920.0330      19.3438       0.0000       0.1207    -999.2500       0.0000       7.6410       6.4390    -999.2500       0.3337       5.0898       0.0000       2.4960       0.0000       0.0000
