#------------------------------------------------------------------------------
#
#   Created by  : [OpenWorks] Log Export Utility (LEXP)
#   Created on  : 2016-05-23 11:57:14
#   Project     : CANT971
#   User        : R5K
#   Interpreter : PEP
#
#------------------------------------------------------------------------------
~VERSION INFORMATION
VERS. 2.0 : CWLS Log ASCII Standard - version 2.0
WRAP.  NO : One line per depth step
~WELL INFORMATION
#MNEMONIC   .UNIT                                           VALUE :DESCRIPTION
#------------------------------------------------------------------------------
STRT        .M                                           551.2302 :START DEPTH
STOP        .M                                          2435.9609 :STOP DEPTH
STEP        .M                                             0.1524 :STEP
NULL        .                                           -999.2500 :NULL VALUE
COMP        .                                   PEMEX EXPL & PROD :COMPANY
WELL        .                                                  76 :WELL
FLD         .                                           CANTARELL :FIELD
LOC         .                                             UNKNOWN :LOCATION
CNTY        .                                      CD. DEL CARMEN :COUNTY
STAT        .                                            CAMPECHE :STATE
CTRY        .                                              MEXICO :COUNTRY
SRVC        .                                             UNKNOWN :SERVICE COMPANY
DATE        .                                             UNKNOWN :LOG DATE
UWI         .                                          3060000416 :UNIQUE WELL ID
XCOORD      .                                       599729.570000 :SURFACE X
YCOORD      .                                      2147218.620000 :SURFACE Y
LAT         .                                           19.417934 :LATITUDE
LON         .                                          -92.050101 :LONGITUDE
ELEV        .M                                            27.8000 :SURFACE ELEV
ELEV_TYPE   .                                                  KB :ELEV TYPE
~CURVE INFORMATION
#MNEMONIC.UNIT        API CODE       : CURVE DESCRIPTION
#------------------------------------------------------------------------------
DEPTH    .M                          : Measured Depth
CAL      .inches      UNKNOWN        : CAL:UNKNOWN:rC:NONE:v0 (auto-composite)
DRHO     .UNKNOWN     UNKNOWN        : DRHO:UNKNOWN:rC:NONE:v0 (auto-composite)
DT       .us/ft       UNKNOWN        : DT:DT:rC:NONE:v0 (auto-composite)
GR       .UNKNOWN     UNKNOWN        : GR:GR-Load:rC:NONE:v0 (auto-composite)
ILD      .UNKNOWN     UNKNOWN        : ILD:ILD-Load:rC:NONE:v0 (auto-composite)
LLD      .UNKNOWN     UNKNOWN        : LLD:UNKNOWN:rC:NONE:v0 (auto-composite)
LLS      .UNKNOWN     UNKNOWN        : LLS:UNKNOWN:rC:NONE:v0 (auto-composite)
NPHI     .v/v_decimal UNKNOWN        : NPHI:NPHI:rC:NONE:v0 (auto-composite)
RHOB     .UNKNOWN     UNKNOWN        : RHOB:UNKNOWN:rC:NONE:v0 (auto-composite)
~A     DEPTH          CAL         DRHO           DT           GR          ILD          LLD          LLS         NPHI         RHOB
# ...
   1600.0470       0.0000       0.2500    -999.2500      26.8739       0.2000       0.2000       0.2000    -999.2500       1.9500
   1600.1995       0.0000       0.2500    -999.2500      27.3020       0.2000       0.2000       0.2000    -999.2500       1.9500
   1600.3518       0.0000       0.2500    -999.2500      28.7057       0.2000       0.2000       0.2000    -999.2500       1.9500
   1600.5043       0.0000       0.2500    -999.2500      30.1090       0.2000       0.2000       0.2000    -999.2500       1.9500
   1600.6566       0.0000       0.2500    -999.2500      29.9319       0.2000       0.2000       0.2000    -999.2500       1.9500
   1600.8091       0.0000       0.2500    -999.2500      29.7550       0.2000       0.2000       0.2000    -999.2500       1.9500
   1600.9614       0.0000       0.2500    -999.2500      28.9282       0.2000       0.2000       0.2000    -999.2500       1.9500
   1601.1138       0.0000       0.2500    -999.2500      28.1020       0.2000       0.2000       0.2000    -999.2500       1.9500
   1601.2662       0.0000       0.2500    -999.2500      29.4790       0.2000       0.2000       0.2000    -999.2500       1.9500
   1601.4186       0.0000       0.2500    -999.2500      30.8550       0.2000       0.2000       0.2000    -999.2500       1.9500
   1601.5710       0.0000       0.2500    -999.2500      36.5775       0.2000       0.2000       0.2000    -999.2500       1.9500
   1601.7234       0.0000       0.2500    -999.2500      42.2970       0.2000       0.2000       0.2000    -999.2500       1.9500
   1601.8759       0.0000       0.2500    -999.2500      37.4130       0.2000       0.2000       0.2000    -999.2500       1.9500
   1602.0282       0.0000       0.2500    -999.2500      32.5310       0.2000       0.2000       0.2000    -999.2500       1.9500
   1602.1807       0.0000       0.2500    -999.2500      27.4263       0.2000       0.2000       0.2000    -999.2500       1.9500
   1602.3330       0.0000       0.2500    -999.2500      22.3230       0.2000       0.2000       0.2000    -999.2500       1.9500
   1602.4855       0.0000       0.2500    -999.2500      18.9502       0.2000       0.2000       0.2000    -999.2500       1.9500
   1602.6378       0.0000       0.2500    -999.2500      15.5780       0.2000       0.2000       0.2000    -999.2500       1.9500
   1602.7903       0.0000       0.2500    -999.2500      16.7210       0.2000       0.2000       0.2000    -999.2500       1.9500
   1602.9426       0.0000       0.2500    -999.2500      17.8640       0.2000       0.2000       0.2000    -999.2500       1.9500
   1603.0950       0.0000       0.2500    -999.2500      19.1864       0.2000       0.2000       0.2000    -999.2500       1.9500
   1603.2474       0.0000       0.2500    -999.2500      20.5090       0.2000       0.2000       0.2000    -999.2500       1.9500
   1603.3998       0.0000       0.2500    -999.2500      21.0044       0.2000       0.2000       0.2000    -999.2500       1.9500
   1603.5522       0.0000       0.2500    -999.2500      21.5000       0.2000       0.2000       0.2000    -999.2500       1.9500
   1603.7046       0.0000       0.2500    -999.2500      19.4104       0.2000       0.2000       0.2000    -999.2500       1.9500
   1603.8571       0.0000       0.2500    -999.2500      17.3200       0.2000       0.2000       0.2000    -999.2500       1.9500
   1604.0094       0.0000       0.2500    -999.2500      18.6282       0.2000       0.2000       0.2000    -999.2500       1.9500
   1604.1619       0.0000       0.2500    -999.2500      19.9370       0.2000       0.2000       0.2000    -999.2500       1.9500
   1604.3142       0.0000       0.2500    -999.2500      19.7790       0.2000       0.2000       0.2000    -999.2500       1.9500
   1604.4667       0.0000       0.2500    -999.2500      19.6210       0.2000       0.2000       0.2000    -999.2500       1.9500
   1604.6190       0.0000       0.2500    -999.2500      18.7516       0.2000       0.2000       0.2000    -999.2500       1.9500
   1604.7715       0.0000       0.2500    -999.2500      17.8830       0.2000       0.2000       0.2000    -999.2500       1.9500
   1604.9238       0.0000       0.2500    -999.2500      20.2434       0.2000       0.2000       0.2000    -999.2500       1.9500
   1605.0762       0.0000       0.2500    -999.2500      22.6020       0.2000       0.2000       0.2000    -999.2500       1.9500
   1605.2286       0.0000       0.2500    -999.2500      21.5687       0.2000       0.2000       0.2000    -999.2500       1.9500
   1605.3810       0.0000       0.2500    -999.2500      20.5360       0.2000       0.2000       0.2000    -999.2500       1.9500
   1605.5334       0.0000       0.2500    -999.2500      15.6478       0.2000       0.2000       0.2000    -999.2500       1.9500
   1605.6858       0.0000       0.2500    -999.2500      10.7620       0.2000       0.2000       0.2000    -999.2500       1.9500
   1605.8383       0.0000       0.2500    -999.2500      11.3346       0.2000       0.2000       0.2000    -999.2500       1.9500
   1605.9906       0.0000       0.2500    -999.2500      11.9070       0.2000       0.2000       0.2000    -999.2500       1.9500
   1606.1431       0.0000       0.2500    -999.2500      14.3053       0.2000       0.2000       0.2000    -999.2500       1.9500
   1606.2954       0.0000       0.2500    -999.2500      16.7030       0.2000       0.2000       0.2000    -999.2500       1.9500
   1606.4479       0.0000       0.2500    -999.2500      25.7586       0.2000       0.2000       0.2000    -999.2500       1.9500
   1606.6002       0.0000       0.2500    -999.2500      34.8130       0.2000       0.2000       0.2000    -999.2500       1.9500
   1606.7527       0.0000       0.2500    -999.2500      33.4645       0.2000       0.2000       0.2000    -999.2500       1.9500
   1606.9050       0.0000       0.2500    -999.2500      32.1160       0.2000       0.2000       0.2000    -999.2500       1.9500
   1607.0574       0.0000       0.2500    -999.2500      26.4329       0.2000       0.2000       0.2000    -999.2500       1.9500
   1607.2098       0.0000       0.2500    -999.2500      20.7490       0.2000       0.2000       0.2000    -999.2500       1.9500
   1607.3622       0.0000       0.2500    -999.2500      18.0678       0.2000       0.2000       0.2000    -999.2500       1.9500
   1607.5146       0.0000       0.2500    -999.2500      15.3860       0.2000       0.2000       0.2000    -999.2500       1.9500
   1607.6670       0.0000       0.2500    -999.2500      14.6861       0.2000       0.2000       0.2000    -999.2500       1.9500
   1607.8195       0.0000       0.2500    -999.2500      13.9860       0.2000       0.2000       0.2000    -999.2500       1.9500
   1607.9718       0.0000       0.2500    -999.2500      12.7958       0.2000       0.2000       0.2000    -999.2500       1.9500
   1608.1243       0.0000       0.2500    -999.2500      11.6050       0.2000       0.2000       0.2000    -999.2500       1.9500
   1608.2766       0.0000       0.2500    -999.2500      11.7355       0.2000       0.2000       0.2000    -999.2500       1.9500
   1608.4291       0.0000       0.2500    -999.2500      11.8660       0.2000       0.2000       0.2000    -999.2500       1.9500
   1608.5814       0.0000       0.2500    -999.2500      12.3842       0.2000       0.2000       0.2000    -999.2500       1.9500
   1608.7338       0.0000       0.2500    -999.2500      12.9020       0.2000       0.2000       0.2000    -999.2500       1.9500
   1608.8862       0.0000       0.2500    -999.2500      14.7592       0.2000       0.2000       0.2000    -999.2500       1.9500
   1609.0386       0.0000       0.2500    -999.2500      16.6150       0.2000       0.2000       0.2000    -999.2500       1.9500
   1609.1910       0.0000       0.2500    -999.2500      19.1092       0.2000       0.2000       0.2000    -999.2500       1.9500
   1609.3434       0.0000       0.2500    -999.2500      21.6020       0.2000       0.2000       0.2000    -999.2500       1.9500
