#------------------------------------------------------------------------------
#
#   Created by  : [OpenWorks] Log Export Utility (LEXP)
#   Created on  : 2016-05-23 11:57:02
#   Project     : CANT971
#   User        : R5K
#   Interpreter : PEP
#
#------------------------------------------------------------------------------
~VERSION INFORMATION
VERS. 2.0 : CWLS Log ASCII Standard - version 2.0
WRAP.  NO : One line per depth step
~WELL INFORMATION
#MNEMONIC   .UNIT                                           VALUE :DESCRIPTION
#------------------------------------------------------------------------------
STRT        .M                                           493.3184 :START DEPTH
STOP        .M                                          2467.0508 :STOP DEPTH
STEP        .M                                             0.1524 :STEP
NULL        .                                           -999.2500 :NULL VALUE
COMP        .                                   PEMEX EXPL & PROD :COMPANY
WELL        .                                                  63 :WELL
FLD         .                                           CANTARELL :FIELD
LOC         .                                             UNKNOWN :LOCATION
CNTY        .                                      CD. DEL CARMEN :COUNTY
STAT        .                                            CAMPECHE :STATE
CTRY        .                                              MEXICO :COUNTRY
SRVC        .                                             UNKNOWN :SERVICE COMPANY
DATE        .                                             UNKNOWN :LOG DATE
UWI         .                                          3060000615 :UNIQUE WELL ID
XCOORD      .                                       601716.240000 :SURFACE X
YCOORD      .                                      2142344.800000 :SURFACE Y
LAT         .                                           19.373792 :LATITUDE
LON         .                                          -92.031441 :LONGITUDE
ELEV        .M                                            24.0000 :SURFACE ELEV
ELEV_TYPE   .                                                  KB :ELEV TYPE
~CURVE INFORMATION
#MNEMONIC.UNIT        API CODE       : CURVE DESCRIPTION
#------------------------------------------------------------------------------
DEPTH    .M                          : Measured Depth
CALI     .inches      UNKNOWN        : CALI:Import:rC:NONE:v0 (auto-composite)
DRHO     .g/cm3       UNKNOWN        : DRHO:Import:rC:NONE:v0 (auto-composite)
DT       .us/ft       UNKNOWN        : DT:Import:rC:NONE:v0 (auto-composite)
GR       .API         UNKNOWN        : GR:Import:rC:NONE:v0 (auto-composite)
ILD      .ohm.m       UNKNOWN        : ILD:Import:rC:NONE:v0 (auto-composite)
ILM      .ohm.m       UNKNOWN        : ILM:Import:rC:NONE:v0 (auto-composite)
LLD      .ohm.m       UNKNOWN        : LLD:Import:rC:NONE:v0 (auto-composite)
LLS      .ohm.m       UNKNOWN        : LLS:Import:rC:NONE:v0 (auto-composite)
MSFL     .ohm.m       UNKNOWN        : MSFL:Import:rC:NONE:v0 (auto-composite)
NPHI     .v/v_decimal UNKNOWN        : NPHI:Import:rC:NONE:v0 (auto-composite)
PEF      .b/elec      UNKNOWN        : PEF:Import:rC:NONE:v0 (auto-composite)
RHOB     .g/cm3       UNKNOWN        : RHOB:Import:rC:NONE:v0 (auto-composite)
~A     DEPTH         CALI         DRHO           DT           GR          ILD          ILM          LLD          LLS         MSFL         NPHI          PEF         RHOB
# ...
   2424.5312       6.1665       0.1035      53.3112      29.8428    -999.2500    -999.2500     824.7453     817.4745       9.1807       0.0627       3.0950       2.7925
   2424.6836       6.1720       0.1120      52.3000      27.9690    -999.2500    -999.2500    1131.5010    1084.4449       7.7770       0.0601       3.1340       2.8040
   2424.8359       6.0746       0.1075      52.4997      24.2313    -999.2500    -999.2500    1127.8273    1083.6919      10.7961       0.0581       3.1250       2.7945
   2424.9883       5.9770       0.1030      52.7000      20.4840    -999.2500    -999.2500    1124.1440    1082.9370      13.8230       0.0566       3.1160       2.7850
   2425.1409       5.8442       0.1095      52.6750      20.8944    -999.2500    -999.2500     998.5320     958.8974      14.8241       0.0555       3.0795       2.7740
   2425.2932       5.7110       0.1160      52.6500      21.3060    -999.2500    -999.2500     872.5800     834.5220      15.8280       0.0553       3.0430       2.7630
   2425.4456       5.6955       0.1225      52.6750      22.1783    -999.2500    -999.2500     681.3196     654.7693      12.9256       0.0564       3.1104       2.7440
   2425.5979       5.6800       0.1290      52.7000      23.0530    -999.2500    -999.2500     489.5170     474.5070      10.0150       0.0582       3.1780       2.7250
   2425.7502       5.6800       0.1405      52.6815      23.8298    -999.2500    -999.2500     444.0293     429.7682       9.3405       0.0599       3.2025       2.7335
   2425.9028       5.6800       0.1520      52.6630      24.6090    -999.2500    -999.2500     398.4070     384.8970       8.6640       0.0616       3.2270       2.7420
   2426.0552       5.6870       0.1600      52.5447      24.5671    -999.2500    -999.2500     422.1968     400.2817       8.6835       0.0631       3.1411       2.7455
   2426.2075       5.6940       0.1680      52.4260      24.5250    -999.2500    -999.2500     446.0600     415.7140       8.7030       0.0640       3.0550       2.7490
   2426.3599       5.8223       0.1580      52.3187      23.5136    -999.2500    -999.2500     619.0048     574.5685       6.8709       0.0638       3.2307       2.7814
   2426.5125       5.9510       0.1480      52.2110      22.4990    -999.2500    -999.2500     792.5050     733.9330       5.0330       0.0634       3.4070       2.8140
   2426.6648       5.9795       0.1505      52.0183      22.2065    -999.2500    -999.2500     796.7689     724.1918       5.9420       0.0638       3.3965       2.8125
   2426.8171       6.0080       0.1530      51.8250      21.9130    -999.2500    -999.2500     801.0470     714.4180       6.8540       0.0634       3.3860       2.8110
   2426.9695       6.0080       0.1580      51.6877      21.9095    -999.2500    -999.2500     896.2197     763.1781       6.4687       0.0603       3.2682       2.7940
   2427.1221       6.0080       0.1630      51.5500      21.9060    -999.2500    -999.2500     991.7220     812.1070       6.0820       0.0571       3.1500       2.7770
   2427.2744       6.0080       0.2009      51.5036      21.7243    -999.2500    -999.2500    1109.0312     880.6274       6.6455       0.0564       3.1395       2.8184
   2427.4268       6.0080       0.2390      51.4570      21.5420    -999.2500    -999.2500    1226.7620     949.3940       7.2110       0.0571       3.1290       2.8600
   2427.5791       5.9905       0.2385      51.3891      21.2950    -999.2500    -999.2500    1079.6123     843.0367      10.6499       0.0587       3.0820       2.8645
   2427.7314       5.9730       0.2380      51.3210      21.0470    -999.2500    -999.2500     932.1520     736.4550      14.0960       0.0606       3.0350       2.8690
   2427.8840       5.9820       0.2210      51.2126      21.2536    -999.2500    -999.2500     772.2477     613.5618      15.4565       0.0622       2.9876       2.8575
   2428.0364       5.9910       0.2040      51.1040      21.4610    -999.2500    -999.2500     611.9860     490.3940      16.8200       0.0642       2.9400       2.8460
   2428.1887       6.0609       0.1710      50.8773      20.9926    -999.2500    -999.2500     570.3277     460.3330      14.4888       0.0673       3.0833       2.8350
   2428.3411       6.1310       0.1380      50.6500      20.5230    -999.2500    -999.2500     528.5710     430.2010      12.1520       0.0720       3.2270       2.8240
   2428.4937       6.1515       0.0826      50.7479      21.7210    -999.2500    -999.2500     457.5353     393.7583      20.9715       0.0795       3.3259       2.7885
   2428.6460       6.1720       0.0270      50.8460      22.9220    -999.2500    -999.2500     386.3230     357.2250      29.8130       0.0861       3.4250       2.7530
   2428.7983       6.1720       0.0270      51.0228      24.3381    -999.2500    -999.2500     363.2811     336.0746      25.3084       0.0877       3.3551       2.7565
   2428.9507       6.1720       0.0270      51.2000      25.7580    -999.2500    -999.2500     340.1790     314.8690      20.7920       0.0870       3.2850       2.7600
   2429.1033       6.1605       0.0295      51.1955      25.8539    -999.2500    -999.2500     325.3902     302.6258      17.0921       0.0850       3.2780       2.7590
   2429.2556       6.1490       0.0320      51.1910      25.9500    -999.2500    -999.2500     310.5610     290.3490      13.3820       0.0829       3.2710       2.7580
   2429.4080       5.9068       0.0400      51.0956      26.7394    -999.2500    -999.2500     250.4157     237.6870      12.8947       0.0815       3.0268       2.7330
   2429.5603       5.6640       0.0480      51.0000      27.5310    -999.2500    -999.2500     190.0980     184.8740      12.4060       0.0801       2.7820       2.7080
   2429.7126       5.5097       0.0730      50.8552      30.9429    -999.2500    -999.2500     170.7250     169.5669      13.3526       0.0782       2.7530       2.6885
   2429.8652       5.3550       0.0980      50.7100      34.3650    -999.2500    -999.2500     151.2940     154.2140      14.3020       0.0770       2.7240       2.6690
   2430.0176       5.3550       0.1295      50.6845      35.5402    -999.2500    -999.2500     144.0723     147.6208      14.4448       0.0782       2.7455       2.6890
   2430.1699       5.3550       0.1610      50.6590      36.7190    -999.2500    -999.2500     136.8280     141.0070      14.5880       0.0801       2.7670       2.7090
   2430.3223       5.3979       0.1810      50.5547      35.4396    -999.2500    -999.2500     126.6690     131.6052      16.1979       0.0814       2.7770       2.7260
   2430.4749       5.4410       0.2010      50.4500      34.1560    -999.2500    -999.2500     116.4770     122.1730      17.8130       0.0820       2.7870       2.7430
   2430.6272       5.3981       0.1990      50.4989      34.4605    -999.2500    -999.2500     116.8139     119.7805      16.3095       0.0812       2.9038       2.7046
   2430.7795       5.3550       0.1970      50.5480      34.7660    -999.2500    -999.2500     117.1520     117.3800      14.8010       0.0771       3.0210       2.6660
   2430.9319       5.3550       0.1870      50.8355      31.8646    -999.2500    -999.2500     178.0307     168.2441      11.1753       0.0662       2.9601       2.6366
   2431.0845       5.3550       0.1770      51.1240      28.9530    -999.2500    -999.2500     239.1220     219.2860       7.5370       0.0557       2.8990       2.6070
   2431.2368       5.3585       0.1755      51.4719      29.7266    -999.2500    -999.2500     235.2939     216.0534       9.9851       0.0529       2.8366       2.6160
   2431.3892       5.3620       0.1740      51.8210      30.5030    -999.2500    -999.2500     231.4520     212.8090      12.4420       0.0533       2.7740       2.6250
   2431.5415       5.3820       0.1735      52.0353      35.1723    -999.2500    -999.2500     210.7921     195.2094      16.2444       0.0544       2.7275       2.6235
   2431.6938       5.4020       0.1730      52.2500      39.8590    -999.2500    -999.2500     190.0880     177.5720      20.0550       0.0557       2.6810       2.6220
