#------------------------------------------------------------------------------
#
#   Created by  : [OpenWorks] Log Export Utility (LEXP)
#   Created on  : 2016-05-23 11:57:01
#   Project     : CANT971
#   User        : R5K
#   Interpreter : PEP
#
#------------------------------------------------------------------------------
~VERSION INFORMATION
VERS. 2.0 : CWLS Log ASCII Standard - version 2.0
WRAP.  NO : One line per depth step
~WELL INFORMATION
#MNEMONIC   .UNIT                                           VALUE :DESCRIPTION
#------------------------------------------------------------------------------
STRT        .M                                           485.8514 :START DEPTH
STOP        .M                                          3526.5361 :STOP DEPTH
STEP        .M                                             0.1524 :STEP
NULL        .                                           -999.2500 :NULL VALUE
COMP        .                                   PEMEX EXPL & PROD :COMPANY
WELL        .                                                  62 :WELL
FLD         .                                           CANTARELL :FIELD
LOC         .                                             UNKNOWN :LOCATION
CNTY        .                                      CD. DEL CARMEN :COUNTY
STAT        .                                            CAMPECHE :STATE
CTRY        .                                              MEXICO :COUNTRY
SRVC        .                                             UNKNOWN :SERVICE COMPANY
DATE        .                                             UNKNOWN :LOG DATE
UWI         .                                          3060000468 :UNIQUE WELL ID
XCOORD      .                                       601711.280000 :SURFACE X
YCOORD      .                                      2142346.320000 :SURFACE Y
LAT         .                                           19.373806 :LATITUDE
LON         .                                          -92.031488 :LONGITUDE
ELEV        .M                                            24.0000 :SURFACE ELEV
ELEV_TYPE   .                                                  KB :ELEV TYPE
~CURVE INFORMATION
#MNEMONIC.UNIT        API CODE       : CURVE DESCRIPTION
#------------------------------------------------------------------------------
DEPTH    .M                          : Measured Depth
CALI     .inches      UNKNOWN        : CALI:editado:rC:NONE:v0 (auto-composite)
DRHO     .g/cm3       UNKNOWN        : DRHO:editado:rC:NONE:v0 (auto-composite)
DT       .us/ft       UNKNOWN        : DT:editado:rC:NONE:v0 (auto-composite)
GR       .API         UNKNOWN        : GR:editado:rC:NONE:v0 (auto-composite)
ILD      .ohm.m       UNKNOWN        : ILD:editado:rC:NONE:v0 (auto-composite)
ILM      .ohm.m       UNKNOWN        : ILM:editado:rC:NONE:v0 (auto-composite)
LLD      .ohm.m       UNKNOWN        : LLD:editado:rC:NONE:v0 (auto-composite)
LLS      .ohm.m       UNKNOWN        : LLS:editado:rC:NONE:v0 (auto-composite)
MSFL     .ohm.m       UNKNOWN        : MSFL:editado:rC:NONE:v0 (auto-composite)
NPHI     .v/v_decimal UNKNOWN        : NPHI:editado:rC:NONE:v0 (auto-composite)
PEF      .b/elec      UNKNOWN        : PEF:editado:rC:NONE:v0 (auto-composite)
RHOB     .g/cm3       UNKNOWN        : RHOB:editado:rC:NONE:v0 (auto-composite)
~A     DEPTH         CALI         DRHO           DT           GR          ILD          ILM          LLD          LLS         MSFL         NPHI          PEF         RHOB
# ...
   2621.8899       9.0000      -0.0150      47.2220      25.3790    -999.2500    -999.2500     603.6930     520.1470     268.7180       0.0198       4.3330       2.8240
   2622.0422       9.0000      -0.0135      47.2220      26.7024    -999.2500    -999.2500     597.6793     513.5325     297.6348       0.0188       4.1533       2.8280
   2622.1946       9.0000      -0.0120      47.2220      28.0200    -999.2500    -999.2500     591.7020     506.9580     326.3310       0.0177       3.9750       2.8320
   2622.3469       9.0000      -0.0035      47.8073      27.3846    -999.2500    -999.2500     565.4328     479.7616     238.5337       0.0173       3.8872       2.8250
   2622.4995       9.0000       0.0050      48.3900      26.7520    -999.2500    -999.2500     539.3190     452.7260     151.3960       0.0171       3.8000       2.8180
   2622.6519       9.0000       0.0070      49.2949      26.0941    -999.2500    -999.2500     523.4440     432.9296     156.9104       0.0174       3.8758       2.8140
   2622.8042       9.0000       0.0090      50.1960      25.4390    -999.2500    -999.2500     507.6610     413.2480     162.3840       0.0181       3.9510       2.8100
   2622.9565       9.0000       0.0035      50.7601      24.6474    -999.2500    -999.2500     496.8748     399.8870     128.5752       0.0196       4.0052       2.8050
   2623.1091       9.0000      -0.0020      51.3220      23.8590    -999.2500    -999.2500     486.1670     386.6230      95.0120       0.0217       4.0590       2.8000
   2623.2615       9.0000      -0.0065      51.6767      23.8680    -999.2500    -999.2500     464.1219     364.6537     205.1001       0.0256       4.3656       2.7895
   2623.4138       9.0000      -0.0110      52.0300      23.8770    -999.2500    -999.2500     442.2340     342.8410     314.4030       0.0294       4.6700       2.7790
   2623.5662       9.0000      -0.0110      52.3691      24.9045    -999.2500    -999.2500     431.8436     331.6412     270.3671       0.0313       4.7799       2.7735
   2623.7185       9.0000      -0.0110      52.7070      25.9280    -999.2500    -999.2500     421.5260     320.5200     226.6400       0.0326       4.8890       2.7680
   2623.8711       9.0000      -0.0135      53.0206      26.6960    -999.2500    -999.2500     398.1375     301.2457     422.8382       0.0329       4.7254       2.7615
   2624.0234       9.0000      -0.0160      53.3330      27.4600    -999.2500    -999.2500     374.9100     282.1040     617.6860       0.0329       4.5630       2.7550
   2624.1758       9.0000      -0.0100      53.1251      27.6495    -999.2500    -999.2500     344.4520     258.8117     586.0576       0.0324       4.4446       2.7530
   2624.3281       9.0000      -0.0040      52.9180      27.8380    -999.2500    -999.2500     314.2000     235.6770     554.6430       0.0318       4.3270       2.7510
   2624.4807       9.0321      -0.0045      52.2744      27.9588    -999.2500    -999.2500     301.9097     224.6544     358.0089       0.0310       4.2533       2.7650
   2624.6331       9.0640      -0.0050      51.6330      28.0790    -999.2500    -999.2500     289.7010     213.7050     162.9930       0.0298       4.1800       2.7790
   2624.7854       9.1293      -0.0080      50.3048      27.1953    -999.2500    -999.2500     272.6836     201.7807     111.5241       0.0273       4.2863       2.7845
   2624.9377       9.1940      -0.0110      48.9810      26.3160    -999.2500    -999.2500     255.7770     189.9340      60.4720       0.0249       4.3920       2.7900
   2625.0901       9.2106      -0.0085      48.7038      25.4785    -999.2500    -999.2500     235.0368     178.5732      36.9070       0.0237       4.5630       2.7875
   2625.2427       9.2270      -0.0060      48.4280      24.6450    -999.2500    -999.2500     214.4290     167.2850      13.5300       0.0227       4.7330       2.7850
   2625.3950       9.2767       0.0000      49.4444      23.7429    -999.2500    -999.2500     217.9370     175.5424      29.6608       0.0210       4.3488       2.7990
   2625.5474       9.3260       0.0060      50.4560      22.8450    -999.2500    -999.2500     221.4230     183.7480      45.6650       0.0195       3.9670       2.8130
   2625.6997       9.3551       0.0035      51.2849      23.4414    -999.2500    -999.2500     212.4234     178.6539      53.1499       0.0195       3.8164       2.8060
   2625.8523       9.3840       0.0010      52.1100      24.0350    -999.2500    -999.2500     203.4790     173.5910      60.5770       0.0205       3.6670       2.7990
   2626.0046       9.4141      -0.0040      52.1661      24.5196    -999.2500    -999.2500     177.4201     150.8606      38.6913       0.0237       3.6670       2.7764
   2626.1570       9.4440      -0.0090      52.2220      25.0020    -999.2500    -999.2500     151.5180     128.2670      16.9720       0.0276       3.6670       2.7540
   2626.3093       9.3406      -0.0100      51.2584      25.8198    -999.2500    -999.2500     151.5471     122.0106       9.6687       0.0320       3.6153       2.7349
   2626.4619       9.2380      -0.0110      50.2990      26.6340    -999.2500    -999.2500     151.5760     115.7910       2.4200       0.0349       3.5640       2.7160
   2626.6143       9.2977      -0.0075      49.0359      26.6320    -999.2500    -999.2500     211.5669     154.9002      19.2800       0.0316       3.5680       2.7130
   2626.7666       9.3570      -0.0040      47.7780      26.6300    -999.2500    -999.2500     271.2120     193.7840      36.0160       0.0270       3.5720       2.7100
   2626.9189       9.4508       0.0000      47.7780      25.2708    -999.2500    -999.2500     407.6519     286.5720      73.1844       0.0235       3.6734       2.7456
   2627.0713       9.5440       0.0040      47.7780      23.9170    -999.2500    -999.2500     543.1050     378.6890     110.0840       0.0207       3.7740       2.7810
   2627.2239       9.5500       0.0100      47.9288      23.0648    -999.2500    -999.2500     606.9929     422.9818     115.0817       0.0194       3.9712       2.7905
   2627.3762       9.5560       0.0160      48.0790      22.2160    -999.2500    -999.2500     670.4270     466.9600     120.0440       0.0182       4.1670       2.8000
   2627.5286       9.5139       0.0517      48.4076      23.0150    -999.2500    -999.2500     626.6416     436.6090     134.0925       0.0161       4.2949       2.8150
   2627.6809       9.4720       0.0870      48.7350      23.8110    -999.2500    -999.2500     583.1620     406.4700     148.0430       0.0145       4.4220       2.8300
   2627.8335       9.4595       0.1151      49.0776      23.5538    -999.2500    -999.2500     525.3193     365.6782     104.8325       0.0153       4.2208       2.8185
   2627.9858       9.4470       0.1430      49.4190      23.2980    -999.2500    -999.2500     467.8730     325.1660      61.9180       0.0166       4.0210       2.8070
   2628.1382       9.5574       0.1199      48.5970      22.6649    -999.2500    -999.2500     426.0627     299.2061      73.3043       0.0169       3.8820       2.8005
   2628.2905       9.6670       0.0970      47.7780      22.0350    -999.2500    -999.2500     384.5340     273.4210      84.6140       0.0170       3.7440       2.7940
   2628.4431       9.6434       0.0678      47.7780      22.7232    -999.2500    -999.2500     377.0704     271.4585     117.0254       0.0170       3.8724       2.7965
   2628.5955       9.6200       0.0390      47.7780      23.4080    -999.2500    -999.2500     369.6560     269.5090     149.1710       0.0170       4.0000       2.7990
   2628.7478       9.5542       0.0204      48.8297      24.0150    -999.2500    -999.2500     359.5573     264.1225     166.9020       0.0170       3.8515       2.8025
   2628.9001       9.4890       0.0020      49.8780      24.6190    -999.2500    -999.2500     349.5240     258.7710     184.4900       0.0170       3.7040       2.8060
   2629.0525       9.4664      -0.0020      50.4960      24.3885    -999.2500    -999.2500     347.8266     256.6779     155.0424       0.0170       3.7737       2.8035
