#------------------------------------------------------------------------------
#
#   Created by  : [OpenWorks] Log Export Utility (LEXP)
#   Created on  : 2016-05-23 11:56:43
#   Project     : CANT971
#   User        : R5K
#   Interpreter : PEP
#
#------------------------------------------------------------------------------
~VERSION INFORMATION
VERS. 2.0 : CWLS Log ASCII Standard - version 2.0
WRAP.  NO : One line per depth step
~WELL INFORMATION
#MNEMONIC   .UNIT                                           VALUE :DESCRIPTION
#------------------------------------------------------------------------------
STRT        .M                                           650.2150 :START DEPTH
STOP        .M                                          2618.6135 :STOP DEPTH
STEP        .M                                             0.1524 :STEP
NULL        .                                           -999.2500 :NULL VALUE
COMP        .                                   PEMEX EXPL & PROD :COMPANY
WELL        .                                                  4D :WELL
FLD         .                                           CANTARELL :FIELD
LOC         .                                             UNKNOWN :LOCATION
CNTY        .                                      CD. DEL CARMEN :COUNTY
STAT        .                                            CAMPECHE :STATE
CTRY        .                                              MEXICO :COUNTRY
SRVC        .                                             UNKNOWN :SERVICE COMPANY
DATE        .                                             UNKNOWN :LOG DATE
UWI         .                                          3060000662 :UNIQUE WELL ID
XCOORD      .                                       598468.500000 :SURFACE X
YCOORD      .                                      2145023.700000 :SURFACE Y
LAT         .                                           19.398162 :LATITUDE
LON         .                                          -92.062225 :LONGITUDE
ELEV        .M                                            26.5400 :SURFACE ELEV
ELEV_TYPE   .                                                  KB :ELEV TYPE
~CURVE INFORMATION
#MNEMONIC.UNIT        API CODE       : CURVE DESCRIPTION
#------------------------------------------------------------------------------
DEPTH    .M                          : Measured Depth
CAL      .inches      UNKNOWN        : CAL:UNKNOWN:rC:NONE:v0 (auto-composite)
CGR      .UNKNOWN     UNKNOWN        : CGR:UNKNOWN:rC:NONE:v0 (auto-composite)
DRHO     .UNKNOWN     UNKNOWN        : DRHO:UNKNOWN:rC:NONE:v0 (auto-composite)
DT       .us/ft       UNKNOWN        : DT:DT:rC:NONE:v0 (auto-composite)
GR       .API         UNKNOWN        : GR:UNKNOWN:rC:NONE:v0 (auto-composite)
ILD      .UNKNOWN     UNKNOWN        : ILD:UNKNOWN:rC:NONE:v0 (auto-composite)
ILM      .UNKNOWN     UNKNOWN        : ILM:UNKNOWN:rC:NONE:v0 (auto-composite)
LLD      .UNKNOWN     UNKNOWN        : LLD:UNKNOWN:rC:NONE:v0 (auto-composite)
LLS      .UNKNOWN     UNKNOWN        : LLS:UNKNOWN:rC:NONE:v0 (auto-composite)
MSFL     .UNKNOWN     UNKNOWN        : MSFL:UNKNOWN:rC:NONE:v0 (auto-composite)
NPHI     .v/v_decimal UNKNOWN        : NPHI:PETROWORKS:rC:NONE:v1 
PEF      .UNKNOWN     UNKNOWN        : PEF:UNKNOWN:rC:NONE:v0 (auto-composite)
POTA     .UNKNOWN     UNKNOWN        : POTA:UNKNOWN:rC:NONE:v0 (auto-composite)
RHOB     .UNKNOWN     UNKNOWN        : RHOB:UNKNOWN:rC:NONE:v0 (auto-composite)
THOR     .UNKNOWN     UNKNOWN        : THOR:UNKNOWN:rC:NONE:v0 (auto-composite)
URAN     .UNKNOWN     UNKNOWN        : URAN:UNKNOWN:rC:NONE:v0 (auto-composite)
~A     DEPTH          CAL          CGR         DRHO           DT           GR          ILD          ILM          LLD          LLS         MSFL         NPHI          PEF         POTA         RHOB         THOR         URAN
# ...
   2573.0459       7.5046      15.4986       0.0493      80.8635      37.3004    -999.2500    -999.2500      48.6019      27.7031       7.4936       0.1399       2.8845       0.0069       2.4596       0.7928       2.5907
   2573.1982       7.0849      14.4840       0.0568      79.6665      34.1256    -999.2500    -999.2500      55.7383      31.5755       4.6363       0.1853       2.9800       0.0064       2.4691       0.8268       2.3319
   2573.3506       6.7779      13.9542       0.0627      77.4998      31.8930    -999.2500    -999.2500      61.8590      35.2468       5.0980       0.2169       3.0819       0.0062       2.4939       0.8682       2.1253
   2573.5029       7.0083      15.7899       0.0607      70.7062      34.1061    -999.2500    -999.2500      63.0229      37.9483      21.7552       0.2097       3.2144       0.0072       2.5913       0.9457       2.1744
   2573.6555       7.1875      16.6973       0.0544      65.3952      34.8413    -999.2500    -999.2500      63.1087      39.4421      33.0556       0.1945       3.3281       0.0077       2.6581       0.9672       2.1604
   2573.8079       7.1210      13.0989       0.0279      67.1998      28.5620    -999.2500    -999.2500      57.9609      35.1389      18.3535       0.1703       3.3521       0.0062       2.5776       0.7168       1.8411
   2573.9602       7.0481      10.2297       0.0068      68.8044      23.5912    -999.2500    -999.2500      52.3391      30.8656      14.1970       0.1569       3.3547       0.0050       2.5117       0.5278       1.5893
   2574.1125       6.9446      10.9219       0.0113      69.4536      24.9392    -999.2500    -999.2500      44.4022      26.7360      61.5454       0.1652       3.2547       0.0050       2.5157       0.6383       1.6673
   2574.2651       6.8730      11.5563       0.0182      70.1016      26.2675    -999.2500    -999.2500      37.6544      23.4187      93.9858       0.1769       3.1736       0.0050       2.5228       0.7542       1.7520
   2574.4175       6.9546      11.9097       0.0367      70.7439      27.5010    -999.2500    -999.2500      36.6843      24.0035      53.9941       0.1819       3.1826       0.0050       2.5448       0.8962       1.8689
   2574.5698       7.0057      11.7898       0.0497      71.1867      28.0767    -999.2500    -999.2500      37.2125      25.3513      24.2215       0.1842       3.2021       0.0047       2.5635       0.9965       1.9601
   2574.7222       6.9112       9.3569       0.0362      70.6764      25.5783    -999.2500    -999.2500      45.0644      30.3467      44.4040       0.1813       3.2721       0.0032       2.5665       0.8935       1.9256
   2574.8745       6.8612       7.4049       0.0239      70.6287      23.7374    -999.2500    -999.2500      50.7702      34.0127      56.4404       0.1740       3.3482       0.0021       2.5464       0.8268       1.9175
   2575.0271       7.0253       7.7912       0.0174      72.8050      24.9883    -999.2500    -999.2500      46.0397      31.2867      28.8638       0.1516       3.4537       0.0026       2.4154       0.9367       2.0380
   2575.1794       7.1478       8.4052       0.0145      74.2243      26.5106    -999.2500    -999.2500      41.6978      28.8832       7.4546       0.1382       3.5101       0.0031       2.3111       1.0447       2.1595
   2575.3318       7.0713      10.1328       0.0290      72.0222      29.3309    -999.2500    -999.2500      39.2569      28.0226      16.2209       0.1453       3.3317       0.0036       2.3346       1.1433       2.2860
   2575.4841       6.9812      11.6940       0.0465      69.8435      31.9191    -999.2500    -999.2500      39.3001      28.8325      46.3669       0.1527       3.1962       0.0041       2.3912       1.2172       2.4056
   2575.6367       6.8257      12.4452       0.0785      67.7773      33.3899    -999.2500    -999.2500      51.4344      37.6823     180.5730       0.1511       3.2672       0.0046       2.6073       1.1712       2.4910
   2575.7891       6.7096      12.4665       0.1004      65.6454      33.7660    -999.2500    -999.2500      64.4967      47.1112     268.9633       0.1427       3.3355       0.0047       2.7844       1.0756       2.5342
   2575.9414       6.7826       8.9137       0.0739      63.1994      28.8410    -999.2500    -999.2500      82.1037      59.3129     132.9901       0.1162       3.3905       0.0032       2.7754       0.7370       2.3701
   2576.0938       6.8297       5.7873       0.0559      60.8144      24.5129    -999.2500    -999.2500      97.4125      69.9915     188.6976       0.0975       3.4101       0.0020       2.7521       0.4388       2.2272
   2576.2463       6.7533       4.7383       0.0784      58.7226      23.1250    -999.2500    -999.2500     101.5252      73.3332    1178.1827       0.0989       3.2606       0.0020       2.6607       0.3378       2.1872
   2576.3987       6.7166       3.7219       0.1011      57.3313      22.1389    -999.2500    -999.2500     103.4045      74.8691    1833.5178       0.1054       3.1583       0.0018       2.5865       0.2783       2.1687
   2576.5510       6.8707       2.8656       0.1252      59.2965      23.0565    -999.2500    -999.2500      94.3366      67.7517     851.0302       0.1194       3.2819       0.0008       2.5950       0.4219       2.2552
   2576.7034       6.9842       2.2796       0.1403      61.0304      23.8770    -999.2500    -999.2500      86.2899      61.5838      33.3227       0.1234       3.3925       0.0001       2.6185       0.5422       2.3406
   2576.8557       6.9048       3.0119       0.1133      61.6617      24.2349    -999.2500    -999.2500      83.2223      59.9938      19.0605       0.1081       3.4415       0.0006       2.7134       0.5492       2.4206
   2577.0083       6.8455       3.4881       0.0922      62.8052      24.3542    -999.2500    -999.2500      80.0908      58.4859       7.1900       0.0917       3.4677       0.0009       2.7917       0.5341       2.4817
   2577.1606       6.8830       2.7225       0.0992      66.4055      23.3295    -999.2500    -999.2500      76.6492      57.3724       6.9206       0.0897       3.3846       0.0004       2.7897       0.4116       2.4507
   2577.3130       6.8798       1.9835       0.1065      69.0199      22.2997    -999.2500    -999.2500      73.9308      56.5918      15.2761       0.0893       3.2944       0.0000       2.7787       0.3165       2.4278
   2577.4653       6.6824       1.3748       0.1150      66.9298      21.2457    -999.2500    -999.2500      74.7411      57.4182      65.7233       0.0921       3.1694       0.0000       2.7253       0.3545       2.4443
   2577.6179       6.5231       1.3265       0.1209      65.2751      20.7699    -999.2500    -999.2500      74.6371      57.6945     101.8447       0.0964       3.0732       0.0003       2.6817       0.3739       2.4396
   2577.7703       6.5471       3.9994       0.1144      65.7108      23.1335    -999.2500    -999.2500      70.0946      55.3306      68.4182       0.1038       3.1153       0.0018       2.6857       0.3029       2.3322
   2577.9226       6.5957       6.6863       0.1068      65.9119      25.8358    -999.2500    -999.2500      65.8293      53.1353      54.8940       0.1088       3.1494       0.0032       2.6986       0.2927       2.2744
   2578.0750       6.7617       9.4418       0.0938      64.9928      30.1379    -999.2500    -999.2500      62.9182      51.7449     138.5839       0.1077       3.1459       0.0042       2.7541       0.5793       2.4589
   2578.2275       6.8970      11.5584       0.0799      64.5101      33.3093    -999.2500    -999.2500      61.7804      51.6908     190.8401       0.1039       3.1547       0.0050       2.7991       0.7776       2.5873
   2578.3799       6.8855      10.5709       0.0619      66.1242      31.1085    -999.2500    -999.2500      69.2586      58.0571      90.3570       0.0960       3.2227       0.0050       2.7941       0.5467       2.4429
   2578.5322       6.8779       9.9472       0.0512      66.8240      29.6343    -999.2500    -999.2500      76.4975      63.9384       6.8743       0.0866       3.3151       0.0050       2.7907       0.3833       2.3408
