#------------------------------------------------------------------------------
#
#   Created by  : [OpenWorks] Log Export Utility (LEXP)
#   Created on  : 2016-05-12 17:01:16
#   Project     : CANT971
#   User        : R5K
#   Interpreter : PEP
#
#------------------------------------------------------------------------------
~VERSION INFORMATION
VERS. 2.0 : CWLS Log ASCII Standard - version 2.0
WRAP.  NO : One line per depth step
~WELL INFORMATION
#MNEMONIC   .UNIT                                           VALUE :DESCRIPTION
#------------------------------------------------------------------------------
STRT        .M                                          4907.2798 :START DEPTH
STOP        .M                                          5813.7549 :STOP DEPTH
STEP        .M                                             0.1524 :STEP
NULL        .                                           -999.2500 :NULL VALUE
COMP        .                                   PEMEX EXPL & PROD :COMPANY
WELL        .                                            3026D_ST :WELL
FLD         .                                           CANTARELL :FIELD
LOC         .                                             UNKNOWN :LOCATION
CNTY        .                                      CD. DEL CARMEN :COUNTY
STAT        .                                            CAMPECHE :STATE
CTRY        .                                              MEXICO :COUNTRY
SRVC        .                                             UNKNOWN :SERVICE COMPANY
DATE        .                                             UNKNOWN :LOG DATE
UWI         .                                      3060000820D_ST :UNIQUE WELL ID
XCOORD      .                                       601717.200000 :SURFACE X
YCOORD      .                                      2148573.570000 :SURFACE Y
LAT         .                                           19.430078 :LATITUDE
LON         .                                          -92.031099 :LONGITUDE
ELEV        .M                                            30.0000 :SURFACE ELEV
ELEV_TYPE   .                                                  KB :ELEV TYPE
~CURVE INFORMATION
#MNEMONIC.UNIT        API CODE       : CURVE DESCRIPTION
#------------------------------------------------------------------------------
DEPTH    .M                          : Measured Depth
CALI     .inches      UNKNOWN        : CALI:registros:rC:NONE:v0 (auto-composite)
CGR      .API         UNKNOWN        : CGR:registros:rC:NONE:v0 (auto-composite)
DRHO     .g/cm3       UNKNOWN        : DRHO:registros:rC:NONE:v0 (auto-composite)
DT       .us/ft       UNKNOWN        : DT:registros:rC:NONE:v0 (auto-composite)
GR       .API         UNKNOWN        : GR:registros:rC:NONE:v0 (auto-composite)
ILD      .ohm.m       UNKNOWN        : ILD:registros:rC:NONE:v0 (auto-composite)
ILM      .ohm.m       UNKNOWN        : ILM:registros:rC:NONE:v0 (auto-composite)
NPHI     .UNKNOWN     UNKNOWN        : NPHI:registros:rC:NONE:v0 (auto-composite)
PEF      .b/elec      UNKNOWN        : PEF:registros:rC:NONE:v0 (auto-composite)
POTA     .UNKNOWN     UNKNOWN        : POTA:registros:rC:NONE:v0 (auto-composite)
RHOB     .g/cm3       UNKNOWN        : RHOB:registros:rC:NONE:v0 (auto-composite)
THOR     .ppm         UNKNOWN        : THOR:registros:rC:NONE:v0 (auto-composite)
URAN     .ppm         UNKNOWN        : URAN:registros:rC:NONE:v0 (auto-composite)
~A     DEPTH         CALI          CGR         DRHO           DT           GR          ILD          ILM         NPHI          PEF         POTA         RHOB         THOR         URAN
# ...
   5477.2559       8.5567    -999.2500      -0.0007      66.0510      98.3228       3.7970       3.6788       0.2399      18.4802    -999.2500       2.6924    -999.2500    -999.2500
   5477.4082       8.5826    -999.2500       0.0008      67.7667     100.0110       3.9613       3.8184       0.2418      22.2667    -999.2500       2.6986    -999.2500    -999.2500
   5477.5605       8.4552    -999.2500       0.0023      68.4651     101.0321       4.0831       3.9354       0.2344      21.6516    -999.2500       2.7033    -999.2500    -999.2500
   5477.7129       8.1932    -999.2500       0.0004      67.0687     103.5295       4.2404       4.0802       0.2404      21.5003    -999.2500       2.7041    -999.2500    -999.2500
   5477.8652       7.9365    -999.2500      -0.0013      64.4949      99.3466       4.4580       4.2571       0.2516      19.1318    -999.2500       2.6994    -999.2500    -999.2500
   5478.0176       8.0026    -999.2500       0.0015      66.0141      97.7105       4.6222       4.3833       0.2537      22.0810    -999.2500       2.7001    -999.2500    -999.2500
   5478.1704       7.9019    -999.2500      -0.0009      65.8249      94.9188       4.7211       4.4369       0.2460      26.1790    -999.2500       2.6913    -999.2500    -999.2500
   5478.3228       7.8536    -999.2500       0.0038      67.7656      95.7436       4.2269       4.0080       0.2406     -30.5709    -999.2500       2.6957    -999.2500    -999.2500
   5478.4751       7.9764    -999.2500      -0.0029      69.7063      94.0940       4.2516       3.9924       0.2406      53.0359    -999.2500       2.6760    -999.2500    -999.2500
   5478.6274       7.7937    -999.2500      -0.0087      68.3963      94.1553       4.0223       3.7714       0.2610      25.9347    -999.2500       2.6684    -999.2500    -999.2500
   5478.7798       8.0287    -999.2500      -0.0169      68.7608      95.6780       4.0278       3.7560       0.2612      25.3727    -999.2500       2.6580    -999.2500    -999.2500
   5478.9321       7.7707    -999.2500      -0.0285      69.7655      96.1074       3.9143       3.6433       0.2598      23.1023    -999.2500       2.6358    -999.2500    -999.2500
   5479.0845       7.8996    -999.2500      -0.0346      69.7682      97.0887       4.0674       3.7684       0.2500      26.1182    -999.2500       2.6318    -999.2500    -999.2500
   5479.2368       8.2205    -999.2500      -0.0215      69.9860      96.6651       3.9796       3.6915       0.2396      23.7201    -999.2500       2.6495    -999.2500    -999.2500
   5479.3892       8.1783    -999.2500      -0.0123      72.7494      96.2358       3.7134       3.4697       0.2430      25.3701    -999.2500       2.6734    -999.2500    -999.2500
   5479.5420       8.2149    -999.2500      -0.0222      71.3079      95.3902       3.6935       3.4574       0.2382      25.9319    -999.2500       2.6545    -999.2500    -999.2500
   5479.6943       8.2283    -999.2500      -0.0289      69.8664      93.7647       3.6566       3.4409       0.2419      50.8012    -999.2500       2.6429    -999.2500    -999.2500
   5479.8467       7.9992    -999.2500      -0.0456      69.8500      95.1447       3.6448       3.4387       0.2534      55.7809    -999.2500       2.6441    -999.2500    -999.2500
   5479.9990       7.1292    -999.2500      -0.0753      68.6258      97.1818       3.5656       3.3829       0.2682     104.3167    -999.2500       2.6295    -999.2500    -999.2500
   5480.1514       6.4047    -999.2500      -0.1025      71.2698      97.1259       3.4487       3.2953       0.2732      73.2343    -999.2500       2.5937    -999.2500    -999.2500
   5480.3037       6.2014    -999.2500      -0.1079      64.6978      96.8362       3.4065       3.2711       0.2622      54.7030    -999.2500       2.5709    -999.2500    -999.2500
   5480.4561       6.4775    -999.2500      -0.1220      65.6426      94.4048       3.3507       3.2391       0.2456      50.9136    -999.2500       2.5518    -999.2500    -999.2500
   5480.6084       6.9488    -999.2500      -0.1421      68.2818      94.4705       3.2065       3.1179       0.2449      60.3909    -999.2500       2.5206    -999.2500    -999.2500
   5480.7607       6.9158    -999.2500      -0.1481      67.9732      92.3287       3.0982       3.0323       0.2603      88.4297    -999.2500       2.4946    -999.2500    -999.2500
   5480.9136       7.2252    -999.2500      -0.1467      68.0031      93.5773       3.1000       3.0328       0.2648     105.7294    -999.2500       2.4764    -999.2500    -999.2500
   5481.0659       7.5636    -999.2500      -0.1536      68.0329      95.8846       3.2277       3.1692       0.2699      74.7310    -999.2500       2.4780    -999.2500    -999.2500
   5481.2183       8.0724    -999.2500      -0.1097      66.8791      96.8046       3.3513       3.2820       0.2627      63.5115    -999.2500       2.5553    -999.2500    -999.2500
   5481.3706       8.2352    -999.2500      -0.0814      68.8803      91.7446       3.4919       3.4423       0.2727      51.5558    -999.2500       2.6077    -999.2500    -999.2500
   5481.5229       8.3698    -999.2500      -0.0570      71.5151      86.6773       3.5082       3.4667       0.2801      50.7804    -999.2500       2.6244    -999.2500    -999.2500
   5481.6753       8.5610    -999.2500      -0.0289      73.5372      84.6401       3.4328       3.4023       0.2819      58.0439    -999.2500       2.6270    -999.2500    -999.2500
   5481.8276       8.5593    -999.2500      -0.0118      69.9131      85.9544       3.2888       3.2807       0.2828       8.9753    -999.2500       2.6325    -999.2500    -999.2500
   5481.9800       8.6891    -999.2500      -0.0057      68.0955      87.5316       3.1750       3.1573       0.2720      27.1437    -999.2500       2.6406    -999.2500    -999.2500
   5482.1328       8.7316    -999.2500      -0.0029      65.9344      89.6344       3.1120       3.1061       0.2724      27.0056    -999.2500       2.6419    -999.2500    -999.2500
   5482.2852       8.6521    -999.2500      -0.0071      66.7650      92.8739       2.9532       2.9440       0.2648     -26.8011    -999.2500       2.6206    -999.2500    -999.2500
   5482.4375       8.5972    -999.2500      -0.0097      67.5956      93.3044       2.9998       2.9888       0.2590      25.7449    -999.2500       2.6158    -999.2500    -999.2500
   5482.5898       8.8873    -999.2500      -0.0074      69.4233      94.2902       3.1817       3.1762       0.2499      27.4549    -999.2500       2.6129    -999.2500    -999.2500
   5482.7422       8.7407    -999.2500      -0.0051      68.2889      92.1021       3.2943       3.2674       0.2570      53.3801    -999.2500       2.6226    -999.2500    -999.2500
   5482.8945       8.9863    -999.2500      -0.0089      69.8910      92.7084       3.5928       3.5485       0.2587      69.2750    -999.2500       2.6152    -999.2500    -999.2500
   5483.0469       8.5751    -999.2500      -0.0034      69.9832      88.3055       4.0524       3.9798       0.2636      88.2032    -999.2500       2.6302    -999.2500    -999.2500
   5483.1992       8.3382    -999.2500       0.0017      70.8662      86.6491       5.0091       4.8744       0.2611      53.2569    -999.2500       2.6454    -999.2500    -999.2500
   5483.3516       8.0868    -999.2500       0.0060      69.5329      86.5980       6.2713       6.0359       0.2443      27.0702    -999.2500       2.6586    -999.2500    -999.2500
   5483.5044       7.8912    -999.2500       0.0049      66.2165      86.9923       6.3514       6.0754       0.2316      23.6350    -999.2500       2.6562    -999.2500    -999.2500
   5483.6567       7.8098    -999.2500       0.0201      69.1598      86.7430       5.9341       5.7068       0.2134      23.1638    -999.2500       2.6774    -999.2500    -999.2500
   5483.8091       7.8154    -999.2500       0.0214      72.1031      82.5373       5.4603       5.1759       0.2030      25.7424    -999.2500       2.6776    -999.2500    -999.2500
