#------------------------------------------------------------------------------
#
#   Created by  : [OpenWorks] Log Export Utility (LEXP)
#   Created on  : 2016-05-23 11:53:41
#   Project     : CANT971
#   User        : R5K
#   Interpreter : PEP
#
#------------------------------------------------------------------------------
~VERSION INFORMATION
VERS. 2.0 : CWLS Log ASCII Standard - version 2.0
WRAP.  NO : One line per depth step
~WELL INFORMATION
#MNEMONIC   .UNIT                                           VALUE :DESCRIPTION
#------------------------------------------------------------------------------
STRT        .M                                           901.1412 :START DEPTH
STOP        .M                                          2449.6777 :STOP DEPTH
STEP        .M                                             0.1524 :STEP
NULL        .                                           -999.2500 :NULL VALUE
COMP        .                                   PEMEX EXPL & PROD :COMPANY
WELL        .                                                  25 :WELL
FLD         .                                           CANTARELL :FIELD
LOC         .                                             UNKNOWN :LOCATION
CNTY        .                                      CD. DEL CARMEN :COUNTY
STAT        .                                            CAMPECHE :STATE
CTRY        .                                              MEXICO :COUNTRY
SRVC        .                                             UNKNOWN :SERVICE COMPANY
DATE        .                                             UNKNOWN :LOG DATE
UWI         .                                          3060000154 :UNIQUE WELL ID
XCOORD      .                                       603358.080000 :SURFACE X
YCOORD      .                                      2145091.420000 :SURFACE Y
LAT         .                                           19.398528 :LATITUDE
LON         .                                          -92.015660 :LONGITUDE
ELEV        .M                                            27.1400 :SURFACE ELEV
ELEV_TYPE   .                                                  KB :ELEV TYPE
~CURVE INFORMATION
#MNEMONIC.UNIT        API CODE       : CURVE DESCRIPTION
#------------------------------------------------------------------------------
DEPTH    .M                          : Measured Depth
CALI     .in          UNKNOWN        : CALI:registros:rC:NONE:v0 (auto-composite)
DRHO     .g/cm3       UNKNOWN        : DRHO:registros:rC:NONE:v0 (auto-composite)
DT       .us/ft       UNKNOWN        : DT:registros:rC:NONE:v0 (auto-composite)
GR       .api         UNKNOWN        : GR:registros:rC:NONE:v0 (auto-composite)
ILD      .ohmm        UNKNOWN        : ILD:registros:rC:NONE:v0 (auto-composite)
LLD      .ohmm        UNKNOWN        : LLD:registros:rC:NONE:v0 (auto-composite)
LLS      .ohmm        UNKNOWN        : LLS:registros:rC:NONE:v0 (auto-composite)
MSFL     .ohmm        UNKNOWN        : MSFL:registros:rC:NONE:v0 (auto-composite)
NPHI     .v/v_decimal UNKNOWN        : NPHI:registros:rC:NONE:v0 (auto-composite)
PEF      .b/elec      UNKNOWN        : PEF:registros:rC:NONE:v0 (auto-composite)
RHOB     .g/cm3       UNKNOWN        : RHOB:registros:rC:NONE:v0 (auto-composite)
~A     DEPTH         CALI         DRHO           DT           GR          ILD          LLD          LLS         MSFL         NPHI          PEF         RHOB
# ...
   1757.0197       6.5651       0.0030     104.8216      33.8372    -999.2500     189.4358      23.3990      16.7120       0.2003       3.0000       2.5640
   1757.1720       6.6330       0.0080     112.1630      32.5670    -999.2500     183.4890      22.8970      14.4850       0.2079       3.0000       2.5550
   1757.3245       6.7006       0.0469     106.7213      36.2769    -999.2500     174.0812      21.0824      16.2088       0.2090       2.8960       2.5600
   1757.4768       6.7680       0.0860     101.2820      40.0000    -999.2500     164.6170      19.2570      17.9430       0.2100       2.7920       2.5650
   1757.6293       6.9031       0.0531      93.4833      39.9990    -999.2500     172.5599      19.8016      17.0080       0.1988       2.8025       2.5884
   1757.7816       7.0380       0.0200      85.6870      39.9980    -999.2500     180.5450      20.3490      16.0680       0.1875       2.8130       2.6120
   1757.9341       7.0380       0.0205      87.5642      38.5791    -999.2500     179.0165      19.6771      16.1643       0.1793       2.7400       2.6145
   1758.0864       7.0380       0.0210      89.4410      37.1560    -999.2500     177.4810      19.0020      16.2610       0.1711       2.6670       2.6170
   1758.2389       7.0115       0.0290      87.3159      37.1570    -999.2500     179.6972      20.2246      15.8600       0.1689       2.6670       2.5936
   1758.3912       6.9850       0.0370      85.1910      37.1580    -999.2500     181.9240      21.4530      15.4570       0.1667       2.6670       2.5700
   1758.5436       6.7148       0.0709      85.2205      37.4675    -999.2500     185.9641      21.4450      15.4690       0.1667       2.7125       2.5795
   1758.6960       6.4450       0.1050      85.2500      37.7780    -999.2500     190.0240      21.4370      15.4810       0.1668       2.7580       2.5890
   1758.8484       6.4470       0.1458      98.2973      37.7675    -999.2500     189.7916      20.2195      28.8550       0.1785       3.6924       2.5885
   1759.0009       6.4490       0.1870     111.3470      37.7570    -999.2500     189.5580      18.9960      42.2960       0.1902       4.6270       2.5880
   1759.1532       6.7273       0.1865     111.3065      36.4084    -999.2500     163.3931      17.6435      42.1000       0.2121       4.6265       2.5282
   1759.3057       7.0050       0.1860     111.2660      35.0550    -999.2500     137.0940      16.2840      41.9030       0.2341       4.6260       2.4680
   1759.4580       7.8111       0.1392      95.0431      33.2503    -999.2500     109.6257      14.0229      28.2030       0.2588       4.5850       2.3175
   1759.6105       8.6150       0.0920      78.8130      31.4390    -999.2500      82.0130      11.7500      14.4310       0.2835       4.5440       2.1660
   1759.7628       9.8366       0.0671      78.8565      33.2695    -999.2500      62.7334      10.7557       8.5568       0.2833       4.0357       2.0813
   1759.9153      11.0550       0.0420      78.9000      35.1070    -999.2500      43.3500       9.7560       2.6510       0.2830       3.5280       1.9960
   1760.0676      11.9922       0.0256      88.4077      35.0950    -999.2500      36.5343       9.1357       1.6059       0.2435       3.2269       1.9731
   1760.2201      12.9270       0.0090      97.9220      35.0830    -999.2500      29.6810       8.5120       0.5550       0.2039       2.9260       1.9500
   1760.3724      12.9100      -0.0015      91.9899      33.8220    -999.2500      26.3344       6.3092       0.5595       0.2040       2.6079       1.9500
   1760.5248      12.8930      -0.0120      86.0530      32.5560    -999.2500      22.9690       4.0940       0.5640       0.2041       2.2900       1.9500
   1760.6772      11.6941      -0.0354      86.0635      32.5755    -999.2500      22.9720       4.0965       1.1817       0.2123       2.0049       1.9505
   1760.8296      10.4980      -0.0590      86.0740      32.5950    -999.2500      22.9750       4.0990       1.8030       0.2206       1.7200       1.9510
   1760.9821       9.7252      -0.0585      95.9516      34.2190    -999.2500      23.2153       4.2790      12.2781       0.2509       1.7240       1.9759
   1761.1344       8.9540      -0.0580     105.8240      35.8500    -999.2500      23.4570       4.4600      22.8150       0.2814       1.7280       2.0010
   1761.2869       8.3109      -0.0401     105.7235      35.8375    -999.2500      25.5253       4.9176      50.6602       0.2811       2.4541       2.1445
   1761.4392       7.6690      -0.0220     105.6230      35.8250    -999.2500      27.6060       5.3780      78.6730       0.2807       3.1800       2.2890
   1761.5917       7.2786      -0.0140     100.0307      34.5808    -999.2500      29.6954       6.0866     100.8388       0.2624       3.1780       2.4211
   1761.7440       6.8890      -0.0060      94.4400      33.3330    -999.2500      31.7960       6.7990     123.1230       0.2440       3.1760       2.5540
   1761.8965       6.8890      -0.0020      88.0420      33.3555    -999.2500      39.4716       7.6520     122.7998       0.2112       2.9645       2.6123
   1762.0488       6.8890       0.0020      81.6450      33.3780    -999.2500      47.1830       8.5090     122.4750       0.1782       2.7530       2.6710
   1762.2013       6.8890       0.0090      77.7164      36.4651    -999.2500      67.4809      10.1855     109.0197       0.1601       2.7555       2.6710
   1762.3536       6.8890       0.0160      73.7880      39.5620    -999.2500      87.8760      11.8700      95.5000       0.1420       2.7580       2.6710
   1762.5060       6.8890       0.0314      73.9710      38.8671    -999.2500     103.0822      14.3444      93.4286       0.1421       2.8575       2.6675
   1762.6584       6.8890       0.0470      74.1540      38.1700    -999.2500     118.3630      16.8310      91.3470       0.1422       2.9570       2.6640
   1762.8108       6.8890       0.0470      87.6570      40.1466    -999.2500     153.5494      18.7601      77.2256       0.1471       2.9785       2.6456
   1762.9633       6.8890       0.0470     101.1630      42.1300    -999.2500     188.9130      20.6990      63.0330       0.1519       3.0000       2.6270
   1763.1156       6.8935       0.0430      98.1075      42.0951    -999.2500     205.5705      20.9179      48.5833       0.1595       3.0005       2.6101
   1763.2681       6.8980       0.0390      95.0510      42.0600    -999.2500     222.3140      21.1380      34.0590       0.1671       3.0010       2.5930
   1763.4204       6.9806       0.0400     106.1219      40.1869    -999.2500     227.7342      22.2685      34.3218       0.1703       3.0165       2.5815
   1763.5729       7.0630       0.0410     117.1980      38.3070    -999.2500     233.1830      23.4050      34.5860       0.1735       3.0320       2.5700
   1763.7252       7.1711       0.0644     117.1560      38.3484    -999.2500     232.6200      23.3990      50.2172       0.1777       3.0990       2.5521
   1763.8777       7.2790       0.0880     117.1140      38.3900    -999.2500     232.0540      23.3930      65.9330       0.1819       3.1660       2.5340
   1764.0300       7.3616       0.0930     112.0398      39.8237    -999.2500     213.4760      23.1357      65.3790       0.1931       3.1940       2.5210
   1764.1825       7.4440       0.0980     106.9620      41.2630    -999.2500     194.7950      22.8770      64.8220       0.2043       3.2220       2.5080
   1764.3348       7.3884       0.1070     111.5256      43.1901    -999.2500     168.1246      21.5498      51.1114       0.2118       3.2195       2.4806
   1764.4872       7.3330       0.1160     116.0930      45.1250    -999.2500     141.3030      20.2150      37.3230       0.2192       3.2170       2.4530
   1764.6396       7.3330       0.1459     115.9865      43.2923    -999.2500     115.0680      19.0434      35.0047       0.2213       3.1365       2.4889
   1764.7920       7.3330       0.1760     115.8800      41.4520    -999.2500      88.6810      17.8650      32.6730       0.2233       3.0560       2.5250
