#------------------------------------------------------------------------------
#
#   Created by  : [OpenWorks] Log Export Utility (LEXP)
#   Created on  : 2016-05-12 17:01:16
#   Project     : CANT971
#   User        : R5K
#   Interpreter : PEP
#
#------------------------------------------------------------------------------
~VERSION INFORMATION
VERS. 2.0 : CWLS Log ASCII Standard - version 2.0
WRAP.  NO : One line per depth step
~WELL INFORMATION
#MNEMONIC   .UNIT                                           VALUE :DESCRIPTION
#------------------------------------------------------------------------------
STRT        .M                                          4907.2798 :START DEPTH
STOP        .M                                          5813.7549 :STOP DEPTH
STEP        .M                                             0.1524 :STEP
NULL        .                                           -999.2500 :NULL VALUE
COMP        .                                   PEMEX EXPL & PROD :COMPANY
WELL        .                                            3026D_ST :WELL
FLD         .                                           CANTARELL :FIELD
LOC         .                                             UNKNOWN :LOCATION
CNTY        .                                      CD. DEL CARMEN :COUNTY
STAT        .                                            CAMPECHE :STATE
CTRY        .                                              MEXICO :COUNTRY
SRVC        .                                             UNKNOWN :SERVICE COMPANY
DATE        .                                             UNKNOWN :LOG DATE
UWI         .                                      3060000820D_ST :UNIQUE WELL ID
XCOORD      .                                       601717.200000 :SURFACE X
YCOORD      .                                      2148573.570000 :SURFACE Y
LAT         .                                           19.430078 :LATITUDE
LON         .                                          -92.031099 :LONGITUDE
ELEV        .M                                            30.0000 :SURFACE ELEV
ELEV_TYPE   .                                                  KB :ELEV TYPE
~CURVE INFORMATION
#MNEMONIC.UNIT        API CODE       : CURVE DESCRIPTION
#------------------------------------------------------------------------------
DEPTH    .M                          : Measured Depth
CALI     .inches      UNKNOWN        : CALI:registros:rC:NONE:v0 (auto-composite)
CGR      .API         UNKNOWN        : CGR:registros:rC:NONE:v0 (auto-composite)
DRHO     .g/cm3       UNKNOWN        : DRHO:registros:rC:NONE:v0 (auto-composite)
DT       .us/ft       UNKNOWN        : DT:registros:rC:NONE:v0 (auto-composite)
GR       .API         UNKNOWN        : GR:registros:rC:NONE:v0 (auto-composite)
ILD      .ohm.m       UNKNOWN        : ILD:registros:rC:NONE:v0 (auto-composite)
ILM      .ohm.m       UNKNOWN        : ILM:registros:rC:NONE:v0 (auto-composite)
NPHI     .UNKNOWN     UNKNOWN        : NPHI:registros:rC:NONE:v0 (auto-composite)
PEF      .b/elec      UNKNOWN        : PEF:registros:rC:NONE:v0 (auto-composite)
POTA     .UNKNOWN     UNKNOWN        : POTA:registros:rC:NONE:v0 (auto-composite)
RHOB     .g/cm3       UNKNOWN        : RHOB:registros:rC:NONE:v0 (auto-composite)
THOR     .ppm         UNKNOWN        : THOR:registros:rC:NONE:v0 (auto-composite)
URAN     .ppm         UNKNOWN        : URAN:registros:rC:NONE:v0 (auto-composite)
~A     DEPTH         CALI          CGR         DRHO           DT           GR          ILD          ILM         NPHI          PEF         POTA         RHOB         THOR         URAN
# ...
   5316.3213       7.0360      92.9264       0.0213      75.5759     127.0473       7.9457       7.5644       0.2244       7.6796       0.0365       2.6814      12.4907       4.9731
   5316.4736       7.0334      84.9233       0.0201      74.4218     115.9374       7.4722       7.1768       0.2357       8.6537       0.0337       2.6675      11.2619       4.5203
   5316.6260       7.0622      72.2352       0.0148      73.7983      99.9367       9.3846       8.9175       0.2493       8.6135       0.0261       2.6687      10.6888       4.0375
   5316.7788       7.0294      50.9441       0.0132      73.1748      75.4282      16.1554      15.0545       0.2415       8.1410       0.0116       2.6816      10.4354       3.5686
   5316.9312       7.0173      48.9047       0.0121      73.0759      72.2616      18.5965      17.1999       0.1924       7.7327       0.0107       2.6900      10.2173       3.4043
   5317.0835       7.0000      54.7529       0.0076      71.2949      79.2942      14.8069      13.6980       0.1484       7.0962       0.0119       2.6782      11.4661       3.5769
   5317.2358       6.9608      58.7039       0.0092      72.0049      84.4686       9.6015       9.1769       0.1505       5.6135       0.0144       2.6950      11.5695       3.7552
   5317.3882       6.9363      76.6024       0.0137      71.0229     101.8531       7.6398       7.3942       0.1851       5.2632       0.0285       2.7386      10.9891       3.6803
   5317.5405       7.0054      75.1761       0.0175      74.3663      99.5823       6.1935       6.0449       0.2126       5.0584       0.0283       2.7705      10.6563       3.5572
   5317.6929       7.0230      77.1421       0.0124      73.7648     102.3911       5.5343       5.4314       0.2146       4.9725       0.0292       2.7608      10.8392       3.6800
   5317.8452       7.0047      80.6108       0.0066      73.5145     110.6860       5.3278       5.2449       0.2051       4.6268       0.0302       2.7304      11.4886       4.3835
   5317.9976       6.9806      79.8757       0.0017      72.9582     110.3728       5.2309       5.1629       0.1991       4.6033       0.0295       2.7178      11.5582       4.4450
   5318.1504       6.9879      78.7453       0.0016      72.4019     109.4643       4.9880       4.9295       0.2024       4.7021       0.0287       2.7229      11.5569       4.4773
   5318.3027       6.9692      74.1558      -0.0002      70.1152     103.7302       5.3755       5.3037       0.2069       4.5878       0.0267       2.7161      11.0055       4.3105
   5318.4551       6.9654      73.2635      -0.0019      69.0676     102.6560       6.4909       6.4261       0.1950       4.4940       0.0259       2.7002      11.0670       4.2840
   5318.6074       6.9641      75.1731      -0.0064      69.1467     106.1149       7.2909       7.2212       0.1711       4.5627       0.0262       2.6860      11.5431       4.5098
   5318.7598       6.9570      76.8007      -0.0039      69.7939     108.8527       6.6254       6.5996       0.1491       4.9206       0.0263       2.6982      11.9662       4.6716
   5318.9121       6.9373      79.0274      -0.0022      71.2853     112.1035       5.5604       5.5466       0.1553       5.0790       0.0271       2.7131      12.2911       4.8208
   5319.0645       6.9620      87.2856      -0.0002      73.3971     124.8260       4.7213       4.7039       0.1730       5.2552       0.0284       2.7190      14.2461       5.4715
   5319.2168       6.9633      87.2470      -0.0018      73.7440     124.9190       4.4941       4.4809       0.2033       5.3327       0.0284       2.7103      14.2454       5.4907
   5319.3696       6.9417      84.8534      -0.0000      74.0910     121.7092       4.3977       4.3815       0.2166       5.4776       0.0270       2.7043      14.1169       5.3717
   5319.5220       6.9159      83.1052       0.0019      74.3785     119.6914       4.3042       4.2931       0.2218       5.6827       0.0255       2.7050      14.2223       5.3324
   5319.6743       6.9095      83.3548       0.0035      76.0050     120.9955       4.4884       4.4703       0.2189       5.6931       0.0244       2.7062      14.7831       5.4862
   5319.8267       6.9243      74.9967       0.0047      75.7692     114.0425       4.9714       4.9414       0.2283       5.2330       0.0286       2.7128      10.4660       5.6909
   5319.9790       6.9358      84.1422       0.0035      75.7290     105.5988       6.2175       6.1636       0.2427       4.7522       0.0335       2.7220      11.1193       3.1273
   5320.1313       6.9318      58.3136       0.0049      70.6563      77.0381       8.1726       8.0510       0.2358       4.3898       0.0186       2.7422       9.6772       2.7291
   5320.2837       6.8875      58.4811       0.0048      66.2519      77.2352      11.6386      11.3105       0.1940       4.8293       0.0184       2.7600       9.8064       2.7334
   5320.4360       6.8724      62.6273       0.0024      65.4840      90.9870      11.8448      11.4121       0.1394       5.3080       0.0223       2.7499       9.3998       4.1334
   5320.5884       6.8627      62.7658      -0.0001      64.7299      94.8610      13.7606      13.1847       0.1122       5.2986       0.0237       2.7265       8.8445       4.6779
   5320.7412       6.8605      61.8036      -0.0012      63.9757      94.1594      14.6775      14.0250       0.1260       4.5299       0.0238       2.6990       8.5390       4.7159
   5320.8936       6.8816      57.3025       0.0000      62.3075      89.1693      16.4502      15.4022       0.1557       4.4559       0.0243       2.7020       6.9358       4.6446
   5321.0459       6.8516      48.3331      -0.0034      67.2466      78.3204      19.1752      17.5572       0.1670       4.7176       0.0223       2.7265       5.0808       4.3706
   5321.1982       6.8430      38.1284      -0.0025      64.9764      47.5056      22.9460      20.3593       0.1409       5.8106       0.0138       2.7909       5.6106       1.3667
   5321.3506       6.8604      28.8713      -0.0014      62.0970      31.5655      38.7509      36.3556       0.0828       6.0243       0.0112       2.9011       3.9358       0.3927
   5321.5029       6.8616      28.8401      -0.0066      60.9066      30.8884      50.9380      48.7347       0.0303       6.3826       0.0114       2.8599       3.8445       0.2985
   5321.6553       6.8118      39.0611      -0.0102      60.8446      55.7412      51.5350      49.1763       0.0179       4.8646       0.0148       2.7799       5.4888       2.4311
   5321.8076       6.8146      39.2606      -0.0114      63.8769      75.9805      26.8662      25.4867       0.0599       4.7176       0.0135       2.7447       6.0925       5.3519
   5321.9600       6.8321      46.2223      -0.0125      65.3595      90.6518      21.4198      20.5282       0.1145       4.3180       0.0155       2.7095       7.3695       6.4756
   5322.1128       6.8301      50.5295      -0.0100      66.8420      95.6572      22.6970      22.0482       0.1707       4.7234       0.0173       2.6768       7.8662       6.5774
   5322.2651       6.8057      50.1147      -0.0088      70.5474      95.1062      21.5108      21.2589       0.1892       4.8492       0.0174       2.6565       7.7209       6.5575
   5322.4175       6.8199      47.6065      -0.0133      73.2792      91.7368      21.4938      21.3269       0.1989       4.9877       0.0164       2.6297       7.4035       6.4320
   5322.5698       6.8464      45.2442      -0.0139      76.3257      88.2714      22.0893      22.0608       0.1913       5.0999       0.0154       2.6095       7.1076       6.2712
   5322.7222       6.8262      58.8965      -0.0126      79.9563     110.0246      21.5277      21.9534       0.1875       4.8775       0.0222       2.6083       8.3112       7.4519
   5322.8745       6.8335      61.0028      -0.0108      80.2415     113.5309      20.1552      20.3145       0.1957       4.6661       0.0228       2.6165       8.7066       7.6560
