#------------------------------------------------------------------------------
#
#   Created by  : [OpenWorks] Log Export Utility (LEXP)
#   Created on  : 2016-05-23 11:56:05
#   Project     : CANT971
#   User        : R5K
#   Interpreter : PEP
#
#------------------------------------------------------------------------------
~VERSION INFORMATION
VERS. 2.0 : CWLS Log ASCII Standard - version 2.0
WRAP.  NO : One line per depth step
~WELL INFORMATION
#MNEMONIC   .UNIT                                           VALUE :DESCRIPTION
#------------------------------------------------------------------------------
STRT        .M                                          1100.3549 :START DEPTH
STOP        .M                                          2766.5439 :STOP DEPTH
STEP        .M                                             0.1524 :STEP
NULL        .                                           -999.2500 :NULL VALUE
COMP        .                                   PEMEX EXPL & PROD :COMPANY
WELL        .                                                  43 :WELL
FLD         .                                           CANTARELL :FIELD
LOC         .                                             UNKNOWN :LOCATION
CNTY        .                                      CD. DEL CARMEN :COUNTY
STAT        .                                            CAMPECHE :STATE
CTRY        .                                              MEXICO :COUNTRY
SRVC        .                                             UNKNOWN :SERVICE COMPANY
DATE        .                                             UNKNOWN :LOG DATE
UWI         .                                          3060000465 :UNIQUE WELL ID
XCOORD      .                                       601717.960000 :SURFACE X
YCOORD      .                                      2142346.560000 :SURFACE Y
LAT         .                                           19.373808 :LATITUDE
LON         .                                          -92.031425 :LONGITUDE
ELEV        .M                                            24.0000 :SURFACE ELEV
ELEV_TYPE   .                                                  KB :ELEV TYPE
~CURVE INFORMATION
#MNEMONIC.UNIT        API CODE       : CURVE DESCRIPTION
#------------------------------------------------------------------------------
DEPTH    .M                          : Measured Depth
CAL      .inches      UNKNOWN        : CAL:UNKNOWN:rC:NONE:v0 (auto-composite)
CALI     .in          UNKNOWN        : CALI:UNKNOWN:rC:NONE:v0 (auto-composite)
CNL      .v/v_decimal UNKNOWN        : CNL:UNKNOWN:rC:NONE:v0 (auto-composite)
DT       .us/ft       UNKNOWN        : DT:DT:rC:NONE:v0 (auto-composite)
GR       .API         UNKNOWN        : GR:UNKNOWN:rC:NONE:v0 (auto-composite)
ILD      .ohmm        UNKNOWN        : ILD:UNKNOWN:rC:NONE:v0 (auto-composite)
ILM      .ohmm        UNKNOWN        : ILM:UNKNOWN:rC:NONE:v0 (auto-composite)
LLD      .ohmm        UNKNOWN        : LLD:UNKNOWN:rC:NONE:v0 (auto-composite)
LLS      .ohmm        UNKNOWN        : LLS:UNKNOWN:rC:NONE:v0 (auto-composite)
NPHI     .v/v_decimal UNKNOWN        : NPHI:UNKNOWN:rC:NONE:v0 (auto-composite)
PEF      .b/elec      UNKNOWN        : PEF:UNKNOWN:rC:NONE:v0 (auto-composite)
RHOB     .g/cm3       UNKNOWN        : RHOB:UNKNOWN:rC:NONE:v0 (auto-composite)
~A     DEPTH          CAL         CALI          CNL           DT           GR          ILD          ILM          LLD          LLS         NPHI          PEF         RHOB
# ...
   2183.0044       9.4440       9.4439       6.2805      50.3399      34.0960    -999.2500    -999.2500    3878.5403     554.9235       6.2485       3.2221       2.7280
   2183.1567       9.4440       9.4434       6.5353      52.5387      31.8659    -999.2500    -999.2500    3876.6907     554.7261       6.1175       3.2226       2.7280
   2183.3093       9.4440       9.4332       6.5305      54.1797      30.0366    -999.2500    -999.2500    3812.0757     547.7407       5.9468       3.2329       2.7294
   2183.4617       9.4440       9.3782       6.1178      52.5399      30.0456    -999.2500    -999.2500    3459.5349     509.6161       5.5940       3.2884       2.7374
   2183.6140       9.3943       9.3330       5.6933      51.1370      30.3427    -999.2500    -999.2500    3170.1997     474.0866       5.1889       3.3735       2.7460
   2183.7664       9.3349       9.3330       5.2257      51.1370      31.9692    -999.2500    -999.2500    3172.5234     450.5316       4.5427       3.5952       2.7575
   2183.9189       9.3336       9.3330       4.4356      51.6978      33.7014    -999.2500    -999.2500    3237.2305     421.1194       3.9474       3.7488       2.7670
   2184.0713       9.3330       9.3330       3.8126      55.5596      35.9300    -999.2500    -999.2500    3594.7180     364.2174       3.5911       3.5823       2.7670
   2184.2236       9.3330       9.3330       3.3798      58.3844      37.7596    -999.2500    -999.2500    3889.5552     317.3295       3.2091       3.4839       2.7680
   2184.3760       9.3330       9.3330       2.8003      55.0622      37.7060    -999.2500    -999.2500    3888.5962     317.7216       2.7062       3.7065       2.7735
   2184.5286       9.3330       9.3330       2.2352      52.2220      36.6654    -999.2500    -999.2500    3870.4949     334.5637       2.1774       3.8888       2.7815
   2184.6809       9.3330       9.3330       1.8670      52.2220      31.1388    -999.2500    -999.2500    3774.4734     426.1786       1.5307       3.8878       2.8010
   2184.8333       9.3330       9.3330       1.5665      52.2996      26.2073    -999.2500    -999.2500    3679.3564     501.1866       1.0000       3.8771       2.8170
   2184.9856       9.3330       9.3330       1.3220      52.8378      23.9971    -999.2500    -999.2500    3588.3760     500.2647       1.0000       3.8216       2.8170
   2185.1379       9.3330       9.3330       1.1339      53.0647      21.9782    -999.2500    -999.2500    3529.8838     483.3825       1.0000       3.7661       2.8165
   2185.2905       9.3330       9.3330       1.0000      51.4554      20.8492    -999.2500    -999.2500    3622.4543     392.2878       1.0000       3.7101       2.8135
   2185.4429       9.3330       9.3330       1.0000      50.0780      19.6305    -999.2500    -999.2500    3697.3420     317.2968       1.0004       3.6448       2.8110
   2185.5952       9.3330       9.3330       1.0000      50.0780      17.9924    -999.2500    -999.2500    3689.5183     317.6307       1.0024       3.5360       2.8110
   2185.7476       9.3330       9.3330       1.0000      50.0857      16.5525    -999.2500    -999.2500    3572.9124     324.3569       1.0309       3.4471       2.8115
   2185.9001       9.3330       9.3330       1.0036      50.1386      16.0047    -999.2500    -999.2500    2966.3237     359.8756       1.1788       3.4476       2.8145
   2186.0525       9.3330       9.3330       1.0677      50.7224      15.4618    -999.2500    -999.2500    2517.1741     388.9688       1.3027       3.4671       2.8170
   2186.2048       9.3330       9.3330       1.2469      54.4623      14.9410    -999.2500    -999.2500    2781.3074     388.9508       1.3177       3.5730       2.8170
   2186.3572       9.3330       9.3334       1.3082      57.4189      14.5169    -999.2500    -999.2500    2997.6228     388.6139       1.3941       3.6407       2.8164
   2186.5098       9.3331       9.3359       1.3465      55.7462      14.5389    -999.2500    -999.2500    2993.6411     386.8076       1.7534       3.5328       2.8129
   2186.6621       9.3349       9.3474       1.7805      54.3140      14.7919    -999.2500    -999.2500    2953.5549     378.9063       2.1367       3.4440       2.8085
   2186.8145       9.3638       9.4004       2.2873      54.3140      16.1153    -999.2500    -999.2500    2746.1499     342.7584       2.6310       3.4440       2.8000
   2186.9668       9.4297       9.4450       2.8932      54.3152      19.8466    -999.2500    -999.2500    2430.3044     303.2688       3.1037       3.4828       2.7910
   2187.1191       9.4459       9.4505       3.3713      54.3232      34.8032    -999.2500    -999.2500    1608.9257     248.2007       3.4758       3.7025       2.7795
   2187.2717       9.4581       9.4832       3.8603      54.9663      47.1312    -999.2500    -999.2500     930.6907     202.8157       4.0015       3.8753       2.7639
   2187.4241       9.5295       9.6452       4.6296      59.3449      46.9943    -999.2500    -999.2500     931.2463     203.3482       5.2560       3.8251       2.7288
   2187.5764       9.6301       9.7880       5.1151      63.0909      45.1154    -999.2500    -999.2500     949.7914     212.5309       6.2843       3.7842       2.7000
   2187.7288       9.7600       9.8434       5.3188      63.0899      35.2847    -999.2500    -999.2500    1050.4564     261.2009       6.2803       3.7852       2.7000
   2187.8813       9.7812       9.8890       5.8395      62.4617      27.2330    -999.2500    -999.2500    1132.8773     301.1602       6.1629       3.8150       2.7000
   2188.0337       9.7981       9.8890       6.2392      58.1410      27.3505    -999.2500    -999.2500    1131.5259     301.1222       5.5246       3.9775       2.7000
   2188.1860       9.8621       9.8882       6.0320      54.4440      29.2278    -999.2500    -999.2500    1120.3613     300.6787       5.0000       4.1107       2.7002
   2188.3384       9.8869       9.8837       5.6106      54.4440      39.2340    -999.2500    -999.2500    1063.8704     298.3621       5.0000       4.1092       2.7012
   2188.4910       9.8832       9.8530       5.0346      54.4440      47.4739    -999.2500    -999.2500    1000.9095     291.8750       4.9998       4.0895       2.7076
   2188.6433       9.8228       9.6990       5.0000      54.4440      47.4164    -999.2500    -999.2500     907.5533     265.7963       4.9988       3.9840       2.7396
   2188.7957       9.7753       9.5724       5.0000      54.4440      46.9783    -999.2500    -999.2500     820.9614     243.1070       4.9871       3.9038       2.7652
   2188.9480       9.7661       9.5749       5.0000      54.4440      44.7411    -999.2500    -999.2500     766.3375     236.4360       4.9250       3.9429       2.7607
   2189.1003       9.6862       9.5951       4.9634      54.4437      42.4685    -999.2500    -999.2500     721.6744     228.8884       4.7619       3.9742       2.7571
   2189.2529       9.5744       9.6956       4.8946      54.4417      40.0351    -999.2500    -999.2500     722.3311     217.3523       4.1397       3.9697       2.7576
   2189.4053       9.6999       9.7780       4.1259      54.4303      38.3213    -999.2500    -999.2500     727.5235     208.1011       3.5532       3.9372       2.7594
   2189.5576       9.7780       9.7780       3.4932      54.3633      39.9014    -999.2500    -999.2500     753.4740     209.3061       3.1302       3.7764       2.7674
   2189.7100       9.7780       9.7691       3.0842      54.2214      41.1914    -999.2500    -999.2500     827.8585     227.7345       2.8230       3.6260       2.7752
   2189.8625       9.7740       9.7186       2.8893      53.6371      41.1314    -999.2500    -999.2500    1127.6696     326.3254       3.0549       3.5240       2.7822
   2190.0149       9.7629       9.6773       2.8345      52.7589      40.7320    -999.2500    -999.2500    1354.4238     406.4569       3.2444       3.4208       2.7886
   2190.1672       9.7008       9.6788       3.3734      50.1324      38.7435    -999.2500    -999.2500    1239.1233     400.1604       3.2354       3.3115       2.7921
