#------------------------------------------------------------------------------
#
#   Created by  : [OpenWorks] Log Export Utility (LEXP)
#   Created on  : 2016-05-23 11:50:40
#   Project     : CANT971
#   User        : R5K
#   Interpreter : PEP
#
#------------------------------------------------------------------------------
~VERSION INFORMATION
VERS. 2.0 : CWLS Log ASCII Standard - version 2.0
WRAP.  NO : One line per depth step
~WELL INFORMATION
#MNEMONIC   .UNIT                                           VALUE :DESCRIPTION
#------------------------------------------------------------------------------
STRT        .M                                           697.2303 :START DEPTH
STOP        .M                                          3650.8948 :STOP DEPTH
STEP        .M                                             0.1524 :STEP
NULL        .                                           -999.2500 :NULL VALUE
COMP        .                                   PEMEX EXPL & PROD :COMPANY
WELL        .                                                1026 :WELL
FLD         .                                           CANTARELL :FIELD
LOC         .                                             UNKNOWN :LOCATION
CNTY        .                                      CD. DEL CARMEN :COUNTY
STAT        .                                            CAMPECHE :STATE
CTRY        .                                              MEXICO :COUNTRY
SRVC        .                                             UNKNOWN :SERVICE COMPANY
DATE        .                                             UNKNOWN :LOG DATE
UWI         .                                          3060000491 :UNIQUE WELL ID
XCOORD      .                                       596159.330000 :SURFACE X
YCOORD      .                                      2150607.710000 :SURFACE Y
LAT         .                                           19.448735 :LATITUDE
LON         .                                          -92.083932 :LONGITUDE
ELEV        .M                                            30.0000 :SURFACE ELEV
ELEV_TYPE   .                                                  KB :ELEV TYPE
~CURVE INFORMATION
#MNEMONIC.UNIT        API CODE       : CURVE DESCRIPTION
#------------------------------------------------------------------------------
DEPTH    .M                          : Measured Depth
CALI     .inches      UNKNOWN        : CALI:registros:rC:NONE:v0 (auto-composite)
DRHO     .g/cm3       UNKNOWN        : DRHO:registros:rC:NONE:v0 (auto-composite)
DT       .us/ft       UNKNOWN        : DT:registros:rC:NONE:v0 (auto-composite)
GR       .API         UNKNOWN        : GR:registros:rC:NONE:v0 (auto-composite)
ILD      .ohm.m       UNKNOWN        : ILD:registros:rC:NONE:v0 (auto-composite)
ILM      .ohm.m       UNKNOWN        : ILM:registros:rC:NONE:v0 (auto-composite)
LLD      .ohm.m       UNKNOWN        : LLD:registros:rC:NONE:v0 (auto-composite)
LLS      .ohm.m       UNKNOWN        : LLS:registros:rC:NONE:v0 (auto-composite)
MSFL     .ohm.m       UNKNOWN        : MSFL:registros:rC:NONE:v0 (auto-composite)
NPHI     .v/v_decimal UNKNOWN        : NPHI:registros:rC:NONE:v0 (auto-composite)
PEF      .b/elec      UNKNOWN        : PEF:registros:rC:NONE:v0 (auto-composite)
RHOB     .g/cm3       UNKNOWN        : RHOB:registros:rC:NONE:v0 (auto-composite)
~A     DEPTH         CALI         DRHO           DT           GR          ILD          ILM          LLD          LLS         MSFL         NPHI          PEF         RHOB
# ...
   3323.3872      10.9870       0.0125     100.6522      22.3495    -999.2500    -999.2500     607.7998     481.8203       9.6629       0.0508       3.4170       2.6414
   3323.5396      10.9740       0.0040      91.9770      24.7810    -999.2500    -999.2500     782.3730     563.2890      14.3280       0.0295       3.4220       2.7600
   3323.6919      10.8596       0.0040      83.5255      23.8134    -999.2500    -999.2500     980.7462     676.9608      13.1326       0.0254       3.3476       2.7525
   3323.8442      10.7450       0.0040      75.0590      22.8440    -999.2500    -999.2500    1179.1550     790.6530      11.9370       0.0270       3.2730       2.7450
   3323.9966      10.5000       0.0135      72.4255      23.1175    -999.2500    -999.2500    2411.3320    1517.7485      11.9570       0.0272       3.5472       2.7660
   3324.1492      10.2550       0.0230      69.7870      23.3910    -999.2500    -999.2500    3643.8850    2245.0659      11.9770       0.0275       3.8220       2.7870
   3324.3015      10.2255       0.0220      57.0630      23.0406    -999.2500    -999.2500    6588.8086    4242.1289      11.2427       0.0295       3.8085       2.7850
   3324.4539      10.1960       0.0210      44.3130      22.6900    -999.2500    -999.2500    9535.0000    6240.0518      10.5080       0.0314       3.7950       2.7830
   3324.6062      10.1450       0.0215      52.8106      20.2597    -999.2500    -999.2500    8821.9150    5880.5562      11.4312       0.0311       3.5647       2.7750
   3324.7588      10.0940       0.0220      61.3130      17.8280    -999.2500    -999.2500    8108.4331    5520.8608      12.3550       0.0305       3.3340       2.7670
   3324.9111      10.1175       0.0315      59.7475      18.1039    -999.2500    -999.2500    6228.0352    4473.6123      17.3518       0.0312       3.3430       2.7680
   3325.0635      10.1410       0.0410      58.1810      18.3800    -999.2500    -999.2500    4349.3672    3427.3269      22.3440       0.0334       3.3520       2.7690
   3325.2158      10.0430       0.0390      52.8112      19.4451    -999.2500    -999.2500    3351.3613    2710.4844      20.5543       0.0381       3.3485       2.7560
   3325.3682       9.9450       0.0370      47.4370      20.5110    -999.2500    -999.2500    2354.1479    1994.2111      18.7660       0.0408       3.3450       2.7430
   3325.5208       9.9450       0.0420      47.7309      23.8085    -999.2500    -999.2500    2365.1316    2031.1129      18.8815       0.0360       3.2955       2.7480
   3325.6731       9.9450       0.0470      48.0250      27.1090    -999.2500    -999.2500    2376.1079    2067.9900      18.9970       0.0299       3.2460       2.7530
   3325.8254       9.9450       0.0465      49.0120      26.3879    -999.2500    -999.2500    3105.6931    2921.6582      20.5769       0.0285       3.4294       2.7705
   3325.9778       9.9450       0.0460      50.0000      25.6660    -999.2500    -999.2500    3834.8821    3774.8630      22.1560       0.0291       3.6130       2.7880
   3326.1304       9.9450       0.0370      50.0000      23.1780    -999.2500    -999.2500    3237.2703    3272.4136      21.5664       0.0308       3.5835       2.7635
   3326.2827       9.9450       0.0280      50.0000      20.6870    -999.2500    -999.2500    2639.9080    2770.1741      20.9770       0.0336       3.5540       2.7390
   3326.4351       9.9450       0.0290      50.0315      21.1922    -999.2500    -999.2500    1628.7408    1788.5612      18.5621       0.0388       3.4531       2.7425
   3326.5874       9.9450       0.0300      50.0630      21.6980    -999.2500    -999.2500     617.8690     807.2350      16.1480       0.0433       3.3520       2.7460
   3326.7400       9.9615       0.0250      48.4392      28.5006    -999.2500    -999.2500     439.7267     576.7668      10.6870       0.0439       3.3645       2.7395
   3326.8923       9.9780       0.0200      46.8130      35.3130    -999.2500    -999.2500     261.6140     346.3370       5.2270       0.0433       3.3770       2.7330
   3327.0447      10.0459       0.0225      47.9056      34.3058    -999.2500    -999.2500     270.2897     356.9467       5.8245       0.0435       3.3645       2.7435
   3327.1970      10.1140       0.0250      49.0000      33.2970    -999.2500    -999.2500     278.9650     367.5560       6.4220       0.0445       3.3520       2.7540
   3327.3494      10.2094       0.0220      48.9705      29.1600    -999.2500    -999.2500     319.7173     415.0710       6.4040       0.0468       3.3600       2.7460
   3327.5020      10.3050       0.0190      48.9410      25.0160    -999.2500    -999.2500     360.4730     462.5900       6.3860       0.0499       3.3680       2.7380
   3327.6543      10.2945       0.0265      48.7267      28.9889    -999.2500    -999.2500     422.8179     527.1737       6.2360       0.0538       3.3975       2.6880
   3327.8066      10.2840       0.0340      48.5120      32.9690    -999.2500    -999.2500     485.1760     591.7710       6.0860       0.0575       3.4270       2.6380
   3327.9590      10.2450       0.0635      46.5794      32.5431    -999.2500    -999.2500     700.9108     811.5261       6.0995       0.0597       3.5259       2.6460
   3328.1116      10.2060       0.0930      44.6430      32.1170    -999.2500    -999.2500     916.7180    1031.3550       6.1130       0.0626       3.6250       2.6540
   3328.2639      10.1755       0.0910      38.2656      30.3859    -999.2500    -999.2500    1361.2340    1386.9515       6.2715       0.0687       3.6225       2.6880
   3328.4163      10.1450       0.0890      31.8750      28.6540    -999.2500    -999.2500    1805.9550    1742.7120       6.4300       0.0745       3.6200       2.7220
   3328.5686      10.1135       0.0760      32.3749      26.0308    -999.2500    -999.2500    1372.2223    1337.7209       7.1238       0.0761       3.5870       2.6945
   3328.7212      10.0820       0.0630      32.8750      23.4060    -999.2500    -999.2500     938.2350     932.4920       7.8180       0.0755       3.5540       2.6670
   3328.8735      10.0605       0.0445      32.0003      28.0448    -999.2500    -999.2500     944.1686     934.0092       9.9489       0.0734       3.3727       2.6685
   3329.0259      10.0390       0.0260      31.1250      32.6870    -999.2500    -999.2500     950.0970     935.5250      12.0780       0.0694       3.1910       2.6700
   3329.1782      10.1210       0.0160      31.6198      32.1257    -999.2500    -999.2500    1405.0621    1264.6931      11.6443       0.0616       3.2130       2.6785
   3329.3306      10.2030       0.0060      32.1150      31.5640    -999.2500    -999.2500    1859.6801    1593.6100      11.2110       0.0534       3.2350       2.6870
   3329.4832      10.1720       0.0060      33.7802      27.2061    -999.2500    -999.2500    1542.1012    1267.8640       9.8081       0.0476       3.3140       2.7035
   3329.6355      10.1410       0.0060      35.4470      22.8440    -999.2500    -999.2500    1224.7250     942.3260       8.4060       0.0431       3.3930       2.7200
   3329.7878      10.1505       0.0070      36.3710      24.5930    -999.2500    -999.2500    1237.5393     946.4680       8.5930       0.0394       3.4874       2.7345
   3329.9402      10.1600       0.0080      37.2960      26.3440    -999.2500    -999.2500    1250.3470     950.6080       8.7800       0.0358       3.5820       2.7490
   3330.0928      10.1895       0.0100      39.4832      25.7194    -999.2500    -999.2500    3323.2202    2071.4060      10.2418       0.0318       3.5500       2.7595
   3330.2451      10.2190       0.0120      41.6730      25.0940    -999.2500    -999.2500    5395.2910    3191.7700      11.7030       0.0287       3.5180       2.7700
   3330.3975      10.2190       0.0095      44.1823      25.2344    -999.2500    -999.2500    5070.6509    3025.9258      11.2889       0.0283       3.3471       2.7640
   3330.5498      10.2190       0.0070      46.6950      25.3750    -999.2500    -999.2500    4746.0952    2860.1250      10.8750       0.0296       3.1760       2.7580
