#------------------------------------------------------------------------------
#
#   Created by  : [OpenWorks] Log Export Utility (LEXP)
#   Created on  : 2016-05-23 11:50:53
#   Project     : CANT971
#   User        : R5K
#   Interpreter : PEP
#
#------------------------------------------------------------------------------
~VERSION INFORMATION
VERS. 2.0 : CWLS Log ASCII Standard - version 2.0
WRAP.  NO : One line per depth step
~WELL INFORMATION
#MNEMONIC   .UNIT                                           VALUE :DESCRIPTION
#------------------------------------------------------------------------------
STRT        .M                                           494.4622 :START DEPTH
STOP        .M                                          2707.4626 :STOP DEPTH
STEP        .M                                             0.1524 :STEP
NULL        .                                           -999.2500 :NULL VALUE
COMP        .                                   PEMEX EXPL & PROD :COMPANY
WELL        .                                                1042 :WELL
FLD         .                                           CANTARELL :FIELD
LOC         .                                             UNKNOWN :LOCATION
CNTY        .                                      CD. DEL CARMEN :COUNTY
STAT        .                                            CAMPECHE :STATE
CTRY        .                                              MEXICO :COUNTRY
SRVC        .                                             UNKNOWN :SERVICE COMPANY
DATE        .                                             UNKNOWN :LOG DATE
UWI         .                                          3060000495 :UNIQUE WELL ID
XCOORD      .                                       596162.680000 :SURFACE X
YCOORD      .                                      2150604.600000 :SURFACE Y
LAT         .                                           19.448706 :LATITUDE
LON         .                                          -92.083900 :LONGITUDE
ELEV        .M                                            30.0000 :SURFACE ELEV
ELEV_TYPE   .                                                  KB :ELEV TYPE
~CURVE INFORMATION
#MNEMONIC.UNIT        API CODE       : CURVE DESCRIPTION
#------------------------------------------------------------------------------
DEPTH    .M                          : Measured Depth
CALI     .inches      UNKNOWN        : CALI:litodensidad:rC:NONE:v0 (auto-composite)
DT       .us/ft       UNKNOWN        : DT:DT:rC:NONE:v0 (auto-composite)
GR       .API         UNKNOWN        : GR:GR-Load:rC:NONE:v0 (auto-composite)
ILD      .ohmm        UNKNOWN        : ILD:UNKNOWN:rC:NONE:v0 (auto-composite)
LLD      .ohmm        UNKNOWN        : LLD:UNKNOWN:rC:NONE:v0 (auto-composite)
LLS      .ohmm        UNKNOWN        : LLS:UNKNOWN:rC:NONE:v0 (auto-composite)
MSFL     .ohmm        UNKNOWN        : MSFL:UNKNOWN:rC:NONE:v0 (auto-composite)
NPHI     .v/v_decimal UNKNOWN        : NPHI:NPHI:rC:NONE:v0 (auto-composite)
~A     DEPTH         CALI           DT           GR          ILD          LLD          LLS         MSFL         NPHI
# ...
   2113.8647    -999.2500    -999.2500      21.9404       0.2000     163.7101     116.7496      89.5469       0.1012
   2114.0171    -999.2500    -999.2500      20.9075       0.2000     166.7686     117.9409      85.9352       0.0969
   2114.1694    -999.2500    -999.2500      20.7343       0.2000     169.1799     118.8005     105.9611       0.0930
   2114.3218    -999.2500    -999.2500      21.4210       0.2000     162.6337     115.0687     453.1114       0.0894
   2114.4744    -999.2500    -999.2500      22.0733       0.2000     156.9690     112.0858     756.9049       0.0905
   2114.6267    -999.2500    -999.2500      22.6910       0.2000     162.5089     118.6229     509.5808       0.0964
   2114.7791    -999.2500    -999.2500      22.1043       0.2000     168.8743     125.9418     272.9704       0.1064
   2114.9314    -999.2500    -999.2500      20.3120       0.2000     184.9338     142.4411     162.1668       0.1206
   2115.0837    -999.2500    -999.2500      19.9386       0.2000     199.2884     157.3681      60.8175       0.1260
   2115.2363    -999.2500    -999.2500      20.9900       0.2000     195.0556     155.1560      62.5373       0.1225
   2115.3887    -999.2500    -999.2500      20.5141       0.2000     189.2863     152.0667      62.9716       0.1163
   2115.5410    -999.2500    -999.2500      18.5090       0.2000     167.8971     140.0610      50.3397       0.1073
   2115.6934    -999.2500    -999.2500      18.3957       0.2000     148.0931     128.4292      37.9759       0.1071
   2115.8459    -999.2500    -999.2500      20.1834       0.2000     143.6558     120.4210      28.2114       0.1156
   2115.9983    -999.2500    -999.2500      21.0151       0.2000     136.3216     110.6330      19.5411       0.1254
   2116.1506    -999.2500    -999.2500      20.8891       0.2000     102.6382      84.6565      20.8247       0.1365
   2116.3030    -999.2500    -999.2500      20.1465       0.2000      72.6039      61.5966      22.1056       0.1487
   2116.4556    -999.2500    -999.2500      18.7840       0.2000      73.8077      63.5049      23.3641       0.1620
   2116.6079    -999.2500    -999.2500      18.3216       0.2000      81.2787      69.2924      24.4809       0.1718
   2116.7603    -999.2500    -999.2500      18.7615       0.2000     139.3837     106.4219      24.4523       0.1780
   2116.9126    -999.2500    -999.2500      19.3827       0.2000     192.9894     140.3461      24.0999       0.1804
   2117.0649    -999.2500    -999.2500      20.1865       0.2000     212.2001     149.7692      21.2720       0.1789
   2117.2175    -999.2500    -999.2500      20.9803       0.2000     227.6871     156.6571      21.0869       0.1674
   2117.3699    -999.2500    -999.2500      21.7641       0.2000     216.1810     145.1669      40.0588       0.1459
   2117.5222    -999.2500    -999.2500      21.9003       0.2000     198.8519     130.5623      54.9398       0.1357
   2117.6746    -999.2500    -999.2500      21.3891       0.2000     140.8260      94.1899      41.2288       0.1368
   2117.8271    -999.2500    -999.2500      22.9377       0.2000      90.5102      62.8447      29.2978       0.1481
   2117.9795    -999.2500    -999.2500      26.5530       0.2000      91.4684      64.9310      29.2046       0.1695
   2118.1318    -999.2500    -999.2500      29.5688       0.2000     846.8690     795.8697      29.0603       0.1736
   2118.2842    -999.2500    -999.2500      31.9847       0.2000    6384.6807    6147.0039      28.5925       0.1605
   2118.4368    -999.2500    -999.2500      30.9295       0.2000   13516.6240   13947.0615      27.9395       0.1491
   2118.5891    -999.2500    -999.2500      26.3898       0.2000   30296.3613   36568.1680      26.1655       0.1393
   2118.7415    -999.2500    -999.2500      22.9340       0.2000   44841.5625   56099.5547      23.7128       0.1399
   2118.8938    -999.2500    -999.2500      20.5631       0.2000   46456.1406   57751.6211      17.3323       0.1508
   2119.0461    -999.2500    -999.2500      19.7501       0.2000   46887.8945   58085.1211      13.4506       0.1452
   2119.1987    -999.2500    -999.2500      20.5019       0.2000   40684.1445   51021.6289      23.5872       0.1231
   2119.3511    -999.2500    -999.2500      21.1574       0.2000   33380.1914   42418.6484      31.8057       0.1035
   2119.5034    -999.2500    -999.2500      21.7167       0.2000   20161.2852   25539.0469      29.7124       0.0863
   2119.6558    -999.2500    -999.2500      22.2417       0.2000    8354.8994   10477.0439      26.5818       0.0794
   2119.8083    -999.2500    -999.2500      22.7324       0.2000    3835.0017    4791.1592      18.1003       0.0828
   2119.9607    -999.2500    -999.2500      24.5791       0.2000      75.7168      61.0828      11.3694       0.0936
   2120.1130    -999.2500    -999.2500      27.7842       0.2000      85.4046      67.2093      13.3133       0.1118
   2120.2654    -999.2500    -999.2500      28.2160       0.2000     122.6133      91.1447      29.3467       0.1121
   2120.4180    -999.2500    -999.2500      25.8596       0.2000     290.9545     199.9373     112.5142       0.0945
   2120.5703    -999.2500    -999.2500      24.8165       0.2000     408.1677     275.1589     194.6527       0.0804
   2120.7227    -999.2500    -999.2500      25.0899       0.2000     290.8925     196.4137     272.0718       0.0697
   2120.8750    -999.2500    -999.2500      25.1552       0.2000     183.9586     124.5672     310.4872       0.0649
   2121.0273    -999.2500    -999.2500      25.0111       0.2000     123.2082      83.5299     174.7149       0.0661
   2121.1799    -999.2500    -999.2500      24.2557       0.2000      73.6724      49.9676      59.5918       0.0837
   2121.3323    -999.2500    -999.2500      22.8872       0.2000      72.4175      48.5863      33.3671       0.1177
   2121.4846    -999.2500    -999.2500      22.6386       0.2000      71.2174      48.2858      13.6876       0.1460
   2121.6370    -999.2500    -999.2500      23.5097       0.2000      70.2452      52.4744      21.1944       0.1684
   2121.7896    -999.2500    -999.2500      24.6311       0.2000      75.3781      60.4516      28.4019       0.1823
   2121.9419    -999.2500    -999.2500      26.0036       0.2000     104.9952      83.6228      34.4091       0.1878
   2122.0942    -999.2500    -999.2500      27.7551       0.2000     128.0824     101.6741      41.8967       0.1861
   2122.2466    -999.2500    -999.2500      29.8856       0.2000     125.8660      99.8856      55.1213       0.1773
   2122.3992    -999.2500    -999.2500      30.1857       0.2000     119.9221      95.5269      60.8534       0.1630
   2122.5515    -999.2500    -999.2500      28.6481       0.2000      99.8765      81.4448      38.2407       0.1433
   2122.7039    -999.2500    -999.2500      27.2276       0.2000      85.2447      71.3652      23.9023       0.1292
   2122.8562    -999.2500    -999.2500      25.9242       0.2000      90.4245      75.9323      39.8440       0.1204
   2123.0085    -999.2500    -999.2500      23.8543       0.2000      98.8628      81.3957      84.0920       0.1135
   2123.1611    -999.2500    -999.2500      21.0148       0.2000     118.8432      90.0337     228.6060       0.1084
   2123.3135    -999.2500    -999.2500      22.7788       0.2000     131.0986      94.7819     319.2906       0.1049
   2123.4658    -999.2500    -999.2500      29.1531       0.2000     116.8527      86.1861     225.3066       0.1031
   2123.6182    -999.2500    -999.2500      37.8236       0.2000     113.9223      85.8389     138.0662       0.1038
   2123.7708    -999.2500    -999.2500      48.8016       0.2000     148.6097     112.9132      73.2444       0.1070
   2123.9231    -999.2500    -999.2500      61.9300       0.2000     201.6944     149.6179      23.9670       0.1104
   2124.0754    -999.2500    -999.2500      77.2129       0.2000     314.6053     217.6395      25.2386       0.1142
   2124.2278    -999.2500    -999.2500      83.0253       0.2000     369.3338     247.7029      26.2215       0.1138
