#------------------------------------------------------------------------------
#
#   Created by  : [OpenWorks] Log Export Utility (LEXP)
#   Created on  : 2016-05-23 11:57:11
#   Project     : CANT971
#   User        : R5K
#   Interpreter : PEP
#
#------------------------------------------------------------------------------
~VERSION INFORMATION
VERS. 2.0 : CWLS Log ASCII Standard - version 2.0
WRAP.  NO : One line per depth step
~WELL INFORMATION
#MNEMONIC   .UNIT                                           VALUE :DESCRIPTION
#------------------------------------------------------------------------------
STRT        .M                                           319.2782 :START DEPTH
STOP        .M                                          2532.8882 :STOP DEPTH
STEP        .M                                             0.1524 :STEP
NULL        .                                           -999.2500 :NULL VALUE
COMP        .                                   PEMEX EXPL & PROD :COMPANY
WELL        .                                                 73A :WELL
FLD         .                                           CANTARELL :FIELD
LOC         .                                             UNKNOWN :LOCATION
CNTY        .                                      CD. DEL CARMEN :COUNTY
STAT        .                                            CAMPECHE :STATE
CTRY        .                                              MEXICO :COUNTRY
SRVC        .                                             UNKNOWN :SERVICE COMPANY
DATE        .                                             UNKNOWN :LOG DATE
UWI         .                                          3060000177 :UNIQUE WELL ID
XCOORD      .                                       599722.890000 :SURFACE X
YCOORD      .                                      2147218.550000 :SURFACE Y
LAT         .                                           19.417934 :LATITUDE
LON         .                                          -92.050165 :LONGITUDE
ELEV        .M                                            27.8000 :SURFACE ELEV
ELEV_TYPE   .                                                  KB :ELEV TYPE
~CURVE INFORMATION
#MNEMONIC.UNIT        API CODE       : CURVE DESCRIPTION
#------------------------------------------------------------------------------
DEPTH    .M                          : Measured Depth
CALI     .inches      UNKNOWN        : CALI:registros:rC:NONE:v0 (auto-composite)
DRHO     .g/cm3       UNKNOWN        : DRHO:registros:rC:NONE:v0 (auto-composite)
DT       .UNKNOWN     UNKNOWN        : DT:registros:rC:NONE:v0 (auto-composite)
GR       .API         UNKNOWN        : GR:registros:rC:NONE:v0 (auto-composite)
ILD      .ohm.m       UNKNOWN        : ILD:registros:rC:NONE:v0 (auto-composite)
LLD      .ohm.m       UNKNOWN        : LLD:registros:rC:NONE:v0 (auto-composite)
LLS      .ohm.m       UNKNOWN        : LLS:registros:rC:NONE:v0 (auto-composite)
MSFL     .ohm.m       UNKNOWN        : MSFL:registros:rC:NONE:v0 (auto-composite)
RHOB     .g/cm3       UNKNOWN        : RHOB:registros:rC:NONE:v0 (auto-composite)
~A     DEPTH         CALI         DRHO           DT           GR          ILD          LLD          LLS         MSFL         RHOB
# ...
   2407.4629       6.7700    -999.2500      79.4263      81.3997    -999.2500      53.5270      76.5955      63.5269       2.4150
   2407.6155       6.7800    -999.2500      75.8000      81.7000    -999.2500      52.9500      79.6000      61.9580       2.4240
   2407.7678       6.7800    -999.2500      76.5064      81.2830    -999.2500      41.6654      77.4846      51.4159       2.4375
   2407.9202       6.7800    -999.2500      77.2110      80.8650    -999.2500      30.3000      75.3540      40.9000       2.4510
   2408.0725       6.7800    -999.2500      81.3604      79.3344    -999.2500      30.7165      70.0961      49.1327       2.4625
   2408.2251       6.7800    -999.2500      85.5000      77.8000    -999.2500      31.1360      64.8000      57.3460       2.4740
   2408.3774       6.7351    -999.2500      84.1665      77.8000    -999.2500      35.3728      71.3821     168.2970       2.4920
   2408.5298       6.6900    -999.2500      82.8360      77.8000    -999.2500      39.6410      78.0130     279.0000       2.5100
   2408.6821       6.7598    -999.2500      76.9118      78.2058    -999.2500      61.1894     105.4034     255.7660       2.4985
   2408.8347       6.8300    -999.2500      71.0000      78.6120    -999.2500      82.9000     133.0000     232.5810       2.4870
   2408.9871       6.8285    -999.2500      72.2392      80.8047    -999.2500      77.8693     125.0305     197.3190       2.4570
   2409.1394       6.8270    -999.2500      73.4760      83.0000    -999.2500      72.8000     117.0000     162.1270       2.4270
   2409.2917       6.8185    -999.2500      76.7216      82.6003    -999.2500      74.9173     117.1449     135.5388       2.3935
   2409.4441       6.8100    -999.2500      79.9560      82.2000    -999.2500      77.0510     117.2910     109.0000       2.3600
   2409.5967       6.7970    -999.2500      83.7844      83.8988    -999.2500      86.2890     124.5254     121.0309       2.3660
   2409.7490       6.7840    -999.2500      87.6000      85.6000    -999.2500      95.6000     131.8170     133.0410       2.3720
   2409.9014       6.7271    -999.2500      87.0997      85.4531    -999.2500     113.8119     149.2435     195.1200       2.3910
   2410.0537       6.6700    -999.2500      86.6010      85.3060    -999.2500     132.1700     166.8100     257.0000       2.4100
   2410.2063       6.6775    -999.2500      84.9980      84.2754    -999.2500     163.9552     185.8274     254.4250       2.4070
   2410.3586       6.6850    -999.2500      83.4000      83.2430    -999.2500     196.0000     205.0000     251.8580       2.4040
   2410.5110       6.7324    -999.2500      83.6073      79.9745    -999.2500     192.9377     201.4648     244.7785       2.3820
   2410.6633       6.7800    -999.2500      83.8140      76.7000    -999.2500     189.8550     197.9060     237.7200       2.3600
   2410.8159       6.7251    -999.2500      84.4078      76.7000    -999.2500     171.0514     182.9160     212.5684       2.3645
   2410.9683       6.6700    -999.2500      85.0000      76.7000    -999.2500     152.1200     167.8240     187.4880       2.3690
   2411.1206       6.6730    -999.2500      84.7617      76.7000    -999.2500     101.3360     144.5252     159.0330       2.3815
   2411.2729       6.6760    -999.2500      84.5240      76.7000    -999.2500      50.2000     121.0650     130.6550       2.3940
   2411.4253       6.7279    -999.2500      82.6501      76.7000    -999.2500      52.3948      96.1703     112.8545       2.4090
   2411.5779       6.7800    -999.2500      80.7810      76.7000    -999.2500      54.6050      71.1000      95.1000       2.4240
   2411.7302       6.7695    -999.2500      76.2349      76.7000    -999.2500      75.0790      72.2459     128.0905       2.4370
   2411.8826       6.7590    -999.2500      71.7000      76.7000    -999.2500      95.7000      73.4000     161.0000       2.4500
   2412.0349       6.7146    -999.2500      72.3012      76.7000    -999.2500      93.6873      70.6182     149.1687       2.4455
   2412.1875       6.6700    -999.2500      72.9010      76.7000    -999.2500      91.6600      67.8160     137.3650       2.4410
   2412.3398       6.6700    -999.2500      74.8557      87.7945    -999.2500      69.6618      59.0406     120.1045       2.4205
   2412.4922       6.6700    -999.2500      76.8060      98.9000    -999.2500      47.5000      50.2000     102.8820       2.4000
   2412.6445       6.6865    -999.2500      79.8562      98.8545    -999.2500      48.2691      50.2000      81.1684       2.4100
   2412.7971       6.7030    -999.2500      82.9000      98.8090    -999.2500      49.0440      50.2000      59.5000       2.4200
   2412.9495       6.7394    -999.2500      82.8500      98.3048    -999.2500      55.2457      51.1972      98.7884       2.4155
   2413.1018       6.7760    -999.2500      82.8000      97.8000    -999.2500      61.4950      52.2020     138.0000       2.4110
   2413.2542       6.8329    -999.2500      83.4095      98.1498    -999.2500      75.3210      57.4864     136.4376       2.3905
   2413.4065       6.8900    -999.2500      84.0170      98.5000    -999.2500      89.2550      62.8120     134.8780       2.3700
   2413.5591       6.8595    -999.2500      87.4642      97.2010    -999.2500     101.5786      87.3087     128.9985       2.3750
   2413.7114       6.8290    -999.2500      90.9000      95.9000    -999.2500     114.0000     112.0000     123.1290       2.3800
   2413.8638       6.7546    -999.2500      90.6496      97.0491    -999.2500     109.8597     110.7500     114.7507       2.3785
   2414.0161       6.6800    -999.2500      90.4000      98.2000    -999.2500     105.6860     109.4900     106.3990       2.3770
   2414.1687       6.7099    -999.2500      90.9073      98.1845    -999.2500      92.8705     100.9863      97.5645       2.3680
   2414.3210       6.7400    -999.2500      91.4130      98.1690    -999.2500      79.9500      92.4130      88.7570       2.3590
   2414.4734       6.7051    -999.2500      93.4094      96.8502    -999.2500      66.9650      78.7085      68.9040       2.3450
   2414.6257       6.6700    -999.2500      95.4000      95.5290    -999.2500      53.8930      64.9120      49.1090       2.3310
   2414.7783       6.6825    -999.2500      95.1061      92.7832    -999.2500      47.3394      53.7940      32.8818       2.3155
   2414.9307       6.6950    -999.2500      94.8130      90.0320    -999.2500      40.7410      42.6000      16.7000       2.3000
   2415.0830       6.7374    -999.2500      93.6985      87.2689    -999.2500      37.4524      43.9453      21.9070       2.3075
   2415.2354       6.7800    -999.2500      92.5870      84.5000    -999.2500      34.1410      45.3000      27.1000       2.3150
   2415.3877       6.8648    -999.2500      90.2906      84.7023    -999.2500      31.2308      42.3106      25.7983       2.3425
   2415.5403       6.9500    -999.2500      88.0000      84.9050    -999.2500      28.3000      39.3000      24.5000       2.3700
   2415.6926       6.8402    -999.2500      89.2015      85.5517    -999.2500      28.5287      39.5451      25.4997       2.3620
   2415.8450       6.7300    -999.2500      90.4000      86.2000    -999.2500      28.7590      39.7920      26.4970       2.3540
   2415.9973       6.7425    -999.2500      95.4153      85.8724    -999.2500      29.8365      40.2060      32.2596       2.3170
   2416.1499       6.7550    -999.2500     100.4190      85.5440    -999.2500      30.9220      40.6230      38.0090       2.2800
   2416.3022       6.8024    -999.2500     108.7185      84.5770    -999.2500      33.0929      42.2494      76.0458       2.2815
   2416.4546       6.8500    -999.2500     117.0000      83.6090    -999.2500      35.2800      43.8880     114.0000       2.2830
   2416.6069       6.9248    -999.2500     114.0880      82.4552    -999.2500      40.8763      51.4663     109.4954       2.2950
   2416.7593       7.0000    -999.2500     111.1820      81.3000    -999.2500      46.5150      59.1020     105.0000       2.3070
